{"data":[[{"distance":0,"i_long":106.857948,"station_name":"Tebet","line":2,"transit":false,"station_id":"TEB","is_transit":false,"time":0,"i_lat":-6.226659},{"i_long":106.84912,"station_name":"Manggarai","is_transit":true,"distance":2610,"i_lat":-6.209883,"transit":true,"time":4,"station_id":"MRI","line":2},{"station_name":"Matraman","i_long":106.858896,"is_transit":false,"transit":false,"time":2,"distance":1275,"i_lat":-6.212485,"line":1,"station_id":"MTR"},{"i_lat":-6.215091,"is_transit":false,"time":8,"distance":1377,"line":1,"station_id":"JNG","transit":false,"i_long":106.86807400000001,"station_name":"Jatinegara"},{"i_long":106.899548,"i_lat":-6.2135,"transit":false,"station_name":"Klender","time":3,"is_transit":false,"line":1,"distance":3395,"station_id":"KLD"},{"time":2,"distance":3100,"i_long":106.922662,"transit":false,"station_name":"Buaran","station_id":"BUA","i_lat":-6.215568,"line":1,"is_transit":false},{"station_id":"KLDB","time":1,"distance":1305,"is_transit":false,"station_name":"Klenderbaru","i_lat":-6.217455,"line":1,"i_long":106.939679,"transit":false},{"station_id":"CUK","time":8,"distance":1385,"line":1,"is_transit":false,"transit":false,"i_long":106.951283,"station_name":"Cakung","i_lat":-6.219053},{"i_lat":-6.224515,"station_id":"KRI","distance":3097,"i_long":106.977657,"station_name":"Kranji","is_transit":false,"transit":false,"time":3,"line":1},{"transit":false,"distance":2520,"station_id":"BKS","i_lat":-6.236616,"line":1,"is_transit":false,"time":4,"i_long":106.997013,"station_name":"Bekasi"},{"is_transit":false,"time":2,"station_name":"Bekasi Timur","i_lat":-6.248029,"i_long":107.016735,"line":1,"distance":2368,"station_id":"BKST","transit":false},{"transit":false,"distance":4460,"is_transit":false,"line":1,"i_long":107.055722,"time":7,"station_name":"Tambun","i_lat":-6.258864,"station_id":"TB"},{"station_name":"Cibitung","is_transit":false,"distance":3420,"i_lat":-6.261877,"station_id":"CIT","line":1,"i_long":107.083084,"time":3,"transit":false}],[{"time":0,"transit":false,"station_id":"TEB","station_name":"Tebet","distance":0,"line":2,"i_lat":-6.226659,"is_transit":false,"i_long":106.857948},{"station_name":"Manggarai","line":2,"i_lat":-6.209883,"transit":true,"time":4,"station_id":"MRI","distance":2610,"i_long":106.84912,"is_transit":true},{"time":4,"is_transit":false,"line":1,"i_lat":-6.202263,"station_id":"SUD","station_name":"Sudirman","i_long":106.822649,"transit":false,"distance":3186},{"i_lat":-6.201433,"i_long":106.819881,"time":1,"station_name":"Sudirman Baru","line":1,"is_transit":false,"transit":false,"station_id":"SUDB","distance":280},{"transit":false,"is_transit":false,"station_id":"KAT","i_long":106.816351,"station_name":"Karet","distance":471,"line":1,"i_lat":-6.20132,"time":1},{"station_name":"Tanah Abang","time":5,"line":1,"distance":2029,"is_transit":false,"i_lat":-6.185545,"station_id":"THB","transit":false,"i_long":106.811091},{"line":1,"i_long":106.800832,"is_transit":false,"transit":false,"station_id":"DU","distance":3632,"station_name":"Duri","time":8,"i_lat":-6.155215},{"time":4,"i_lat":-6.144674,"is_transit":false,"distance":1230,"i_long":106.79867,"station_name":"Angke","station_id":"AK","transit":false,"line":1},{"station_name":"Kampung Bandan","time":9,"distance":4102,"station_id":"KPB","transit":true,"i_lat":-6.132549,"i_long":106.826365,"line":4,"is_transit":true},{"line":11,"transit":false,"distance":1444,"i_lat":-6.14505,"station_id":"RJW","is_transit":false,"station_name":"Rajawali","i_long":106.836569,"time":3},{"transit":false,"is_transit":false,"station_id":"KMO","i_long":106.839204,"time":5,"line":11,"i_lat":-6.161728,"station_name":"Kemayoran","distance":1901},{"is_transit":false,"station_id":"PSE","line":11,"transit":false,"time":4,"distance":1436,"i_long":106.84368,"station_name":"Pasar Senen","i_lat":-6.174784},{"station_name":"Gang Sentiong","transit":false,"i_lat":-6.185975,"is_transit":false,"time":8,"station_id":"GST","distance":1567,"i_long":106.850107,"line":11},{"i_lat":-6.193792,"i_long":106.855437,"is_transit":false,"distance":973,"station_name":"Kramat","line":11,"station_id":"KMT","transit":false,"time":1},{"i_lat":-6.209188,"time":2,"is_transit":false,"line":11,"station_id":"POK","station_name":"Pondok Jati","i_long":106.861737,"distance":1829,"transit":false},{"station_name":"Jatinegara","i_lat":-6.215091,"line":1,"station_id":"JNG","distance":1236,"transit":true,"time":9,"i_long":106.86807400000001,"is_transit":true},{"line":1,"transit":false,"i_lat":-6.2135,"i_long":106.899548,"is_transit":false,"station_name":"Klender","station_id":"KLD","distance":3395,"time":3},{"i_lat":-6.215568,"station_name":"Buaran","is_transit":false,"i_long":106.922662,"line":1,"station_id":"BUA","time":2,"distance":3100,"transit":false},{"line":1,"distance":1305,"transit":false,"station_name":"Klenderbaru","time":1,"i_long":106.939679,"is_transit":false,"i_lat":-6.217455,"station_id":"KLDB"},{"station_name":"Cakung","station_id":"CUK","is_transit":false,"time":8,"line":1,"transit":false,"i_long":106.951283,"i_lat":-6.219053,"distance":1385},{"station_name":"Kranji","station_id":"KRI","i_lat":-6.224515,"i_long":106.977657,"is_transit":false,"distance":3097,"line":1,"time":3,"transit":false},{"i_long":106.997013,"i_lat":-6.236616,"is_transit":false,"station_name":"Bekasi","time":4,"transit":false,"station_id":"BKS","distance":2520,"line":1},{"distance":2368,"time":2,"line":1,"i_lat":-6.248029,"station_name":"Bekasi Timur","station_id":"BKST","i_long":107.016735,"is_transit":false,"transit":false},{"station_id":"TB","transit":false,"is_transit":false,"station_name":"Tambun","i_lat":-6.258864,"line":1,"time":7,"i_long":107.055722,"distance":4460},{"time":3,"distance":3420,"i_lat":-6.261877,"transit":false,"station_id":"CIT","station_name":"Cibitung","is_transit":false,"i_long":107.083084,"line":1}],[{"transit":false,"distance":0,"line":2,"station_name":"Tebet","is_transit":false,"station_id":"TEB","i_lat":-6.226659,"time":0,"i_long":106.857948},{"line":2,"i_lat":-6.209883,"station_name":"Manggarai","time":4,"is_transit":false,"i_long":106.84912,"transit":false,"station_id":"MRI","distance":2610},{"line":2,"is_transit":false,"i_lat":-6.198556,"i_long":106.840169,"distance":1590,"station_id":"CKI","station_name":"Cikini","transit":false,"time":4},{"is_transit":false,"i_lat":-6.186295,"time":3,"i_long":106.832183,"station_id":"GDD","transit":false,"distance":1750,"line":2,"station_name":"Gondangdia"},{"time":4,"i_lat":-6.166716,"line":2,"transit":false,"is_transit":false,"distance":2015,"station_id":"JUA","station_name":"Juanda","i_long":106.828284},{"is_transit":false,"time":2,"distance":1149,"line":2,"transit":false,"i_long":106.827103,"station_name":"Sawah Besar","station_id":"SW","i_lat":-6.160725},{"distance":906,"station_id":"MGB","station_name":"Manggabesar","line":2,"i_lat":-6.149769,"transit":false,"i_long":106.82482,"is_transit":false,"time":2},{"i_lat":-6.141205,"i_long":106.820901,"time":2,"is_transit":false,"station_name":"Jayakarta","distance":1080,"line":2,"transit":false,"station_id":"JAY"},{"is_transit":true,"i_long":106.812439,"i_lat":-6.137569,"station_id":"JAKK","distance":1264,"line":2,"transit":true,"station_name":"Jakarta Kota","time":4},{"station_name":"Kampung Bandan","time":3,"i_long":106.826365,"line":4,"station_id":"KPB","transit":true,"is_transit":true,"distance":1364,"i_lat":-6.132549},{"station_name":"Rajawali","is_transit":false,"time":3,"distance":1444,"station_id":"RJW","i_lat":-6.14505,"i_long":106.836569,"line":11,"transit":false},{"is_transit":false,"transit":false,"station_name":"Kemayoran","station_id":"KMO","distance":1901,"i_lat":-6.161728,"i_long":106.839204,"time":5,"line":11},{"i_long":106.84368,"is_transit":false,"transit":false,"station_name":"Pasar Senen","station_id":"PSE","distance":1436,"i_lat":-6.174784,"time":4,"line":11},{"transit":false,"i_lat":-6.185975,"is_transit":false,"line":11,"station_id":"GST","i_long":106.850107,"time":8,"distance":1567,"station_name":"Gang Sentiong"},{"station_name":"Kramat","transit":false,"time":1,"is_transit":false,"station_id":"KMT","i_lat":-6.193792,"i_long":106.855437,"line":11,"distance":973},{"station_id":"POK","line":11,"station_name":"Pondok Jati","is_transit":false,"transit":false,"time":2,"distance":1829,"i_lat":-6.209188,"i_long":106.861737},{"station_id":"JNG","i_long":106.86807400000001,"transit":true,"station_name":"Jatinegara","line":1,"is_transit":true,"distance":1236,"i_lat":-6.215091,"time":9},{"is_transit":false,"i_lat":-6.2135,"time":3,"i_long":106.899548,"station_id":"KLD","line":1,"station_name":"Klender","transit":false,"distance":3395},{"i_long":106.922662,"line":1,"station_id":"BUA","station_name":"Buaran","distance":3100,"i_lat":-6.215568,"transit":false,"is_transit":false,"time":2},{"transit":false,"time":1,"station_name":"Klenderbaru","station_id":"KLDB","is_transit":false,"i_long":106.939679,"distance":1305,"i_lat":-6.217455,"line":1},{"transit":false,"station_id":"CUK","i_lat":-6.219053,"line":1,"distance":1385,"i_long":106.951283,"station_name":"Cakung","time":8,"is_transit":false},{"i_long":106.977657,"transit":false,"line":1,"station_name":"Kranji","time":3,"is_transit":false,"i_lat":-6.224515,"station_id":"KRI","distance":3097},{"station_id":"BKS","line":1,"station_name":"Bekasi","i_long":106.997013,"i_lat":-6.236616,"transit":false,"is_transit":false,"time":4,"distance":2520},{"time":2,"is_transit":false,"distance":2368,"i_long":107.016735,"transit":false,"i_lat":-6.248029,"line":1,"station_name":"Bekasi Timur","station_id":"BKST"},{"station_id":"TB","i_lat":-6.258864,"line":1,"time":7,"is_transit":false,"station_name":"Tambun","distance":4460,"i_long":107.055722,"transit":false},{"line":1,"station_name":"Cibitung","station_id":"CIT","time":3,"i_lat":-6.261877,"transit":false,"distance":3420,"is_transit":false,"i_long":107.083084}]]}