{"data":[[{"transit":false,"time":0,"station_id":"TEB","i_lat":-6.226659,"i_long":106.857948,"line":2,"distance":0,"station_name":"Tebet","is_transit":false},{"distance":2610,"transit":true,"i_long":106.84912,"time":4,"station_name":"Manggarai","is_transit":true,"i_lat":-6.209883,"station_id":"MRI","line":2},{"time":4,"distance":3186,"station_name":"Sudirman","transit":false,"i_lat":-6.202263,"line":1,"station_id":"SUD","i_long":106.822649,"is_transit":false},{"is_transit":false,"line":1,"distance":280,"station_name":"Sudirman Baru","transit":false,"time":1,"i_long":106.819881,"station_id":"SUDB","i_lat":-6.201433},{"station_name":"Karet","station_id":"KAT","i_long":106.816351,"is_transit":false,"distance":471,"line":1,"time":1,"transit":false,"i_lat":-6.20132},{"station_id":"THB","station_name":"Tanah Abang","i_long":106.811091,"time":5,"distance":2029,"transit":true,"line":1,"is_transit":true,"i_lat":-6.185545},{"i_long":106.79689,"transit":false,"station_name":"Palmerah","i_lat":-6.207404,"line":6,"time":6,"is_transit":false,"distance":3191,"station_id":"PLM"},{"line":6,"is_transit":false,"time":7,"station_id":"KBY","i_lat":-6.237242,"i_long":106.780334,"distance":3737,"station_name":"Kebayoran","transit":false}],[{"time":0,"station_id":"TEB","transit":false,"distance":0,"is_transit":false,"line":2,"i_lat":-6.226659,"i_long":106.857948,"station_name":"Tebet"},{"time":4,"distance":2610,"is_transit":false,"i_lat":-6.209883,"i_long":106.84912,"station_name":"Manggarai","station_id":"MRI","line":2,"transit":false},{"line":2,"i_long":106.840169,"i_lat":-6.198556,"transit":false,"is_transit":false,"time":4,"distance":1590,"station_id":"CKI","station_name":"Cikini"},{"i_lat":-6.186295,"time":3,"station_id":"GDD","is_transit":false,"station_name":"Gondangdia","i_long":106.832183,"transit":false,"distance":1750,"line":2},{"i_long":106.828284,"line":2,"time":4,"is_transit":false,"station_id":"JUA","transit":false,"i_lat":-6.166716,"distance":2015,"station_name":"Juanda"},{"line":2,"station_name":"Sawah Besar","transit":false,"station_id":"SW","i_lat":-6.160725,"is_transit":false,"distance":1149,"time":2,"i_long":106.827103},{"i_long":106.82482,"distance":906,"station_id":"MGB","station_name":"Manggabesar","time":2,"transit":false,"is_transit":false,"i_lat":-6.149769,"line":2},{"distance":1080,"line":2,"station_name":"Jayakarta","i_long":106.820901,"i_lat":-6.141205,"time":2,"station_id":"JAY","is_transit":false,"transit":false},{"station_id":"JAKK","time":4,"is_transit":true,"line":2,"distance":1264,"i_long":106.812439,"transit":true,"i_lat":-6.137569,"station_name":"Jakarta Kota"},{"time":3,"transit":true,"i_lat":-6.132549,"station_name":"Kampung Bandan","distance":1364,"line":4,"is_transit":true,"station_id":"KPB","i_long":106.826365},{"distance":4102,"time":9,"is_transit":false,"i_lat":-6.144674,"i_long":106.79867,"station_id":"AK","station_name":"Angke","line":1,"transit":false},{"time":4,"station_name":"Duri","i_lat":-6.155215,"line":1,"is_transit":false,"i_long":106.800832,"transit":false,"station_id":"DU","distance":1230},{"is_transit":true,"distance":3632,"station_id":"THB","time":8,"station_name":"Tanah Abang","i_long":106.811091,"transit":true,"line":1,"i_lat":-6.185545},{"is_transit":false,"i_lat":-6.207404,"station_id":"PLM","line":6,"transit":false,"station_name":"Palmerah","time":6,"i_long":106.79689,"distance":3191},{"is_transit":false,"station_name":"Kebayoran","i_long":106.780334,"transit":false,"line":6,"distance":3737,"i_lat":-6.237242,"station_id":"KBY","time":7}],[{"time":0,"i_long":106.857948,"station_id":"TEB","distance":0,"is_transit":false,"transit":false,"i_lat":-6.226659,"line":2,"station_name":"Tebet"},{"is_transit":true,"time":4,"i_long":106.84912,"i_lat":-6.209883,"station_name":"Manggarai","station_id":"MRI","line":2,"distance":2610,"transit":true},{"distance":1275,"is_transit":false,"time":2,"i_lat":-6.212485,"line":1,"transit":false,"station_name":"Matraman","i_long":106.858896,"station_id":"MTR"},{"line":1,"i_lat":-6.215091,"station_id":"JNG","time":8,"is_transit":true,"i_long":106.86807400000001,"distance":1377,"transit":true,"station_name":"Jatinegara"},{"is_transit":false,"station_id":"POK","transit":false,"line":11,"i_long":106.861737,"station_name":"Pondok Jati","time":2,"i_lat":-6.209188,"distance":1236},{"station_name":"Kramat","distance":1829,"transit":false,"station_id":"KMT","i_lat":-6.193792,"i_long":106.855437,"line":11,"is_transit":false,"time":2},{"station_name":"Gang Sentiong","line":11,"distance":973,"i_lat":-6.185975,"time":1,"station_id":"GST","is_transit":false,"i_long":106.850107,"transit":false},{"station_id":"PSE","distance":1567,"time":8,"station_name":"Pasar Senen","is_transit":false,"i_lat":-6.174784,"i_long":106.84368,"line":11,"transit":false},{"time":4,"station_name":"Kemayoran","i_long":106.839204,"is_transit":false,"distance":1436,"i_lat":-6.161728,"transit":false,"line":11,"station_id":"KMO"},{"i_lat":-6.14505,"line":11,"transit":false,"i_long":106.836569,"station_id":"RJW","time":5,"distance":1901,"station_name":"Rajawali","is_transit":false},{"line":4,"station_id":"KPB","i_lat":-6.132549,"time":3,"distance":1444,"station_name":"Kampung Bandan","transit":true,"is_transit":true,"i_long":106.826365},{"transit":false,"is_transit":false,"time":9,"station_name":"Angke","line":1,"station_id":"AK","i_long":106.79867,"distance":4102,"i_lat":-6.144674},{"transit":false,"station_name":"Duri","line":1,"distance":1230,"i_lat":-6.155215,"i_long":106.800832,"is_transit":false,"time":4,"station_id":"DU"},{"station_id":"THB","distance":3632,"is_transit":true,"i_lat":-6.185545,"line":1,"time":8,"station_name":"Tanah Abang","transit":true,"i_long":106.811091},{"i_long":106.79689,"line":6,"is_transit":false,"station_id":"PLM","station_name":"Palmerah","transit":false,"i_lat":-6.207404,"time":6,"distance":3191},{"i_lat":-6.237242,"transit":false,"line":6,"station_name":"Kebayoran","station_id":"KBY","is_transit":false,"i_long":106.780334,"distance":3737,"time":7}]]}