{"data":[[{"line":2,"is_transit":false,"i_lat":-6.226659,"time":0,"distance":0,"station_id":"TEB","station_name":"Tebet","i_long":106.857948,"transit":false},{"distance":2610,"station_name":"Manggarai","is_transit":false,"time":4,"line":2,"transit":false,"i_long":106.84912,"station_id":"MRI","i_lat":-6.209883},{"station_id":"CKI","is_transit":false,"i_lat":-6.198556,"transit":false,"line":2,"station_name":"Cikini","distance":1590,"i_long":106.840169,"time":4}],[{"i_lat":-6.226659,"i_long":106.857948,"is_transit":false,"transit":false,"distance":0,"time":0,"line":2,"station_name":"Tebet","station_id":"TEB"},{"line":2,"is_transit":true,"station_id":"MRI","station_name":"Manggarai","distance":2610,"time":4,"i_lat":-6.209883,"i_long":106.84912,"transit":true},{"i_long":106.822649,"station_name":"Sudirman","i_lat":-6.202263,"line":1,"transit":false,"time":4,"station_id":"SUD","distance":3186,"is_transit":false},{"is_transit":false,"transit":false,"station_name":"Sudirman Baru","distance":280,"time":1,"i_long":106.819881,"line":1,"i_lat":-6.201433,"station_id":"SUDB"},{"station_id":"KAT","i_lat":-6.20132,"station_name":"Karet","line":1,"i_long":106.816351,"transit":false,"distance":471,"time":1,"is_transit":false},{"i_long":106.811091,"transit":false,"distance":2029,"station_name":"Tanah Abang","line":1,"i_lat":-6.185545,"station_id":"THB","time":5,"is_transit":false},{"i_long":106.800832,"line":1,"station_id":"DU","transit":false,"distance":3632,"station_name":"Duri","i_lat":-6.155215,"time":8,"is_transit":false},{"time":4,"station_id":"AK","is_transit":false,"transit":false,"i_lat":-6.144674,"line":1,"i_long":106.79867,"station_name":"Angke","distance":1230},{"time":9,"line":4,"transit":true,"station_name":"Kampung Bandan","i_long":106.826365,"distance":4102,"is_transit":true,"station_id":"KPB","i_lat":-6.132549},{"station_name":"Jakarta Kota","line":2,"time":3,"transit":true,"is_transit":true,"station_id":"JAKK","distance":1364,"i_lat":-6.137569,"i_long":106.812439},{"station_id":"JAY","transit":false,"distance":1264,"is_transit":false,"i_lat":-6.141205,"line":2,"time":4,"station_name":"Jayakarta","i_long":106.820901},{"station_name":"Manggabesar","is_transit":false,"line":2,"station_id":"MGB","time":2,"transit":false,"i_long":106.82482,"i_lat":-6.149769,"distance":1080},{"distance":906,"station_name":"Sawah Besar","i_lat":-6.160725,"station_id":"SW","line":2,"time":2,"i_long":106.827103,"is_transit":false,"transit":false},{"is_transit":false,"i_long":106.828284,"time":2,"distance":1149,"transit":false,"line":2,"station_name":"Juanda","i_lat":-6.166716,"station_id":"JUA"},{"station_id":"GDD","transit":false,"i_lat":-6.186295,"distance":2015,"time":4,"is_transit":false,"line":2,"station_name":"Gondangdia","i_long":106.832183},{"transit":false,"line":2,"station_name":"Cikini","i_lat":-6.198556,"distance":1750,"station_id":"CKI","time":3,"i_long":106.840169,"is_transit":false}],[{"distance":0,"is_transit":false,"transit":false,"station_name":"Tebet","line":2,"i_lat":-6.226659,"i_long":106.857948,"time":0,"station_id":"TEB"},{"time":4,"is_transit":true,"station_name":"Manggarai","i_long":106.84912,"i_lat":-6.209883,"line":2,"transit":true,"distance":2610,"station_id":"MRI"},{"transit":false,"time":2,"i_lat":-6.212485,"i_long":106.858896,"is_transit":false,"distance":1275,"station_name":"Matraman","line":1,"station_id":"MTR"},{"i_lat":-6.215091,"is_transit":true,"i_long":106.86807400000001,"line":1,"station_id":"JNG","transit":true,"distance":1377,"time":8,"station_name":"Jatinegara"},{"is_transit":false,"line":11,"transit":false,"station_name":"Pondok Jati","time":2,"i_long":106.861737,"distance":1236,"i_lat":-6.209188,"station_id":"POK"},{"line":11,"i_long":106.855437,"is_transit":false,"time":2,"station_id":"KMT","i_lat":-6.193792,"distance":1829,"transit":false,"station_name":"Kramat"},{"station_name":"Gang Sentiong","i_lat":-6.185975,"i_long":106.850107,"line":11,"time":1,"distance":973,"station_id":"GST","is_transit":false,"transit":false},{"line":11,"i_lat":-6.174784,"is_transit":false,"distance":1567,"station_id":"PSE","transit":false,"time":8,"i_long":106.84368,"station_name":"Pasar Senen"},{"line":11,"station_name":"Kemayoran","distance":1436,"station_id":"KMO","is_transit":false,"time":4,"i_lat":-6.161728,"transit":false,"i_long":106.839204},{"distance":1901,"time":5,"station_id":"RJW","line":11,"i_long":106.836569,"station_name":"Rajawali","is_transit":false,"transit":false,"i_lat":-6.14505},{"station_id":"KPB","transit":true,"i_lat":-6.132549,"distance":1444,"i_long":106.826365,"line":4,"is_transit":true,"time":3,"station_name":"Kampung Bandan"},{"station_id":"JAKK","station_name":"Jakarta Kota","i_lat":-6.137569,"line":2,"distance":1364,"transit":true,"time":3,"is_transit":true,"i_long":106.812439},{"i_lat":-6.141205,"i_long":106.820901,"line":2,"time":4,"distance":1264,"transit":false,"station_id":"JAY","is_transit":false,"station_name":"Jayakarta"},{"time":2,"is_transit":false,"station_id":"MGB","i_lat":-6.149769,"transit":false,"i_long":106.82482,"distance":1080,"station_name":"Manggabesar","line":2},{"line":2,"distance":906,"is_transit":false,"time":2,"station_id":"SW","station_name":"Sawah Besar","i_long":106.827103,"transit":false,"i_lat":-6.160725},{"i_lat":-6.166716,"time":2,"is_transit":false,"i_long":106.828284,"station_id":"JUA","line":2,"distance":1149,"station_name":"Juanda","transit":false},{"station_name":"Gondangdia","line":2,"distance":2015,"station_id":"GDD","time":4,"transit":false,"i_lat":-6.186295,"is_transit":false,"i_long":106.832183},{"i_long":106.840169,"transit":false,"station_id":"CKI","time":3,"is_transit":false,"i_lat":-6.198556,"station_name":"Cikini","line":2,"distance":1750}]]}