{"data":[[{"is_transit":false,"time":0,"station_id":"TEB","i_long":106.857948,"distance":0,"station_name":"Tebet","i_lat":-6.226659,"transit":false,"line":2},{"station_id":"MRI","distance":2610,"transit":true,"time":4,"is_transit":true,"station_name":"Manggarai","i_lat":-6.209883,"line":2,"i_long":106.84912},{"distance":1275,"is_transit":false,"i_lat":-6.212485,"i_long":106.858896,"transit":false,"time":2,"station_id":"MTR","station_name":"Matraman","line":1},{"is_transit":false,"line":1,"i_lat":-6.215091,"i_long":106.86807400000001,"station_name":"Jatinegara","transit":false,"time":8,"distance":1377,"station_id":"JNG"},{"distance":3395,"station_id":"KLD","time":3,"i_long":106.899548,"line":1,"is_transit":false,"station_name":"Klender","transit":false,"i_lat":-6.2135},{"is_transit":false,"i_lat":-6.215568,"transit":false,"time":2,"station_id":"BUA","station_name":"Buaran","i_long":106.922662,"line":1,"distance":3100},{"transit":false,"time":1,"is_transit":false,"i_lat":-6.217455,"station_name":"Klenderbaru","station_id":"KLDB","distance":1305,"i_long":106.939679,"line":1},{"is_transit":false,"i_long":106.951283,"time":8,"i_lat":-6.219053,"distance":1385,"station_name":"Cakung","line":1,"transit":false,"station_id":"CUK"},{"i_long":106.977657,"station_name":"Kranji","is_transit":false,"i_lat":-6.224515,"line":1,"distance":3097,"time":3,"station_id":"KRI","transit":false},{"distance":2520,"transit":false,"station_name":"Bekasi","station_id":"BKS","time":4,"line":1,"is_transit":false,"i_long":106.997013,"i_lat":-6.236616},{"is_transit":false,"i_lat":-6.248029,"distance":2368,"i_long":107.016735,"station_name":"Bekasi Timur","line":1,"station_id":"BKST","time":2,"transit":false}],[{"line":2,"i_long":106.857948,"time":0,"is_transit":false,"station_id":"TEB","distance":0,"transit":false,"station_name":"Tebet","i_lat":-6.226659},{"distance":2610,"station_id":"MRI","is_transit":true,"i_long":106.84912,"station_name":"Manggarai","transit":true,"i_lat":-6.209883,"line":2,"time":4},{"distance":3186,"is_transit":false,"i_lat":-6.202263,"line":1,"time":4,"station_id":"SUD","station_name":"Sudirman","i_long":106.822649,"transit":false},{"is_transit":false,"line":1,"time":1,"transit":false,"distance":280,"station_id":"SUDB","station_name":"Sudirman Baru","i_lat":-6.201433,"i_long":106.819881},{"time":1,"station_id":"KAT","is_transit":false,"transit":false,"station_name":"Karet","i_lat":-6.20132,"line":1,"distance":471,"i_long":106.816351},{"station_id":"THB","i_lat":-6.185545,"line":1,"time":5,"is_transit":false,"distance":2029,"station_name":"Tanah Abang","transit":false,"i_long":106.811091},{"line":1,"i_long":106.800832,"i_lat":-6.155215,"station_id":"DU","time":8,"station_name":"Duri","distance":3632,"is_transit":false,"transit":false},{"station_name":"Angke","time":4,"distance":1230,"transit":false,"line":1,"station_id":"AK","i_lat":-6.144674,"i_long":106.79867,"is_transit":false},{"station_name":"Kampung Bandan","is_transit":true,"station_id":"KPB","transit":true,"distance":4102,"time":9,"i_lat":-6.132549,"line":4,"i_long":106.826365},{"distance":1444,"is_transit":false,"line":11,"time":3,"station_name":"Rajawali","station_id":"RJW","transit":false,"i_lat":-6.14505,"i_long":106.836569},{"time":5,"station_id":"KMO","station_name":"Kemayoran","i_lat":-6.161728,"distance":1901,"is_transit":false,"i_long":106.839204,"transit":false,"line":11},{"distance":1436,"station_id":"PSE","transit":false,"station_name":"Pasar Senen","i_lat":-6.174784,"time":4,"is_transit":false,"i_long":106.84368,"line":11},{"station_id":"GST","transit":false,"i_long":106.850107,"line":11,"time":8,"is_transit":false,"distance":1567,"station_name":"Gang Sentiong","i_lat":-6.185975},{"distance":973,"i_long":106.855437,"line":11,"station_id":"KMT","station_name":"Kramat","i_lat":-6.193792,"transit":false,"time":1,"is_transit":false},{"line":11,"i_lat":-6.209188,"distance":1829,"is_transit":false,"transit":false,"i_long":106.861737,"station_id":"POK","station_name":"Pondok Jati","time":2},{"line":1,"i_lat":-6.215091,"station_id":"JNG","i_long":106.86807400000001,"is_transit":true,"distance":1236,"station_name":"Jatinegara","time":9,"transit":true},{"distance":3395,"time":3,"transit":false,"line":1,"station_id":"KLD","is_transit":false,"station_name":"Klender","i_long":106.899548,"i_lat":-6.2135},{"time":2,"transit":false,"i_long":106.922662,"station_id":"BUA","is_transit":false,"i_lat":-6.215568,"station_name":"Buaran","line":1,"distance":3100},{"i_long":106.939679,"time":1,"station_name":"Klenderbaru","transit":false,"line":1,"station_id":"KLDB","is_transit":false,"i_lat":-6.217455,"distance":1305},{"i_lat":-6.219053,"is_transit":false,"transit":false,"station_name":"Cakung","time":8,"line":1,"i_long":106.951283,"station_id":"CUK","distance":1385},{"is_transit":false,"station_name":"Kranji","line":1,"distance":3097,"time":3,"station_id":"KRI","transit":false,"i_lat":-6.224515,"i_long":106.977657},{"distance":2520,"transit":false,"station_id":"BKS","i_long":106.997013,"is_transit":false,"time":4,"i_lat":-6.236616,"line":1,"station_name":"Bekasi"},{"station_name":"Bekasi Timur","time":2,"line":1,"distance":2368,"transit":false,"station_id":"BKST","is_transit":false,"i_lat":-6.248029,"i_long":107.016735}],[{"i_lat":-6.226659,"transit":false,"distance":0,"i_long":106.857948,"time":0,"station_id":"TEB","line":2,"station_name":"Tebet","is_transit":false},{"line":2,"distance":2610,"station_id":"MRI","time":4,"i_lat":-6.209883,"is_transit":false,"station_name":"Manggarai","transit":false,"i_long":106.84912},{"distance":1590,"station_name":"Cikini","transit":false,"i_lat":-6.198556,"i_long":106.840169,"line":2,"station_id":"CKI","is_transit":false,"time":4},{"transit":false,"station_name":"Gondangdia","time":3,"i_long":106.832183,"station_id":"GDD","distance":1750,"i_lat":-6.186295,"line":2,"is_transit":false},{"transit":false,"time":4,"i_long":106.828284,"station_id":"JUA","line":2,"i_lat":-6.166716,"station_name":"Juanda","distance":2015,"is_transit":false},{"transit":false,"line":2,"time":2,"distance":1149,"is_transit":false,"i_lat":-6.160725,"station_id":"SW","i_long":106.827103,"station_name":"Sawah Besar"},{"distance":906,"station_name":"Manggabesar","transit":false,"time":2,"station_id":"MGB","i_lat":-6.149769,"line":2,"i_long":106.82482,"is_transit":false},{"distance":1080,"time":2,"transit":false,"station_id":"JAY","station_name":"Jayakarta","i_lat":-6.141205,"is_transit":false,"line":2,"i_long":106.820901},{"station_name":"Jakarta Kota","i_long":106.812439,"distance":1264,"station_id":"JAKK","transit":true,"is_transit":true,"time":4,"i_lat":-6.137569,"line":2},{"transit":true,"is_transit":true,"station_id":"KPB","i_lat":-6.132549,"station_name":"Kampung Bandan","i_long":106.826365,"time":3,"distance":1364,"line":4},{"i_lat":-6.14505,"station_id":"RJW","transit":false,"distance":1444,"station_name":"Rajawali","i_long":106.836569,"line":11,"is_transit":false,"time":3},{"is_transit":false,"distance":1901,"station_id":"KMO","i_long":106.839204,"transit":false,"line":11,"time":5,"station_name":"Kemayoran","i_lat":-6.161728},{"i_lat":-6.174784,"distance":1436,"i_long":106.84368,"station_name":"Pasar Senen","time":4,"line":11,"station_id":"PSE","is_transit":false,"transit":false},{"distance":1567,"transit":false,"station_id":"GST","station_name":"Gang Sentiong","line":11,"time":8,"is_transit":false,"i_long":106.850107,"i_lat":-6.185975},{"line":11,"time":1,"distance":973,"i_long":106.855437,"station_name":"Kramat","station_id":"KMT","transit":false,"is_transit":false,"i_lat":-6.193792},{"transit":false,"station_name":"Pondok Jati","i_lat":-6.209188,"line":11,"station_id":"POK","time":2,"is_transit":false,"distance":1829,"i_long":106.861737},{"distance":1236,"station_id":"JNG","station_name":"Jatinegara","line":1,"is_transit":true,"i_lat":-6.215091,"time":9,"transit":true,"i_long":106.86807400000001},{"time":3,"i_long":106.899548,"distance":3395,"line":1,"station_name":"Klender","i_lat":-6.2135,"station_id":"KLD","is_transit":false,"transit":false},{"transit":false,"station_name":"Buaran","line":1,"i_lat":-6.215568,"i_long":106.922662,"distance":3100,"station_id":"BUA","time":2,"is_transit":false},{"i_lat":-6.217455,"station_name":"Klenderbaru","station_id":"KLDB","time":1,"line":1,"i_long":106.939679,"transit":false,"distance":1305,"is_transit":false},{"i_lat":-6.219053,"distance":1385,"is_transit":false,"station_name":"Cakung","station_id":"CUK","time":8,"i_long":106.951283,"line":1,"transit":false},{"i_long":106.977657,"is_transit":false,"i_lat":-6.224515,"line":1,"station_id":"KRI","distance":3097,"transit":false,"station_name":"Kranji","time":3},{"time":4,"transit":false,"is_transit":false,"i_lat":-6.236616,"line":1,"distance":2520,"i_long":106.997013,"station_id":"BKS","station_name":"Bekasi"},{"line":1,"transit":false,"i_lat":-6.248029,"is_transit":false,"i_long":107.016735,"station_id":"BKST","distance":2368,"time":2,"station_name":"Bekasi Timur"}]]}