{"data":[[{"distance":0,"station_id":"TEB","transit":false,"station_name":"Tebet","is_transit":false,"time":0,"i_long":106.857948,"line":2,"i_lat":-6.226659},{"i_long":106.84912,"is_transit":true,"transit":true,"distance":2610,"time":4,"station_name":"Manggarai","station_id":"MRI","i_lat":-6.209883,"line":2},{"distance":1275,"i_long":106.858896,"i_lat":-6.212485,"is_transit":false,"line":1,"station_id":"MTR","time":2,"transit":false,"station_name":"Matraman"}],[{"i_lat":-6.226659,"i_long":106.857948,"time":0,"transit":false,"station_name":"Tebet","is_transit":false,"station_id":"TEB","distance":0,"line":2},{"station_id":"MRI","line":2,"transit":true,"i_long":106.84912,"time":4,"i_lat":-6.209883,"is_transit":true,"distance":2610,"station_name":"Manggarai"},{"line":1,"transit":false,"distance":3186,"station_name":"Sudirman","is_transit":false,"station_id":"SUD","time":4,"i_lat":-6.202263,"i_long":106.822649},{"is_transit":false,"station_id":"SUDB","transit":false,"distance":280,"i_lat":-6.201433,"i_long":106.819881,"line":1,"time":1,"station_name":"Sudirman Baru"},{"distance":471,"i_long":106.816351,"line":1,"transit":false,"is_transit":false,"station_name":"Karet","station_id":"KAT","i_lat":-6.20132,"time":1},{"station_id":"THB","time":5,"line":1,"i_lat":-6.185545,"is_transit":false,"transit":false,"distance":2029,"station_name":"Tanah Abang","i_long":106.811091},{"distance":3632,"station_name":"Duri","station_id":"DU","time":8,"i_lat":-6.155215,"transit":false,"i_long":106.800832,"is_transit":false,"line":1},{"is_transit":false,"i_long":106.79867,"station_name":"Angke","transit":false,"station_id":"AK","i_lat":-6.144674,"time":4,"distance":1230,"line":1},{"station_name":"Kampung Bandan","is_transit":true,"line":4,"distance":4102,"i_long":106.826365,"i_lat":-6.132549,"time":9,"transit":true,"station_id":"KPB"},{"i_long":106.836569,"line":11,"i_lat":-6.14505,"station_name":"Rajawali","is_transit":false,"distance":1444,"station_id":"RJW","time":3,"transit":false},{"i_lat":-6.161728,"station_name":"Kemayoran","time":5,"station_id":"KMO","transit":false,"i_long":106.839204,"line":11,"is_transit":false,"distance":1901},{"station_name":"Pasar Senen","transit":false,"station_id":"PSE","i_lat":-6.174784,"i_long":106.84368,"line":11,"distance":1436,"is_transit":false,"time":4},{"time":8,"is_transit":false,"transit":false,"station_id":"GST","station_name":"Gang Sentiong","distance":1567,"line":11,"i_lat":-6.185975,"i_long":106.850107},{"is_transit":false,"time":1,"station_id":"KMT","transit":false,"line":11,"i_long":106.855437,"distance":973,"i_lat":-6.193792,"station_name":"Kramat"},{"transit":false,"station_id":"POK","line":11,"i_lat":-6.209188,"distance":1829,"is_transit":false,"station_name":"Pondok Jati","i_long":106.861737,"time":2},{"is_transit":true,"i_lat":-6.215091,"station_id":"JNG","i_long":106.86807400000001,"distance":1236,"time":9,"station_name":"Jatinegara","line":1,"transit":true},{"distance":1377,"line":1,"transit":false,"station_id":"MTR","is_transit":false,"station_name":"Matraman","i_lat":-6.212485,"time":2,"i_long":106.858896}],[{"is_transit":false,"distance":0,"line":2,"station_name":"Tebet","station_id":"TEB","time":0,"i_lat":-6.226659,"i_long":106.857948,"transit":false},{"line":2,"station_name":"Manggarai","i_long":106.84912,"distance":2610,"transit":false,"i_lat":-6.209883,"is_transit":false,"station_id":"MRI","time":4},{"distance":1590,"is_transit":false,"i_long":106.840169,"time":4,"station_name":"Cikini","line":2,"transit":false,"station_id":"CKI","i_lat":-6.198556},{"time":3,"station_name":"Gondangdia","is_transit":false,"distance":1750,"i_lat":-6.186295,"line":2,"transit":false,"i_long":106.832183,"station_id":"GDD"},{"is_transit":false,"time":4,"i_long":106.828284,"station_name":"Juanda","line":2,"station_id":"JUA","transit":false,"i_lat":-6.166716,"distance":2015},{"line":2,"station_id":"SW","is_transit":false,"time":2,"i_long":106.827103,"transit":false,"distance":1149,"i_lat":-6.160725,"station_name":"Sawah Besar"},{"i_long":106.82482,"i_lat":-6.149769,"line":2,"station_id":"MGB","distance":906,"transit":false,"is_transit":false,"time":2,"station_name":"Manggabesar"},{"i_long":106.820901,"is_transit":false,"distance":1080,"i_lat":-6.141205,"line":2,"station_name":"Jayakarta","transit":false,"time":2,"station_id":"JAY"},{"station_name":"Jakarta Kota","line":2,"i_lat":-6.137569,"distance":1264,"i_long":106.812439,"transit":true,"station_id":"JAKK","is_transit":true,"time":4},{"line":4,"distance":1364,"transit":true,"time":3,"i_lat":-6.132549,"i_long":106.826365,"station_name":"Kampung Bandan","is_transit":true,"station_id":"KPB"},{"station_id":"RJW","i_lat":-6.14505,"i_long":106.836569,"station_name":"Rajawali","line":11,"time":3,"transit":false,"is_transit":false,"distance":1444},{"i_long":106.839204,"station_id":"KMO","time":5,"i_lat":-6.161728,"is_transit":false,"distance":1901,"line":11,"station_name":"Kemayoran","transit":false},{"station_id":"PSE","time":4,"distance":1436,"station_name":"Pasar Senen","i_lat":-6.174784,"transit":false,"i_long":106.84368,"line":11,"is_transit":false},{"station_id":"GST","i_lat":-6.185975,"transit":false,"i_long":106.850107,"time":8,"is_transit":false,"distance":1567,"station_name":"Gang Sentiong","line":11},{"line":11,"station_name":"Kramat","station_id":"KMT","time":1,"distance":973,"i_long":106.855437,"is_transit":false,"i_lat":-6.193792,"transit":false},{"station_name":"Pondok Jati","distance":1829,"i_long":106.861737,"transit":false,"station_id":"POK","line":11,"i_lat":-6.209188,"is_transit":false,"time":2},{"transit":true,"i_long":106.86807400000001,"time":9,"line":1,"distance":1236,"station_id":"JNG","station_name":"Jatinegara","is_transit":true,"i_lat":-6.215091},{"i_long":106.858896,"distance":1377,"station_name":"Matraman","time":2,"line":1,"transit":false,"is_transit":false,"station_id":"MTR","i_lat":-6.212485}]]}