{"data":[[{"is_transit":false,"station_name":"Tebet","transit":false,"i_lat":-6.226659,"i_long":106.857948,"distance":0,"line":2,"station_id":"TEB","time":0},{"time":4,"station_id":"MRI","i_long":106.84912,"transit":true,"line":2,"station_name":"Manggarai","i_lat":-6.209883,"distance":2610,"is_transit":true},{"distance":3186,"time":4,"transit":false,"i_lat":-6.202263,"i_long":106.822649,"line":1,"is_transit":false,"station_id":"SUD","station_name":"Sudirman"},{"station_name":"Sudirman Baru","i_lat":-6.201433,"distance":280,"transit":false,"line":1,"i_long":106.819881,"time":1,"is_transit":false,"station_id":"SUDB"},{"distance":471,"is_transit":false,"transit":false,"line":1,"time":1,"station_id":"KAT","i_lat":-6.20132,"i_long":106.816351,"station_name":"Karet"},{"distance":2029,"station_name":"Tanah Abang","station_id":"THB","transit":true,"line":1,"time":5,"i_lat":-6.185545,"i_long":106.811091,"is_transit":true},{"station_id":"PLM","station_name":"Palmerah","transit":false,"time":6,"i_long":106.79689,"distance":3191,"is_transit":false,"i_lat":-6.207404,"line":6},{"time":7,"line":6,"transit":false,"station_id":"KBY","station_name":"Kebayoran","i_lat":-6.237242,"i_long":106.780334,"is_transit":false,"distance":3737},{"i_long":106.74273,"i_lat":-6.276362,"distance":6218,"line":6,"station_id":"PDJ","station_name":"Pondokranji","is_transit":false,"time":8,"transit":false},{"station_name":"Jurangmangu","is_transit":false,"distance":2179,"station_id":"JMU","transit":false,"i_lat":-6.288927,"line":6,"i_long":106.728916,"time":3},{"i_long":106.712277,"station_id":"SDM","line":6,"distance":1994,"station_name":"Sudimara","transit":false,"i_lat":-6.296963,"time":4,"is_transit":false},{"i_long":106.675475,"distance":4566,"station_name":"Rawa Buntu","i_lat":-6.314823,"is_transit":false,"transit":false,"station_id":"RU","line":6,"time":6},{"station_name":"Serpong","is_transit":false,"station_id":"SRP","i_long":106.66566,"time":4,"transit":false,"line":6,"i_lat":-6.319871,"distance":2413},{"station_name":"Cisauk","distance":1784,"i_lat":-6.32484,"time":4,"i_long":106.640411,"transit":false,"line":3,"station_id":"CSK","is_transit":false},{"station_name":"Cicayur","station_id":"CC","is_transit":false,"line":3,"time":4,"distance":2519,"transit":false,"i_long":106.617853,"i_lat":-6.329547},{"station_id":"PRP","distance":5968,"line":6,"i_long":106.568863,"i_lat":-6.3441410000000005,"transit":false,"time":8,"station_name":"Parung Panjang","is_transit":false},{"transit":false,"i_long":106.508482,"time":9,"station_id":"CJT","distance":7025,"is_transit":false,"i_lat":-6.354349,"line":3,"station_name":"Cilejit"},{"station_name":"Daru","distance":2675,"i_long":106.491338,"time":6,"line":0,"is_transit":false,"station_id":"DAR","i_lat":-6.338021,"transit":false},{"i_long":106.460812,"i_lat":-6.327251,"time":5,"transit":false,"distance":3902,"is_transit":false,"station_name":"Tenjo","line":6,"station_id":"TEJ"},{"transit":false,"station_id":"TGS","i_lat":-6.328533,"distance":2974,"i_long":106.425991,"line":6,"station_name":"Tigaraksa","is_transit":false,"time":5},{"station_id":"CKY","transit":false,"i_lat":-6.33561,"is_transit":false,"time":3,"station_name":"Cikoya","distance":2651,"i_long":106.411216,"line":3},{"transit":false,"is_transit":false,"i_lat":-6.332307,"station_id":"MJ","i_long":106.394373,"station_name":"Maja","line":6,"time":4,"distance":1853},{"distance":7293,"i_long":106.332092,"transit":false,"station_name":"Citeras","is_transit":false,"line":3,"time":10,"station_id":"CTR","i_lat":-6.334892}],[{"time":0,"distance":0,"station_id":"TEB","i_lat":-6.226659,"transit":false,"i_long":106.857948,"is_transit":false,"station_name":"Tebet","line":2},{"is_transit":false,"distance":2610,"time":4,"station_name":"Manggarai","i_long":106.84912,"transit":false,"line":2,"i_lat":-6.209883,"station_id":"MRI"},{"is_transit":false,"time":4,"line":2,"i_lat":-6.198556,"station_id":"CKI","i_long":106.840169,"distance":1590,"transit":false,"station_name":"Cikini"},{"distance":1750,"transit":false,"station_name":"Gondangdia","station_id":"GDD","i_lat":-6.186295,"i_long":106.832183,"is_transit":false,"line":2,"time":3},{"time":4,"station_id":"JUA","i_long":106.828284,"line":2,"distance":2015,"is_transit":false,"transit":false,"station_name":"Juanda","i_lat":-6.166716},{"station_name":"Sawah Besar","i_lat":-6.160725,"is_transit":false,"i_long":106.827103,"transit":false,"line":2,"time":2,"station_id":"SW","distance":1149},{"i_lat":-6.149769,"line":2,"time":2,"is_transit":false,"i_long":106.82482,"transit":false,"station_id":"MGB","distance":906,"station_name":"Manggabesar"},{"i_lat":-6.141205,"time":2,"is_transit":false,"station_id":"JAY","distance":1080,"transit":false,"line":2,"station_name":"Jayakarta","i_long":106.820901},{"station_name":"Jakarta Kota","is_transit":true,"i_lat":-6.137569,"time":4,"line":2,"i_long":106.812439,"station_id":"JAKK","transit":true,"distance":1264},{"line":4,"station_id":"KPB","transit":true,"station_name":"Kampung Bandan","time":3,"i_lat":-6.132549,"i_long":106.826365,"distance":1364,"is_transit":true},{"station_name":"Angke","station_id":"AK","line":1,"distance":4102,"is_transit":false,"transit":false,"i_lat":-6.144674,"time":9,"i_long":106.79867},{"i_lat":-6.155215,"i_long":106.800832,"time":4,"line":1,"distance":1230,"station_name":"Duri","transit":false,"is_transit":false,"station_id":"DU"},{"station_id":"THB","i_lat":-6.185545,"i_long":106.811091,"time":8,"distance":3632,"is_transit":true,"line":1,"station_name":"Tanah Abang","transit":true},{"station_id":"PLM","line":6,"transit":false,"distance":3191,"i_long":106.79689,"is_transit":false,"i_lat":-6.207404,"time":6,"station_name":"Palmerah"},{"is_transit":false,"time":7,"i_lat":-6.237242,"transit":false,"distance":3737,"i_long":106.780334,"station_id":"KBY","station_name":"Kebayoran","line":6},{"transit":false,"is_transit":false,"line":6,"time":8,"station_name":"Pondokranji","distance":6218,"station_id":"PDJ","i_long":106.74273,"i_lat":-6.276362},{"time":3,"transit":false,"i_lat":-6.288927,"line":6,"i_long":106.728916,"is_transit":false,"station_name":"Jurangmangu","station_id":"JMU","distance":2179},{"time":4,"i_lat":-6.296963,"is_transit":false,"station_id":"SDM","station_name":"Sudimara","line":6,"i_long":106.712277,"transit":false,"distance":1994},{"line":6,"i_long":106.675475,"is_transit":false,"station_id":"RU","time":6,"station_name":"Rawa Buntu","transit":false,"i_lat":-6.314823,"distance":4566},{"distance":2413,"i_long":106.66566,"is_transit":false,"i_lat":-6.319871,"station_name":"Serpong","time":4,"transit":false,"station_id":"SRP","line":6},{"transit":false,"distance":1784,"station_name":"Cisauk","i_lat":-6.32484,"station_id":"CSK","time":4,"line":3,"is_transit":false,"i_long":106.640411},{"is_transit":false,"i_lat":-6.329547,"distance":2519,"station_id":"CC","i_long":106.617853,"time":4,"transit":false,"station_name":"Cicayur","line":3},{"time":8,"station_id":"PRP","is_transit":false,"transit":false,"station_name":"Parung Panjang","i_lat":-6.3441410000000005,"i_long":106.568863,"line":6,"distance":5968},{"i_lat":-6.354349,"i_long":106.508482,"distance":7025,"transit":false,"station_name":"Cilejit","line":3,"station_id":"CJT","time":9,"is_transit":false},{"is_transit":false,"distance":2675,"time":6,"i_lat":-6.338021,"station_id":"DAR","station_name":"Daru","transit":false,"i_long":106.491338,"line":0},{"station_id":"TEJ","time":5,"i_long":106.460812,"distance":3902,"line":6,"i_lat":-6.327251,"station_name":"Tenjo","transit":false,"is_transit":false},{"station_id":"TGS","i_lat":-6.328533,"distance":2974,"station_name":"Tigaraksa","i_long":106.425991,"is_transit":false,"line":6,"transit":false,"time":5},{"time":3,"transit":false,"is_transit":false,"line":3,"distance":2651,"station_name":"Cikoya","i_long":106.411216,"i_lat":-6.33561,"station_id":"CKY"},{"transit":false,"station_id":"MJ","i_lat":-6.332307,"line":6,"time":4,"is_transit":false,"i_long":106.394373,"distance":1853,"station_name":"Maja"},{"station_name":"Citeras","station_id":"CTR","i_long":106.332092,"distance":7293,"line":3,"transit":false,"is_transit":false,"i_lat":-6.334892,"time":10}],[{"i_lat":-6.226659,"is_transit":false,"line":2,"station_id":"TEB","time":0,"transit":false,"i_long":106.857948,"distance":0,"station_name":"Tebet"},{"is_transit":true,"i_long":106.84912,"time":4,"station_name":"Manggarai","i_lat":-6.209883,"distance":2610,"station_id":"MRI","transit":true,"line":2},{"time":2,"is_transit":false,"station_name":"Matraman","line":1,"i_long":106.858896,"distance":1275,"transit":false,"i_lat":-6.212485,"station_id":"MTR"},{"transit":true,"line":1,"i_lat":-6.215091,"distance":1377,"time":8,"station_id":"JNG","station_name":"Jatinegara","is_transit":true,"i_long":106.86807400000001},{"line":11,"station_name":"Pondok Jati","is_transit":false,"transit":false,"i_long":106.861737,"distance":1236,"time":2,"station_id":"POK","i_lat":-6.209188},{"i_lat":-6.193792,"transit":false,"station_id":"KMT","i_long":106.855437,"line":11,"distance":1829,"station_name":"Kramat","time":2,"is_transit":false},{"i_long":106.850107,"line":11,"station_name":"Gang Sentiong","distance":973,"station_id":"GST","transit":false,"time":1,"i_lat":-6.185975,"is_transit":false},{"i_long":106.84368,"station_name":"Pasar Senen","i_lat":-6.174784,"transit":false,"time":8,"is_transit":false,"distance":1567,"station_id":"PSE","line":11},{"is_transit":false,"line":11,"distance":1436,"transit":false,"i_long":106.839204,"station_id":"KMO","time":4,"station_name":"Kemayoran","i_lat":-6.161728},{"station_name":"Rajawali","distance":1901,"line":11,"i_long":106.836569,"is_transit":false,"i_lat":-6.14505,"time":5,"transit":false,"station_id":"RJW"},{"transit":true,"i_long":106.826365,"line":4,"station_id":"KPB","station_name":"Kampung Bandan","is_transit":true,"time":3,"distance":1444,"i_lat":-6.132549},{"distance":4102,"is_transit":false,"station_name":"Angke","i_lat":-6.144674,"i_long":106.79867,"time":9,"station_id":"AK","line":1,"transit":false},{"transit":false,"station_id":"DU","line":1,"station_name":"Duri","time":4,"distance":1230,"is_transit":false,"i_long":106.800832,"i_lat":-6.155215},{"i_long":106.811091,"transit":true,"station_id":"THB","is_transit":true,"i_lat":-6.185545,"time":8,"line":1,"station_name":"Tanah Abang","distance":3632},{"station_id":"PLM","i_long":106.79689,"station_name":"Palmerah","distance":3191,"is_transit":false,"line":6,"transit":false,"time":6,"i_lat":-6.207404},{"time":7,"distance":3737,"transit":false,"is_transit":false,"i_lat":-6.237242,"station_name":"Kebayoran","station_id":"KBY","line":6,"i_long":106.780334},{"station_name":"Pondokranji","is_transit":false,"distance":6218,"transit":false,"station_id":"PDJ","i_lat":-6.276362,"i_long":106.74273,"line":6,"time":8},{"i_lat":-6.288927,"station_name":"Jurangmangu","line":6,"station_id":"JMU","i_long":106.728916,"time":3,"is_transit":false,"distance":2179,"transit":false},{"i_lat":-6.296963,"line":6,"station_id":"SDM","time":4,"station_name":"Sudimara","transit":false,"is_transit":false,"distance":1994,"i_long":106.712277},{"distance":4566,"line":6,"i_lat":-6.314823,"station_id":"RU","transit":false,"station_name":"Rawa Buntu","i_long":106.675475,"time":6,"is_transit":false},{"is_transit":false,"i_long":106.66566,"transit":false,"station_name":"Serpong","station_id":"SRP","i_lat":-6.319871,"distance":2413,"time":4,"line":6},{"transit":false,"station_name":"Cisauk","is_transit":false,"station_id":"CSK","i_lat":-6.32484,"i_long":106.640411,"distance":1784,"time":4,"line":3},{"station_name":"Cicayur","station_id":"CC","time":4,"i_long":106.617853,"is_transit":false,"distance":2519,"transit":false,"i_lat":-6.329547,"line":3},{"is_transit":false,"i_lat":-6.3441410000000005,"distance":5968,"time":8,"i_long":106.568863,"station_id":"PRP","transit":false,"station_name":"Parung Panjang","line":6},{"i_lat":-6.354349,"i_long":106.508482,"line":3,"station_name":"Cilejit","time":9,"distance":7025,"station_id":"CJT","transit":false,"is_transit":false},{"i_long":106.491338,"distance":2675,"time":6,"is_transit":false,"line":0,"station_name":"Daru","transit":false,"station_id":"DAR","i_lat":-6.338021},{"line":6,"i_long":106.460812,"transit":false,"time":5,"distance":3902,"station_name":"Tenjo","i_lat":-6.327251,"is_transit":false,"station_id":"TEJ"},{"station_id":"TGS","distance":2974,"time":5,"station_name":"Tigaraksa","is_transit":false,"i_long":106.425991,"line":6,"i_lat":-6.328533,"transit":false},{"station_id":"CKY","i_long":106.411216,"i_lat":-6.33561,"time":3,"transit":false,"distance":2651,"station_name":"Cikoya","is_transit":false,"line":3},{"line":6,"i_lat":-6.332307,"transit":false,"is_transit":false,"distance":1853,"time":4,"i_long":106.394373,"station_id":"MJ","station_name":"Maja"},{"time":10,"line":3,"i_lat":-6.334892,"i_long":106.332092,"distance":7293,"is_transit":false,"transit":false,"station_id":"CTR","station_name":"Citeras"}]]}