{"data":[[{"is_transit":false,"transit":false,"i_lat":-6.226659,"time":0,"station_name":"Tebet","station_id":"TEB","distance":0,"line":2,"i_long":106.857948},{"station_id":"MRI","station_name":"Manggarai","is_transit":true,"i_lat":-6.209883,"i_long":106.84912,"time":4,"distance":2610,"transit":true,"line":2},{"i_lat":-6.212485,"distance":1275,"time":2,"line":1,"station_id":"MTR","station_name":"Matraman","transit":false,"is_transit":false,"i_long":106.858896},{"i_lat":-6.215091,"transit":true,"i_long":106.86807400000001,"line":1,"is_transit":true,"distance":1377,"station_name":"Jatinegara","station_id":"JNG","time":8},{"i_lat":-6.209188,"is_transit":false,"transit":false,"distance":1236,"station_name":"Pondok Jati","time":2,"station_id":"POK","i_long":106.861737,"line":11},{"station_id":"KMT","time":2,"line":11,"distance":1829,"i_lat":-6.193792,"transit":false,"station_name":"Kramat","i_long":106.855437,"is_transit":false},{"is_transit":false,"i_lat":-6.185975,"distance":973,"station_name":"Gang Sentiong","station_id":"GST","line":11,"transit":false,"time":1,"i_long":106.850107},{"line":11,"distance":1567,"station_id":"PSE","transit":false,"time":8,"is_transit":false,"station_name":"Pasar Senen","i_lat":-6.174784,"i_long":106.84368},{"line":11,"i_long":106.839204,"station_id":"KMO","is_transit":false,"time":4,"station_name":"Kemayoran","transit":false,"distance":1436,"i_lat":-6.161728}],[{"station_id":"TEB","line":2,"transit":false,"is_transit":false,"time":0,"i_long":106.857948,"distance":0,"i_lat":-6.226659,"station_name":"Tebet"},{"distance":2610,"i_long":106.84912,"time":4,"is_transit":true,"station_name":"Manggarai","i_lat":-6.209883,"transit":true,"station_id":"MRI","line":2},{"time":4,"distance":3186,"is_transit":false,"transit":false,"station_id":"SUD","i_lat":-6.202263,"i_long":106.822649,"line":1,"station_name":"Sudirman"},{"is_transit":false,"i_lat":-6.201433,"transit":false,"distance":280,"time":1,"i_long":106.819881,"station_id":"SUDB","station_name":"Sudirman Baru","line":1},{"transit":false,"station_name":"Karet","time":1,"is_transit":false,"i_long":106.816351,"station_id":"KAT","i_lat":-6.20132,"line":1,"distance":471},{"is_transit":false,"line":1,"station_id":"THB","transit":false,"time":5,"i_lat":-6.185545,"i_long":106.811091,"station_name":"Tanah Abang","distance":2029},{"station_id":"DU","distance":3632,"i_lat":-6.155215,"line":1,"i_long":106.800832,"station_name":"Duri","time":8,"transit":false,"is_transit":false},{"time":4,"distance":1230,"is_transit":false,"line":1,"station_id":"AK","i_lat":-6.144674,"transit":false,"station_name":"Angke","i_long":106.79867},{"time":9,"distance":4102,"station_id":"KPB","is_transit":true,"i_lat":-6.132549,"station_name":"Kampung Bandan","i_long":106.826365,"line":4,"transit":true},{"station_name":"Rajawali","i_lat":-6.14505,"time":3,"is_transit":false,"distance":1444,"i_long":106.836569,"line":11,"transit":false,"station_id":"RJW"},{"line":11,"i_lat":-6.161728,"is_transit":false,"distance":1901,"station_id":"KMO","i_long":106.839204,"time":5,"station_name":"Kemayoran","transit":false}],[{"i_lat":-6.226659,"station_id":"TEB","i_long":106.857948,"time":0,"transit":false,"line":2,"distance":0,"is_transit":false,"station_name":"Tebet"},{"transit":false,"distance":2610,"time":4,"is_transit":false,"station_name":"Manggarai","station_id":"MRI","line":2,"i_lat":-6.209883,"i_long":106.84912},{"distance":1590,"station_id":"CKI","i_lat":-6.198556,"transit":false,"time":4,"is_transit":false,"i_long":106.840169,"line":2,"station_name":"Cikini"},{"station_id":"GDD","transit":false,"time":3,"is_transit":false,"i_long":106.832183,"line":2,"i_lat":-6.186295,"station_name":"Gondangdia","distance":1750},{"transit":false,"is_transit":false,"line":2,"time":4,"station_name":"Juanda","i_lat":-6.166716,"distance":2015,"i_long":106.828284,"station_id":"JUA"},{"station_id":"SW","transit":false,"i_lat":-6.160725,"line":2,"station_name":"Sawah Besar","is_transit":false,"distance":1149,"time":2,"i_long":106.827103},{"i_lat":-6.149769,"station_name":"Manggabesar","distance":906,"time":2,"station_id":"MGB","is_transit":false,"i_long":106.82482,"transit":false,"line":2},{"transit":false,"time":2,"is_transit":false,"i_lat":-6.141205,"distance":1080,"station_id":"JAY","i_long":106.820901,"line":2,"station_name":"Jayakarta"},{"i_long":106.812439,"transit":true,"i_lat":-6.137569,"time":4,"distance":1264,"station_name":"Jakarta Kota","station_id":"JAKK","line":2,"is_transit":true},{"distance":1364,"station_id":"KPB","station_name":"Kampung Bandan","line":4,"transit":true,"is_transit":true,"time":3,"i_long":106.826365,"i_lat":-6.132549},{"i_long":106.836569,"is_transit":false,"line":11,"i_lat":-6.14505,"station_name":"Rajawali","distance":1444,"time":3,"station_id":"RJW","transit":false},{"time":5,"transit":false,"station_id":"KMO","is_transit":false,"i_lat":-6.161728,"line":11,"i_long":106.839204,"distance":1901,"station_name":"Kemayoran"}]]}