{"data":[[{"i_long":106.857948,"station_id":"TEB","is_transit":false,"line":2,"transit":false,"distance":0,"i_lat":-6.226659,"time":0,"station_name":"Tebet"},{"transit":false,"line":2,"is_transit":false,"station_id":"CW","station_name":"Cawang","i_lat":-6.242512,"time":2,"i_long":106.856607,"distance":1230},{"i_long":106.85449,"time":3,"line":2,"station_name":"Duren Kalibata","station_id":"DRN","distance":1546,"is_transit":false,"transit":false,"i_lat":-6.255332},{"i_lat":-6.263214,"time":2,"distance":824,"station_id":"PSMB","is_transit":false,"transit":false,"station_name":"Pasar Minggu Baru","i_long":106.851577,"line":2},{"time":2,"transit":false,"station_name":"Pasar Minggu","i_lat":-6.2842400000000005,"line":2,"i_long":106.843999,"distance":2380,"station_id":"PSM","is_transit":false},{"time":4,"distance":2820,"station_id":"TNT","transit":false,"station_name":"Tanjung Barat","i_lat":-6.3080680000000005,"line":2,"is_transit":false,"i_long":106.838896},{"is_transit":false,"line":2,"station_name":"Lenteng Agung","distance":2671,"i_long":106.832616,"station_id":"LNA","transit":false,"i_lat":-6.330363,"time":3},{"line":2,"time":2,"is_transit":false,"i_lat":-6.339291,"transit":false,"station_name":"Univ. Pancasila","station_id":"UP","i_long":106.834175,"distance":1029},{"i_lat":-6.360749,"transit":false,"distance":2264,"station_name":"Univ. Indonesia","time":3,"line":2,"is_transit":false,"i_long":106.831474,"station_id":"UI"},{"line":2,"is_transit":false,"i_lat":-6.369073,"distance":1109,"i_long":106.831114,"station_id":"POC","transit":false,"time":2,"station_name":"Pondok Cina"},{"station_name":"Depokbaru","distance":2727,"transit":false,"i_lat":-6.391065,"is_transit":false,"i_long":106.819451,"line":2,"time":4,"station_id":"DPB"},{"time":3,"distance":1584,"transit":false,"station_id":"DP","i_long":106.816926,"station_name":"Depok","i_lat":-6.405256,"line":2,"is_transit":false},{"time":6,"station_id":"CTA","i_lat":-6.448811,"station_name":"Citayam","i_long":106.800298,"line":2,"distance":5084,"transit":false,"is_transit":false},{"station_id":"BJD","time":5,"transit":false,"station_name":"Bojonggede","i_lat":-6.493243,"distance":5197,"i_long":106.792719,"is_transit":false,"line":2},{"is_transit":false,"transit":false,"i_lat":-6.530544,"distance":4331,"station_name":"Cilebut","i_long":106.800016,"time":5,"station_id":"CLT","line":2},{"time":9,"is_transit":false,"i_long":106.790574,"i_lat":-6.594596,"transit":false,"distance":7514,"station_id":"BOO","station_name":"Bogor","line":2}]]}