{"data":[[{"station_name":"Tebet","transit":false,"i_long":106.857948,"line":2,"time":0,"is_transit":false,"distance":0,"station_id":"TEB","i_lat":-6.226659},{"station_id":"MRI","i_lat":-6.209883,"station_name":"Manggarai","is_transit":false,"transit":false,"distance":2610,"line":2,"i_long":106.84912,"time":4},{"i_long":106.840169,"station_id":"CKI","i_lat":-6.198556,"distance":1590,"station_name":"Cikini","transit":false,"time":4,"is_transit":false,"line":2},{"station_name":"Gondangdia","transit":false,"i_long":106.832183,"is_transit":false,"distance":1750,"line":2,"time":3,"i_lat":-6.186295,"station_id":"GDD"},{"time":4,"is_transit":false,"i_long":106.828284,"distance":2015,"i_lat":-6.166716,"line":2,"transit":false,"station_name":"Juanda","station_id":"JUA"},{"time":2,"i_long":106.827103,"station_name":"Sawah Besar","is_transit":false,"transit":false,"line":2,"distance":1149,"station_id":"SW","i_lat":-6.160725},{"line":2,"distance":906,"transit":false,"time":2,"station_name":"Manggabesar","is_transit":false,"station_id":"MGB","i_long":106.82482,"i_lat":-6.149769},{"station_name":"Jayakarta","i_lat":-6.141205,"is_transit":false,"i_long":106.820901,"distance":1080,"line":2,"time":2,"station_id":"JAY","transit":false}],[{"is_transit":false,"distance":0,"i_lat":-6.226659,"i_long":106.857948,"station_name":"Tebet","station_id":"TEB","transit":false,"line":2,"time":0},{"station_name":"Manggarai","i_lat":-6.209883,"station_id":"MRI","line":2,"transit":true,"i_long":106.84912,"distance":2610,"time":4,"is_transit":true},{"i_long":106.822649,"station_id":"SUD","time":4,"is_transit":false,"distance":3186,"i_lat":-6.202263,"station_name":"Sudirman","transit":false,"line":1},{"time":1,"station_name":"Sudirman Baru","is_transit":false,"transit":false,"line":1,"distance":280,"station_id":"SUDB","i_long":106.819881,"i_lat":-6.201433},{"transit":false,"time":1,"station_name":"Karet","is_transit":false,"i_lat":-6.20132,"line":1,"i_long":106.816351,"station_id":"KAT","distance":471},{"station_id":"THB","line":1,"time":5,"station_name":"Tanah Abang","distance":2029,"transit":false,"is_transit":false,"i_long":106.811091,"i_lat":-6.185545},{"i_lat":-6.155215,"i_long":106.800832,"station_name":"Duri","line":1,"station_id":"DU","is_transit":false,"distance":3632,"transit":false,"time":8},{"distance":1230,"transit":false,"i_long":106.79867,"is_transit":false,"i_lat":-6.144674,"line":1,"time":4,"station_id":"AK","station_name":"Angke"},{"transit":true,"i_long":106.826365,"is_transit":true,"distance":4102,"station_name":"Kampung Bandan","station_id":"KPB","i_lat":-6.132549,"line":4,"time":9},{"distance":1364,"is_transit":true,"station_id":"JAKK","i_lat":-6.137569,"i_long":106.812439,"transit":true,"station_name":"Jakarta Kota","line":2,"time":3},{"transit":false,"station_id":"JAY","station_name":"Jayakarta","distance":1264,"time":4,"line":2,"is_transit":false,"i_long":106.820901,"i_lat":-6.141205}],[{"station_id":"TEB","station_name":"Tebet","is_transit":false,"i_long":106.857948,"line":2,"time":0,"transit":false,"i_lat":-6.226659,"distance":0},{"i_long":106.84912,"station_name":"Manggarai","i_lat":-6.209883,"distance":2610,"time":4,"transit":true,"line":2,"is_transit":true,"station_id":"MRI"},{"i_long":106.858896,"time":2,"station_name":"Matraman","transit":false,"distance":1275,"is_transit":false,"i_lat":-6.212485,"station_id":"MTR","line":1},{"transit":true,"station_id":"JNG","is_transit":true,"station_name":"Jatinegara","i_lat":-6.215091,"i_long":106.86807400000001,"time":8,"line":1,"distance":1377},{"station_id":"POK","is_transit":false,"time":2,"transit":false,"distance":1236,"i_long":106.861737,"station_name":"Pondok Jati","i_lat":-6.209188,"line":11},{"distance":1829,"i_long":106.855437,"station_name":"Kramat","is_transit":false,"transit":false,"station_id":"KMT","time":2,"i_lat":-6.193792,"line":11},{"station_id":"GST","i_long":106.850107,"time":1,"is_transit":false,"station_name":"Gang Sentiong","i_lat":-6.185975,"transit":false,"distance":973,"line":11},{"line":11,"station_name":"Pasar Senen","station_id":"PSE","is_transit":false,"i_long":106.84368,"distance":1567,"i_lat":-6.174784,"time":8,"transit":false},{"distance":1436,"i_lat":-6.161728,"line":11,"i_long":106.839204,"station_name":"Kemayoran","is_transit":false,"station_id":"KMO","time":4,"transit":false},{"station_id":"RJW","distance":1901,"time":5,"station_name":"Rajawali","transit":false,"line":11,"i_long":106.836569,"is_transit":false,"i_lat":-6.14505},{"i_long":106.826365,"line":4,"distance":1444,"transit":true,"time":3,"station_name":"Kampung Bandan","i_lat":-6.132549,"is_transit":true,"station_id":"KPB"},{"station_id":"JAKK","station_name":"Jakarta Kota","transit":true,"distance":1364,"time":3,"is_transit":true,"i_long":106.812439,"line":2,"i_lat":-6.137569},{"station_id":"JAY","station_name":"Jayakarta","line":2,"transit":false,"is_transit":false,"i_lat":-6.141205,"time":4,"distance":1264,"i_long":106.820901}]]}