{"data":[[{"distance":0,"station_id":"TEB","i_lat":-6.226659,"station_name":"Tebet","time":0,"transit":false,"i_long":106.857948,"is_transit":false,"line":2},{"station_id":"MRI","is_transit":true,"distance":2610,"time":4,"i_lat":-6.209883,"transit":true,"station_name":"Manggarai","i_long":106.84912,"line":2},{"i_long":106.822649,"station_id":"SUD","station_name":"Sudirman","is_transit":false,"transit":false,"distance":3186,"time":4,"line":1,"i_lat":-6.202263},{"station_name":"Sudirman Baru","station_id":"SUDB","transit":false,"distance":280,"is_transit":false,"time":1,"i_lat":-6.201433,"line":1,"i_long":106.819881},{"station_id":"KAT","is_transit":false,"i_lat":-6.20132,"distance":471,"station_name":"Karet","time":1,"transit":false,"line":1,"i_long":106.816351},{"i_long":106.811091,"station_name":"Tanah Abang","station_id":"THB","distance":2029,"line":1,"transit":false,"is_transit":false,"time":5,"i_lat":-6.185545},{"station_name":"Duri","station_id":"DU","i_long":106.800832,"i_lat":-6.155215,"line":1,"is_transit":true,"time":8,"distance":3632,"transit":true},{"is_transit":false,"i_lat":-6.162021,"i_long":106.788277,"station_name":"Grogol","line":5,"station_id":"GGL","transit":false,"distance":1700,"time":3},{"distance":2036,"station_id":"PSG","i_lat":-6.161433,"transit":false,"line":5,"i_long":106.771379,"time":2,"is_transit":false,"station_name":"Pesing"}],[{"is_transit":false,"i_lat":-6.226659,"line":2,"station_id":"TEB","transit":false,"i_long":106.857948,"time":0,"distance":0,"station_name":"Tebet"},{"station_name":"Manggarai","time":4,"line":2,"distance":2610,"station_id":"MRI","transit":false,"i_lat":-6.209883,"i_long":106.84912,"is_transit":false},{"station_id":"CKI","line":2,"i_long":106.840169,"distance":1590,"station_name":"Cikini","time":4,"i_lat":-6.198556,"is_transit":false,"transit":false},{"transit":false,"i_lat":-6.186295,"i_long":106.832183,"station_id":"GDD","station_name":"Gondangdia","time":3,"distance":1750,"is_transit":false,"line":2},{"station_name":"Juanda","i_lat":-6.166716,"time":4,"line":2,"transit":false,"station_id":"JUA","i_long":106.828284,"is_transit":false,"distance":2015},{"station_name":"Sawah Besar","is_transit":false,"time":2,"transit":false,"i_lat":-6.160725,"station_id":"SW","line":2,"i_long":106.827103,"distance":1149},{"line":2,"station_id":"MGB","station_name":"Manggabesar","is_transit":false,"i_long":106.82482,"i_lat":-6.149769,"distance":906,"transit":false,"time":2},{"station_name":"Jayakarta","i_lat":-6.141205,"station_id":"JAY","time":2,"i_long":106.820901,"line":2,"is_transit":false,"transit":false,"distance":1080},{"is_transit":true,"i_lat":-6.137569,"station_id":"JAKK","station_name":"Jakarta Kota","time":4,"transit":true,"i_long":106.812439,"line":2,"distance":1264},{"is_transit":true,"time":3,"distance":1364,"i_lat":-6.132549,"i_long":106.826365,"line":4,"transit":true,"station_id":"KPB","station_name":"Kampung Bandan"},{"station_id":"AK","time":9,"distance":4102,"station_name":"Angke","i_long":106.79867,"is_transit":false,"transit":false,"i_lat":-6.144674,"line":1},{"transit":true,"is_transit":true,"distance":1230,"station_id":"DU","line":1,"i_lat":-6.155215,"station_name":"Duri","i_long":106.800832,"time":4},{"i_lat":-6.162021,"time":3,"distance":1700,"transit":false,"i_long":106.788277,"station_id":"GGL","station_name":"Grogol","is_transit":false,"line":5},{"station_id":"PSG","time":2,"is_transit":false,"station_name":"Pesing","distance":2036,"line":5,"i_lat":-6.161433,"i_long":106.771379,"transit":false}],[{"i_long":106.857948,"station_name":"Tebet","line":2,"is_transit":false,"station_id":"TEB","time":0,"distance":0,"transit":false,"i_lat":-6.226659},{"station_name":"Manggarai","distance":2610,"i_long":106.84912,"line":2,"is_transit":true,"station_id":"MRI","transit":true,"i_lat":-6.209883,"time":4},{"is_transit":false,"station_id":"MTR","distance":1275,"station_name":"Matraman","i_lat":-6.212485,"time":2,"i_long":106.858896,"line":1,"transit":false},{"i_long":106.86807400000001,"station_id":"JNG","line":1,"i_lat":-6.215091,"transit":true,"distance":1377,"is_transit":true,"time":8,"station_name":"Jatinegara"},{"i_long":106.861737,"transit":false,"distance":1236,"i_lat":-6.209188,"line":11,"is_transit":false,"time":2,"station_name":"Pondok Jati","station_id":"POK"},{"i_long":106.855437,"station_id":"KMT","distance":1829,"line":11,"is_transit":false,"station_name":"Kramat","time":2,"i_lat":-6.193792,"transit":false},{"time":1,"transit":false,"station_name":"Gang Sentiong","i_lat":-6.185975,"line":11,"is_transit":false,"station_id":"GST","i_long":106.850107,"distance":973},{"is_transit":false,"i_long":106.84368,"line":11,"i_lat":-6.174784,"distance":1567,"transit":false,"station_name":"Pasar Senen","time":8,"station_id":"PSE"},{"i_lat":-6.161728,"time":4,"i_long":106.839204,"station_name":"Kemayoran","is_transit":false,"distance":1436,"transit":false,"line":11,"station_id":"KMO"},{"station_name":"Rajawali","station_id":"RJW","time":5,"line":11,"is_transit":false,"i_lat":-6.14505,"i_long":106.836569,"transit":false,"distance":1901},{"is_transit":true,"i_lat":-6.132549,"i_long":106.826365,"line":4,"time":3,"distance":1444,"station_id":"KPB","station_name":"Kampung Bandan","transit":true},{"i_long":106.79867,"line":1,"is_transit":false,"transit":false,"distance":4102,"station_id":"AK","time":9,"station_name":"Angke","i_lat":-6.144674},{"i_long":106.800832,"station_id":"DU","is_transit":true,"distance":1230,"line":1,"transit":true,"time":4,"station_name":"Duri","i_lat":-6.155215},{"transit":false,"i_long":106.788277,"line":5,"is_transit":false,"station_name":"Grogol","time":3,"distance":1700,"station_id":"GGL","i_lat":-6.162021},{"time":2,"distance":2036,"transit":false,"i_long":106.771379,"line":5,"i_lat":-6.161433,"station_name":"Pesing","is_transit":false,"station_id":"PSG"}]]}