{"data":[[{"time":0,"transit":false,"is_transit":false,"station_name":"Tebet","station_id":"TEB","line":2,"i_lat":-6.226659,"i_long":106.857948,"distance":0},{"station_id":"CW","is_transit":false,"line":2,"transit":false,"i_long":106.856607,"i_lat":-6.242512,"time":2,"distance":1230,"station_name":"Cawang"},{"transit":false,"station_name":"Duren Kalibata","is_transit":false,"i_lat":-6.255332,"i_long":106.85449,"time":3,"line":2,"distance":1546,"station_id":"DRN"},{"station_id":"PSMB","i_long":106.851577,"time":2,"line":2,"station_name":"Pasar Minggu Baru","transit":false,"i_lat":-6.263214,"distance":824,"is_transit":false},{"transit":false,"is_transit":false,"i_lat":-6.2842400000000005,"i_long":106.843999,"time":2,"station_name":"Pasar Minggu","distance":2380,"station_id":"PSM","line":2},{"line":2,"time":4,"distance":2820,"i_long":106.838896,"transit":false,"station_name":"Tanjung Barat","i_lat":-6.3080680000000005,"station_id":"TNT","is_transit":false},{"station_id":"LNA","transit":false,"distance":2671,"station_name":"Lenteng Agung","time":3,"is_transit":false,"line":2,"i_lat":-6.330363,"i_long":106.832616}]]}