{"data":[[{"line":2,"transit":false,"station_id":"TEB","i_lat":-6.226659,"distance":0,"time":0,"station_name":"Tebet","is_transit":false,"i_long":106.857948},{"transit":false,"station_name":"Cawang","i_lat":-6.242512,"station_id":"CW","line":2,"is_transit":false,"distance":1230,"i_long":106.856607,"time":2},{"time":3,"station_id":"DRN","distance":1546,"line":2,"station_name":"Duren Kalibata","is_transit":false,"transit":false,"i_lat":-6.255332,"i_long":106.85449},{"station_id":"PSMB","i_lat":-6.263214,"time":2,"line":2,"distance":824,"station_name":"Pasar Minggu Baru","transit":false,"is_transit":false,"i_long":106.851577},{"i_long":106.843999,"station_name":"Pasar Minggu","station_id":"PSM","i_lat":-6.2842400000000005,"line":2,"transit":false,"time":2,"is_transit":false,"distance":2380},{"line":2,"time":4,"i_lat":-6.3080680000000005,"is_transit":false,"transit":false,"station_name":"Tanjung Barat","distance":2820,"i_long":106.838896,"station_id":"TNT"},{"time":3,"is_transit":false,"distance":2671,"i_lat":-6.330363,"transit":false,"i_long":106.832616,"line":2,"station_id":"LNA","station_name":"Lenteng Agung"},{"time":2,"distance":1029,"station_id":"UP","line":2,"is_transit":false,"station_name":"Univ. Pancasila","transit":false,"i_lat":-6.339291,"i_long":106.834175},{"station_id":"UI","distance":2264,"time":3,"station_name":"Univ. Indonesia","i_long":106.831474,"line":2,"transit":false,"is_transit":false,"i_lat":-6.360749},{"time":2,"i_lat":-6.369073,"line":2,"is_transit":false,"distance":1109,"i_long":106.831114,"station_name":"Pondok Cina","station_id":"POC","transit":false},{"line":2,"i_long":106.819451,"station_id":"DPB","station_name":"Depokbaru","transit":false,"time":4,"is_transit":false,"i_lat":-6.391065,"distance":2727},{"time":3,"i_lat":-6.405256,"distance":1584,"is_transit":false,"line":2,"i_long":106.816926,"transit":false,"station_name":"Depok","station_id":"DP"},{"time":6,"transit":true,"i_lat":-6.448811,"station_name":"Citayam","i_long":106.800298,"line":2,"distance":5084,"station_id":"CTA","is_transit":true},{"station_id":"PDRG","distance":0,"i_lat":-6.460735,"is_transit":false,"station_name":"Pondok Rajeg","transit":false,"i_long":106.824374,"line":21,"time":0},{"i_lat":-6.46424,"is_transit":false,"distance":0,"station_name":"Cibinong","station_id":"CBN","time":0,"transit":false,"i_long":106.851978,"line":21}]]}