{"data":[[{"i_long":106.857948,"distance":0,"station_id":"TEB","transit":false,"is_transit":false,"time":0,"line":2,"station_name":"Tebet","i_lat":-6.226659},{"transit":true,"i_lat":-6.209883,"station_id":"MRI","line":0,"i_long":106.84912,"is_transit":true,"station_name":"Manggarai","time":4,"distance":2610},{"is_transit":false,"i_lat":-6.202263,"station_name":"Sudirman","station_id":"SUD","distance":3186,"time":4,"i_long":106.822649,"transit":false,"line":1},{"station_name":"Sudirman Baru","i_lat":-6.201433,"distance":280,"line":1,"transit":false,"time":1,"station_id":"SUDB","is_transit":false,"i_long":106.819881},{"is_transit":false,"distance":471,"station_id":"KAT","transit":false,"time":1,"station_name":"Karet","line":1,"i_lat":-6.20132,"i_long":106.816351},{"station_name":"Tanah Abang","time":5,"distance":2029,"i_long":106.811091,"station_id":"THB","is_transit":true,"i_lat":-6.185545,"line":1,"transit":false},{"time":8,"i_long":106.800832,"line":1,"i_lat":-6.155215,"transit":true,"station_name":"Duri","distance":3632,"is_transit":true,"station_id":"DU"},{"line":5,"transit":false,"i_long":106.788277,"time":3,"distance":1700,"station_id":"GGL","is_transit":false,"i_lat":-6.162021,"station_name":"Grogol"},{"i_long":106.771379,"distance":2036,"station_id":"PSG","line":5,"i_lat":-6.161433,"is_transit":false,"station_name":"Pesing","transit":false,"time":2},{"transit":false,"is_transit":false,"i_long":106.756522,"time":2,"line":5,"distance":1614,"station_id":"TKO","i_lat":-6.1587309999999995,"station_name":"Taman Kota"}],[{"time":0,"station_id":"TEB","i_long":106.857948,"distance":0,"i_lat":-6.226659,"is_transit":false,"line":2,"station_name":"Tebet","transit":false},{"is_transit":true,"station_id":"MRI","time":4,"line":0,"i_long":106.84912,"station_name":"Manggarai","i_lat":-6.209883,"distance":2610,"transit":true},{"distance":1590,"station_id":"CKI","time":4,"i_lat":-6.198556,"i_long":106.840169,"line":0,"transit":false,"station_name":"Cikini","is_transit":false},{"station_name":"Gondangdia","is_transit":false,"time":3,"station_id":"GDD","i_lat":-6.186295,"transit":false,"i_long":106.832183,"line":2,"distance":1750},{"distance":2015,"station_name":"Juanda","is_transit":false,"station_id":"JUA","time":4,"line":2,"transit":false,"i_long":106.828284,"i_lat":-6.166716},{"distance":1149,"is_transit":false,"transit":false,"time":2,"i_lat":-6.160725,"i_long":106.827103,"line":2,"station_id":"SW","station_name":"Sawah Besar"},{"i_lat":-6.149769,"i_long":106.82482,"is_transit":false,"distance":906,"station_name":"Manggabesar","station_id":"MGB","line":2,"time":2,"transit":false},{"station_name":"Jayakarta","is_transit":false,"i_lat":-6.141205,"transit":false,"i_long":106.820901,"line":7,"distance":1080,"station_id":"JAY","time":2},{"time":4,"distance":1264,"is_transit":true,"station_id":"JAKK","station_name":"Jakarta Kota","transit":true,"i_lat":-6.137569,"i_long":106.812439,"line":0},{"is_transit":true,"line":0,"time":3,"station_id":"KPB","i_lat":-6.132549,"i_long":106.826365,"distance":1364,"station_name":"Kampung Bandan","transit":false},{"i_lat":-6.144674,"station_name":"Angke","transit":false,"time":9,"is_transit":false,"distance":4102,"i_long":106.79867,"line":0,"station_id":"AK"},{"station_id":"DU","distance":1230,"station_name":"Duri","transit":true,"is_transit":true,"time":4,"i_long":106.800832,"i_lat":-6.155215,"line":1},{"is_transit":false,"time":3,"line":5,"i_long":106.788277,"distance":1700,"i_lat":-6.162021,"station_id":"GGL","station_name":"Grogol","transit":false},{"is_transit":false,"distance":2036,"transit":false,"i_long":106.771379,"time":2,"i_lat":-6.161433,"station_id":"PSG","station_name":"Pesing","line":5},{"i_lat":-6.1587309999999995,"time":2,"distance":1614,"is_transit":false,"transit":false,"station_name":"Taman Kota","station_id":"TKO","line":5,"i_long":106.756522}],[{"i_long":106.857948,"distance":0,"station_id":"TEB","is_transit":false,"i_lat":-6.226659,"station_name":"Tebet","transit":false,"time":0,"line":2},{"i_long":106.84912,"i_lat":-6.209883,"station_name":"Manggarai","line":0,"is_transit":true,"distance":2610,"station_id":"MRI","transit":true,"time":4},{"distance":1275,"time":2,"is_transit":false,"line":1,"station_name":"Matraman","transit":false,"station_id":"MTR","i_long":106.858896,"i_lat":-6.212485},{"i_lat":-6.215091,"transit":true,"time":8,"i_long":106.86807400000001,"station_id":"JNG","is_transit":true,"line":0,"station_name":"Jatinegara","distance":1377},{"station_id":"POK","time":2,"i_lat":-6.209188,"distance":1236,"transit":false,"i_long":106.861737,"line":11,"station_name":"Pondok Jati","is_transit":false},{"line":11,"distance":1829,"time":2,"station_name":"Kramat","station_id":"KMT","transit":false,"is_transit":false,"i_lat":-6.193792,"i_long":106.855437},{"distance":973,"time":1,"i_long":106.850107,"transit":false,"i_lat":-6.185975,"line":11,"station_id":"GST","is_transit":false,"station_name":"Gang Sentiong"},{"transit":false,"time":8,"is_transit":false,"station_name":"Pasar Senen","station_id":"PSE","i_lat":-6.174784,"i_long":106.84368,"distance":1567,"line":11},{"station_name":"Kemayoran","i_long":106.839204,"transit":false,"distance":1436,"is_transit":false,"station_id":"KMO","i_lat":-6.161728,"line":11,"time":4},{"station_id":"RJW","i_lat":-6.14505,"time":5,"station_name":"Rajawali","is_transit":false,"i_long":106.836569,"distance":1901,"transit":false,"line":11},{"is_transit":true,"i_long":106.826365,"station_id":"KPB","i_lat":-6.132549,"station_name":"Kampung Bandan","distance":1444,"time":3,"line":0,"transit":true},{"is_transit":false,"transit":false,"time":9,"i_lat":-6.144674,"station_id":"AK","distance":4102,"station_name":"Angke","i_long":106.79867,"line":0},{"distance":1230,"station_name":"Duri","station_id":"DU","transit":true,"is_transit":true,"i_long":106.800832,"i_lat":-6.155215,"line":1,"time":4},{"station_name":"Grogol","station_id":"GGL","transit":false,"time":3,"i_lat":-6.162021,"i_long":106.788277,"is_transit":false,"distance":1700,"line":5},{"distance":2036,"i_long":106.771379,"station_id":"PSG","station_name":"Pesing","transit":false,"time":2,"line":5,"is_transit":false,"i_lat":-6.161433},{"transit":false,"time":2,"i_lat":-6.1587309999999995,"is_transit":false,"i_long":106.756522,"station_id":"TKO","line":5,"distance":1614,"station_name":"Taman Kota"}]]}