{"data":[[{"time":0,"station_id":"TEB","distance":0,"i_lat":-6.226659,"transit":false,"is_transit":false,"i_long":106.857948,"line":2,"station_name":"Tebet"},{"transit":true,"is_transit":true,"time":4,"station_id":"MRI","station_name":"Manggarai","i_lat":-6.209883,"line":2,"i_long":106.84912,"distance":2610},{"station_name":"Sudirman","station_id":"SUD","transit":false,"is_transit":false,"time":4,"distance":3186,"i_long":106.822649,"i_lat":-6.202263,"line":1},{"distance":280,"time":1,"i_long":106.819881,"station_id":"SUDB","is_transit":false,"i_lat":-6.201433,"line":1,"transit":false,"station_name":"Sudirman Baru"},{"transit":false,"time":1,"station_name":"Karet","i_lat":-6.20132,"is_transit":false,"station_id":"KAT","i_long":106.816351,"line":1,"distance":471},{"station_id":"THB","station_name":"Tanah Abang","time":5,"i_long":106.811091,"is_transit":false,"distance":2029,"line":1,"transit":false,"i_lat":-6.185545},{"i_long":106.800832,"time":8,"is_transit":true,"i_lat":-6.155215,"transit":true,"station_name":"Duri","station_id":"DU","distance":3632,"line":1},{"i_long":106.788277,"station_id":"GGL","line":5,"i_lat":-6.162021,"distance":1700,"is_transit":false,"time":3,"transit":false,"station_name":"Grogol"},{"i_lat":-6.161433,"is_transit":false,"station_id":"PSG","station_name":"Pesing","i_long":106.771379,"distance":2036,"time":2,"line":5,"transit":false},{"time":2,"transit":false,"line":5,"i_lat":-6.1587309999999995,"is_transit":false,"station_id":"TKO","station_name":"Taman Kota","distance":1614,"i_long":106.756522}],[{"is_transit":false,"transit":false,"station_id":"TEB","time":0,"distance":0,"i_long":106.857948,"i_lat":-6.226659,"station_name":"Tebet","line":2},{"i_lat":-6.209883,"i_long":106.84912,"station_id":"MRI","line":2,"station_name":"Manggarai","distance":2610,"is_transit":false,"time":4,"transit":false},{"station_name":"Cikini","is_transit":false,"time":4,"i_long":106.840169,"transit":false,"line":2,"distance":1590,"station_id":"CKI","i_lat":-6.198556},{"is_transit":false,"station_id":"GDD","distance":1750,"i_lat":-6.186295,"station_name":"Gondangdia","i_long":106.832183,"line":2,"transit":false,"time":3},{"i_lat":-6.166716,"line":2,"is_transit":false,"i_long":106.828284,"transit":false,"station_name":"Juanda","time":4,"station_id":"JUA","distance":2015},{"time":2,"is_transit":false,"distance":1149,"transit":false,"station_name":"Sawah Besar","line":2,"i_long":106.827103,"station_id":"SW","i_lat":-6.160725},{"line":2,"transit":false,"station_id":"MGB","time":2,"i_lat":-6.149769,"station_name":"Manggabesar","i_long":106.82482,"is_transit":false,"distance":906},{"line":2,"distance":1080,"i_lat":-6.141205,"i_long":106.820901,"time":2,"station_id":"JAY","transit":false,"is_transit":false,"station_name":"Jayakarta"},{"station_id":"JAKK","i_long":106.812439,"i_lat":-6.137569,"transit":true,"line":2,"is_transit":true,"distance":1264,"station_name":"Jakarta Kota","time":4},{"is_transit":true,"station_name":"Kampung Bandan","time":3,"station_id":"KPB","i_long":106.826365,"distance":1364,"i_lat":-6.132549,"line":4,"transit":true},{"station_name":"Angke","line":1,"time":9,"distance":4102,"i_lat":-6.144674,"station_id":"AK","i_long":106.79867,"transit":false,"is_transit":false},{"station_id":"DU","transit":true,"is_transit":true,"distance":1230,"time":4,"i_lat":-6.155215,"i_long":106.800832,"line":1,"station_name":"Duri"},{"is_transit":false,"i_long":106.788277,"transit":false,"station_id":"GGL","station_name":"Grogol","i_lat":-6.162021,"line":5,"distance":1700,"time":3},{"i_lat":-6.161433,"time":2,"station_name":"Pesing","transit":false,"station_id":"PSG","is_transit":false,"i_long":106.771379,"line":5,"distance":2036},{"transit":false,"station_name":"Taman Kota","distance":1614,"i_lat":-6.1587309999999995,"i_long":106.756522,"station_id":"TKO","is_transit":false,"time":2,"line":5}],[{"i_long":106.857948,"distance":0,"line":2,"i_lat":-6.226659,"station_name":"Tebet","station_id":"TEB","transit":false,"is_transit":false,"time":0},{"transit":true,"time":4,"line":2,"distance":2610,"station_name":"Manggarai","is_transit":true,"i_long":106.84912,"station_id":"MRI","i_lat":-6.209883},{"is_transit":false,"distance":1275,"i_long":106.858896,"line":1,"time":2,"transit":false,"station_name":"Matraman","i_lat":-6.212485,"station_id":"MTR"},{"transit":true,"time":8,"station_id":"JNG","line":1,"i_long":106.86807400000001,"is_transit":true,"i_lat":-6.215091,"station_name":"Jatinegara","distance":1377},{"station_id":"POK","line":11,"i_lat":-6.209188,"time":2,"distance":1236,"i_long":106.861737,"is_transit":false,"station_name":"Pondok Jati","transit":false},{"i_long":106.855437,"line":11,"distance":1829,"is_transit":false,"station_id":"KMT","transit":false,"station_name":"Kramat","i_lat":-6.193792,"time":2},{"i_long":106.850107,"is_transit":false,"i_lat":-6.185975,"time":1,"transit":false,"distance":973,"station_id":"GST","station_name":"Gang Sentiong","line":11},{"transit":false,"i_lat":-6.174784,"time":8,"line":11,"is_transit":false,"station_id":"PSE","distance":1567,"station_name":"Pasar Senen","i_long":106.84368},{"line":11,"is_transit":false,"time":4,"i_long":106.839204,"transit":false,"i_lat":-6.161728,"station_id":"KMO","distance":1436,"station_name":"Kemayoran"},{"time":5,"distance":1901,"line":11,"station_name":"Rajawali","i_long":106.836569,"is_transit":false,"transit":false,"i_lat":-6.14505,"station_id":"RJW"},{"station_name":"Kampung Bandan","is_transit":true,"line":4,"transit":true,"station_id":"KPB","time":3,"distance":1444,"i_lat":-6.132549,"i_long":106.826365},{"is_transit":false,"line":1,"i_lat":-6.144674,"station_name":"Angke","i_long":106.79867,"time":9,"transit":false,"distance":4102,"station_id":"AK"},{"is_transit":true,"i_long":106.800832,"line":1,"station_name":"Duri","transit":true,"station_id":"DU","i_lat":-6.155215,"distance":1230,"time":4},{"distance":1700,"transit":false,"is_transit":false,"i_lat":-6.162021,"time":3,"station_name":"Grogol","station_id":"GGL","i_long":106.788277,"line":5},{"transit":false,"station_id":"PSG","station_name":"Pesing","distance":2036,"is_transit":false,"i_lat":-6.161433,"line":5,"i_long":106.771379,"time":2},{"distance":1614,"transit":false,"i_lat":-6.1587309999999995,"time":2,"station_name":"Taman Kota","station_id":"TKO","is_transit":false,"line":5,"i_long":106.756522}]]}