{"data":[[{"is_transit":false,"i_long":106.460812,"station_name":"Tenjo","time":0,"station_id":"TEJ","distance":0,"i_lat":-6.327251,"line":6,"transit":false},{"line":0,"transit":false,"station_id":"DAR","i_long":106.491338,"time":5,"distance":3902,"is_transit":false,"station_name":"Daru","i_lat":-6.338021},{"station_name":"Cilejit","transit":false,"distance":2675,"station_id":"CJT","line":3,"is_transit":false,"time":6,"i_lat":-6.354349,"i_long":106.508482},{"station_id":"PRP","station_name":"Parung Panjang","transit":false,"is_transit":false,"distance":7025,"i_lat":-6.3441410000000005,"time":9,"line":6,"i_long":106.568863},{"is_transit":false,"station_name":"Cicayur","line":3,"station_id":"CC","i_lat":-6.329547,"distance":5968,"i_long":106.617853,"time":8,"transit":false},{"i_long":106.640411,"station_id":"CSK","is_transit":false,"station_name":"Cisauk","time":4,"transit":false,"i_lat":-6.32484,"line":3,"distance":2519},{"station_id":"SRP","transit":false,"line":6,"is_transit":false,"time":4,"station_name":"Serpong","i_lat":-6.319871,"distance":1784,"i_long":106.66566},{"transit":false,"i_lat":-6.314823,"i_long":106.675475,"time":4,"station_name":"Rawa Buntu","station_id":"RU","is_transit":false,"line":6,"distance":2413},{"station_name":"Sudimara","i_lat":-6.296963,"is_transit":false,"i_long":106.712277,"time":6,"station_id":"SDM","distance":4566,"transit":false,"line":6},{"is_transit":false,"i_lat":-6.288927,"distance":1994,"station_name":"Jurangmangu","line":6,"transit":false,"station_id":"JMU","time":4,"i_long":106.728916},{"i_lat":-6.276362,"line":6,"i_long":106.74273,"transit":false,"time":3,"is_transit":false,"station_id":"PDJ","station_name":"Pondokranji","distance":2179},{"is_transit":false,"i_lat":-6.237242,"distance":6218,"line":6,"station_name":"Kebayoran","i_long":106.780334,"time":8,"transit":false,"station_id":"KBY"},{"i_lat":-6.207404,"distance":3737,"time":7,"station_name":"Palmerah","line":6,"transit":false,"station_id":"PLM","is_transit":false,"i_long":106.79689},{"station_name":"Tanah Abang","i_lat":-6.185545,"is_transit":true,"line":1,"station_id":"THB","transit":true,"i_long":106.811091,"distance":3191,"time":6},{"distance":2029,"is_transit":false,"i_long":106.816351,"i_lat":-6.20132,"transit":false,"station_name":"Karet","time":5,"station_id":"KAT","line":1},{"station_id":"SUDB","is_transit":false,"line":1,"i_lat":-6.201433,"transit":false,"station_name":"Sudirman Baru","time":1,"distance":471,"i_long":106.819881},{"station_name":"Sudirman","i_long":106.822649,"i_lat":-6.202263,"time":1,"line":1,"transit":false,"distance":280,"is_transit":false,"station_id":"SUD"}],[{"station_id":"TEJ","is_transit":false,"station_name":"Tenjo","distance":0,"i_lat":-6.327251,"transit":false,"time":0,"i_long":106.460812,"line":6},{"time":5,"i_lat":-6.338021,"transit":false,"is_transit":false,"distance":3902,"line":0,"station_name":"Daru","i_long":106.491338,"station_id":"DAR"},{"station_name":"Cilejit","i_long":106.508482,"i_lat":-6.354349,"transit":false,"distance":2675,"line":3,"is_transit":false,"station_id":"CJT","time":6},{"is_transit":false,"line":6,"transit":false,"distance":7025,"station_name":"Parung Panjang","time":9,"i_long":106.568863,"station_id":"PRP","i_lat":-6.3441410000000005},{"transit":false,"distance":5968,"i_long":106.617853,"station_name":"Cicayur","line":3,"time":8,"is_transit":false,"station_id":"CC","i_lat":-6.329547},{"i_lat":-6.32484,"time":4,"is_transit":false,"distance":2519,"station_id":"CSK","station_name":"Cisauk","line":3,"i_long":106.640411,"transit":false},{"time":4,"i_lat":-6.319871,"line":6,"station_name":"Serpong","station_id":"SRP","i_long":106.66566,"is_transit":false,"transit":false,"distance":1784},{"station_id":"RU","line":6,"i_lat":-6.314823,"i_long":106.675475,"time":4,"station_name":"Rawa Buntu","transit":false,"distance":2413,"is_transit":false},{"i_lat":-6.296963,"station_id":"SDM","is_transit":false,"time":6,"i_long":106.712277,"station_name":"Sudimara","line":6,"transit":false,"distance":4566},{"station_id":"JMU","transit":false,"time":4,"distance":1994,"is_transit":false,"i_lat":-6.288927,"i_long":106.728916,"station_name":"Jurangmangu","line":6},{"i_lat":-6.276362,"distance":2179,"station_id":"PDJ","station_name":"Pondokranji","is_transit":false,"line":6,"time":3,"i_long":106.74273,"transit":false},{"transit":false,"distance":6218,"time":8,"is_transit":false,"station_name":"Kebayoran","station_id":"KBY","i_lat":-6.237242,"i_long":106.780334,"line":6},{"i_lat":-6.207404,"is_transit":false,"distance":3737,"time":7,"i_long":106.79689,"transit":false,"line":6,"station_name":"Palmerah","station_id":"PLM"},{"transit":true,"station_id":"THB","time":6,"station_name":"Tanah Abang","distance":3191,"i_lat":-6.185545,"is_transit":true,"i_long":106.811091,"line":1},{"i_long":106.800832,"station_id":"DU","distance":3632,"station_name":"Duri","transit":false,"line":1,"time":8,"is_transit":false,"i_lat":-6.155215},{"is_transit":false,"time":4,"station_name":"Angke","station_id":"AK","distance":1230,"i_lat":-6.144674,"transit":false,"i_long":106.79867,"line":1},{"station_name":"Kampung Bandan","time":9,"station_id":"KPB","transit":true,"distance":4102,"is_transit":true,"i_lat":-6.132549,"i_long":106.826365,"line":4},{"line":2,"station_name":"Jakarta Kota","station_id":"JAKK","distance":1364,"time":3,"i_lat":-6.137569,"transit":true,"is_transit":true,"i_long":106.812439},{"line":2,"i_lat":-6.141205,"i_long":106.820901,"station_id":"JAY","transit":false,"is_transit":false,"station_name":"Jayakarta","distance":1264,"time":4},{"is_transit":false,"station_id":"MGB","line":2,"transit":false,"distance":1080,"time":2,"station_name":"Manggabesar","i_lat":-6.149769,"i_long":106.82482},{"station_name":"Sawah Besar","distance":906,"i_long":106.827103,"transit":false,"is_transit":false,"line":2,"time":2,"i_lat":-6.160725,"station_id":"SW"},{"station_name":"Juanda","distance":1149,"station_id":"JUA","i_lat":-6.166716,"i_long":106.828284,"line":2,"is_transit":false,"time":2,"transit":false},{"is_transit":false,"time":4,"station_id":"GDD","transit":false,"i_long":106.832183,"i_lat":-6.186295,"line":2,"distance":2015,"station_name":"Gondangdia"},{"line":2,"transit":false,"distance":1750,"station_name":"Cikini","i_lat":-6.198556,"is_transit":false,"i_long":106.840169,"time":3,"station_id":"CKI"},{"is_transit":true,"distance":1590,"transit":true,"station_name":"Manggarai","time":4,"i_lat":-6.209883,"i_long":106.84912,"line":2,"station_id":"MRI"},{"time":4,"i_lat":-6.202263,"line":1,"is_transit":false,"station_name":"Sudirman","transit":false,"station_id":"SUD","i_long":106.822649,"distance":3186}],[{"i_lat":-6.327251,"time":0,"transit":false,"station_name":"Tenjo","station_id":"TEJ","i_long":106.460812,"is_transit":false,"distance":0,"line":6},{"is_transit":false,"i_long":106.491338,"distance":3902,"time":5,"i_lat":-6.338021,"line":0,"transit":false,"station_name":"Daru","station_id":"DAR"},{"time":6,"i_long":106.508482,"transit":false,"line":3,"station_id":"CJT","station_name":"Cilejit","i_lat":-6.354349,"is_transit":false,"distance":2675},{"station_id":"PRP","line":6,"i_long":106.568863,"transit":false,"time":9,"i_lat":-6.3441410000000005,"distance":7025,"is_transit":false,"station_name":"Parung Panjang"},{"distance":5968,"i_lat":-6.329547,"line":3,"transit":false,"i_long":106.617853,"station_id":"CC","is_transit":false,"station_name":"Cicayur","time":8},{"distance":2519,"line":3,"station_id":"CSK","time":4,"i_lat":-6.32484,"is_transit":false,"transit":false,"i_long":106.640411,"station_name":"Cisauk"},{"line":6,"is_transit":false,"station_id":"SRP","distance":1784,"station_name":"Serpong","i_lat":-6.319871,"transit":false,"i_long":106.66566,"time":4},{"distance":2413,"transit":false,"station_id":"RU","i_lat":-6.314823,"station_name":"Rawa Buntu","line":6,"is_transit":false,"i_long":106.675475,"time":4},{"station_name":"Sudimara","is_transit":false,"line":6,"i_lat":-6.296963,"i_long":106.712277,"time":6,"station_id":"SDM","transit":false,"distance":4566},{"i_long":106.728916,"transit":false,"is_transit":false,"station_name":"Jurangmangu","time":4,"line":6,"station_id":"JMU","i_lat":-6.288927,"distance":1994},{"station_id":"PDJ","station_name":"Pondokranji","i_long":106.74273,"line":6,"distance":2179,"is_transit":false,"transit":false,"i_lat":-6.276362,"time":3},{"transit":false,"station_id":"KBY","i_lat":-6.237242,"station_name":"Kebayoran","distance":6218,"i_long":106.780334,"time":8,"line":6,"is_transit":false},{"time":7,"i_long":106.79689,"transit":false,"i_lat":-6.207404,"is_transit":false,"line":6,"station_id":"PLM","station_name":"Palmerah","distance":3737},{"line":1,"transit":true,"distance":3191,"is_transit":true,"station_id":"THB","time":6,"station_name":"Tanah Abang","i_lat":-6.185545,"i_long":106.811091},{"distance":3632,"station_id":"DU","line":1,"time":8,"station_name":"Duri","i_lat":-6.155215,"i_long":106.800832,"is_transit":false,"transit":false},{"station_name":"Angke","i_lat":-6.144674,"transit":false,"i_long":106.79867,"station_id":"AK","is_transit":false,"time":4,"line":1,"distance":1230},{"distance":4102,"i_lat":-6.132549,"is_transit":true,"time":9,"line":4,"transit":true,"station_id":"KPB","i_long":106.826365,"station_name":"Kampung Bandan"},{"station_id":"RJW","time":3,"is_transit":false,"transit":false,"distance":1444,"station_name":"Rajawali","i_lat":-6.14505,"i_long":106.836569,"line":11},{"i_lat":-6.161728,"transit":false,"time":5,"i_long":106.839204,"distance":1901,"line":11,"station_id":"KMO","is_transit":false,"station_name":"Kemayoran"},{"station_name":"Pasar Senen","i_lat":-6.174784,"time":4,"i_long":106.84368,"line":11,"distance":1436,"transit":false,"station_id":"PSE","is_transit":false},{"i_lat":-6.185975,"transit":false,"i_long":106.850107,"station_name":"Gang Sentiong","distance":1567,"time":8,"line":11,"station_id":"GST","is_transit":false},{"time":1,"is_transit":false,"distance":973,"station_name":"Kramat","transit":false,"i_lat":-6.193792,"i_long":106.855437,"station_id":"KMT","line":11},{"i_long":106.861737,"line":11,"station_id":"POK","is_transit":false,"i_lat":-6.209188,"transit":false,"distance":1829,"station_name":"Pondok Jati","time":2},{"i_lat":-6.215091,"is_transit":true,"station_name":"Jatinegara","distance":1236,"time":9,"i_long":106.86807400000001,"station_id":"JNG","transit":true,"line":1},{"distance":1377,"i_long":106.858896,"transit":false,"is_transit":false,"time":2,"i_lat":-6.212485,"line":1,"station_name":"Matraman","station_id":"MTR"},{"i_lat":-6.209883,"is_transit":false,"time":2,"i_long":106.84912,"line":2,"station_id":"MRI","station_name":"Manggarai","transit":false,"distance":1275},{"station_id":"SUD","line":1,"i_lat":-6.202263,"transit":false,"station_name":"Sudirman","i_long":106.822649,"distance":3186,"is_transit":false,"time":4}]]}