{"data":[[{"transit":false,"station_id":"TEJ","is_transit":false,"i_long":106.460812,"i_lat":-6.327251,"time":0,"distance":0,"station_name":"Tenjo","line":6},{"i_long":106.425991,"distance":2974,"line":6,"station_id":"TGS","station_name":"Tigaraksa","i_lat":-6.328533,"is_transit":false,"time":5,"transit":false},{"station_name":"Cikoya","i_long":106.411216,"distance":2651,"line":3,"station_id":"CKY","is_transit":false,"time":3,"transit":false,"i_lat":-6.33561},{"line":6,"is_transit":false,"station_name":"Maja","transit":false,"distance":1853,"i_long":106.394373,"station_id":"MJ","time":4,"i_lat":-6.332307},{"station_id":"CTR","i_long":106.332092,"station_name":"Citeras","transit":false,"i_lat":-6.334892,"is_transit":false,"time":10,"distance":7293,"line":3}]]}