{"data":[[{"i_lat":-6.327251,"station_name":"Tenjo","i_long":106.460812,"station_id":"TEJ","distance":0,"time":0,"is_transit":false,"transit":false,"line":6},{"is_transit":false,"line":0,"station_name":"Daru","transit":false,"station_id":"DAR","i_long":106.491338,"distance":3902,"time":5,"i_lat":-6.338021},{"i_lat":-6.354349,"station_id":"CJT","distance":2675,"transit":false,"station_name":"Cilejit","time":6,"line":3,"i_long":106.508482,"is_transit":false},{"station_name":"Parung Panjang","distance":7025,"i_long":106.568863,"is_transit":false,"station_id":"PRP","time":9,"i_lat":-6.3441410000000005,"transit":false,"line":6},{"distance":5968,"time":8,"station_name":"Cicayur","station_id":"CC","line":3,"transit":false,"i_long":106.617853,"i_lat":-6.329547,"is_transit":false},{"station_id":"CSK","i_long":106.640411,"line":3,"time":4,"transit":false,"distance":2519,"i_lat":-6.32484,"station_name":"Cisauk","is_transit":false},{"i_long":106.66566,"is_transit":false,"distance":1784,"i_lat":-6.319871,"time":4,"transit":false,"station_id":"SRP","line":6,"station_name":"Serpong"},{"distance":2413,"transit":false,"line":6,"station_id":"RU","i_long":106.675475,"station_name":"Rawa Buntu","i_lat":-6.314823,"time":4,"is_transit":false},{"i_lat":-6.296963,"i_long":106.712277,"time":6,"line":6,"station_name":"Sudimara","is_transit":false,"transit":false,"station_id":"SDM","distance":4566},{"station_id":"JMU","time":4,"line":6,"is_transit":false,"i_long":106.728916,"i_lat":-6.288927,"distance":1994,"transit":false,"station_name":"Jurangmangu"},{"station_name":"Pondokranji","line":6,"transit":false,"station_id":"PDJ","is_transit":false,"time":3,"distance":2179,"i_lat":-6.276362,"i_long":106.74273},{"distance":6218,"time":8,"i_lat":-6.237242,"i_long":106.780334,"station_id":"KBY","is_transit":false,"line":6,"station_name":"Kebayoran","transit":false},{"transit":false,"station_id":"PLM","i_long":106.79689,"distance":3737,"is_transit":false,"station_name":"Palmerah","time":7,"line":6,"i_lat":-6.207404},{"station_name":"Tanah Abang","station_id":"THB","i_lat":-6.185545,"time":6,"i_long":106.811091,"transit":true,"line":1,"distance":3191,"is_transit":true},{"distance":2029,"is_transit":false,"time":5,"i_lat":-6.20132,"i_long":106.816351,"station_id":"KAT","station_name":"Karet","transit":false,"line":1},{"station_id":"SUDB","i_lat":-6.201433,"distance":471,"i_long":106.819881,"is_transit":false,"time":1,"transit":false,"station_name":"Sudirman Baru","line":1},{"station_id":"SUD","line":1,"time":1,"is_transit":false,"i_long":106.822649,"distance":280,"transit":false,"station_name":"Sudirman","i_lat":-6.202263},{"is_transit":false,"distance":3186,"i_lat":-6.209883,"time":4,"station_id":"MRI","transit":false,"i_long":106.84912,"line":2,"station_name":"Manggarai"},{"transit":false,"station_name":"Matraman","i_lat":-6.212485,"time":2,"i_long":106.858896,"station_id":"MTR","line":1,"distance":1275,"is_transit":false},{"distance":1377,"i_long":106.86807400000001,"line":1,"station_name":"Jatinegara","time":8,"station_id":"JNG","transit":false,"i_lat":-6.215091,"is_transit":false},{"station_id":"KLD","i_lat":-6.2135,"i_long":106.899548,"line":1,"distance":3395,"station_name":"Klender","time":3,"is_transit":false,"transit":false}],[{"station_id":"TEJ","is_transit":false,"i_long":106.460812,"station_name":"Tenjo","line":6,"i_lat":-6.327251,"distance":0,"time":0,"transit":false},{"distance":3902,"station_name":"Daru","time":5,"i_long":106.491338,"i_lat":-6.338021,"station_id":"DAR","transit":false,"line":0,"is_transit":false},{"station_name":"Cilejit","is_transit":false,"i_long":106.508482,"distance":2675,"transit":false,"station_id":"CJT","line":3,"i_lat":-6.354349,"time":6},{"station_id":"PRP","is_transit":false,"time":9,"i_lat":-6.3441410000000005,"i_long":106.568863,"line":6,"transit":false,"distance":7025,"station_name":"Parung Panjang"},{"station_name":"Cicayur","i_long":106.617853,"is_transit":false,"time":8,"station_id":"CC","distance":5968,"i_lat":-6.329547,"transit":false,"line":3},{"is_transit":false,"i_lat":-6.32484,"i_long":106.640411,"line":3,"distance":2519,"transit":false,"station_name":"Cisauk","time":4,"station_id":"CSK"},{"station_id":"SRP","i_lat":-6.319871,"distance":1784,"line":6,"is_transit":false,"time":4,"transit":false,"station_name":"Serpong","i_long":106.66566},{"time":4,"station_id":"RU","i_lat":-6.314823,"transit":false,"is_transit":false,"station_name":"Rawa Buntu","i_long":106.675475,"distance":2413,"line":6},{"i_lat":-6.296963,"distance":4566,"station_name":"Sudimara","time":6,"i_long":106.712277,"station_id":"SDM","transit":false,"line":6,"is_transit":false},{"transit":false,"i_lat":-6.288927,"distance":1994,"line":6,"station_name":"Jurangmangu","i_long":106.728916,"station_id":"JMU","is_transit":false,"time":4},{"station_id":"PDJ","station_name":"Pondokranji","time":3,"i_long":106.74273,"line":6,"distance":2179,"transit":false,"is_transit":false,"i_lat":-6.276362},{"transit":false,"distance":6218,"i_long":106.780334,"i_lat":-6.237242,"is_transit":false,"time":8,"station_name":"Kebayoran","station_id":"KBY","line":6},{"transit":false,"line":6,"is_transit":false,"time":7,"station_id":"PLM","distance":3737,"i_long":106.79689,"i_lat":-6.207404,"station_name":"Palmerah"},{"station_name":"Tanah Abang","station_id":"THB","i_lat":-6.185545,"transit":true,"is_transit":true,"distance":3191,"line":1,"i_long":106.811091,"time":6},{"station_id":"DU","line":1,"transit":false,"i_long":106.800832,"distance":3632,"i_lat":-6.155215,"is_transit":false,"station_name":"Duri","time":8},{"distance":1230,"line":1,"time":4,"i_lat":-6.144674,"transit":false,"station_id":"AK","is_transit":false,"station_name":"Angke","i_long":106.79867},{"distance":4102,"line":4,"i_lat":-6.132549,"transit":true,"station_id":"KPB","station_name":"Kampung Bandan","time":9,"i_long":106.826365,"is_transit":true},{"i_lat":-6.14505,"is_transit":false,"i_long":106.836569,"station_name":"Rajawali","distance":1444,"transit":false,"station_id":"RJW","line":11,"time":3},{"station_name":"Kemayoran","station_id":"KMO","i_long":106.839204,"transit":false,"time":5,"is_transit":false,"line":11,"distance":1901,"i_lat":-6.161728},{"line":11,"time":4,"distance":1436,"i_long":106.84368,"transit":false,"station_id":"PSE","station_name":"Pasar Senen","is_transit":false,"i_lat":-6.174784},{"time":8,"transit":false,"i_lat":-6.185975,"distance":1567,"line":11,"i_long":106.850107,"station_id":"GST","station_name":"Gang Sentiong","is_transit":false},{"line":11,"time":1,"station_name":"Kramat","transit":false,"is_transit":false,"station_id":"KMT","distance":973,"i_long":106.855437,"i_lat":-6.193792},{"i_lat":-6.209188,"station_id":"POK","time":2,"distance":1829,"is_transit":false,"station_name":"Pondok Jati","transit":false,"i_long":106.861737,"line":11},{"is_transit":true,"time":9,"i_lat":-6.215091,"line":1,"distance":1236,"station_name":"Jatinegara","station_id":"JNG","transit":true,"i_long":106.86807400000001},{"station_name":"Klender","line":1,"is_transit":false,"transit":false,"i_long":106.899548,"time":3,"station_id":"KLD","i_lat":-6.2135,"distance":3395}],[{"transit":false,"line":6,"time":0,"distance":0,"station_id":"TEJ","i_lat":-6.327251,"station_name":"Tenjo","is_transit":false,"i_long":106.460812},{"i_lat":-6.338021,"line":0,"station_name":"Daru","station_id":"DAR","transit":false,"distance":3902,"is_transit":false,"time":5,"i_long":106.491338},{"distance":2675,"i_lat":-6.354349,"line":3,"transit":false,"is_transit":false,"time":6,"station_name":"Cilejit","station_id":"CJT","i_long":106.508482},{"transit":false,"station_name":"Parung Panjang","station_id":"PRP","i_lat":-6.3441410000000005,"line":6,"i_long":106.568863,"time":9,"distance":7025,"is_transit":false},{"i_lat":-6.329547,"distance":5968,"i_long":106.617853,"time":8,"transit":false,"line":3,"is_transit":false,"station_id":"CC","station_name":"Cicayur"},{"i_long":106.640411,"transit":false,"station_id":"CSK","is_transit":false,"station_name":"Cisauk","i_lat":-6.32484,"line":3,"time":4,"distance":2519},{"transit":false,"station_name":"Serpong","time":4,"line":6,"is_transit":false,"distance":1784,"i_lat":-6.319871,"i_long":106.66566,"station_id":"SRP"},{"station_name":"Rawa Buntu","i_lat":-6.314823,"transit":false,"is_transit":false,"station_id":"RU","line":6,"distance":2413,"time":4,"i_long":106.675475},{"is_transit":false,"station_id":"SDM","distance":4566,"i_lat":-6.296963,"time":6,"line":6,"transit":false,"station_name":"Sudimara","i_long":106.712277},{"distance":1994,"is_transit":false,"i_long":106.728916,"time":4,"station_id":"JMU","line":6,"i_lat":-6.288927,"station_name":"Jurangmangu","transit":false},{"i_lat":-6.276362,"transit":false,"station_id":"PDJ","line":6,"is_transit":false,"station_name":"Pondokranji","distance":2179,"time":3,"i_long":106.74273},{"transit":false,"i_long":106.780334,"line":6,"station_name":"Kebayoran","i_lat":-6.237242,"time":8,"is_transit":false,"station_id":"KBY","distance":6218},{"station_id":"PLM","time":7,"is_transit":false,"station_name":"Palmerah","i_long":106.79689,"distance":3737,"line":6,"transit":false,"i_lat":-6.207404},{"station_name":"Tanah Abang","is_transit":true,"time":6,"station_id":"THB","distance":3191,"line":1,"i_long":106.811091,"i_lat":-6.185545,"transit":true},{"i_lat":-6.155215,"line":1,"is_transit":false,"station_name":"Duri","i_long":106.800832,"time":8,"distance":3632,"transit":false,"station_id":"DU"},{"transit":false,"station_name":"Angke","line":1,"time":4,"distance":1230,"is_transit":false,"station_id":"AK","i_lat":-6.144674,"i_long":106.79867},{"transit":true,"station_name":"Kampung Bandan","i_lat":-6.132549,"i_long":106.826365,"is_transit":true,"time":9,"distance":4102,"line":4,"station_id":"KPB"},{"line":2,"station_name":"Jakarta Kota","transit":true,"station_id":"JAKK","time":3,"i_long":106.812439,"is_transit":true,"i_lat":-6.137569,"distance":1364},{"transit":false,"is_transit":false,"i_long":106.820901,"station_id":"JAY","i_lat":-6.141205,"station_name":"Jayakarta","time":4,"distance":1264,"line":2},{"station_id":"MGB","transit":false,"time":2,"i_lat":-6.149769,"distance":1080,"line":2,"i_long":106.82482,"is_transit":false,"station_name":"Manggabesar"},{"is_transit":false,"distance":906,"station_id":"SW","transit":false,"station_name":"Sawah Besar","time":2,"i_lat":-6.160725,"line":2,"i_long":106.827103},{"distance":1149,"i_long":106.828284,"station_name":"Juanda","line":2,"is_transit":false,"i_lat":-6.166716,"station_id":"JUA","time":2,"transit":false},{"station_name":"Gondangdia","station_id":"GDD","i_lat":-6.186295,"is_transit":false,"distance":2015,"line":2,"transit":false,"i_long":106.832183,"time":4},{"distance":1750,"is_transit":false,"time":3,"transit":false,"i_lat":-6.198556,"i_long":106.840169,"station_id":"CKI","line":2,"station_name":"Cikini"},{"transit":true,"i_lat":-6.209883,"station_id":"MRI","is_transit":true,"i_long":106.84912,"line":2,"station_name":"Manggarai","distance":1590,"time":4},{"i_lat":-6.212485,"station_name":"Matraman","line":1,"time":2,"i_long":106.858896,"distance":1275,"transit":false,"station_id":"MTR","is_transit":false},{"is_transit":false,"distance":1377,"i_lat":-6.215091,"line":1,"time":8,"i_long":106.86807400000001,"transit":false,"station_name":"Jatinegara","station_id":"JNG"},{"time":3,"i_lat":-6.2135,"station_name":"Klender","transit":false,"distance":3395,"line":1,"i_long":106.899548,"station_id":"KLD","is_transit":false}],[{"i_long":106.460812,"station_name":"Tenjo","transit":false,"station_id":"TEJ","time":0,"distance":0,"is_transit":false,"i_lat":-6.327251,"line":6},{"i_long":106.491338,"time":5,"line":0,"is_transit":false,"station_name":"Daru","distance":3902,"transit":false,"station_id":"DAR","i_lat":-6.338021},{"transit":false,"station_name":"Cilejit","station_id":"CJT","distance":2675,"is_transit":false,"i_long":106.508482,"line":3,"time":6,"i_lat":-6.354349},{"i_lat":-6.3441410000000005,"station_id":"PRP","distance":7025,"i_long":106.568863,"is_transit":false,"time":9,"line":6,"transit":false,"station_name":"Parung Panjang"},{"station_name":"Cicayur","i_lat":-6.329547,"station_id":"CC","distance":5968,"is_transit":false,"i_long":106.617853,"time":8,"transit":false,"line":3},{"time":4,"station_id":"CSK","line":3,"i_long":106.640411,"station_name":"Cisauk","is_transit":false,"distance":2519,"transit":false,"i_lat":-6.32484},{"is_transit":false,"i_lat":-6.319871,"i_long":106.66566,"time":4,"distance":1784,"line":6,"transit":false,"station_id":"SRP","station_name":"Serpong"},{"transit":false,"time":4,"i_lat":-6.314823,"station_name":"Rawa Buntu","i_long":106.675475,"line":6,"station_id":"RU","distance":2413,"is_transit":false},{"transit":false,"time":6,"i_lat":-6.296963,"is_transit":false,"station_name":"Sudimara","i_long":106.712277,"distance":4566,"station_id":"SDM","line":6},{"is_transit":false,"station_id":"JMU","distance":1994,"line":6,"time":4,"transit":false,"i_lat":-6.288927,"i_long":106.728916,"station_name":"Jurangmangu"},{"station_name":"Pondokranji","time":3,"i_lat":-6.276362,"station_id":"PDJ","i_long":106.74273,"line":6,"transit":false,"distance":2179,"is_transit":false},{"is_transit":false,"i_lat":-6.237242,"i_long":106.780334,"line":6,"time":8,"distance":6218,"station_name":"Kebayoran","station_id":"KBY","transit":false},{"transit":false,"i_lat":-6.207404,"line":6,"station_id":"PLM","is_transit":false,"time":7,"distance":3737,"station_name":"Palmerah","i_long":106.79689},{"i_lat":-6.185545,"i_long":106.811091,"station_id":"THB","station_name":"Tanah Abang","transit":true,"distance":3191,"is_transit":true,"time":6,"line":1},{"transit":false,"i_lat":-6.20132,"i_long":106.816351,"distance":2029,"is_transit":false,"station_name":"Karet","line":1,"time":5,"station_id":"KAT"},{"station_name":"Sudirman Baru","station_id":"SUDB","transit":false,"time":1,"line":1,"distance":471,"is_transit":false,"i_long":106.819881,"i_lat":-6.201433},{"is_transit":false,"time":1,"i_long":106.822649,"i_lat":-6.202263,"distance":280,"station_name":"Sudirman","line":1,"transit":false,"station_id":"SUD"},{"is_transit":true,"transit":true,"time":4,"i_lat":-6.209883,"i_long":106.84912,"line":2,"distance":3186,"station_id":"MRI","station_name":"Manggarai"},{"station_id":"CKI","station_name":"Cikini","i_lat":-6.198556,"line":2,"distance":1590,"is_transit":false,"time":4,"transit":false,"i_long":106.840169},{"i_long":106.832183,"station_name":"Gondangdia","line":2,"time":3,"i_lat":-6.186295,"distance":1750,"station_id":"GDD","transit":false,"is_transit":false},{"line":2,"station_name":"Juanda","station_id":"JUA","transit":false,"i_long":106.828284,"is_transit":false,"distance":2015,"i_lat":-6.166716,"time":4},{"i_long":106.827103,"line":2,"station_name":"Sawah Besar","station_id":"SW","is_transit":false,"transit":false,"time":2,"i_lat":-6.160725,"distance":1149},{"station_id":"MGB","time":2,"is_transit":false,"i_lat":-6.149769,"i_long":106.82482,"line":2,"transit":false,"station_name":"Manggabesar","distance":906},{"transit":false,"station_id":"JAY","i_lat":-6.141205,"station_name":"Jayakarta","time":2,"distance":1080,"i_long":106.820901,"is_transit":false,"line":2},{"i_lat":-6.137569,"station_name":"Jakarta Kota","transit":true,"time":4,"station_id":"JAKK","distance":1264,"line":2,"is_transit":true,"i_long":106.812439},{"line":4,"transit":true,"time":3,"i_lat":-6.132549,"station_id":"KPB","distance":1364,"station_name":"Kampung Bandan","i_long":106.826365,"is_transit":true},{"line":11,"transit":false,"is_transit":false,"i_long":106.836569,"time":3,"station_id":"RJW","i_lat":-6.14505,"station_name":"Rajawali","distance":1444},{"line":11,"transit":false,"time":5,"i_lat":-6.161728,"i_long":106.839204,"is_transit":false,"distance":1901,"station_name":"Kemayoran","station_id":"KMO"},{"station_id":"PSE","transit":false,"is_transit":false,"station_name":"Pasar Senen","time":4,"i_long":106.84368,"distance":1436,"i_lat":-6.174784,"line":11},{"i_lat":-6.185975,"time":8,"transit":false,"station_id":"GST","distance":1567,"i_long":106.850107,"station_name":"Gang Sentiong","line":11,"is_transit":false},{"is_transit":false,"i_lat":-6.193792,"station_id":"KMT","distance":973,"time":1,"line":11,"station_name":"Kramat","i_long":106.855437,"transit":false},{"time":2,"station_id":"POK","is_transit":false,"line":11,"i_long":106.861737,"distance":1829,"transit":false,"station_name":"Pondok Jati","i_lat":-6.209188},{"station_id":"JNG","time":9,"station_name":"Jatinegara","i_lat":-6.215091,"is_transit":true,"i_long":106.86807400000001,"line":1,"distance":1236,"transit":true},{"time":3,"distance":3395,"line":1,"i_long":106.899548,"station_name":"Klender","transit":false,"i_lat":-6.2135,"station_id":"KLD","is_transit":false}]]}