{"data":[[{"distance":0,"i_lat":-6.327251,"station_id":"TEJ","station_name":"Tenjo","time":0,"is_transit":false,"line":6,"i_long":106.460812,"transit":false},{"i_lat":-6.338021,"line":0,"distance":3902,"is_transit":false,"time":5,"transit":false,"i_long":106.491338,"station_id":"DAR","station_name":"Daru"},{"time":6,"distance":2675,"station_id":"CJT","station_name":"Cilejit","i_lat":-6.354349,"i_long":106.508482,"is_transit":false,"line":3,"transit":false},{"station_id":"PRP","is_transit":false,"time":9,"station_name":"Parung Panjang","transit":false,"i_long":106.568863,"line":6,"i_lat":-6.3441410000000005,"distance":7025},{"is_transit":false,"time":8,"station_name":"Cicayur","station_id":"CC","i_lat":-6.329547,"i_long":106.617853,"distance":5968,"line":3,"transit":false},{"is_transit":false,"station_id":"CSK","i_lat":-6.32484,"line":3,"distance":2519,"station_name":"Cisauk","i_long":106.640411,"transit":false,"time":4},{"line":6,"station_id":"SRP","station_name":"Serpong","transit":false,"is_transit":false,"i_long":106.66566,"distance":1784,"time":4,"i_lat":-6.319871},{"is_transit":false,"i_lat":-6.314823,"i_long":106.675475,"transit":false,"line":6,"station_name":"Rawa Buntu","distance":2413,"time":4,"station_id":"RU"},{"is_transit":false,"line":6,"time":6,"i_long":106.712277,"distance":4566,"station_id":"SDM","transit":false,"i_lat":-6.296963,"station_name":"Sudimara"},{"station_id":"JMU","transit":false,"i_long":106.728916,"distance":1994,"i_lat":-6.288927,"is_transit":false,"time":4,"station_name":"Jurangmangu","line":6},{"line":6,"i_long":106.74273,"distance":2179,"i_lat":-6.276362,"station_id":"PDJ","is_transit":false,"time":3,"transit":false,"station_name":"Pondokranji"},{"station_name":"Kebayoran","transit":false,"line":6,"distance":6218,"time":8,"i_lat":-6.237242,"i_long":106.780334,"station_id":"KBY","is_transit":false},{"line":6,"station_id":"PLM","distance":3737,"time":7,"i_lat":-6.207404,"i_long":106.79689,"transit":false,"is_transit":false,"station_name":"Palmerah"},{"is_transit":true,"i_long":106.811091,"station_id":"THB","line":1,"distance":3191,"station_name":"Tanah Abang","time":6,"transit":true,"i_lat":-6.185545},{"station_id":"KAT","is_transit":false,"time":5,"i_lat":-6.20132,"distance":2029,"transit":false,"station_name":"Karet","i_long":106.816351,"line":1},{"station_id":"SUDB","time":1,"station_name":"Sudirman Baru","line":1,"i_long":106.819881,"i_lat":-6.201433,"distance":471,"is_transit":false,"transit":false},{"line":1,"station_id":"SUD","transit":false,"i_long":106.822649,"is_transit":false,"i_lat":-6.202263,"station_name":"Sudirman","time":1,"distance":280},{"line":2,"distance":3186,"time":4,"is_transit":false,"transit":false,"station_id":"MRI","i_lat":-6.209883,"i_long":106.84912,"station_name":"Manggarai"},{"station_id":"MTR","distance":1275,"i_lat":-6.212485,"time":2,"transit":false,"i_long":106.858896,"line":1,"station_name":"Matraman","is_transit":false},{"distance":1377,"is_transit":false,"station_id":"JNG","i_long":106.86807400000001,"line":1,"transit":false,"time":8,"station_name":"Jatinegara","i_lat":-6.215091},{"distance":3395,"time":3,"i_lat":-6.2135,"i_long":106.899548,"transit":false,"line":1,"station_id":"KLD","is_transit":false,"station_name":"Klender"}],[{"is_transit":false,"station_name":"Tenjo","station_id":"TEJ","i_lat":-6.327251,"i_long":106.460812,"distance":0,"transit":false,"time":0,"line":6},{"time":5,"distance":3902,"line":0,"station_name":"Daru","i_lat":-6.338021,"station_id":"DAR","i_long":106.491338,"is_transit":false,"transit":false},{"line":3,"is_transit":false,"transit":false,"i_lat":-6.354349,"station_id":"CJT","time":6,"distance":2675,"i_long":106.508482,"station_name":"Cilejit"},{"time":9,"is_transit":false,"i_lat":-6.3441410000000005,"line":6,"transit":false,"distance":7025,"station_name":"Parung Panjang","station_id":"PRP","i_long":106.568863},{"transit":false,"distance":5968,"station_id":"CC","i_lat":-6.329547,"i_long":106.617853,"line":3,"station_name":"Cicayur","time":8,"is_transit":false},{"distance":2519,"is_transit":false,"station_id":"CSK","line":3,"time":4,"station_name":"Cisauk","i_long":106.640411,"transit":false,"i_lat":-6.32484},{"line":6,"i_long":106.66566,"distance":1784,"transit":false,"time":4,"station_name":"Serpong","is_transit":false,"i_lat":-6.319871,"station_id":"SRP"},{"station_id":"RU","i_lat":-6.314823,"i_long":106.675475,"time":4,"is_transit":false,"line":6,"station_name":"Rawa Buntu","distance":2413,"transit":false},{"i_lat":-6.296963,"is_transit":false,"i_long":106.712277,"distance":4566,"time":6,"station_id":"SDM","line":6,"transit":false,"station_name":"Sudimara"},{"station_name":"Jurangmangu","time":4,"line":6,"station_id":"JMU","is_transit":false,"i_long":106.728916,"i_lat":-6.288927,"distance":1994,"transit":false},{"transit":false,"distance":2179,"is_transit":false,"i_lat":-6.276362,"station_id":"PDJ","time":3,"i_long":106.74273,"line":6,"station_name":"Pondokranji"},{"station_name":"Kebayoran","line":6,"is_transit":false,"i_long":106.780334,"transit":false,"station_id":"KBY","i_lat":-6.237242,"distance":6218,"time":8},{"station_name":"Palmerah","i_lat":-6.207404,"station_id":"PLM","i_long":106.79689,"is_transit":false,"distance":3737,"time":7,"line":6,"transit":false},{"line":1,"is_transit":true,"i_long":106.811091,"time":6,"station_id":"THB","transit":true,"i_lat":-6.185545,"distance":3191,"station_name":"Tanah Abang"},{"i_lat":-6.155215,"transit":false,"is_transit":false,"distance":3632,"station_id":"DU","line":1,"station_name":"Duri","i_long":106.800832,"time":8},{"distance":1230,"is_transit":false,"time":4,"line":1,"i_lat":-6.144674,"transit":false,"station_id":"AK","station_name":"Angke","i_long":106.79867},{"line":4,"station_id":"KPB","station_name":"Kampung Bandan","i_long":106.826365,"i_lat":-6.132549,"is_transit":true,"time":9,"distance":4102,"transit":true},{"i_lat":-6.14505,"i_long":106.836569,"station_id":"RJW","line":11,"transit":false,"station_name":"Rajawali","is_transit":false,"distance":1444,"time":3},{"transit":false,"station_id":"KMO","distance":1901,"i_lat":-6.161728,"i_long":106.839204,"time":5,"is_transit":false,"line":11,"station_name":"Kemayoran"},{"is_transit":false,"i_long":106.84368,"station_id":"PSE","line":11,"i_lat":-6.174784,"distance":1436,"transit":false,"time":4,"station_name":"Pasar Senen"},{"transit":false,"time":8,"i_lat":-6.185975,"distance":1567,"line":11,"is_transit":false,"station_name":"Gang Sentiong","i_long":106.850107,"station_id":"GST"},{"station_id":"KMT","station_name":"Kramat","distance":973,"time":1,"i_long":106.855437,"is_transit":false,"transit":false,"i_lat":-6.193792,"line":11},{"distance":1829,"is_transit":false,"time":2,"transit":false,"station_name":"Pondok Jati","i_lat":-6.209188,"i_long":106.861737,"line":11,"station_id":"POK"},{"station_id":"JNG","transit":true,"is_transit":true,"i_long":106.86807400000001,"distance":1236,"line":1,"time":9,"station_name":"Jatinegara","i_lat":-6.215091},{"transit":false,"is_transit":false,"distance":3395,"i_lat":-6.2135,"time":3,"i_long":106.899548,"line":1,"station_name":"Klender","station_id":"KLD"}],[{"station_name":"Tenjo","time":0,"line":6,"i_lat":-6.327251,"i_long":106.460812,"is_transit":false,"station_id":"TEJ","distance":0,"transit":false},{"time":5,"i_lat":-6.338021,"transit":false,"i_long":106.491338,"is_transit":false,"station_name":"Daru","line":0,"station_id":"DAR","distance":3902},{"transit":false,"station_name":"Cilejit","line":3,"station_id":"CJT","time":6,"i_lat":-6.354349,"i_long":106.508482,"distance":2675,"is_transit":false},{"time":9,"line":6,"station_name":"Parung Panjang","station_id":"PRP","is_transit":false,"i_lat":-6.3441410000000005,"i_long":106.568863,"distance":7025,"transit":false},{"station_id":"CC","i_lat":-6.329547,"is_transit":false,"station_name":"Cicayur","i_long":106.617853,"line":3,"time":8,"transit":false,"distance":5968},{"is_transit":false,"transit":false,"distance":2519,"station_id":"CSK","line":3,"i_lat":-6.32484,"i_long":106.640411,"station_name":"Cisauk","time":4},{"transit":false,"i_long":106.66566,"station_id":"SRP","time":4,"is_transit":false,"i_lat":-6.319871,"station_name":"Serpong","line":6,"distance":1784},{"line":6,"station_name":"Rawa Buntu","i_lat":-6.314823,"is_transit":false,"time":4,"i_long":106.675475,"transit":false,"distance":2413,"station_id":"RU"},{"distance":4566,"station_name":"Sudimara","time":6,"line":6,"station_id":"SDM","is_transit":false,"transit":false,"i_long":106.712277,"i_lat":-6.296963},{"transit":false,"line":6,"station_id":"JMU","is_transit":false,"i_long":106.728916,"station_name":"Jurangmangu","distance":1994,"time":4,"i_lat":-6.288927},{"time":3,"line":6,"station_id":"PDJ","i_lat":-6.276362,"transit":false,"i_long":106.74273,"is_transit":false,"station_name":"Pondokranji","distance":2179},{"station_id":"KBY","station_name":"Kebayoran","i_long":106.780334,"is_transit":false,"transit":false,"time":8,"line":6,"distance":6218,"i_lat":-6.237242},{"i_lat":-6.207404,"is_transit":false,"time":7,"line":6,"transit":false,"station_id":"PLM","station_name":"Palmerah","i_long":106.79689,"distance":3737},{"distance":3191,"line":1,"transit":true,"time":6,"station_name":"Tanah Abang","station_id":"THB","is_transit":true,"i_long":106.811091,"i_lat":-6.185545},{"transit":false,"time":8,"distance":3632,"i_lat":-6.155215,"station_id":"DU","i_long":106.800832,"is_transit":false,"station_name":"Duri","line":1},{"transit":false,"line":1,"station_id":"AK","is_transit":false,"station_name":"Angke","i_lat":-6.144674,"distance":1230,"i_long":106.79867,"time":4},{"station_id":"KPB","station_name":"Kampung Bandan","transit":true,"time":9,"i_lat":-6.132549,"distance":4102,"is_transit":true,"i_long":106.826365,"line":4},{"i_lat":-6.137569,"line":2,"station_name":"Jakarta Kota","time":3,"station_id":"JAKK","i_long":106.812439,"distance":1364,"transit":true,"is_transit":true},{"i_long":106.820901,"station_id":"JAY","time":4,"i_lat":-6.141205,"line":2,"transit":false,"distance":1264,"station_name":"Jayakarta","is_transit":false},{"time":2,"i_lat":-6.149769,"distance":1080,"station_name":"Manggabesar","transit":false,"i_long":106.82482,"line":2,"is_transit":false,"station_id":"MGB"},{"distance":906,"i_lat":-6.160725,"line":2,"station_name":"Sawah Besar","transit":false,"i_long":106.827103,"is_transit":false,"station_id":"SW","time":2},{"i_lat":-6.166716,"distance":1149,"line":2,"transit":false,"i_long":106.828284,"station_id":"JUA","is_transit":false,"station_name":"Juanda","time":2},{"time":4,"i_lat":-6.186295,"distance":2015,"station_id":"GDD","station_name":"Gondangdia","line":2,"transit":false,"is_transit":false,"i_long":106.832183},{"line":2,"distance":1750,"is_transit":false,"transit":false,"station_name":"Cikini","time":3,"i_lat":-6.198556,"i_long":106.840169,"station_id":"CKI"},{"line":2,"i_long":106.84912,"distance":1590,"is_transit":true,"time":4,"i_lat":-6.209883,"station_name":"Manggarai","station_id":"MRI","transit":true},{"i_lat":-6.212485,"distance":1275,"transit":false,"station_id":"MTR","is_transit":false,"time":2,"i_long":106.858896,"station_name":"Matraman","line":1},{"time":8,"station_id":"JNG","i_lat":-6.215091,"distance":1377,"transit":false,"station_name":"Jatinegara","line":1,"i_long":106.86807400000001,"is_transit":false},{"station_id":"KLD","transit":false,"is_transit":false,"i_lat":-6.2135,"time":3,"line":1,"i_long":106.899548,"station_name":"Klender","distance":3395}],[{"time":0,"distance":0,"line":6,"i_long":106.460812,"station_name":"Tenjo","i_lat":-6.327251,"transit":false,"is_transit":false,"station_id":"TEJ"},{"time":5,"distance":3902,"i_lat":-6.338021,"line":0,"station_name":"Daru","transit":false,"i_long":106.491338,"station_id":"DAR","is_transit":false},{"transit":false,"station_name":"Cilejit","i_lat":-6.354349,"time":6,"distance":2675,"i_long":106.508482,"is_transit":false,"line":3,"station_id":"CJT"},{"transit":false,"station_id":"PRP","is_transit":false,"station_name":"Parung Panjang","time":9,"i_lat":-6.3441410000000005,"i_long":106.568863,"distance":7025,"line":6},{"distance":5968,"station_name":"Cicayur","i_long":106.617853,"is_transit":false,"i_lat":-6.329547,"transit":false,"time":8,"line":3,"station_id":"CC"},{"i_long":106.640411,"station_id":"CSK","is_transit":false,"i_lat":-6.32484,"station_name":"Cisauk","distance":2519,"transit":false,"line":3,"time":4},{"i_long":106.66566,"i_lat":-6.319871,"distance":1784,"station_name":"Serpong","line":6,"station_id":"SRP","time":4,"transit":false,"is_transit":false},{"is_transit":false,"station_id":"RU","line":6,"i_long":106.675475,"i_lat":-6.314823,"distance":2413,"transit":false,"station_name":"Rawa Buntu","time":4},{"distance":4566,"line":6,"time":6,"is_transit":false,"i_lat":-6.296963,"station_name":"Sudimara","i_long":106.712277,"transit":false,"station_id":"SDM"},{"line":6,"station_name":"Jurangmangu","time":4,"distance":1994,"station_id":"JMU","i_lat":-6.288927,"transit":false,"i_long":106.728916,"is_transit":false},{"line":6,"station_id":"PDJ","is_transit":false,"station_name":"Pondokranji","time":3,"distance":2179,"transit":false,"i_long":106.74273,"i_lat":-6.276362},{"station_name":"Kebayoran","time":8,"i_lat":-6.237242,"distance":6218,"transit":false,"is_transit":false,"station_id":"KBY","i_long":106.780334,"line":6},{"line":6,"station_name":"Palmerah","is_transit":false,"i_long":106.79689,"distance":3737,"i_lat":-6.207404,"station_id":"PLM","time":7,"transit":false},{"line":1,"station_id":"THB","i_long":106.811091,"is_transit":true,"distance":3191,"transit":true,"station_name":"Tanah Abang","time":6,"i_lat":-6.185545},{"line":1,"time":5,"distance":2029,"i_lat":-6.20132,"transit":false,"is_transit":false,"station_name":"Karet","station_id":"KAT","i_long":106.816351},{"transit":false,"time":1,"line":1,"i_lat":-6.201433,"i_long":106.819881,"station_name":"Sudirman Baru","distance":471,"station_id":"SUDB","is_transit":false},{"i_lat":-6.202263,"i_long":106.822649,"distance":280,"transit":false,"time":1,"is_transit":false,"line":1,"station_id":"SUD","station_name":"Sudirman"},{"station_name":"Manggarai","line":2,"i_lat":-6.209883,"distance":3186,"station_id":"MRI","time":4,"i_long":106.84912,"transit":true,"is_transit":true},{"i_long":106.840169,"station_name":"Cikini","line":2,"time":4,"station_id":"CKI","i_lat":-6.198556,"is_transit":false,"distance":1590,"transit":false},{"distance":1750,"station_id":"GDD","station_name":"Gondangdia","is_transit":false,"i_lat":-6.186295,"time":3,"transit":false,"i_long":106.832183,"line":2},{"i_lat":-6.166716,"distance":2015,"line":2,"is_transit":false,"station_id":"JUA","transit":false,"station_name":"Juanda","i_long":106.828284,"time":4},{"line":2,"time":2,"is_transit":false,"i_lat":-6.160725,"distance":1149,"transit":false,"station_id":"SW","i_long":106.827103,"station_name":"Sawah Besar"},{"i_lat":-6.149769,"is_transit":false,"line":2,"station_name":"Manggabesar","station_id":"MGB","time":2,"i_long":106.82482,"transit":false,"distance":906},{"station_name":"Jayakarta","i_long":106.820901,"distance":1080,"transit":false,"is_transit":false,"time":2,"station_id":"JAY","i_lat":-6.141205,"line":2},{"transit":true,"is_transit":true,"time":4,"distance":1264,"i_lat":-6.137569,"station_name":"Jakarta Kota","i_long":106.812439,"line":2,"station_id":"JAKK"},{"i_lat":-6.132549,"station_name":"Kampung Bandan","time":3,"line":4,"distance":1364,"station_id":"KPB","is_transit":true,"transit":true,"i_long":106.826365},{"line":11,"transit":false,"distance":1444,"station_id":"RJW","i_lat":-6.14505,"i_long":106.836569,"station_name":"Rajawali","time":3,"is_transit":false},{"distance":1901,"line":11,"station_name":"Kemayoran","station_id":"KMO","i_lat":-6.161728,"is_transit":false,"i_long":106.839204,"transit":false,"time":5},{"station_id":"PSE","station_name":"Pasar Senen","transit":false,"time":4,"i_lat":-6.174784,"is_transit":false,"i_long":106.84368,"line":11,"distance":1436},{"station_id":"GST","i_lat":-6.185975,"station_name":"Gang Sentiong","i_long":106.850107,"line":11,"distance":1567,"transit":false,"time":8,"is_transit":false},{"is_transit":false,"time":1,"i_lat":-6.193792,"station_id":"KMT","station_name":"Kramat","line":11,"distance":973,"i_long":106.855437,"transit":false},{"distance":1829,"time":2,"is_transit":false,"transit":false,"station_name":"Pondok Jati","i_lat":-6.209188,"i_long":106.861737,"line":11,"station_id":"POK"},{"i_lat":-6.215091,"distance":1236,"transit":true,"is_transit":true,"station_name":"Jatinegara","time":9,"station_id":"JNG","line":1,"i_long":106.86807400000001},{"time":3,"station_id":"KLD","i_lat":-6.2135,"i_long":106.899548,"transit":false,"is_transit":false,"line":1,"station_name":"Klender","distance":3395}]]}