{"data":[[{"station_id":"TEJ","distance":0,"time":0,"transit":false,"i_long":106.460812,"i_lat":-6.327251,"station_name":"Tenjo","line":6,"is_transit":false},{"line":0,"distance":3902,"is_transit":false,"station_name":"Daru","transit":false,"time":5,"station_id":"DAR","i_long":106.491338,"i_lat":-6.338021},{"distance":2675,"transit":false,"station_id":"CJT","line":0,"station_name":"Cilejit","i_lat":-6.354349,"time":6,"is_transit":false,"i_long":106.508482},{"time":9,"i_long":106.568863,"is_transit":false,"station_name":"Parung Panjang","station_id":"PRP","i_lat":-6.3441410000000005,"transit":false,"line":6,"distance":7025},{"station_name":"Cicayur","is_transit":false,"station_id":"CC","distance":5968,"time":8,"transit":false,"i_lat":-6.329547,"i_long":106.617853,"line":0},{"i_long":106.640411,"is_transit":false,"distance":2519,"time":4,"line":0,"i_lat":-6.32484,"station_name":"Cisauk","transit":false,"station_id":"CSK"},{"time":4,"station_id":"SRP","i_lat":-6.319871,"i_long":106.66566,"distance":1784,"station_name":"Serpong","line":6,"is_transit":false,"transit":false},{"time":4,"is_transit":false,"station_name":"Rawa Buntu","i_long":106.675475,"station_id":"RU","distance":2413,"transit":false,"i_lat":-6.314823,"line":6},{"time":6,"i_long":106.712277,"distance":4566,"station_id":"SDM","transit":false,"line":6,"i_lat":-6.296963,"is_transit":false,"station_name":"Sudimara"},{"distance":1994,"line":6,"i_lat":-6.288927,"time":4,"transit":false,"station_name":"Jurangmangu","i_long":106.728916,"is_transit":false,"station_id":"JMU"},{"is_transit":false,"i_long":106.74273,"distance":2179,"time":3,"i_lat":-6.276362,"station_id":"PDJ","transit":false,"station_name":"Pondokranji","line":6},{"transit":false,"is_transit":false,"station_name":"Kebayoran","i_long":106.780334,"line":6,"station_id":"KBY","time":8,"distance":6218,"i_lat":-6.237242},{"transit":false,"line":6,"is_transit":false,"station_id":"PLM","distance":3737,"time":7,"i_lat":-6.207404,"i_long":106.79689,"station_name":"Palmerah"},{"line":1,"i_long":106.811091,"time":6,"transit":true,"distance":3191,"is_transit":true,"station_id":"THB","station_name":"Tanah Abang","i_lat":-6.185545},{"distance":3632,"station_id":"DU","transit":true,"line":1,"i_long":106.800832,"i_lat":-6.155215,"station_name":"Duri","is_transit":true,"time":8},{"i_lat":-6.162021,"station_id":"GGL","station_name":"Grogol","is_transit":false,"time":3,"i_long":106.788277,"transit":false,"line":5,"distance":1700},{"transit":false,"i_lat":-6.161433,"line":5,"station_name":"Pesing","station_id":"PSG","time":2,"i_long":106.771379,"is_transit":false,"distance":2036},{"time":2,"distance":1614,"i_long":106.756522,"station_name":"Taman Kota","station_id":"TKO","transit":false,"line":5,"i_lat":-6.1587309999999995,"is_transit":false},{"i_lat":-6.159876,"distance":2334,"line":0,"i_long":106.737035,"is_transit":false,"station_name":"Bojongindah","station_id":"BOI","transit":false,"time":2},{"station_id":"RW","station_name":"Rawa Buaya","line":5,"time":4,"transit":false,"distance":1152,"i_lat":-6.162758,"is_transit":false,"i_long":106.723064},{"station_id":"KDS","time":3,"i_lat":-6.166068,"distance":2504,"transit":false,"station_name":"Kalideres","i_long":106.701612,"line":5,"is_transit":false},{"distance":2548,"is_transit":false,"i_lat":-6.169933,"i_long":106.679458,"station_name":"Poris","line":5,"station_id":"PI","transit":false,"time":3},{"i_long":106.665036,"station_id":"BPR","distance":1834,"transit":false,"is_transit":false,"station_name":"Batuceper","i_lat":-6.171811,"time":3,"line":0}],[{"distance":0,"line":6,"i_long":106.460812,"station_id":"TEJ","transit":false,"station_name":"Tenjo","is_transit":false,"time":0,"i_lat":-6.327251},{"line":0,"time":5,"station_id":"DAR","i_long":106.491338,"transit":false,"is_transit":false,"distance":3902,"station_name":"Daru","i_lat":-6.338021},{"time":6,"i_lat":-6.354349,"line":0,"is_transit":false,"distance":2675,"station_name":"Cilejit","station_id":"CJT","transit":false,"i_long":106.508482},{"i_long":106.568863,"transit":false,"line":6,"station_name":"Parung Panjang","time":9,"station_id":"PRP","i_lat":-6.3441410000000005,"distance":7025,"is_transit":false},{"transit":false,"station_name":"Cicayur","distance":5968,"line":0,"is_transit":false,"time":8,"i_long":106.617853,"station_id":"CC","i_lat":-6.329547},{"station_name":"Cisauk","is_transit":false,"station_id":"CSK","line":0,"i_long":106.640411,"time":4,"distance":2519,"transit":false,"i_lat":-6.32484},{"i_lat":-6.319871,"i_long":106.66566,"station_id":"SRP","is_transit":false,"line":6,"distance":1784,"station_name":"Serpong","time":4,"transit":false},{"time":4,"distance":2413,"i_long":106.675475,"i_lat":-6.314823,"station_id":"RU","station_name":"Rawa Buntu","transit":false,"is_transit":false,"line":6},{"station_id":"SDM","i_long":106.712277,"is_transit":false,"line":6,"transit":false,"time":6,"i_lat":-6.296963,"distance":4566,"station_name":"Sudimara"},{"i_lat":-6.288927,"distance":1994,"station_id":"JMU","time":4,"station_name":"Jurangmangu","is_transit":false,"i_long":106.728916,"line":6,"transit":false},{"is_transit":false,"line":6,"distance":2179,"station_name":"Pondokranji","transit":false,"time":3,"i_long":106.74273,"i_lat":-6.276362,"station_id":"PDJ"},{"i_lat":-6.237242,"transit":false,"is_transit":false,"station_id":"KBY","i_long":106.780334,"station_name":"Kebayoran","distance":6218,"line":6,"time":8},{"station_name":"Palmerah","station_id":"PLM","line":6,"i_long":106.79689,"distance":3737,"time":7,"transit":false,"is_transit":false,"i_lat":-6.207404},{"time":6,"i_lat":-6.185545,"is_transit":true,"station_name":"Tanah Abang","distance":3191,"i_long":106.811091,"station_id":"THB","line":1,"transit":true},{"station_name":"Karet","time":5,"line":1,"i_lat":-6.20132,"distance":2029,"station_id":"KAT","i_long":106.816351,"is_transit":false,"transit":false},{"i_long":106.819881,"time":1,"distance":471,"station_name":"Sudirman Baru","is_transit":false,"transit":false,"i_lat":-6.201433,"line":1,"station_id":"SUDB"},{"transit":false,"i_lat":-6.202263,"i_long":106.822649,"is_transit":false,"time":1,"line":1,"distance":280,"station_name":"Sudirman","station_id":"SUD"},{"station_name":"Manggarai","time":4,"i_long":106.84912,"transit":true,"distance":3186,"i_lat":-6.209883,"line":0,"station_id":"MRI","is_transit":true},{"i_lat":-6.198556,"is_transit":false,"line":0,"time":4,"transit":false,"station_id":"CKI","distance":1590,"station_name":"Cikini","i_long":106.840169},{"transit":false,"time":3,"i_long":106.832183,"distance":1750,"station_name":"Gondangdia","station_id":"GDD","i_lat":-6.186295,"line":2,"is_transit":false},{"line":2,"distance":2015,"i_lat":-6.166716,"i_long":106.828284,"is_transit":false,"time":4,"station_name":"Juanda","transit":false,"station_id":"JUA"},{"distance":1149,"time":2,"i_lat":-6.160725,"line":2,"transit":false,"station_id":"SW","i_long":106.827103,"is_transit":false,"station_name":"Sawah Besar"},{"i_lat":-6.149769,"i_long":106.82482,"station_id":"MGB","time":2,"is_transit":false,"distance":906,"station_name":"Manggabesar","transit":false,"line":2},{"i_long":106.820901,"station_id":"JAY","is_transit":false,"line":7,"time":2,"transit":false,"distance":1080,"station_name":"Jayakarta","i_lat":-6.141205},{"i_lat":-6.137569,"time":4,"line":0,"i_long":106.812439,"station_name":"Jakarta Kota","distance":1264,"station_id":"JAKK","is_transit":true,"transit":true},{"station_id":"KPB","station_name":"Kampung Bandan","transit":false,"i_long":106.826365,"distance":1364,"line":0,"is_transit":true,"time":3,"i_lat":-6.132549},{"station_id":"AK","transit":false,"distance":4102,"line":0,"i_lat":-6.144674,"time":9,"i_long":106.79867,"is_transit":false,"station_name":"Angke"},{"line":1,"distance":1230,"station_name":"Duri","time":4,"is_transit":true,"station_id":"DU","i_long":106.800832,"i_lat":-6.155215,"transit":true},{"is_transit":false,"i_long":106.788277,"distance":1700,"line":5,"station_name":"Grogol","i_lat":-6.162021,"transit":false,"station_id":"GGL","time":3},{"station_name":"Pesing","is_transit":false,"time":2,"i_lat":-6.161433,"station_id":"PSG","distance":2036,"transit":false,"i_long":106.771379,"line":5},{"distance":1614,"station_id":"TKO","station_name":"Taman Kota","transit":false,"i_lat":-6.1587309999999995,"i_long":106.756522,"line":5,"time":2,"is_transit":false},{"station_name":"Bojongindah","i_lat":-6.159876,"is_transit":false,"transit":false,"distance":2334,"station_id":"BOI","line":0,"time":2,"i_long":106.737035},{"is_transit":false,"i_long":106.723064,"time":4,"station_id":"RW","line":5,"station_name":"Rawa Buaya","transit":false,"distance":1152,"i_lat":-6.162758},{"time":3,"transit":false,"i_long":106.701612,"is_transit":false,"i_lat":-6.166068,"line":5,"distance":2504,"station_id":"KDS","station_name":"Kalideres"},{"i_long":106.679458,"station_name":"Poris","station_id":"PI","i_lat":-6.169933,"line":5,"is_transit":false,"distance":2548,"transit":false,"time":3},{"is_transit":false,"i_long":106.665036,"station_name":"Batuceper","station_id":"BPR","distance":1834,"i_lat":-6.171811,"line":0,"transit":false,"time":3}],[{"line":6,"transit":false,"distance":0,"station_name":"Tenjo","station_id":"TEJ","is_transit":false,"time":0,"i_lat":-6.327251,"i_long":106.460812},{"transit":false,"is_transit":false,"i_long":106.491338,"i_lat":-6.338021,"line":0,"station_id":"DAR","time":5,"station_name":"Daru","distance":3902},{"i_long":106.508482,"transit":false,"is_transit":false,"station_id":"CJT","distance":2675,"time":6,"line":0,"station_name":"Cilejit","i_lat":-6.354349},{"line":6,"transit":false,"time":9,"distance":7025,"station_id":"PRP","is_transit":false,"station_name":"Parung Panjang","i_lat":-6.3441410000000005,"i_long":106.568863},{"station_id":"CC","time":8,"is_transit":false,"i_lat":-6.329547,"i_long":106.617853,"line":0,"transit":false,"distance":5968,"station_name":"Cicayur"},{"i_lat":-6.32484,"line":0,"distance":2519,"station_id":"CSK","transit":false,"time":4,"is_transit":false,"station_name":"Cisauk","i_long":106.640411},{"i_lat":-6.319871,"i_long":106.66566,"station_name":"Serpong","transit":false,"line":6,"distance":1784,"is_transit":false,"station_id":"SRP","time":4},{"time":4,"distance":2413,"station_name":"Rawa Buntu","station_id":"RU","i_long":106.675475,"transit":false,"is_transit":false,"line":6,"i_lat":-6.314823},{"distance":4566,"station_name":"Sudimara","line":6,"transit":false,"is_transit":false,"station_id":"SDM","time":6,"i_lat":-6.296963,"i_long":106.712277},{"transit":false,"distance":1994,"i_long":106.728916,"line":6,"time":4,"station_name":"Jurangmangu","i_lat":-6.288927,"is_transit":false,"station_id":"JMU"},{"transit":false,"time":3,"i_long":106.74273,"station_id":"PDJ","distance":2179,"i_lat":-6.276362,"line":6,"is_transit":false,"station_name":"Pondokranji"},{"line":6,"distance":6218,"is_transit":false,"i_lat":-6.237242,"transit":false,"i_long":106.780334,"time":8,"station_id":"KBY","station_name":"Kebayoran"},{"station_name":"Palmerah","station_id":"PLM","distance":3737,"i_long":106.79689,"is_transit":false,"i_lat":-6.207404,"line":6,"transit":false,"time":7},{"time":6,"station_id":"THB","is_transit":true,"i_long":106.811091,"line":1,"distance":3191,"i_lat":-6.185545,"transit":true,"station_name":"Tanah Abang"},{"distance":2029,"time":5,"i_lat":-6.20132,"station_name":"Karet","is_transit":false,"i_long":106.816351,"transit":false,"line":1,"station_id":"KAT"},{"transit":false,"line":1,"distance":471,"i_long":106.819881,"i_lat":-6.201433,"station_id":"SUDB","is_transit":false,"time":1,"station_name":"Sudirman Baru"},{"distance":280,"i_lat":-6.202263,"transit":false,"i_long":106.822649,"station_id":"SUD","is_transit":false,"station_name":"Sudirman","time":1,"line":1},{"line":0,"is_transit":true,"station_name":"Manggarai","i_long":106.84912,"i_lat":-6.209883,"transit":false,"station_id":"MRI","time":4,"distance":3186},{"station_name":"Matraman","transit":false,"station_id":"MTR","time":2,"line":1,"distance":1275,"i_lat":-6.212485,"i_long":106.858896,"is_transit":false},{"i_lat":-6.215091,"i_long":106.86807400000001,"station_id":"JNG","line":0,"station_name":"Jatinegara","transit":true,"distance":1377,"time":8,"is_transit":true},{"is_transit":false,"i_lat":-6.209188,"i_long":106.861737,"station_id":"POK","distance":1236,"station_name":"Pondok Jati","transit":false,"time":2,"line":11},{"time":2,"is_transit":false,"line":11,"distance":1829,"i_long":106.855437,"station_id":"KMT","station_name":"Kramat","transit":false,"i_lat":-6.193792},{"station_id":"GST","line":11,"i_lat":-6.185975,"distance":973,"is_transit":false,"transit":false,"time":1,"station_name":"Gang Sentiong","i_long":106.850107},{"time":8,"line":11,"station_id":"PSE","is_transit":false,"station_name":"Pasar Senen","transit":false,"i_lat":-6.174784,"i_long":106.84368,"distance":1567},{"is_transit":false,"station_name":"Kemayoran","i_lat":-6.161728,"line":11,"distance":1436,"transit":false,"station_id":"KMO","time":4,"i_long":106.839204},{"station_id":"RJW","i_long":106.836569,"is_transit":false,"line":11,"time":5,"station_name":"Rajawali","transit":false,"distance":1901,"i_lat":-6.14505},{"time":3,"station_id":"KPB","distance":1444,"line":0,"is_transit":true,"i_long":106.826365,"i_lat":-6.132549,"station_name":"Kampung Bandan","transit":true},{"time":9,"transit":false,"i_long":106.79867,"station_name":"Angke","station_id":"AK","i_lat":-6.144674,"is_transit":false,"distance":4102,"line":0},{"station_name":"Duri","station_id":"DU","distance":1230,"time":4,"i_lat":-6.155215,"is_transit":true,"transit":true,"i_long":106.800832,"line":1},{"transit":false,"distance":1700,"station_name":"Grogol","i_long":106.788277,"line":5,"i_lat":-6.162021,"time":3,"is_transit":false,"station_id":"GGL"},{"station_id":"PSG","is_transit":false,"distance":2036,"time":2,"i_lat":-6.161433,"line":5,"transit":false,"station_name":"Pesing","i_long":106.771379},{"station_id":"TKO","station_name":"Taman Kota","time":2,"i_long":106.756522,"transit":false,"is_transit":false,"i_lat":-6.1587309999999995,"line":5,"distance":1614},{"i_long":106.737035,"line":0,"transit":false,"i_lat":-6.159876,"is_transit":false,"station_name":"Bojongindah","distance":2334,"time":2,"station_id":"BOI"},{"i_lat":-6.162758,"i_long":106.723064,"station_name":"Rawa Buaya","transit":false,"time":4,"is_transit":false,"line":5,"distance":1152,"station_id":"RW"},{"station_name":"Kalideres","transit":false,"time":3,"i_long":106.701612,"station_id":"KDS","distance":2504,"is_transit":false,"i_lat":-6.166068,"line":5},{"line":5,"distance":2548,"is_transit":false,"station_name":"Poris","transit":false,"i_long":106.679458,"station_id":"PI","time":3,"i_lat":-6.169933},{"i_long":106.665036,"station_name":"Batuceper","i_lat":-6.171811,"distance":1834,"time":3,"station_id":"BPR","line":0,"transit":false,"is_transit":false}]]}