{"data":[[{"is_transit":false,"i_lat":-6.327251,"i_long":106.460812,"distance":0,"transit":false,"station_name":"Tenjo","time":0,"station_id":"TEJ","line":6},{"time":5,"transit":false,"line":0,"station_id":"DAR","distance":3902,"is_transit":false,"i_lat":-6.338021,"station_name":"Daru","i_long":106.491338},{"line":3,"i_lat":-6.354349,"is_transit":false,"distance":2675,"transit":false,"time":6,"station_name":"Cilejit","station_id":"CJT","i_long":106.508482},{"station_name":"Parung Panjang","i_lat":-6.3441410000000005,"i_long":106.568863,"transit":false,"station_id":"PRP","line":6,"is_transit":false,"distance":7025,"time":9},{"station_name":"Cicayur","distance":5968,"i_lat":-6.329547,"line":3,"i_long":106.617853,"station_id":"CC","transit":false,"time":8,"is_transit":false},{"i_lat":-6.32484,"time":4,"i_long":106.640411,"is_transit":false,"transit":false,"station_name":"Cisauk","station_id":"CSK","line":3,"distance":2519},{"station_name":"Serpong","i_lat":-6.319871,"time":4,"is_transit":false,"i_long":106.66566,"line":6,"transit":false,"station_id":"SRP","distance":1784},{"line":6,"station_id":"RU","i_long":106.675475,"time":4,"transit":false,"station_name":"Rawa Buntu","distance":2413,"is_transit":false,"i_lat":-6.314823},{"station_name":"Sudimara","distance":4566,"is_transit":false,"time":6,"station_id":"SDM","line":6,"transit":false,"i_lat":-6.296963,"i_long":106.712277},{"is_transit":false,"i_lat":-6.288927,"time":4,"station_id":"JMU","transit":false,"line":6,"station_name":"Jurangmangu","i_long":106.728916,"distance":1994},{"transit":false,"i_long":106.74273,"time":3,"is_transit":false,"i_lat":-6.276362,"distance":2179,"station_id":"PDJ","line":6,"station_name":"Pondokranji"},{"transit":false,"distance":6218,"station_id":"KBY","station_name":"Kebayoran","i_long":106.780334,"line":6,"i_lat":-6.237242,"time":8,"is_transit":false},{"transit":false,"i_lat":-6.207404,"distance":3737,"time":7,"line":6,"i_long":106.79689,"station_id":"PLM","is_transit":false,"station_name":"Palmerah"},{"line":1,"transit":true,"time":6,"i_lat":-6.185545,"station_id":"THB","station_name":"Tanah Abang","is_transit":true,"distance":3191,"i_long":106.811091},{"i_long":106.816351,"is_transit":false,"time":5,"station_id":"KAT","transit":false,"line":1,"station_name":"Karet","distance":2029,"i_lat":-6.20132},{"transit":false,"station_name":"Sudirman Baru","station_id":"SUDB","line":1,"time":1,"distance":471,"is_transit":false,"i_long":106.819881,"i_lat":-6.201433},{"i_long":106.822649,"time":1,"transit":false,"station_name":"Sudirman","is_transit":false,"station_id":"SUD","i_lat":-6.202263,"line":1,"distance":280},{"distance":3186,"transit":false,"time":4,"is_transit":false,"i_long":106.84912,"line":2,"station_name":"Manggarai","station_id":"MRI","i_lat":-6.209883}],[{"distance":0,"i_lat":-6.327251,"line":6,"time":0,"station_id":"TEJ","i_long":106.460812,"station_name":"Tenjo","is_transit":false,"transit":false},{"transit":false,"i_lat":-6.338021,"i_long":106.491338,"distance":3902,"is_transit":false,"line":0,"time":5,"station_name":"Daru","station_id":"DAR"},{"i_long":106.508482,"station_id":"CJT","transit":false,"distance":2675,"line":3,"station_name":"Cilejit","is_transit":false,"i_lat":-6.354349,"time":6},{"i_long":106.568863,"i_lat":-6.3441410000000005,"is_transit":false,"transit":false,"station_name":"Parung Panjang","distance":7025,"time":9,"line":6,"station_id":"PRP"},{"time":8,"station_id":"CC","is_transit":false,"line":3,"transit":false,"i_long":106.617853,"station_name":"Cicayur","i_lat":-6.329547,"distance":5968},{"time":4,"i_long":106.640411,"i_lat":-6.32484,"is_transit":false,"line":3,"station_name":"Cisauk","station_id":"CSK","transit":false,"distance":2519},{"is_transit":false,"distance":1784,"time":4,"i_long":106.66566,"station_name":"Serpong","line":6,"i_lat":-6.319871,"transit":false,"station_id":"SRP"},{"time":4,"transit":false,"station_name":"Rawa Buntu","distance":2413,"station_id":"RU","i_lat":-6.314823,"i_long":106.675475,"line":6,"is_transit":false},{"time":6,"is_transit":false,"distance":4566,"line":6,"i_lat":-6.296963,"station_name":"Sudimara","transit":false,"i_long":106.712277,"station_id":"SDM"},{"is_transit":false,"transit":false,"time":4,"distance":1994,"i_lat":-6.288927,"i_long":106.728916,"line":6,"station_id":"JMU","station_name":"Jurangmangu"},{"station_name":"Pondokranji","station_id":"PDJ","transit":false,"i_lat":-6.276362,"i_long":106.74273,"line":6,"time":3,"distance":2179,"is_transit":false},{"distance":6218,"transit":false,"is_transit":false,"i_lat":-6.237242,"time":8,"i_long":106.780334,"station_id":"KBY","line":6,"station_name":"Kebayoran"},{"station_name":"Palmerah","i_long":106.79689,"transit":false,"time":7,"i_lat":-6.207404,"is_transit":false,"distance":3737,"station_id":"PLM","line":6},{"transit":true,"distance":3191,"i_lat":-6.185545,"i_long":106.811091,"station_name":"Tanah Abang","line":1,"time":6,"station_id":"THB","is_transit":true},{"i_lat":-6.155215,"distance":3632,"station_id":"DU","transit":false,"i_long":106.800832,"line":1,"is_transit":false,"time":8,"station_name":"Duri"},{"station_name":"Angke","is_transit":false,"station_id":"AK","distance":1230,"transit":false,"time":4,"i_lat":-6.144674,"i_long":106.79867,"line":1},{"station_id":"KPB","distance":4102,"line":4,"i_lat":-6.132549,"i_long":106.826365,"transit":true,"time":9,"is_transit":true,"station_name":"Kampung Bandan"},{"i_lat":-6.137569,"time":3,"station_name":"Jakarta Kota","distance":1364,"line":2,"transit":true,"is_transit":true,"station_id":"JAKK","i_long":106.812439},{"station_name":"Jayakarta","i_lat":-6.141205,"is_transit":false,"line":2,"station_id":"JAY","transit":false,"i_long":106.820901,"time":4,"distance":1264},{"is_transit":false,"distance":1080,"i_long":106.82482,"i_lat":-6.149769,"transit":false,"station_name":"Manggabesar","time":2,"station_id":"MGB","line":2},{"station_id":"SW","is_transit":false,"line":2,"i_lat":-6.160725,"transit":false,"station_name":"Sawah Besar","time":2,"distance":906,"i_long":106.827103},{"station_name":"Juanda","i_long":106.828284,"i_lat":-6.166716,"time":2,"line":2,"transit":false,"is_transit":false,"distance":1149,"station_id":"JUA"},{"i_lat":-6.186295,"transit":false,"distance":2015,"i_long":106.832183,"line":2,"time":4,"station_id":"GDD","is_transit":false,"station_name":"Gondangdia"},{"station_name":"Cikini","station_id":"CKI","line":2,"i_lat":-6.198556,"distance":1750,"transit":false,"i_long":106.840169,"is_transit":false,"time":3},{"i_long":106.84912,"i_lat":-6.209883,"time":4,"is_transit":false,"station_name":"Manggarai","distance":1590,"line":2,"station_id":"MRI","transit":false}],[{"i_long":106.460812,"station_name":"Tenjo","line":6,"time":0,"station_id":"TEJ","is_transit":false,"i_lat":-6.327251,"distance":0,"transit":false},{"station_id":"DAR","station_name":"Daru","transit":false,"is_transit":false,"time":5,"line":0,"distance":3902,"i_lat":-6.338021,"i_long":106.491338},{"transit":false,"station_name":"Cilejit","is_transit":false,"i_long":106.508482,"time":6,"line":3,"distance":2675,"i_lat":-6.354349,"station_id":"CJT"},{"time":9,"i_long":106.568863,"station_id":"PRP","transit":false,"is_transit":false,"distance":7025,"station_name":"Parung Panjang","line":6,"i_lat":-6.3441410000000005},{"transit":false,"i_lat":-6.329547,"station_name":"Cicayur","station_id":"CC","is_transit":false,"line":3,"i_long":106.617853,"distance":5968,"time":8},{"line":3,"time":4,"distance":2519,"i_lat":-6.32484,"is_transit":false,"station_name":"Cisauk","station_id":"CSK","i_long":106.640411,"transit":false},{"i_lat":-6.319871,"station_id":"SRP","distance":1784,"station_name":"Serpong","i_long":106.66566,"line":6,"is_transit":false,"time":4,"transit":false},{"time":4,"station_name":"Rawa Buntu","distance":2413,"line":6,"is_transit":false,"station_id":"RU","i_long":106.675475,"transit":false,"i_lat":-6.314823},{"is_transit":false,"time":6,"i_lat":-6.296963,"station_name":"Sudimara","i_long":106.712277,"line":6,"transit":false,"station_id":"SDM","distance":4566},{"is_transit":false,"time":4,"station_id":"JMU","distance":1994,"transit":false,"i_long":106.728916,"line":6,"station_name":"Jurangmangu","i_lat":-6.288927},{"time":3,"line":6,"i_lat":-6.276362,"station_name":"Pondokranji","transit":false,"i_long":106.74273,"is_transit":false,"station_id":"PDJ","distance":2179},{"station_id":"KBY","distance":6218,"is_transit":false,"station_name":"Kebayoran","transit":false,"i_lat":-6.237242,"i_long":106.780334,"line":6,"time":8},{"i_long":106.79689,"distance":3737,"time":7,"station_name":"Palmerah","i_lat":-6.207404,"station_id":"PLM","line":6,"transit":false,"is_transit":false},{"i_long":106.811091,"station_name":"Tanah Abang","is_transit":true,"transit":true,"distance":3191,"i_lat":-6.185545,"station_id":"THB","line":1,"time":6},{"is_transit":false,"i_long":106.800832,"distance":3632,"line":1,"time":8,"i_lat":-6.155215,"station_id":"DU","transit":false,"station_name":"Duri"},{"is_transit":false,"line":1,"station_name":"Angke","distance":1230,"time":4,"i_lat":-6.144674,"transit":false,"i_long":106.79867,"station_id":"AK"},{"i_long":106.826365,"line":4,"distance":4102,"is_transit":true,"station_id":"KPB","time":9,"i_lat":-6.132549,"station_name":"Kampung Bandan","transit":true},{"i_lat":-6.14505,"distance":1444,"is_transit":false,"station_name":"Rajawali","time":3,"station_id":"RJW","transit":false,"line":11,"i_long":106.836569},{"station_name":"Kemayoran","is_transit":false,"station_id":"KMO","i_lat":-6.161728,"distance":1901,"i_long":106.839204,"time":5,"transit":false,"line":11},{"time":4,"is_transit":false,"transit":false,"i_lat":-6.174784,"line":11,"station_name":"Pasar Senen","i_long":106.84368,"station_id":"PSE","distance":1436},{"i_long":106.850107,"line":11,"station_name":"Gang Sentiong","is_transit":false,"transit":false,"distance":1567,"station_id":"GST","i_lat":-6.185975,"time":8},{"i_lat":-6.193792,"line":11,"time":1,"station_id":"KMT","is_transit":false,"distance":973,"i_long":106.855437,"station_name":"Kramat","transit":false},{"i_long":106.861737,"station_id":"POK","is_transit":false,"time":2,"distance":1829,"i_lat":-6.209188,"station_name":"Pondok Jati","line":11,"transit":false},{"transit":true,"i_lat":-6.215091,"is_transit":true,"station_name":"Jatinegara","time":9,"i_long":106.86807400000001,"station_id":"JNG","distance":1236,"line":1},{"time":2,"i_long":106.858896,"distance":1377,"i_lat":-6.212485,"line":1,"transit":false,"station_name":"Matraman","station_id":"MTR","is_transit":false},{"line":2,"transit":false,"station_name":"Manggarai","i_lat":-6.209883,"i_long":106.84912,"station_id":"MRI","distance":1275,"is_transit":false,"time":2}]]}