{"data":[[{"time":0,"i_lat":-6.327251,"distance":0,"station_name":"Tenjo","line":6,"is_transit":false,"station_id":"TEJ","transit":false,"i_long":106.460812},{"transit":false,"distance":3902,"is_transit":false,"line":0,"time":5,"station_name":"Daru","station_id":"DAR","i_long":106.491338,"i_lat":-6.338021},{"i_long":106.508482,"station_id":"CJT","line":0,"distance":2675,"is_transit":false,"transit":false,"time":6,"i_lat":-6.354349,"station_name":"Cilejit"},{"line":6,"is_transit":false,"i_lat":-6.3441410000000005,"station_name":"Parung Panjang","time":9,"station_id":"PRP","transit":false,"distance":7025,"i_long":106.568863},{"line":0,"station_id":"CC","distance":5968,"station_name":"Cicayur","is_transit":false,"time":8,"i_lat":-6.329547,"i_long":106.617853,"transit":false},{"station_id":"CSK","time":4,"line":0,"is_transit":false,"station_name":"Cisauk","distance":2519,"i_long":106.640411,"i_lat":-6.32484,"transit":false},{"i_long":106.66566,"is_transit":false,"station_name":"Serpong","time":4,"transit":false,"i_lat":-6.319871,"distance":1784,"line":6,"station_id":"SRP"},{"station_name":"Rawa Buntu","time":4,"i_lat":-6.314823,"is_transit":false,"i_long":106.675475,"distance":2413,"transit":false,"station_id":"RU","line":6},{"station_name":"Sudimara","station_id":"SDM","transit":false,"is_transit":false,"distance":4566,"i_long":106.712277,"time":6,"i_lat":-6.296963,"line":6},{"transit":false,"i_lat":-6.288927,"line":6,"time":4,"i_long":106.728916,"station_id":"JMU","station_name":"Jurangmangu","is_transit":false,"distance":1994},{"station_id":"PDJ","station_name":"Pondokranji","time":3,"is_transit":false,"distance":2179,"i_lat":-6.276362,"i_long":106.74273,"line":6,"transit":false},{"is_transit":false,"transit":false,"i_lat":-6.237242,"station_id":"KBY","i_long":106.780334,"time":8,"line":6,"distance":6218,"station_name":"Kebayoran"},{"transit":false,"i_lat":-6.207404,"station_name":"Palmerah","station_id":"PLM","i_long":106.79689,"distance":3737,"time":7,"line":6,"is_transit":false},{"transit":true,"i_lat":-6.185545,"line":1,"i_long":106.811091,"station_id":"THB","distance":3191,"is_transit":true,"station_name":"Tanah Abang","time":6},{"time":8,"distance":3632,"line":1,"transit":true,"is_transit":true,"i_lat":-6.155215,"station_id":"DU","station_name":"Duri","i_long":106.800832},{"station_id":"GGL","line":5,"station_name":"Grogol","distance":1700,"is_transit":false,"i_lat":-6.162021,"transit":false,"i_long":106.788277,"time":3},{"distance":2036,"station_name":"Pesing","is_transit":false,"transit":false,"time":2,"i_lat":-6.161433,"i_long":106.771379,"line":5,"station_id":"PSG"},{"line":5,"distance":1614,"i_long":106.756522,"is_transit":false,"station_id":"TKO","time":2,"i_lat":-6.1587309999999995,"station_name":"Taman Kota","transit":false},{"line":0,"station_id":"BOI","distance":2334,"time":2,"station_name":"Bojongindah","i_lat":-6.159876,"i_long":106.737035,"is_transit":false,"transit":false},{"station_name":"Rawa Buaya","is_transit":false,"i_long":106.723064,"i_lat":-6.162758,"station_id":"RW","transit":false,"time":4,"distance":1152,"line":5},{"time":3,"line":5,"station_id":"KDS","i_long":106.701612,"distance":2504,"is_transit":false,"transit":false,"i_lat":-6.166068,"station_name":"Kalideres"}],[{"line":6,"station_name":"Tenjo","distance":0,"i_long":106.460812,"station_id":"TEJ","i_lat":-6.327251,"is_transit":false,"transit":false,"time":0},{"distance":3902,"transit":false,"is_transit":false,"station_name":"Daru","i_long":106.491338,"i_lat":-6.338021,"time":5,"line":0,"station_id":"DAR"},{"i_lat":-6.354349,"station_name":"Cilejit","distance":2675,"transit":false,"i_long":106.508482,"is_transit":false,"time":6,"station_id":"CJT","line":0},{"transit":false,"i_lat":-6.3441410000000005,"time":9,"distance":7025,"station_name":"Parung Panjang","is_transit":false,"i_long":106.568863,"line":6,"station_id":"PRP"},{"station_name":"Cicayur","transit":false,"i_long":106.617853,"is_transit":false,"station_id":"CC","time":8,"line":0,"i_lat":-6.329547,"distance":5968},{"transit":false,"station_id":"CSK","line":0,"station_name":"Cisauk","i_lat":-6.32484,"is_transit":false,"distance":2519,"time":4,"i_long":106.640411},{"distance":1784,"is_transit":false,"station_name":"Serpong","station_id":"SRP","i_long":106.66566,"transit":false,"i_lat":-6.319871,"time":4,"line":6},{"is_transit":false,"line":6,"station_id":"RU","i_long":106.675475,"distance":2413,"transit":false,"station_name":"Rawa Buntu","i_lat":-6.314823,"time":4},{"station_id":"SDM","station_name":"Sudimara","is_transit":false,"time":6,"i_lat":-6.296963,"distance":4566,"transit":false,"i_long":106.712277,"line":6},{"i_lat":-6.288927,"station_name":"Jurangmangu","is_transit":false,"distance":1994,"station_id":"JMU","time":4,"transit":false,"i_long":106.728916,"line":6},{"i_lat":-6.276362,"line":6,"station_id":"PDJ","distance":2179,"time":3,"station_name":"Pondokranji","transit":false,"i_long":106.74273,"is_transit":false},{"i_long":106.780334,"station_name":"Kebayoran","distance":6218,"station_id":"KBY","transit":false,"line":6,"is_transit":false,"i_lat":-6.237242,"time":8},{"time":7,"is_transit":false,"transit":false,"distance":3737,"station_id":"PLM","i_lat":-6.207404,"i_long":106.79689,"line":6,"station_name":"Palmerah"},{"time":6,"i_long":106.811091,"line":1,"transit":true,"i_lat":-6.185545,"station_id":"THB","station_name":"Tanah Abang","distance":3191,"is_transit":true},{"is_transit":false,"station_id":"KAT","transit":false,"line":1,"distance":2029,"station_name":"Karet","time":5,"i_lat":-6.20132,"i_long":106.816351},{"i_long":106.819881,"station_name":"Sudirman Baru","time":1,"distance":471,"line":1,"is_transit":false,"transit":false,"i_lat":-6.201433,"station_id":"SUDB"},{"transit":false,"station_name":"Sudirman","i_lat":-6.202263,"i_long":106.822649,"distance":280,"time":1,"line":1,"is_transit":false,"station_id":"SUD"},{"i_lat":-6.209883,"time":4,"is_transit":true,"station_name":"Manggarai","i_long":106.84912,"line":0,"station_id":"MRI","transit":true,"distance":3186},{"station_id":"CKI","i_long":106.840169,"transit":false,"is_transit":false,"time":4,"i_lat":-6.198556,"distance":1590,"station_name":"Cikini","line":0},{"station_name":"Gondangdia","line":2,"distance":1750,"i_long":106.832183,"time":3,"i_lat":-6.186295,"is_transit":false,"station_id":"GDD","transit":false},{"transit":false,"line":2,"distance":2015,"station_name":"Juanda","is_transit":false,"i_long":106.828284,"time":4,"station_id":"JUA","i_lat":-6.166716},{"is_transit":false,"station_id":"SW","line":2,"transit":false,"time":2,"i_lat":-6.160725,"i_long":106.827103,"distance":1149,"station_name":"Sawah Besar"},{"station_id":"MGB","is_transit":false,"station_name":"Manggabesar","transit":false,"time":2,"i_lat":-6.149769,"i_long":106.82482,"distance":906,"line":2},{"i_lat":-6.141205,"station_name":"Jayakarta","transit":false,"time":2,"line":7,"is_transit":false,"station_id":"JAY","distance":1080,"i_long":106.820901},{"i_lat":-6.137569,"i_long":106.812439,"distance":1264,"station_name":"Jakarta Kota","transit":true,"is_transit":true,"line":0,"station_id":"JAKK","time":4},{"transit":false,"distance":1364,"is_transit":true,"station_name":"Kampung Bandan","i_lat":-6.132549,"station_id":"KPB","time":3,"i_long":106.826365,"line":0},{"time":9,"station_name":"Angke","station_id":"AK","distance":4102,"is_transit":false,"i_long":106.79867,"line":0,"i_lat":-6.144674,"transit":false},{"i_long":106.800832,"station_name":"Duri","line":1,"transit":true,"i_lat":-6.155215,"is_transit":true,"station_id":"DU","time":4,"distance":1230},{"distance":1700,"station_name":"Grogol","transit":false,"line":5,"time":3,"is_transit":false,"station_id":"GGL","i_lat":-6.162021,"i_long":106.788277},{"i_long":106.771379,"station_id":"PSG","time":2,"is_transit":false,"i_lat":-6.161433,"distance":2036,"station_name":"Pesing","transit":false,"line":5},{"i_lat":-6.1587309999999995,"distance":1614,"station_name":"Taman Kota","transit":false,"i_long":106.756522,"is_transit":false,"line":5,"station_id":"TKO","time":2},{"station_id":"BOI","i_lat":-6.159876,"line":0,"distance":2334,"station_name":"Bojongindah","is_transit":false,"i_long":106.737035,"transit":false,"time":2},{"station_id":"RW","line":5,"i_long":106.723064,"distance":1152,"is_transit":false,"transit":false,"station_name":"Rawa Buaya","time":4,"i_lat":-6.162758},{"transit":false,"line":5,"time":3,"i_lat":-6.166068,"is_transit":false,"i_long":106.701612,"distance":2504,"station_id":"KDS","station_name":"Kalideres"}],[{"transit":false,"is_transit":false,"i_lat":-6.327251,"line":6,"station_name":"Tenjo","distance":0,"time":0,"i_long":106.460812,"station_id":"TEJ"},{"line":0,"is_transit":false,"station_name":"Daru","transit":false,"i_long":106.491338,"time":5,"distance":3902,"i_lat":-6.338021,"station_id":"DAR"},{"is_transit":false,"distance":2675,"station_name":"Cilejit","time":6,"i_lat":-6.354349,"line":0,"station_id":"CJT","i_long":106.508482,"transit":false},{"time":9,"is_transit":false,"line":6,"station_id":"PRP","i_long":106.568863,"i_lat":-6.3441410000000005,"station_name":"Parung Panjang","distance":7025,"transit":false},{"i_long":106.617853,"station_id":"CC","is_transit":false,"i_lat":-6.329547,"line":0,"distance":5968,"station_name":"Cicayur","transit":false,"time":8},{"is_transit":false,"line":0,"transit":false,"i_lat":-6.32484,"station_id":"CSK","distance":2519,"station_name":"Cisauk","time":4,"i_long":106.640411},{"station_id":"SRP","transit":false,"station_name":"Serpong","is_transit":false,"i_long":106.66566,"time":4,"i_lat":-6.319871,"line":6,"distance":1784},{"time":4,"distance":2413,"i_long":106.675475,"transit":false,"is_transit":false,"station_id":"RU","station_name":"Rawa Buntu","i_lat":-6.314823,"line":6},{"station_name":"Sudimara","line":6,"station_id":"SDM","time":6,"is_transit":false,"i_long":106.712277,"transit":false,"distance":4566,"i_lat":-6.296963},{"i_lat":-6.288927,"i_long":106.728916,"line":6,"station_name":"Jurangmangu","distance":1994,"station_id":"JMU","transit":false,"is_transit":false,"time":4},{"station_name":"Pondokranji","time":3,"station_id":"PDJ","i_lat":-6.276362,"distance":2179,"transit":false,"i_long":106.74273,"is_transit":false,"line":6},{"is_transit":false,"i_lat":-6.237242,"line":6,"i_long":106.780334,"station_name":"Kebayoran","distance":6218,"station_id":"KBY","transit":false,"time":8},{"i_lat":-6.207404,"line":6,"time":7,"station_name":"Palmerah","i_long":106.79689,"is_transit":false,"distance":3737,"station_id":"PLM","transit":false},{"transit":true,"is_transit":true,"line":1,"station_id":"THB","station_name":"Tanah Abang","time":6,"i_lat":-6.185545,"distance":3191,"i_long":106.811091},{"transit":false,"distance":2029,"station_id":"KAT","station_name":"Karet","time":5,"i_long":106.816351,"line":1,"i_lat":-6.20132,"is_transit":false},{"time":1,"i_lat":-6.201433,"i_long":106.819881,"line":1,"distance":471,"transit":false,"is_transit":false,"station_name":"Sudirman Baru","station_id":"SUDB"},{"station_id":"SUD","is_transit":false,"time":1,"distance":280,"transit":false,"i_long":106.822649,"line":1,"station_name":"Sudirman","i_lat":-6.202263},{"transit":false,"i_long":106.84912,"is_transit":true,"station_id":"MRI","time":4,"line":0,"station_name":"Manggarai","distance":3186,"i_lat":-6.209883},{"time":2,"station_id":"MTR","i_long":106.858896,"transit":false,"line":1,"i_lat":-6.212485,"is_transit":false,"distance":1275,"station_name":"Matraman"},{"station_name":"Jatinegara","transit":true,"is_transit":true,"i_long":106.86807400000001,"time":8,"line":0,"station_id":"JNG","distance":1377,"i_lat":-6.215091},{"time":2,"station_name":"Pondok Jati","distance":1236,"transit":false,"i_long":106.861737,"i_lat":-6.209188,"is_transit":false,"station_id":"POK","line":11},{"transit":false,"i_lat":-6.193792,"time":2,"station_id":"KMT","i_long":106.855437,"distance":1829,"is_transit":false,"station_name":"Kramat","line":11},{"station_id":"GST","transit":false,"distance":973,"i_long":106.850107,"is_transit":false,"i_lat":-6.185975,"station_name":"Gang Sentiong","time":1,"line":11},{"distance":1567,"is_transit":false,"station_id":"PSE","station_name":"Pasar Senen","time":8,"i_lat":-6.174784,"transit":false,"i_long":106.84368,"line":11},{"transit":false,"station_id":"KMO","station_name":"Kemayoran","i_long":106.839204,"distance":1436,"is_transit":false,"i_lat":-6.161728,"time":4,"line":11},{"i_lat":-6.14505,"transit":false,"time":5,"distance":1901,"station_id":"RJW","station_name":"Rajawali","is_transit":false,"i_long":106.836569,"line":11},{"station_id":"KPB","time":3,"i_lat":-6.132549,"is_transit":true,"station_name":"Kampung Bandan","distance":1444,"line":0,"i_long":106.826365,"transit":true},{"time":9,"station_id":"AK","distance":4102,"is_transit":false,"station_name":"Angke","transit":false,"i_lat":-6.144674,"i_long":106.79867,"line":0},{"station_id":"DU","i_lat":-6.155215,"line":1,"is_transit":true,"transit":true,"station_name":"Duri","i_long":106.800832,"time":4,"distance":1230},{"station_name":"Grogol","distance":1700,"time":3,"i_lat":-6.162021,"station_id":"GGL","is_transit":false,"transit":false,"i_long":106.788277,"line":5},{"i_lat":-6.161433,"station_name":"Pesing","time":2,"line":5,"i_long":106.771379,"is_transit":false,"station_id":"PSG","distance":2036,"transit":false},{"station_id":"TKO","time":2,"is_transit":false,"distance":1614,"station_name":"Taman Kota","i_lat":-6.1587309999999995,"i_long":106.756522,"transit":false,"line":5},{"i_lat":-6.159876,"station_name":"Bojongindah","line":0,"transit":false,"time":2,"station_id":"BOI","distance":2334,"i_long":106.737035,"is_transit":false},{"time":4,"i_long":106.723064,"is_transit":false,"i_lat":-6.162758,"distance":1152,"line":5,"station_name":"Rawa Buaya","transit":false,"station_id":"RW"},{"time":3,"station_id":"KDS","transit":false,"is_transit":false,"line":5,"i_long":106.701612,"distance":2504,"station_name":"Kalideres","i_lat":-6.166068}]]}