{"data":[[{"transit":false,"line":6,"i_long":106.460812,"station_id":"TEJ","distance":0,"i_lat":-6.327251,"time":0,"station_name":"Tenjo","is_transit":false},{"i_lat":-6.338021,"i_long":106.491338,"time":5,"is_transit":false,"station_name":"Daru","station_id":"DAR","transit":false,"distance":3902,"line":0},{"i_lat":-6.354349,"transit":false,"station_name":"Cilejit","is_transit":false,"time":6,"distance":2675,"i_long":106.508482,"station_id":"CJT","line":3},{"is_transit":false,"i_long":106.568863,"station_name":"Parung Panjang","line":6,"station_id":"PRP","transit":false,"i_lat":-6.3441410000000005,"distance":7025,"time":9},{"station_id":"CC","is_transit":false,"station_name":"Cicayur","i_lat":-6.329547,"line":3,"time":8,"i_long":106.617853,"transit":false,"distance":5968},{"transit":false,"line":3,"time":4,"i_lat":-6.32484,"station_name":"Cisauk","station_id":"CSK","i_long":106.640411,"is_transit":false,"distance":2519},{"line":6,"time":4,"station_name":"Serpong","i_lat":-6.319871,"i_long":106.66566,"is_transit":false,"distance":1784,"transit":false,"station_id":"SRP"},{"transit":false,"station_id":"RU","station_name":"Rawa Buntu","distance":2413,"line":6,"i_lat":-6.314823,"time":4,"i_long":106.675475,"is_transit":false},{"distance":4566,"i_long":106.712277,"transit":false,"station_id":"SDM","station_name":"Sudimara","time":6,"is_transit":false,"line":6,"i_lat":-6.296963},{"transit":false,"i_lat":-6.288927,"line":6,"distance":1994,"is_transit":false,"time":4,"station_name":"Jurangmangu","i_long":106.728916,"station_id":"JMU"},{"time":3,"station_id":"PDJ","is_transit":false,"distance":2179,"transit":false,"i_long":106.74273,"station_name":"Pondokranji","line":6,"i_lat":-6.276362},{"line":6,"station_id":"KBY","distance":6218,"station_name":"Kebayoran","transit":false,"time":8,"i_lat":-6.237242,"is_transit":false,"i_long":106.780334},{"distance":3737,"station_name":"Palmerah","i_long":106.79689,"transit":false,"line":6,"i_lat":-6.207404,"is_transit":false,"time":7,"station_id":"PLM"},{"station_id":"THB","i_lat":-6.185545,"time":6,"station_name":"Tanah Abang","transit":true,"i_long":106.811091,"distance":3191,"is_transit":true,"line":1},{"station_name":"Karet","distance":2029,"transit":false,"time":5,"i_lat":-6.20132,"line":1,"is_transit":false,"station_id":"KAT","i_long":106.816351},{"station_id":"SUDB","line":1,"time":1,"distance":471,"i_lat":-6.201433,"station_name":"Sudirman Baru","transit":false,"i_long":106.819881,"is_transit":false},{"station_id":"SUD","line":1,"is_transit":false,"time":1,"transit":false,"i_long":106.822649,"distance":280,"i_lat":-6.202263,"station_name":"Sudirman"}],[{"i_long":106.460812,"time":0,"line":6,"station_name":"Tenjo","station_id":"TEJ","transit":false,"is_transit":false,"i_lat":-6.327251,"distance":0},{"station_id":"DAR","time":5,"distance":3902,"transit":false,"station_name":"Daru","i_lat":-6.338021,"line":0,"i_long":106.491338,"is_transit":false},{"time":6,"distance":2675,"i_lat":-6.354349,"line":3,"station_id":"CJT","i_long":106.508482,"transit":false,"station_name":"Cilejit","is_transit":false},{"is_transit":false,"transit":false,"i_long":106.568863,"distance":7025,"line":6,"station_id":"PRP","time":9,"station_name":"Parung Panjang","i_lat":-6.3441410000000005},{"is_transit":false,"station_id":"CC","time":8,"line":3,"station_name":"Cicayur","transit":false,"distance":5968,"i_long":106.617853,"i_lat":-6.329547},{"time":4,"is_transit":false,"i_long":106.640411,"station_name":"Cisauk","line":3,"transit":false,"distance":2519,"station_id":"CSK","i_lat":-6.32484},{"line":6,"is_transit":false,"station_id":"SRP","transit":false,"time":4,"i_long":106.66566,"station_name":"Serpong","distance":1784,"i_lat":-6.319871},{"distance":2413,"i_long":106.675475,"time":4,"is_transit":false,"i_lat":-6.314823,"station_id":"RU","line":6,"station_name":"Rawa Buntu","transit":false},{"i_long":106.712277,"is_transit":false,"station_name":"Sudimara","i_lat":-6.296963,"line":6,"time":6,"distance":4566,"transit":false,"station_id":"SDM"},{"i_long":106.728916,"station_name":"Jurangmangu","transit":false,"station_id":"JMU","i_lat":-6.288927,"line":6,"distance":1994,"time":4,"is_transit":false},{"time":3,"distance":2179,"i_lat":-6.276362,"station_name":"Pondokranji","i_long":106.74273,"station_id":"PDJ","transit":false,"is_transit":false,"line":6},{"station_id":"KBY","distance":6218,"time":8,"station_name":"Kebayoran","i_long":106.780334,"transit":false,"is_transit":false,"i_lat":-6.237242,"line":6},{"is_transit":false,"station_id":"PLM","transit":false,"distance":3737,"station_name":"Palmerah","i_lat":-6.207404,"i_long":106.79689,"line":6,"time":7},{"i_lat":-6.185545,"station_id":"THB","time":6,"transit":true,"line":1,"distance":3191,"station_name":"Tanah Abang","i_long":106.811091,"is_transit":true},{"line":1,"transit":false,"station_name":"Duri","distance":3632,"station_id":"DU","time":8,"is_transit":false,"i_long":106.800832,"i_lat":-6.155215},{"i_long":106.79867,"line":1,"transit":false,"station_id":"AK","time":4,"is_transit":false,"i_lat":-6.144674,"distance":1230,"station_name":"Angke"},{"station_id":"KPB","time":9,"i_long":106.826365,"distance":4102,"is_transit":true,"station_name":"Kampung Bandan","transit":true,"i_lat":-6.132549,"line":4},{"is_transit":true,"transit":true,"station_name":"Jakarta Kota","line":2,"time":3,"station_id":"JAKK","distance":1364,"i_long":106.812439,"i_lat":-6.137569},{"line":2,"time":4,"is_transit":false,"transit":false,"station_id":"JAY","distance":1264,"i_long":106.820901,"i_lat":-6.141205,"station_name":"Jayakarta"},{"i_lat":-6.149769,"line":2,"station_id":"MGB","transit":false,"time":2,"i_long":106.82482,"distance":1080,"is_transit":false,"station_name":"Manggabesar"},{"i_long":106.827103,"distance":906,"i_lat":-6.160725,"line":2,"time":2,"station_id":"SW","is_transit":false,"transit":false,"station_name":"Sawah Besar"},{"time":2,"is_transit":false,"line":2,"station_name":"Juanda","i_lat":-6.166716,"distance":1149,"i_long":106.828284,"transit":false,"station_id":"JUA"},{"i_lat":-6.186295,"is_transit":false,"transit":false,"line":2,"station_name":"Gondangdia","distance":2015,"time":4,"station_id":"GDD","i_long":106.832183},{"transit":false,"i_long":106.840169,"station_id":"CKI","is_transit":false,"line":2,"i_lat":-6.198556,"station_name":"Cikini","time":3,"distance":1750},{"i_long":106.84912,"station_name":"Manggarai","time":4,"transit":true,"i_lat":-6.209883,"is_transit":true,"distance":1590,"station_id":"MRI","line":2},{"is_transit":false,"i_long":106.822649,"line":1,"distance":3186,"station_name":"Sudirman","station_id":"SUD","transit":false,"time":4,"i_lat":-6.202263}],[{"is_transit":false,"transit":false,"distance":0,"time":0,"station_id":"TEJ","i_lat":-6.327251,"station_name":"Tenjo","i_long":106.460812,"line":6},{"station_id":"DAR","station_name":"Daru","is_transit":false,"transit":false,"time":5,"distance":3902,"i_lat":-6.338021,"i_long":106.491338,"line":0},{"transit":false,"i_lat":-6.354349,"line":3,"i_long":106.508482,"station_id":"CJT","station_name":"Cilejit","distance":2675,"is_transit":false,"time":6},{"line":6,"station_name":"Parung Panjang","distance":7025,"station_id":"PRP","i_lat":-6.3441410000000005,"i_long":106.568863,"is_transit":false,"transit":false,"time":9},{"station_id":"CC","i_long":106.617853,"transit":false,"time":8,"line":3,"distance":5968,"i_lat":-6.329547,"station_name":"Cicayur","is_transit":false},{"line":3,"station_name":"Cisauk","transit":false,"i_lat":-6.32484,"station_id":"CSK","distance":2519,"is_transit":false,"time":4,"i_long":106.640411},{"i_long":106.66566,"i_lat":-6.319871,"line":6,"distance":1784,"transit":false,"is_transit":false,"time":4,"station_id":"SRP","station_name":"Serpong"},{"i_long":106.675475,"station_name":"Rawa Buntu","line":6,"transit":false,"distance":2413,"i_lat":-6.314823,"time":4,"station_id":"RU","is_transit":false},{"i_long":106.712277,"is_transit":false,"line":6,"transit":false,"station_id":"SDM","distance":4566,"time":6,"station_name":"Sudimara","i_lat":-6.296963},{"distance":1994,"station_name":"Jurangmangu","station_id":"JMU","i_long":106.728916,"transit":false,"is_transit":false,"line":6,"i_lat":-6.288927,"time":4},{"transit":false,"station_id":"PDJ","is_transit":false,"distance":2179,"i_lat":-6.276362,"station_name":"Pondokranji","time":3,"i_long":106.74273,"line":6},{"is_transit":false,"station_id":"KBY","i_lat":-6.237242,"distance":6218,"i_long":106.780334,"time":8,"line":6,"transit":false,"station_name":"Kebayoran"},{"i_lat":-6.207404,"i_long":106.79689,"station_name":"Palmerah","line":6,"time":7,"transit":false,"station_id":"PLM","is_transit":false,"distance":3737},{"station_name":"Tanah Abang","i_long":106.811091,"station_id":"THB","is_transit":true,"time":6,"transit":true,"distance":3191,"line":1,"i_lat":-6.185545},{"i_lat":-6.155215,"station_id":"DU","time":8,"transit":false,"line":1,"is_transit":false,"station_name":"Duri","distance":3632,"i_long":106.800832},{"distance":1230,"i_lat":-6.144674,"time":4,"transit":false,"station_name":"Angke","station_id":"AK","i_long":106.79867,"is_transit":false,"line":1},{"station_name":"Kampung Bandan","is_transit":true,"time":9,"i_long":106.826365,"station_id":"KPB","line":4,"transit":true,"distance":4102,"i_lat":-6.132549},{"time":3,"transit":false,"station_id":"RJW","station_name":"Rajawali","i_lat":-6.14505,"line":11,"is_transit":false,"distance":1444,"i_long":106.836569},{"is_transit":false,"station_name":"Kemayoran","station_id":"KMO","i_lat":-6.161728,"time":5,"transit":false,"i_long":106.839204,"line":11,"distance":1901},{"station_id":"PSE","line":11,"i_lat":-6.174784,"time":4,"distance":1436,"i_long":106.84368,"transit":false,"station_name":"Pasar Senen","is_transit":false},{"station_id":"GST","is_transit":false,"i_lat":-6.185975,"i_long":106.850107,"station_name":"Gang Sentiong","transit":false,"distance":1567,"line":11,"time":8},{"station_name":"Kramat","station_id":"KMT","distance":973,"line":11,"is_transit":false,"i_long":106.855437,"time":1,"transit":false,"i_lat":-6.193792},{"i_lat":-6.209188,"i_long":106.861737,"transit":false,"distance":1829,"line":11,"station_id":"POK","station_name":"Pondok Jati","time":2,"is_transit":false},{"station_name":"Jatinegara","transit":true,"i_long":106.86807400000001,"is_transit":true,"station_id":"JNG","line":1,"time":9,"i_lat":-6.215091,"distance":1236},{"time":2,"station_id":"MTR","i_long":106.858896,"line":1,"distance":1377,"transit":false,"is_transit":false,"station_name":"Matraman","i_lat":-6.212485},{"i_lat":-6.209883,"line":2,"distance":1275,"station_name":"Manggarai","i_long":106.84912,"is_transit":false,"station_id":"MRI","time":2,"transit":false},{"station_id":"SUD","time":4,"station_name":"Sudirman","distance":3186,"is_transit":false,"transit":false,"i_lat":-6.202263,"i_long":106.822649,"line":1}]]}