{"data":[[{"i_long":106.460812,"line":6,"distance":0,"i_lat":-6.327251,"time":0,"station_name":"Tenjo","transit":false,"station_id":"TEJ","is_transit":false},{"station_id":"DAR","line":0,"distance":3902,"is_transit":false,"time":5,"station_name":"Daru","transit":false,"i_lat":-6.338021,"i_long":106.491338},{"i_lat":-6.354349,"distance":2675,"time":6,"station_id":"CJT","transit":false,"is_transit":false,"station_name":"Cilejit","line":3,"i_long":106.508482},{"line":6,"station_id":"PRP","is_transit":false,"time":9,"transit":false,"distance":7025,"i_lat":-6.3441410000000005,"i_long":106.568863,"station_name":"Parung Panjang"},{"line":3,"distance":5968,"station_id":"CC","is_transit":false,"i_long":106.617853,"transit":false,"time":8,"station_name":"Cicayur","i_lat":-6.329547},{"i_lat":-6.32484,"is_transit":false,"station_id":"CSK","distance":2519,"i_long":106.640411,"transit":false,"station_name":"Cisauk","line":3,"time":4},{"i_lat":-6.319871,"station_name":"Serpong","station_id":"SRP","transit":false,"time":4,"is_transit":false,"line":6,"distance":1784,"i_long":106.66566},{"station_name":"Rawa Buntu","distance":2413,"line":6,"time":4,"is_transit":false,"i_lat":-6.314823,"transit":false,"i_long":106.675475,"station_id":"RU"},{"i_long":106.712277,"time":6,"distance":4566,"station_id":"SDM","is_transit":false,"station_name":"Sudimara","transit":false,"i_lat":-6.296963,"line":6},{"transit":false,"station_id":"JMU","i_lat":-6.288927,"is_transit":false,"distance":1994,"line":6,"time":4,"station_name":"Jurangmangu","i_long":106.728916},{"time":3,"distance":2179,"is_transit":false,"station_id":"PDJ","i_lat":-6.276362,"line":6,"i_long":106.74273,"station_name":"Pondokranji","transit":false},{"transit":false,"station_name":"Kebayoran","station_id":"KBY","distance":6218,"line":6,"i_lat":-6.237242,"is_transit":false,"i_long":106.780334,"time":8},{"is_transit":false,"station_name":"Palmerah","i_long":106.79689,"transit":false,"line":6,"station_id":"PLM","distance":3737,"time":7,"i_lat":-6.207404},{"transit":true,"i_lat":-6.185545,"i_long":106.811091,"distance":3191,"station_name":"Tanah Abang","line":1,"time":6,"station_id":"THB","is_transit":true},{"station_name":"Karet","station_id":"KAT","time":5,"transit":false,"line":1,"i_lat":-6.20132,"distance":2029,"i_long":106.816351,"is_transit":false},{"transit":false,"distance":471,"i_lat":-6.201433,"line":1,"time":1,"station_id":"SUDB","station_name":"Sudirman Baru","i_long":106.819881,"is_transit":false},{"transit":false,"distance":280,"time":1,"i_long":106.822649,"station_id":"SUD","station_name":"Sudirman","line":1,"is_transit":false,"i_lat":-6.202263},{"station_id":"MRI","is_transit":true,"station_name":"Manggarai","i_lat":-6.209883,"line":2,"i_long":106.84912,"distance":3186,"time":4,"transit":true},{"station_name":"Tebet","i_lat":-6.226659,"line":2,"is_transit":false,"transit":false,"i_long":106.857948,"time":4,"station_id":"TEB","distance":2610},{"i_long":106.856607,"distance":1230,"time":2,"line":2,"is_transit":false,"station_id":"CW","station_name":"Cawang","transit":false,"i_lat":-6.242512},{"i_long":106.85449,"line":2,"time":3,"station_name":"Duren Kalibata","i_lat":-6.255332,"station_id":"DRN","transit":false,"is_transit":false,"distance":1546},{"is_transit":false,"station_id":"PSMB","line":2,"distance":824,"i_lat":-6.263214,"i_long":106.851577,"time":2,"station_name":"Pasar Minggu Baru","transit":false},{"time":2,"line":2,"transit":false,"distance":2380,"i_long":106.843999,"is_transit":false,"station_name":"Pasar Minggu","station_id":"PSM","i_lat":-6.2842400000000005},{"station_name":"Tanjung Barat","i_lat":-6.3080680000000005,"time":4,"i_long":106.838896,"line":2,"station_id":"TNT","is_transit":false,"distance":2820,"transit":false},{"is_transit":false,"time":3,"station_id":"LNA","distance":2671,"station_name":"Lenteng Agung","line":2,"i_lat":-6.330363,"i_long":106.832616,"transit":false},{"time":2,"distance":1029,"station_id":"UP","line":2,"station_name":"Univ. Pancasila","i_long":106.834175,"transit":false,"i_lat":-6.339291,"is_transit":false},{"is_transit":false,"distance":2264,"transit":false,"line":2,"station_id":"UI","i_lat":-6.360749,"time":3,"station_name":"Univ. Indonesia","i_long":106.831474},{"i_lat":-6.369073,"i_long":106.831114,"line":2,"station_name":"Pondok Cina","is_transit":false,"time":2,"station_id":"POC","distance":1109,"transit":false},{"transit":false,"time":4,"is_transit":false,"line":2,"distance":2727,"station_id":"DPB","station_name":"Depokbaru","i_lat":-6.391065,"i_long":106.819451},{"is_transit":false,"transit":false,"i_long":106.816926,"time":3,"station_id":"DP","station_name":"Depok","i_lat":-6.405256,"line":2,"distance":1584}],[{"time":0,"station_id":"TEJ","i_long":106.460812,"i_lat":-6.327251,"distance":0,"is_transit":false,"line":6,"transit":false,"station_name":"Tenjo"},{"station_name":"Daru","i_lat":-6.338021,"line":0,"is_transit":false,"i_long":106.491338,"time":5,"transit":false,"distance":3902,"station_id":"DAR"},{"distance":2675,"station_id":"CJT","transit":false,"i_long":106.508482,"line":3,"time":6,"station_name":"Cilejit","is_transit":false,"i_lat":-6.354349},{"i_lat":-6.3441410000000005,"distance":7025,"line":6,"time":9,"is_transit":false,"transit":false,"station_name":"Parung Panjang","i_long":106.568863,"station_id":"PRP"},{"i_lat":-6.329547,"station_id":"CC","time":8,"distance":5968,"station_name":"Cicayur","line":3,"i_long":106.617853,"transit":false,"is_transit":false},{"transit":false,"station_id":"CSK","distance":2519,"i_lat":-6.32484,"station_name":"Cisauk","i_long":106.640411,"is_transit":false,"time":4,"line":3},{"station_name":"Serpong","i_lat":-6.319871,"is_transit":false,"distance":1784,"line":6,"transit":false,"i_long":106.66566,"station_id":"SRP","time":4},{"i_lat":-6.314823,"station_id":"RU","is_transit":false,"line":6,"time":4,"i_long":106.675475,"transit":false,"distance":2413,"station_name":"Rawa Buntu"},{"distance":4566,"line":6,"i_long":106.712277,"station_id":"SDM","is_transit":false,"time":6,"station_name":"Sudimara","transit":false,"i_lat":-6.296963},{"is_transit":false,"transit":false,"station_name":"Jurangmangu","i_lat":-6.288927,"line":6,"i_long":106.728916,"station_id":"JMU","time":4,"distance":1994},{"distance":2179,"transit":false,"station_name":"Pondokranji","i_long":106.74273,"line":6,"i_lat":-6.276362,"is_transit":false,"station_id":"PDJ","time":3},{"line":6,"distance":6218,"station_name":"Kebayoran","i_lat":-6.237242,"time":8,"is_transit":false,"station_id":"KBY","transit":false,"i_long":106.780334},{"station_id":"PLM","time":7,"station_name":"Palmerah","i_lat":-6.207404,"i_long":106.79689,"line":6,"is_transit":false,"transit":false,"distance":3737},{"station_name":"Tanah Abang","transit":true,"line":1,"time":6,"is_transit":true,"station_id":"THB","i_lat":-6.185545,"i_long":106.811091,"distance":3191},{"i_lat":-6.155215,"i_long":106.800832,"line":1,"distance":3632,"is_transit":false,"transit":false,"station_id":"DU","time":8,"station_name":"Duri"},{"station_id":"AK","station_name":"Angke","i_lat":-6.144674,"time":4,"is_transit":false,"distance":1230,"i_long":106.79867,"transit":false,"line":1},{"is_transit":true,"time":9,"line":4,"station_id":"KPB","transit":true,"i_long":106.826365,"station_name":"Kampung Bandan","i_lat":-6.132549,"distance":4102},{"time":3,"transit":true,"is_transit":true,"i_lat":-6.137569,"station_id":"JAKK","distance":1364,"i_long":106.812439,"line":2,"station_name":"Jakarta Kota"},{"distance":1264,"line":2,"i_lat":-6.141205,"station_id":"JAY","time":4,"transit":false,"i_long":106.820901,"station_name":"Jayakarta","is_transit":false},{"is_transit":false,"line":2,"station_id":"MGB","i_lat":-6.149769,"i_long":106.82482,"distance":1080,"station_name":"Manggabesar","time":2,"transit":false},{"station_id":"SW","time":2,"station_name":"Sawah Besar","distance":906,"transit":false,"line":2,"is_transit":false,"i_long":106.827103,"i_lat":-6.160725},{"station_id":"JUA","is_transit":false,"i_long":106.828284,"station_name":"Juanda","line":2,"time":2,"distance":1149,"transit":false,"i_lat":-6.166716},{"station_name":"Gondangdia","is_transit":false,"distance":2015,"station_id":"GDD","i_lat":-6.186295,"time":4,"transit":false,"line":2,"i_long":106.832183},{"is_transit":false,"time":3,"distance":1750,"transit":false,"i_lat":-6.198556,"line":2,"station_id":"CKI","station_name":"Cikini","i_long":106.840169},{"i_lat":-6.209883,"i_long":106.84912,"station_name":"Manggarai","transit":false,"is_transit":false,"time":4,"distance":1590,"station_id":"MRI","line":2},{"time":4,"transit":false,"station_name":"Tebet","is_transit":false,"i_lat":-6.226659,"i_long":106.857948,"distance":2610,"line":2,"station_id":"TEB"},{"is_transit":false,"time":2,"i_long":106.856607,"station_name":"Cawang","station_id":"CW","distance":1230,"transit":false,"i_lat":-6.242512,"line":2},{"time":3,"line":2,"station_name":"Duren Kalibata","is_transit":false,"distance":1546,"transit":false,"station_id":"DRN","i_lat":-6.255332,"i_long":106.85449},{"i_long":106.851577,"time":2,"station_name":"Pasar Minggu Baru","i_lat":-6.263214,"station_id":"PSMB","transit":false,"is_transit":false,"line":2,"distance":824},{"time":2,"distance":2380,"i_lat":-6.2842400000000005,"station_name":"Pasar Minggu","is_transit":false,"transit":false,"line":2,"station_id":"PSM","i_long":106.843999},{"station_name":"Tanjung Barat","is_transit":false,"line":2,"station_id":"TNT","time":4,"distance":2820,"i_lat":-6.3080680000000005,"transit":false,"i_long":106.838896},{"distance":2671,"line":2,"station_id":"LNA","is_transit":false,"station_name":"Lenteng Agung","i_lat":-6.330363,"transit":false,"i_long":106.832616,"time":3},{"time":2,"distance":1029,"i_lat":-6.339291,"line":2,"station_id":"UP","station_name":"Univ. Pancasila","is_transit":false,"transit":false,"i_long":106.834175},{"station_id":"UI","station_name":"Univ. Indonesia","time":3,"distance":2264,"line":2,"i_long":106.831474,"transit":false,"i_lat":-6.360749,"is_transit":false},{"station_id":"POC","station_name":"Pondok Cina","time":2,"is_transit":false,"transit":false,"distance":1109,"i_lat":-6.369073,"i_long":106.831114,"line":2},{"i_lat":-6.391065,"station_id":"DPB","time":4,"distance":2727,"station_name":"Depokbaru","is_transit":false,"i_long":106.819451,"line":2,"transit":false},{"i_lat":-6.405256,"station_id":"DP","transit":false,"station_name":"Depok","distance":1584,"i_long":106.816926,"time":3,"is_transit":false,"line":2}],[{"line":6,"station_id":"TEJ","transit":false,"is_transit":false,"i_long":106.460812,"distance":0,"station_name":"Tenjo","time":0,"i_lat":-6.327251},{"station_name":"Daru","is_transit":false,"line":0,"i_long":106.491338,"i_lat":-6.338021,"transit":false,"station_id":"DAR","time":5,"distance":3902},{"distance":2675,"transit":false,"line":3,"is_transit":false,"station_id":"CJT","time":6,"station_name":"Cilejit","i_lat":-6.354349,"i_long":106.508482},{"station_id":"PRP","i_long":106.568863,"line":6,"distance":7025,"is_transit":false,"station_name":"Parung Panjang","transit":false,"i_lat":-6.3441410000000005,"time":9},{"line":3,"station_id":"CC","time":8,"transit":false,"distance":5968,"station_name":"Cicayur","i_lat":-6.329547,"i_long":106.617853,"is_transit":false},{"station_name":"Cisauk","distance":2519,"is_transit":false,"i_lat":-6.32484,"station_id":"CSK","i_long":106.640411,"time":4,"transit":false,"line":3},{"station_id":"SRP","line":6,"time":4,"i_long":106.66566,"distance":1784,"transit":false,"i_lat":-6.319871,"station_name":"Serpong","is_transit":false},{"is_transit":false,"station_name":"Rawa Buntu","i_lat":-6.314823,"i_long":106.675475,"transit":false,"distance":2413,"time":4,"line":6,"station_id":"RU"},{"distance":4566,"line":6,"time":6,"station_name":"Sudimara","is_transit":false,"i_long":106.712277,"transit":false,"station_id":"SDM","i_lat":-6.296963},{"transit":false,"i_long":106.728916,"line":6,"i_lat":-6.288927,"station_id":"JMU","is_transit":false,"time":4,"distance":1994,"station_name":"Jurangmangu"},{"station_id":"PDJ","station_name":"Pondokranji","is_transit":false,"i_long":106.74273,"line":6,"time":3,"distance":2179,"transit":false,"i_lat":-6.276362},{"i_lat":-6.237242,"time":8,"transit":false,"distance":6218,"station_name":"Kebayoran","line":6,"i_long":106.780334,"station_id":"KBY","is_transit":false},{"time":7,"is_transit":false,"station_name":"Palmerah","transit":false,"i_long":106.79689,"i_lat":-6.207404,"station_id":"PLM","distance":3737,"line":6},{"time":6,"line":1,"transit":true,"is_transit":true,"station_id":"THB","distance":3191,"i_lat":-6.185545,"i_long":106.811091,"station_name":"Tanah Abang"},{"time":8,"station_id":"DU","transit":false,"distance":3632,"station_name":"Duri","is_transit":false,"i_lat":-6.155215,"i_long":106.800832,"line":1},{"i_lat":-6.144674,"line":1,"station_id":"AK","is_transit":false,"transit":false,"i_long":106.79867,"distance":1230,"time":4,"station_name":"Angke"},{"i_long":106.826365,"station_name":"Kampung Bandan","line":4,"station_id":"KPB","time":9,"distance":4102,"transit":true,"i_lat":-6.132549,"is_transit":true},{"station_id":"RJW","i_long":106.836569,"distance":1444,"station_name":"Rajawali","is_transit":false,"transit":false,"i_lat":-6.14505,"line":11,"time":3},{"i_lat":-6.161728,"distance":1901,"is_transit":false,"station_id":"KMO","time":5,"station_name":"Kemayoran","transit":false,"line":11,"i_long":106.839204},{"is_transit":false,"station_id":"PSE","station_name":"Pasar Senen","i_lat":-6.174784,"distance":1436,"i_long":106.84368,"time":4,"transit":false,"line":11},{"time":8,"is_transit":false,"transit":false,"i_lat":-6.185975,"line":11,"station_name":"Gang Sentiong","i_long":106.850107,"station_id":"GST","distance":1567},{"i_long":106.855437,"line":11,"station_name":"Kramat","is_transit":false,"transit":false,"distance":973,"station_id":"KMT","i_lat":-6.193792,"time":1},{"i_lat":-6.209188,"line":11,"time":2,"station_id":"POK","is_transit":false,"distance":1829,"i_long":106.861737,"station_name":"Pondok Jati","transit":false},{"i_long":106.86807400000001,"station_id":"JNG","is_transit":true,"time":9,"distance":1236,"i_lat":-6.215091,"station_name":"Jatinegara","line":1,"transit":true},{"transit":false,"i_lat":-6.212485,"is_transit":false,"time":2,"station_name":"Matraman","i_long":106.858896,"station_id":"MTR","distance":1377,"line":1},{"time":2,"i_long":106.84912,"distance":1275,"i_lat":-6.209883,"line":2,"transit":true,"station_id":"MRI","station_name":"Manggarai","is_transit":true},{"line":2,"transit":false,"station_name":"Tebet","i_lat":-6.226659,"i_long":106.857948,"station_id":"TEB","distance":2610,"is_transit":false,"time":4},{"i_long":106.856607,"line":2,"is_transit":false,"transit":false,"station_id":"CW","station_name":"Cawang","time":2,"distance":1230,"i_lat":-6.242512},{"station_id":"DRN","i_long":106.85449,"time":3,"transit":false,"is_transit":false,"station_name":"Duren Kalibata","i_lat":-6.255332,"distance":1546,"line":2},{"time":2,"i_long":106.851577,"station_id":"PSMB","is_transit":false,"distance":824,"transit":false,"line":2,"station_name":"Pasar Minggu Baru","i_lat":-6.263214},{"i_lat":-6.2842400000000005,"time":2,"station_name":"Pasar Minggu","distance":2380,"line":2,"station_id":"PSM","transit":false,"is_transit":false,"i_long":106.843999},{"station_id":"TNT","is_transit":false,"time":4,"i_long":106.838896,"station_name":"Tanjung Barat","transit":false,"i_lat":-6.3080680000000005,"line":2,"distance":2820},{"station_name":"Lenteng Agung","i_lat":-6.330363,"line":2,"station_id":"LNA","distance":2671,"transit":false,"i_long":106.832616,"is_transit":false,"time":3},{"station_name":"Univ. Pancasila","time":2,"distance":1029,"station_id":"UP","line":2,"transit":false,"is_transit":false,"i_lat":-6.339291,"i_long":106.834175},{"distance":2264,"station_name":"Univ. Indonesia","time":3,"line":2,"station_id":"UI","is_transit":false,"i_lat":-6.360749,"i_long":106.831474,"transit":false},{"transit":false,"distance":1109,"is_transit":false,"i_lat":-6.369073,"i_long":106.831114,"time":2,"station_id":"POC","station_name":"Pondok Cina","line":2},{"station_id":"DPB","time":4,"line":2,"i_lat":-6.391065,"i_long":106.819451,"is_transit":false,"transit":false,"distance":2727,"station_name":"Depokbaru"},{"i_long":106.816926,"station_name":"Depok","time":3,"station_id":"DP","transit":false,"is_transit":false,"i_lat":-6.405256,"line":2,"distance":1584}]]}