{"data":[[{"station_name":"Tenjo","time":0,"transit":false,"station_id":"TEJ","distance":0,"line":6,"i_lat":-6.327251,"is_transit":false,"i_long":106.460812},{"time":5,"line":0,"distance":3902,"i_long":106.491338,"i_lat":-6.338021,"transit":false,"station_name":"Daru","is_transit":false,"station_id":"DAR"},{"distance":2675,"station_id":"CJT","i_long":106.508482,"station_name":"Cilejit","is_transit":false,"time":6,"line":3,"i_lat":-6.354349,"transit":false},{"i_long":106.568863,"distance":7025,"is_transit":false,"line":6,"station_id":"PRP","i_lat":-6.3441410000000005,"station_name":"Parung Panjang","transit":false,"time":9},{"station_name":"Cicayur","i_lat":-6.329547,"transit":false,"station_id":"CC","distance":5968,"time":8,"i_long":106.617853,"line":3,"is_transit":false},{"time":4,"i_lat":-6.32484,"i_long":106.640411,"station_name":"Cisauk","distance":2519,"transit":false,"station_id":"CSK","line":3,"is_transit":false},{"i_long":106.66566,"i_lat":-6.319871,"station_id":"SRP","station_name":"Serpong","line":6,"transit":false,"distance":1784,"time":4,"is_transit":false},{"station_id":"RU","line":6,"i_lat":-6.314823,"transit":false,"distance":2413,"station_name":"Rawa Buntu","time":4,"is_transit":false,"i_long":106.675475},{"i_long":106.712277,"time":6,"line":6,"station_name":"Sudimara","i_lat":-6.296963,"distance":4566,"transit":false,"station_id":"SDM","is_transit":false},{"transit":false,"station_name":"Jurangmangu","time":4,"i_long":106.728916,"distance":1994,"i_lat":-6.288927,"is_transit":false,"line":6,"station_id":"JMU"},{"station_id":"PDJ","i_long":106.74273,"time":3,"distance":2179,"station_name":"Pondokranji","transit":false,"i_lat":-6.276362,"is_transit":false,"line":6},{"line":6,"i_long":106.780334,"station_id":"KBY","is_transit":false,"time":8,"distance":6218,"i_lat":-6.237242,"station_name":"Kebayoran","transit":false},{"i_lat":-6.207404,"transit":false,"station_name":"Palmerah","station_id":"PLM","i_long":106.79689,"line":6,"time":7,"distance":3737,"is_transit":false},{"line":1,"station_name":"Tanah Abang","is_transit":true,"time":6,"distance":3191,"i_lat":-6.185545,"transit":true,"station_id":"THB","i_long":106.811091},{"station_name":"Karet","line":1,"transit":false,"i_lat":-6.20132,"station_id":"KAT","i_long":106.816351,"distance":2029,"is_transit":false,"time":5},{"station_id":"SUDB","time":1,"i_lat":-6.201433,"i_long":106.819881,"distance":471,"station_name":"Sudirman Baru","line":1,"is_transit":false,"transit":false},{"i_lat":-6.202263,"station_name":"Sudirman","distance":280,"transit":false,"is_transit":false,"line":1,"i_long":106.822649,"time":1,"station_id":"SUD"},{"distance":3186,"i_long":106.84912,"line":2,"station_name":"Manggarai","transit":true,"station_id":"MRI","i_lat":-6.209883,"time":4,"is_transit":true},{"station_id":"CKI","is_transit":false,"i_lat":-6.198556,"i_long":106.840169,"line":2,"time":4,"distance":1590,"transit":false,"station_name":"Cikini"},{"i_long":106.832183,"station_id":"GDD","station_name":"Gondangdia","is_transit":false,"transit":false,"i_lat":-6.186295,"line":2,"time":3,"distance":1750}],[{"line":6,"time":0,"distance":0,"station_name":"Tenjo","i_long":106.460812,"is_transit":false,"station_id":"TEJ","i_lat":-6.327251,"transit":false},{"transit":false,"time":5,"distance":3902,"i_long":106.491338,"line":0,"station_name":"Daru","station_id":"DAR","i_lat":-6.338021,"is_transit":false},{"station_name":"Cilejit","i_lat":-6.354349,"transit":false,"distance":2675,"time":6,"i_long":106.508482,"station_id":"CJT","is_transit":false,"line":3},{"time":9,"distance":7025,"i_lat":-6.3441410000000005,"station_name":"Parung Panjang","transit":false,"station_id":"PRP","line":6,"i_long":106.568863,"is_transit":false},{"line":3,"i_long":106.617853,"time":8,"transit":false,"is_transit":false,"distance":5968,"i_lat":-6.329547,"station_id":"CC","station_name":"Cicayur"},{"is_transit":false,"i_lat":-6.32484,"station_id":"CSK","distance":2519,"transit":false,"line":3,"station_name":"Cisauk","time":4,"i_long":106.640411},{"i_long":106.66566,"time":4,"i_lat":-6.319871,"line":6,"transit":false,"station_name":"Serpong","is_transit":false,"distance":1784,"station_id":"SRP"},{"distance":2413,"is_transit":false,"station_id":"RU","transit":false,"time":4,"station_name":"Rawa Buntu","i_lat":-6.314823,"line":6,"i_long":106.675475},{"time":6,"i_long":106.712277,"station_name":"Sudimara","transit":false,"station_id":"SDM","distance":4566,"line":6,"is_transit":false,"i_lat":-6.296963},{"i_lat":-6.288927,"is_transit":false,"time":4,"i_long":106.728916,"transit":false,"station_name":"Jurangmangu","line":6,"distance":1994,"station_id":"JMU"},{"station_name":"Pondokranji","distance":2179,"line":6,"transit":false,"time":3,"i_long":106.74273,"station_id":"PDJ","i_lat":-6.276362,"is_transit":false},{"distance":6218,"is_transit":false,"transit":false,"i_long":106.780334,"line":6,"i_lat":-6.237242,"station_id":"KBY","station_name":"Kebayoran","time":8},{"time":7,"transit":false,"station_name":"Palmerah","i_lat":-6.207404,"distance":3737,"line":6,"is_transit":false,"station_id":"PLM","i_long":106.79689},{"i_lat":-6.185545,"transit":true,"is_transit":true,"time":6,"station_name":"Tanah Abang","line":1,"station_id":"THB","distance":3191,"i_long":106.811091},{"transit":false,"station_name":"Duri","station_id":"DU","time":8,"distance":3632,"i_long":106.800832,"is_transit":false,"line":1,"i_lat":-6.155215},{"station_name":"Angke","is_transit":false,"time":4,"i_lat":-6.144674,"i_long":106.79867,"station_id":"AK","distance":1230,"line":1,"transit":false},{"transit":true,"station_id":"KPB","is_transit":true,"i_lat":-6.132549,"i_long":106.826365,"time":9,"line":4,"distance":4102,"station_name":"Kampung Bandan"},{"transit":true,"station_id":"JAKK","is_transit":true,"time":3,"station_name":"Jakarta Kota","distance":1364,"i_lat":-6.137569,"i_long":106.812439,"line":2},{"i_lat":-6.141205,"transit":false,"station_name":"Jayakarta","station_id":"JAY","time":4,"is_transit":false,"distance":1264,"i_long":106.820901,"line":2},{"station_id":"MGB","transit":false,"is_transit":false,"time":2,"i_lat":-6.149769,"i_long":106.82482,"distance":1080,"line":2,"station_name":"Manggabesar"},{"transit":false,"station_id":"SW","is_transit":false,"time":2,"distance":906,"i_lat":-6.160725,"station_name":"Sawah Besar","i_long":106.827103,"line":2},{"line":2,"is_transit":false,"distance":1149,"transit":false,"time":2,"i_long":106.828284,"i_lat":-6.166716,"station_name":"Juanda","station_id":"JUA"},{"i_lat":-6.186295,"transit":false,"station_name":"Gondangdia","time":4,"is_transit":false,"distance":2015,"i_long":106.832183,"station_id":"GDD","line":2}],[{"i_long":106.460812,"is_transit":false,"station_name":"Tenjo","station_id":"TEJ","time":0,"distance":0,"i_lat":-6.327251,"transit":false,"line":6},{"i_lat":-6.338021,"distance":3902,"time":5,"i_long":106.491338,"transit":false,"station_name":"Daru","station_id":"DAR","line":0,"is_transit":false},{"transit":false,"i_lat":-6.354349,"line":3,"time":6,"station_name":"Cilejit","station_id":"CJT","distance":2675,"is_transit":false,"i_long":106.508482},{"transit":false,"station_id":"PRP","station_name":"Parung Panjang","time":9,"distance":7025,"i_lat":-6.3441410000000005,"i_long":106.568863,"line":6,"is_transit":false},{"i_long":106.617853,"station_name":"Cicayur","i_lat":-6.329547,"transit":false,"line":3,"station_id":"CC","time":8,"distance":5968,"is_transit":false},{"transit":false,"i_lat":-6.32484,"station_name":"Cisauk","station_id":"CSK","is_transit":false,"distance":2519,"i_long":106.640411,"line":3,"time":4},{"transit":false,"station_name":"Serpong","is_transit":false,"i_lat":-6.319871,"line":6,"station_id":"SRP","distance":1784,"time":4,"i_long":106.66566},{"i_lat":-6.314823,"station_name":"Rawa Buntu","transit":false,"line":6,"is_transit":false,"time":4,"station_id":"RU","i_long":106.675475,"distance":2413},{"i_lat":-6.296963,"is_transit":false,"transit":false,"time":6,"station_name":"Sudimara","i_long":106.712277,"distance":4566,"line":6,"station_id":"SDM"},{"station_id":"JMU","i_lat":-6.288927,"is_transit":false,"i_long":106.728916,"distance":1994,"line":6,"transit":false,"station_name":"Jurangmangu","time":4},{"i_lat":-6.276362,"line":6,"station_name":"Pondokranji","distance":2179,"i_long":106.74273,"transit":false,"station_id":"PDJ","is_transit":false,"time":3},{"i_lat":-6.237242,"is_transit":false,"i_long":106.780334,"station_id":"KBY","station_name":"Kebayoran","time":8,"line":6,"transit":false,"distance":6218},{"transit":false,"line":6,"station_name":"Palmerah","is_transit":false,"station_id":"PLM","time":7,"distance":3737,"i_lat":-6.207404,"i_long":106.79689},{"station_name":"Tanah Abang","line":1,"time":6,"i_long":106.811091,"station_id":"THB","transit":true,"is_transit":true,"i_lat":-6.185545,"distance":3191},{"is_transit":false,"i_lat":-6.155215,"line":1,"station_id":"DU","transit":false,"time":8,"i_long":106.800832,"station_name":"Duri","distance":3632},{"is_transit":false,"i_lat":-6.144674,"time":4,"station_id":"AK","i_long":106.79867,"line":1,"distance":1230,"transit":false,"station_name":"Angke"},{"transit":true,"station_id":"KPB","distance":4102,"station_name":"Kampung Bandan","is_transit":true,"i_lat":-6.132549,"time":9,"line":4,"i_long":106.826365},{"distance":1444,"i_long":106.836569,"time":3,"line":11,"is_transit":false,"transit":false,"station_name":"Rajawali","station_id":"RJW","i_lat":-6.14505},{"transit":false,"station_name":"Kemayoran","i_long":106.839204,"line":11,"is_transit":false,"i_lat":-6.161728,"distance":1901,"station_id":"KMO","time":5},{"station_id":"PSE","i_lat":-6.174784,"time":4,"is_transit":false,"distance":1436,"station_name":"Pasar Senen","i_long":106.84368,"line":11,"transit":false},{"line":11,"distance":1567,"station_id":"GST","station_name":"Gang Sentiong","time":8,"transit":false,"i_lat":-6.185975,"i_long":106.850107,"is_transit":false},{"line":11,"station_id":"KMT","distance":973,"i_lat":-6.193792,"is_transit":false,"transit":false,"time":1,"station_name":"Kramat","i_long":106.855437},{"time":2,"line":11,"i_lat":-6.209188,"i_long":106.861737,"is_transit":false,"transit":false,"station_id":"POK","distance":1829,"station_name":"Pondok Jati"},{"distance":1236,"station_name":"Jatinegara","station_id":"JNG","is_transit":true,"i_lat":-6.215091,"line":1,"transit":true,"time":9,"i_long":106.86807400000001},{"time":2,"i_lat":-6.212485,"line":1,"i_long":106.858896,"is_transit":false,"station_name":"Matraman","station_id":"MTR","transit":false,"distance":1377},{"time":2,"i_lat":-6.209883,"station_name":"Manggarai","station_id":"MRI","is_transit":true,"line":2,"transit":true,"i_long":106.84912,"distance":1275},{"station_id":"CKI","time":4,"distance":1590,"i_long":106.840169,"line":2,"is_transit":false,"station_name":"Cikini","i_lat":-6.198556,"transit":false},{"is_transit":false,"station_id":"GDD","line":2,"station_name":"Gondangdia","time":3,"i_long":106.832183,"i_lat":-6.186295,"transit":false,"distance":1750}],[{"distance":0,"transit":false,"is_transit":false,"i_long":106.460812,"time":0,"line":6,"i_lat":-6.327251,"station_id":"TEJ","station_name":"Tenjo"},{"station_name":"Daru","i_long":106.491338,"transit":false,"is_transit":false,"time":5,"line":0,"distance":3902,"station_id":"DAR","i_lat":-6.338021},{"i_long":106.508482,"line":3,"station_id":"CJT","station_name":"Cilejit","transit":false,"time":6,"is_transit":false,"distance":2675,"i_lat":-6.354349},{"distance":7025,"transit":false,"is_transit":false,"time":9,"i_lat":-6.3441410000000005,"station_name":"Parung Panjang","station_id":"PRP","line":6,"i_long":106.568863},{"time":8,"line":3,"station_name":"Cicayur","is_transit":false,"distance":5968,"i_long":106.617853,"transit":false,"i_lat":-6.329547,"station_id":"CC"},{"i_long":106.640411,"distance":2519,"station_name":"Cisauk","station_id":"CSK","line":3,"is_transit":false,"transit":false,"i_lat":-6.32484,"time":4},{"transit":false,"i_lat":-6.319871,"line":6,"is_transit":false,"distance":1784,"time":4,"i_long":106.66566,"station_name":"Serpong","station_id":"SRP"},{"distance":2413,"station_name":"Rawa Buntu","time":4,"station_id":"RU","line":6,"is_transit":false,"transit":false,"i_lat":-6.314823,"i_long":106.675475},{"distance":4566,"i_long":106.712277,"line":6,"transit":false,"is_transit":false,"station_name":"Sudimara","station_id":"SDM","time":6,"i_lat":-6.296963},{"distance":1994,"i_lat":-6.288927,"transit":false,"station_id":"JMU","time":4,"is_transit":false,"i_long":106.728916,"line":6,"station_name":"Jurangmangu"},{"transit":false,"line":6,"station_name":"Pondokranji","i_long":106.74273,"is_transit":false,"time":3,"distance":2179,"station_id":"PDJ","i_lat":-6.276362},{"i_long":106.780334,"distance":6218,"station_name":"Kebayoran","station_id":"KBY","is_transit":false,"i_lat":-6.237242,"time":8,"transit":false,"line":6},{"station_name":"Palmerah","transit":false,"i_lat":-6.207404,"i_long":106.79689,"station_id":"PLM","distance":3737,"time":7,"is_transit":false,"line":6},{"is_transit":true,"i_long":106.811091,"transit":true,"line":1,"station_name":"Tanah Abang","time":6,"station_id":"THB","distance":3191,"i_lat":-6.185545},{"distance":2029,"station_id":"KAT","station_name":"Karet","is_transit":false,"transit":false,"time":5,"i_long":106.816351,"i_lat":-6.20132,"line":1},{"is_transit":false,"station_name":"Sudirman Baru","time":1,"i_lat":-6.201433,"distance":471,"transit":false,"i_long":106.819881,"line":1,"station_id":"SUDB"},{"station_id":"SUD","transit":false,"time":1,"distance":280,"i_long":106.822649,"is_transit":false,"i_lat":-6.202263,"station_name":"Sudirman","line":1},{"line":2,"i_long":106.84912,"i_lat":-6.209883,"station_name":"Manggarai","transit":false,"time":4,"station_id":"MRI","distance":3186,"is_transit":false},{"time":2,"station_id":"MTR","is_transit":false,"distance":1275,"i_long":106.858896,"line":1,"station_name":"Matraman","i_lat":-6.212485,"transit":false},{"transit":true,"is_transit":true,"line":1,"station_name":"Jatinegara","i_long":106.86807400000001,"i_lat":-6.215091,"station_id":"JNG","time":8,"distance":1377},{"is_transit":false,"line":11,"i_lat":-6.209188,"distance":1236,"transit":false,"station_name":"Pondok Jati","station_id":"POK","i_long":106.861737,"time":2},{"station_id":"KMT","time":2,"is_transit":false,"line":11,"distance":1829,"i_lat":-6.193792,"i_long":106.855437,"station_name":"Kramat","transit":false},{"time":1,"station_id":"GST","i_lat":-6.185975,"i_long":106.850107,"station_name":"Gang Sentiong","transit":false,"distance":973,"is_transit":false,"line":11},{"is_transit":false,"transit":false,"station_name":"Pasar Senen","station_id":"PSE","time":8,"distance":1567,"i_lat":-6.174784,"i_long":106.84368,"line":11},{"i_lat":-6.161728,"line":11,"transit":false,"i_long":106.839204,"station_id":"KMO","distance":1436,"time":4,"station_name":"Kemayoran","is_transit":false},{"is_transit":false,"line":11,"station_name":"Rajawali","time":5,"transit":false,"i_lat":-6.14505,"distance":1901,"station_id":"RJW","i_long":106.836569},{"transit":true,"station_name":"Kampung Bandan","distance":1444,"station_id":"KPB","line":4,"i_long":106.826365,"i_lat":-6.132549,"is_transit":true,"time":3},{"i_lat":-6.137569,"distance":1364,"time":3,"station_id":"JAKK","transit":true,"line":2,"i_long":106.812439,"station_name":"Jakarta Kota","is_transit":true},{"distance":1264,"i_long":106.820901,"time":4,"line":2,"station_id":"JAY","i_lat":-6.141205,"transit":false,"station_name":"Jayakarta","is_transit":false},{"i_long":106.82482,"time":2,"station_name":"Manggabesar","distance":1080,"i_lat":-6.149769,"is_transit":false,"line":2,"transit":false,"station_id":"MGB"},{"is_transit":false,"i_long":106.827103,"time":2,"line":2,"i_lat":-6.160725,"station_name":"Sawah Besar","distance":906,"station_id":"SW","transit":false},{"station_name":"Juanda","distance":1149,"i_lat":-6.166716,"i_long":106.828284,"line":2,"station_id":"JUA","time":2,"is_transit":false,"transit":false},{"station_name":"Gondangdia","station_id":"GDD","is_transit":false,"time":4,"i_lat":-6.186295,"transit":false,"line":2,"distance":2015,"i_long":106.832183}]]}