{"data":[[{"i_long":106.460812,"is_transit":false,"time":0,"station_name":"Tenjo","line":6,"distance":0,"transit":false,"station_id":"TEJ","i_lat":-6.327251},{"time":5,"station_id":"DAR","line":0,"i_lat":-6.338021,"is_transit":false,"transit":false,"distance":3902,"i_long":106.491338,"station_name":"Daru"},{"i_long":106.508482,"is_transit":false,"i_lat":-6.354349,"time":6,"distance":2675,"line":3,"station_name":"Cilejit","transit":false,"station_id":"CJT"},{"station_id":"PRP","time":9,"distance":7025,"station_name":"Parung Panjang","line":6,"is_transit":false,"transit":false,"i_lat":-6.3441410000000005,"i_long":106.568863},{"i_lat":-6.329547,"transit":false,"station_name":"Cicayur","i_long":106.617853,"time":8,"distance":5968,"station_id":"CC","is_transit":false,"line":3},{"transit":false,"time":4,"line":3,"i_long":106.640411,"station_name":"Cisauk","is_transit":false,"station_id":"CSK","i_lat":-6.32484,"distance":2519},{"transit":false,"is_transit":false,"i_lat":-6.319871,"i_long":106.66566,"station_name":"Serpong","station_id":"SRP","time":4,"distance":1784,"line":6},{"i_lat":-6.314823,"i_long":106.675475,"line":6,"station_id":"RU","transit":false,"station_name":"Rawa Buntu","time":4,"is_transit":false,"distance":2413},{"station_id":"SDM","station_name":"Sudimara","time":6,"transit":false,"i_lat":-6.296963,"i_long":106.712277,"distance":4566,"is_transit":false,"line":6},{"i_lat":-6.288927,"transit":false,"station_id":"JMU","i_long":106.728916,"is_transit":false,"time":4,"line":6,"distance":1994,"station_name":"Jurangmangu"},{"distance":2179,"station_name":"Pondokranji","is_transit":false,"station_id":"PDJ","i_long":106.74273,"line":6,"transit":false,"i_lat":-6.276362,"time":3},{"station_name":"Kebayoran","distance":6218,"is_transit":false,"time":8,"transit":false,"i_lat":-6.237242,"i_long":106.780334,"station_id":"KBY","line":6},{"line":6,"time":7,"station_name":"Palmerah","distance":3737,"transit":false,"station_id":"PLM","i_lat":-6.207404,"is_transit":false,"i_long":106.79689},{"i_long":106.811091,"time":6,"transit":true,"i_lat":-6.185545,"station_name":"Tanah Abang","is_transit":true,"line":1,"station_id":"THB","distance":3191},{"distance":3632,"transit":true,"i_long":106.800832,"i_lat":-6.155215,"line":1,"station_name":"Duri","is_transit":true,"station_id":"DU","time":8},{"i_long":106.788277,"station_name":"Grogol","is_transit":false,"distance":1700,"i_lat":-6.162021,"time":3,"transit":false,"station_id":"GRG","line":5},{"line":5,"station_name":"Pesing","time":2,"i_lat":-6.161433,"distance":2036,"i_long":106.771379,"station_id":"PSG","transit":false,"is_transit":false},{"distance":1614,"time":2,"i_long":106.756522,"transit":false,"station_id":"TKO","line":5,"station_name":"Taman Kota","is_transit":false,"i_lat":-6.1587309999999995},{"time":2,"distance":2334,"line":5,"is_transit":false,"i_long":106.737035,"station_name":"Bojongindah","transit":false,"station_id":"BOI","i_lat":-6.159876},{"time":4,"line":5,"i_long":106.723064,"distance":1152,"i_lat":-6.162758,"station_name":"Rawa Buaya","is_transit":false,"station_id":"RW","transit":false},{"is_transit":false,"distance":2504,"station_id":"KDS","i_long":106.701612,"line":5,"station_name":"Kalideres","time":3,"i_lat":-6.166068,"transit":false},{"station_id":"PI","i_long":106.679458,"time":3,"distance":2548,"i_lat":-6.169933,"is_transit":false,"line":5,"station_name":"Poris","transit":false},{"station_id":"BPR","i_lat":-6.171811,"i_long":106.665036,"transit":false,"station_name":"Batuceper","line":5,"is_transit":false,"distance":1834,"time":3}],[{"station_id":"TEJ","is_transit":false,"i_long":106.460812,"line":6,"station_name":"Tenjo","distance":0,"time":0,"transit":false,"i_lat":-6.327251},{"station_name":"Daru","distance":3902,"time":5,"station_id":"DAR","i_long":106.491338,"i_lat":-6.338021,"line":0,"transit":false,"is_transit":false},{"i_lat":-6.354349,"i_long":106.508482,"station_name":"Cilejit","station_id":"CJT","line":3,"transit":false,"is_transit":false,"distance":2675,"time":6},{"is_transit":false,"transit":false,"i_long":106.568863,"distance":7025,"line":6,"station_name":"Parung Panjang","time":9,"station_id":"PRP","i_lat":-6.3441410000000005},{"line":3,"station_id":"CC","i_long":106.617853,"i_lat":-6.329547,"is_transit":false,"transit":false,"distance":5968,"time":8,"station_name":"Cicayur"},{"is_transit":false,"distance":2519,"station_id":"CSK","line":3,"station_name":"Cisauk","i_lat":-6.32484,"time":4,"i_long":106.640411,"transit":false},{"is_transit":false,"transit":false,"distance":1784,"i_long":106.66566,"station_id":"SRP","station_name":"Serpong","line":6,"time":4,"i_lat":-6.319871},{"station_name":"Rawa Buntu","transit":false,"i_long":106.675475,"time":4,"line":6,"distance":2413,"station_id":"RU","i_lat":-6.314823,"is_transit":false},{"station_id":"SDM","i_lat":-6.296963,"station_name":"Sudimara","time":6,"is_transit":false,"transit":false,"distance":4566,"i_long":106.712277,"line":6},{"station_id":"JMU","time":4,"transit":false,"line":6,"station_name":"Jurangmangu","is_transit":false,"distance":1994,"i_lat":-6.288927,"i_long":106.728916},{"station_id":"PDJ","i_long":106.74273,"line":6,"transit":false,"distance":2179,"time":3,"i_lat":-6.276362,"is_transit":false,"station_name":"Pondokranji"},{"is_transit":false,"i_long":106.780334,"line":6,"station_name":"Kebayoran","time":8,"transit":false,"distance":6218,"station_id":"KBY","i_lat":-6.237242},{"is_transit":false,"transit":false,"time":7,"i_long":106.79689,"distance":3737,"station_name":"Palmerah","line":6,"i_lat":-6.207404,"station_id":"PLM"},{"transit":true,"i_lat":-6.185545,"time":6,"distance":3191,"station_name":"Tanah Abang","i_long":106.811091,"line":1,"is_transit":true,"station_id":"THB"},{"time":5,"i_long":106.816351,"transit":false,"distance":2029,"station_name":"Karet","station_id":"KAT","line":1,"i_lat":-6.20132,"is_transit":false},{"is_transit":false,"distance":471,"line":1,"time":1,"transit":false,"i_long":106.819881,"station_name":"Sudirman Baru","station_id":"SUDB","i_lat":-6.201433},{"time":1,"transit":false,"station_name":"Sudirman","distance":280,"station_id":"SUD","i_long":106.822649,"is_transit":false,"i_lat":-6.202263,"line":1},{"i_long":106.84912,"station_name":"Manggarai","distance":3186,"station_id":"MRI","time":4,"transit":true,"line":2,"is_transit":true,"i_lat":-6.209883},{"i_lat":-6.198556,"station_id":"CKI","transit":false,"line":2,"station_name":"Cikini","i_long":106.840169,"is_transit":false,"distance":1590,"time":4},{"time":3,"is_transit":false,"transit":false,"line":2,"station_name":"Gondangdia","distance":1750,"i_lat":-6.186295,"station_id":"GDD","i_long":106.832183},{"i_lat":-6.166716,"is_transit":false,"time":4,"i_long":106.828284,"line":2,"station_id":"JUA","transit":false,"distance":2015,"station_name":"Juanda"},{"station_name":"Sawah Besar","i_lat":-6.160725,"i_long":106.827103,"line":2,"time":2,"distance":1149,"station_id":"SW","is_transit":false,"transit":false},{"is_transit":false,"station_name":"Manggabesar","i_lat":-6.149769,"line":2,"i_long":106.82482,"station_id":"MGB","distance":906,"time":2,"transit":false},{"station_name":"Jayakarta","time":2,"distance":1080,"line":2,"station_id":"JAY","i_lat":-6.141205,"transit":false,"i_long":106.820901,"is_transit":false},{"i_lat":-6.137569,"line":2,"station_id":"JAKK","station_name":"Jakarta Kota","time":4,"distance":1264,"transit":true,"is_transit":true,"i_long":106.812439},{"line":4,"is_transit":true,"i_lat":-6.132549,"station_name":"Kampung Bandan","i_long":106.826365,"station_id":"KPB","distance":1364,"time":3,"transit":true},{"line":1,"distance":4102,"transit":false,"i_lat":-6.144674,"station_id":"AK","time":9,"is_transit":false,"station_name":"Angke","i_long":106.79867},{"distance":1230,"is_transit":true,"i_long":106.800832,"time":4,"station_name":"Duri","station_id":"DU","transit":true,"i_lat":-6.155215,"line":1},{"i_lat":-6.162021,"time":3,"line":5,"is_transit":false,"station_id":"GRG","i_long":106.788277,"station_name":"Grogol","transit":false,"distance":1700},{"distance":2036,"line":5,"station_name":"Pesing","i_lat":-6.161433,"station_id":"PSG","time":2,"is_transit":false,"i_long":106.771379,"transit":false},{"i_long":106.756522,"station_id":"TKO","distance":1614,"station_name":"Taman Kota","time":2,"is_transit":false,"i_lat":-6.1587309999999995,"line":5,"transit":false},{"distance":2334,"is_transit":false,"i_lat":-6.159876,"station_id":"BOI","time":2,"station_name":"Bojongindah","line":5,"transit":false,"i_long":106.737035},{"station_name":"Rawa Buaya","i_lat":-6.162758,"is_transit":false,"distance":1152,"station_id":"RW","time":4,"line":5,"transit":false,"i_long":106.723064},{"i_lat":-6.166068,"station_id":"KDS","distance":2504,"time":3,"transit":false,"station_name":"Kalideres","is_transit":false,"i_long":106.701612,"line":5},{"is_transit":false,"transit":false,"time":3,"station_id":"PI","distance":2548,"i_long":106.679458,"i_lat":-6.169933,"line":5,"station_name":"Poris"},{"line":5,"station_id":"BPR","is_transit":false,"time":3,"transit":false,"i_long":106.665036,"station_name":"Batuceper","distance":1834,"i_lat":-6.171811}],[{"i_long":106.460812,"i_lat":-6.327251,"time":0,"transit":false,"station_id":"TEJ","is_transit":false,"line":6,"station_name":"Tenjo","distance":0},{"time":5,"line":0,"distance":3902,"i_lat":-6.338021,"is_transit":false,"transit":false,"station_id":"DAR","i_long":106.491338,"station_name":"Daru"},{"distance":2675,"line":3,"time":6,"transit":false,"is_transit":false,"i_long":106.508482,"i_lat":-6.354349,"station_id":"CJT","station_name":"Cilejit"},{"is_transit":false,"i_lat":-6.3441410000000005,"station_name":"Parung Panjang","time":9,"line":6,"transit":false,"distance":7025,"station_id":"PRP","i_long":106.568863},{"station_id":"CC","i_long":106.617853,"transit":false,"line":3,"station_name":"Cicayur","i_lat":-6.329547,"is_transit":false,"time":8,"distance":5968},{"i_lat":-6.32484,"line":3,"time":4,"is_transit":false,"station_name":"Cisauk","station_id":"CSK","transit":false,"i_long":106.640411,"distance":2519},{"line":6,"distance":1784,"is_transit":false,"transit":false,"time":4,"station_id":"SRP","i_lat":-6.319871,"i_long":106.66566,"station_name":"Serpong"},{"distance":2413,"transit":false,"station_id":"RU","station_name":"Rawa Buntu","i_long":106.675475,"is_transit":false,"time":4,"line":6,"i_lat":-6.314823},{"line":6,"distance":4566,"station_name":"Sudimara","is_transit":false,"time":6,"i_long":106.712277,"transit":false,"station_id":"SDM","i_lat":-6.296963},{"distance":1994,"i_lat":-6.288927,"transit":false,"i_long":106.728916,"line":6,"station_id":"JMU","is_transit":false,"station_name":"Jurangmangu","time":4},{"i_long":106.74273,"is_transit":false,"distance":2179,"transit":false,"i_lat":-6.276362,"line":6,"station_name":"Pondokranji","station_id":"PDJ","time":3},{"station_name":"Kebayoran","is_transit":false,"time":8,"line":6,"station_id":"KBY","distance":6218,"i_lat":-6.237242,"transit":false,"i_long":106.780334},{"time":7,"transit":false,"station_name":"Palmerah","i_lat":-6.207404,"line":6,"distance":3737,"station_id":"PLM","i_long":106.79689,"is_transit":false},{"time":6,"station_id":"THB","i_long":106.811091,"line":1,"i_lat":-6.185545,"distance":3191,"transit":true,"is_transit":true,"station_name":"Tanah Abang"},{"is_transit":false,"time":5,"station_id":"KAT","line":1,"station_name":"Karet","distance":2029,"transit":false,"i_lat":-6.20132,"i_long":106.816351},{"station_name":"Sudirman Baru","i_long":106.819881,"station_id":"SUDB","is_transit":false,"time":1,"line":1,"distance":471,"i_lat":-6.201433,"transit":false},{"transit":false,"i_lat":-6.202263,"line":1,"station_id":"SUD","distance":280,"time":1,"is_transit":false,"i_long":106.822649,"station_name":"Sudirman"},{"time":4,"station_name":"Manggarai","station_id":"MRI","is_transit":false,"transit":false,"i_long":106.84912,"i_lat":-6.209883,"line":2,"distance":3186},{"is_transit":false,"transit":false,"station_name":"Matraman","station_id":"MTR","distance":1275,"time":2,"i_lat":-6.212485,"i_long":106.858896,"line":1},{"i_long":106.86807400000001,"station_id":"JNG","time":8,"line":1,"distance":1377,"transit":true,"station_name":"Jatinegara","i_lat":-6.215091,"is_transit":true},{"i_long":106.861737,"line":11,"transit":false,"time":2,"i_lat":-6.209188,"is_transit":false,"station_name":"Pondok Jati","station_id":"POK","distance":1236},{"station_name":"Kramat","i_long":106.855437,"line":11,"is_transit":false,"distance":1829,"i_lat":-6.193792,"transit":false,"station_id":"KMT","time":2},{"time":1,"distance":973,"station_name":"Gang Sentiong","transit":false,"station_id":"GST","i_lat":-6.185975,"i_long":106.850107,"line":11,"is_transit":false},{"distance":1567,"is_transit":false,"station_name":"Pasar Senen","time":8,"transit":false,"i_long":106.84368,"i_lat":-6.174784,"station_id":"PSE","line":11},{"i_lat":-6.161728,"station_name":"Kemayoran","time":4,"distance":1436,"transit":false,"station_id":"KMO","is_transit":false,"i_long":106.839204,"line":11},{"transit":false,"line":11,"station_id":"RJW","distance":1901,"is_transit":false,"station_name":"Rajawali","time":5,"i_lat":-6.14505,"i_long":106.836569},{"i_long":106.826365,"transit":true,"station_name":"Kampung Bandan","is_transit":true,"line":4,"time":3,"station_id":"KPB","i_lat":-6.132549,"distance":1444},{"i_lat":-6.144674,"is_transit":false,"station_id":"AK","station_name":"Angke","distance":4102,"time":9,"transit":false,"i_long":106.79867,"line":1},{"station_id":"DU","time":4,"station_name":"Duri","i_long":106.800832,"line":1,"i_lat":-6.155215,"transit":true,"is_transit":true,"distance":1230},{"transit":false,"is_transit":false,"i_long":106.788277,"i_lat":-6.162021,"station_id":"GRG","line":5,"time":3,"station_name":"Grogol","distance":1700},{"line":5,"i_lat":-6.161433,"distance":2036,"station_id":"PSG","is_transit":false,"transit":false,"station_name":"Pesing","time":2,"i_long":106.771379},{"transit":false,"i_long":106.756522,"time":2,"i_lat":-6.1587309999999995,"station_name":"Taman Kota","station_id":"TKO","line":5,"is_transit":false,"distance":1614},{"time":2,"i_lat":-6.159876,"transit":false,"is_transit":false,"station_id":"BOI","line":5,"station_name":"Bojongindah","i_long":106.737035,"distance":2334},{"time":4,"i_long":106.723064,"transit":false,"i_lat":-6.162758,"distance":1152,"station_id":"RW","line":5,"station_name":"Rawa Buaya","is_transit":false},{"is_transit":false,"station_id":"KDS","i_long":106.701612,"distance":2504,"line":5,"time":3,"station_name":"Kalideres","transit":false,"i_lat":-6.166068},{"transit":false,"i_lat":-6.169933,"i_long":106.679458,"distance":2548,"time":3,"station_name":"Poris","station_id":"PI","line":5,"is_transit":false},{"station_name":"Batuceper","transit":false,"i_long":106.665036,"line":5,"station_id":"BPR","i_lat":-6.171811,"is_transit":false,"distance":1834,"time":3}]]}