{"data":[[{"transit":false,"station_name":"Tenjo","i_long":106.460812,"line":6,"i_lat":-6.327251,"distance":0,"time":0,"is_transit":false,"station_id":"TEJ"},{"i_long":106.491338,"transit":false,"is_transit":false,"i_lat":-6.338021,"station_name":"Daru","line":0,"distance":3902,"time":5,"station_id":"DAR"},{"i_long":106.508482,"distance":2675,"i_lat":-6.354349,"station_id":"CJT","line":0,"is_transit":false,"transit":false,"time":6,"station_name":"Cilejit"},{"station_id":"PRP","time":9,"i_long":106.568863,"is_transit":false,"transit":false,"distance":7025,"line":6,"station_name":"Parung Panjang","i_lat":-6.3441410000000005},{"station_id":"CC","station_name":"Cicayur","time":8,"i_long":106.617853,"distance":5968,"i_lat":-6.329547,"transit":false,"line":0,"is_transit":false},{"station_name":"Cisauk","transit":false,"time":4,"is_transit":false,"i_lat":-6.32484,"line":0,"station_id":"CSK","i_long":106.640411,"distance":2519},{"line":6,"transit":false,"time":4,"distance":1784,"is_transit":false,"station_id":"SRP","station_name":"Serpong","i_lat":-6.319871,"i_long":106.66566},{"station_id":"RU","is_transit":false,"line":6,"station_name":"Rawa Buntu","distance":2413,"time":4,"i_long":106.675475,"transit":false,"i_lat":-6.314823},{"time":6,"line":6,"transit":false,"i_lat":-6.296963,"station_id":"SDM","station_name":"Sudimara","i_long":106.712277,"is_transit":false,"distance":4566},{"i_long":106.728916,"station_name":"Jurangmangu","distance":1994,"is_transit":false,"transit":false,"time":4,"i_lat":-6.288927,"station_id":"JMU","line":6},{"station_id":"PDJ","i_lat":-6.276362,"transit":false,"is_transit":false,"time":3,"distance":2179,"station_name":"Pondokranji","line":6,"i_long":106.74273},{"i_long":106.780334,"i_lat":-6.237242,"station_name":"Kebayoran","line":6,"is_transit":false,"time":8,"distance":6218,"station_id":"KBY","transit":false},{"distance":3737,"station_id":"PLM","i_lat":-6.207404,"line":6,"i_long":106.79689,"station_name":"Palmerah","is_transit":false,"transit":false,"time":7},{"i_long":106.811091,"time":6,"line":1,"distance":3191,"station_id":"THB","transit":true,"i_lat":-6.185545,"station_name":"Tanah Abang","is_transit":true},{"is_transit":false,"transit":false,"distance":2029,"station_name":"Karet","i_long":106.816351,"line":1,"station_id":"KAT","time":5,"i_lat":-6.20132},{"distance":471,"station_id":"SUDB","is_transit":false,"time":1,"station_name":"Sudirman Baru","line":1,"transit":false,"i_lat":-6.201433,"i_long":106.819881},{"transit":false,"station_name":"Sudirman","distance":280,"station_id":"SUD","time":1,"is_transit":false,"i_lat":-6.202263,"line":1,"i_long":106.822649},{"station_name":"Manggarai","distance":3186,"time":4,"i_lat":-6.209883,"i_long":106.84912,"is_transit":true,"station_id":"MRI","transit":false,"line":0},{"is_transit":false,"station_id":"MTR","station_name":"Matraman","transit":false,"distance":1275,"i_lat":-6.212485,"line":1,"time":2,"i_long":106.858896},{"is_transit":true,"time":8,"station_id":"JNG","i_long":106.86807400000001,"station_name":"Jatinegara","distance":1377,"line":0,"i_lat":-6.215091,"transit":false},{"station_id":"KLD","is_transit":false,"distance":3395,"transit":false,"time":3,"i_long":106.899548,"i_lat":-6.2135,"line":1,"station_name":"Klender"},{"distance":3100,"line":0,"station_id":"BUA","station_name":"Buaran","is_transit":false,"transit":false,"time":2,"i_lat":-6.215568,"i_long":106.922662},{"i_lat":-6.217455,"is_transit":false,"station_id":"KLDB","station_name":"Klenderbaru","transit":false,"time":1,"i_long":106.939679,"distance":1305,"line":1},{"line":0,"distance":1385,"time":8,"i_lat":-6.219053,"transit":false,"station_id":"CUK","i_long":106.951283,"is_transit":false,"station_name":"Cakung"},{"i_long":106.977657,"distance":3097,"time":3,"i_lat":-6.224515,"transit":false,"station_id":"KRI","line":1,"station_name":"Kranji","is_transit":false},{"time":4,"station_name":"Bekasi","is_transit":false,"i_lat":-6.236616,"line":0,"i_long":106.997013,"station_id":"BKS","transit":false,"distance":2520},{"distance":2368,"time":2,"i_lat":-6.248029,"is_transit":false,"transit":false,"station_id":"BKST","station_name":"Bekasi Timur","line":0,"i_long":107.016735},{"is_transit":false,"i_lat":-6.258864,"transit":false,"i_long":107.055722,"distance":4460,"line":1,"time":7,"station_id":"TB","station_name":"Tambun"}],[{"time":0,"is_transit":false,"station_id":"TEJ","i_lat":-6.327251,"line":6,"station_name":"Tenjo","transit":false,"distance":0,"i_long":106.460812},{"station_id":"DAR","is_transit":false,"time":5,"i_long":106.491338,"line":0,"distance":3902,"i_lat":-6.338021,"transit":false,"station_name":"Daru"},{"station_name":"Cilejit","i_lat":-6.354349,"distance":2675,"is_transit":false,"transit":false,"station_id":"CJT","i_long":106.508482,"time":6,"line":0},{"line":6,"i_lat":-6.3441410000000005,"station_name":"Parung Panjang","transit":false,"time":9,"i_long":106.568863,"distance":7025,"is_transit":false,"station_id":"PRP"},{"station_id":"CC","i_long":106.617853,"line":0,"i_lat":-6.329547,"is_transit":false,"transit":false,"distance":5968,"station_name":"Cicayur","time":8},{"transit":false,"i_lat":-6.32484,"i_long":106.640411,"station_name":"Cisauk","line":0,"is_transit":false,"distance":2519,"time":4,"station_id":"CSK"},{"station_name":"Serpong","line":6,"is_transit":false,"distance":1784,"station_id":"SRP","transit":false,"time":4,"i_lat":-6.319871,"i_long":106.66566},{"station_name":"Rawa Buntu","i_long":106.675475,"i_lat":-6.314823,"distance":2413,"is_transit":false,"station_id":"RU","transit":false,"time":4,"line":6},{"i_lat":-6.296963,"is_transit":false,"station_id":"SDM","i_long":106.712277,"line":6,"station_name":"Sudimara","transit":false,"distance":4566,"time":6},{"line":6,"is_transit":false,"station_name":"Jurangmangu","i_long":106.728916,"transit":false,"station_id":"JMU","distance":1994,"time":4,"i_lat":-6.288927},{"time":3,"i_long":106.74273,"station_id":"PDJ","distance":2179,"station_name":"Pondokranji","transit":false,"line":6,"i_lat":-6.276362,"is_transit":false},{"station_id":"KBY","time":8,"i_lat":-6.237242,"is_transit":false,"distance":6218,"i_long":106.780334,"station_name":"Kebayoran","transit":false,"line":6},{"station_id":"PLM","i_lat":-6.207404,"station_name":"Palmerah","transit":false,"i_long":106.79689,"line":6,"is_transit":false,"distance":3737,"time":7},{"i_lat":-6.185545,"is_transit":true,"time":6,"station_id":"THB","station_name":"Tanah Abang","distance":3191,"i_long":106.811091,"transit":true,"line":1},{"time":8,"station_id":"DU","i_long":106.800832,"i_lat":-6.155215,"is_transit":true,"transit":true,"station_name":"Duri","line":1,"distance":3632},{"i_lat":-6.144674,"station_id":"AK","transit":false,"i_long":106.79867,"is_transit":false,"station_name":"Angke","time":4,"line":0,"distance":1230},{"i_lat":-6.132549,"station_id":"KPB","distance":4102,"station_name":"Kampung Bandan","transit":true,"line":0,"time":9,"is_transit":true,"i_long":106.826365},{"station_id":"RJW","station_name":"Rajawali","distance":1444,"time":3,"i_long":106.836569,"transit":false,"line":11,"is_transit":false,"i_lat":-6.14505},{"station_id":"KMO","is_transit":false,"time":5,"station_name":"Kemayoran","distance":1901,"i_long":106.839204,"transit":false,"i_lat":-6.161728,"line":11},{"distance":1436,"time":4,"line":11,"is_transit":false,"transit":false,"station_name":"Pasar Senen","station_id":"PSE","i_lat":-6.174784,"i_long":106.84368},{"i_long":106.850107,"transit":false,"station_name":"Gang Sentiong","line":11,"is_transit":false,"i_lat":-6.185975,"station_id":"GST","distance":1567,"time":8},{"station_name":"Kramat","station_id":"KMT","transit":false,"i_long":106.855437,"time":1,"line":11,"i_lat":-6.193792,"distance":973,"is_transit":false},{"station_id":"POK","is_transit":false,"distance":1829,"i_lat":-6.209188,"line":11,"station_name":"Pondok Jati","i_long":106.861737,"transit":false,"time":2},{"transit":true,"i_lat":-6.215091,"is_transit":true,"station_id":"JNG","i_long":106.86807400000001,"distance":1236,"time":9,"line":0,"station_name":"Jatinegara"},{"distance":3395,"time":3,"i_long":106.899548,"i_lat":-6.2135,"line":1,"station_id":"KLD","is_transit":false,"station_name":"Klender","transit":false},{"distance":3100,"is_transit":false,"i_long":106.922662,"time":2,"station_id":"BUA","transit":false,"i_lat":-6.215568,"line":0,"station_name":"Buaran"},{"distance":1305,"is_transit":false,"station_name":"Klenderbaru","time":1,"i_long":106.939679,"line":1,"i_lat":-6.217455,"transit":false,"station_id":"KLDB"},{"transit":false,"line":0,"station_name":"Cakung","station_id":"CUK","time":8,"i_long":106.951283,"is_transit":false,"i_lat":-6.219053,"distance":1385},{"station_name":"Kranji","time":3,"i_lat":-6.224515,"station_id":"KRI","i_long":106.977657,"is_transit":false,"transit":false,"distance":3097,"line":1},{"i_long":106.997013,"transit":false,"station_name":"Bekasi","distance":2520,"time":4,"line":0,"station_id":"BKS","is_transit":false,"i_lat":-6.236616},{"station_name":"Bekasi Timur","distance":2368,"transit":false,"time":2,"line":0,"station_id":"BKST","i_long":107.016735,"i_lat":-6.248029,"is_transit":false},{"line":1,"station_id":"TB","station_name":"Tambun","distance":4460,"transit":false,"is_transit":false,"i_lat":-6.258864,"time":7,"i_long":107.055722}],[{"station_id":"TEJ","i_long":106.460812,"distance":0,"station_name":"Tenjo","time":0,"i_lat":-6.327251,"line":6,"is_transit":false,"transit":false},{"station_id":"DAR","i_long":106.491338,"i_lat":-6.338021,"is_transit":false,"station_name":"Daru","line":0,"distance":3902,"transit":false,"time":5},{"line":0,"station_id":"CJT","time":6,"is_transit":false,"transit":false,"i_long":106.508482,"station_name":"Cilejit","i_lat":-6.354349,"distance":2675},{"station_name":"Parung Panjang","distance":7025,"time":9,"line":6,"i_lat":-6.3441410000000005,"transit":false,"station_id":"PRP","is_transit":false,"i_long":106.568863},{"distance":5968,"i_lat":-6.329547,"is_transit":false,"station_id":"CC","station_name":"Cicayur","time":8,"i_long":106.617853,"line":0,"transit":false},{"i_lat":-6.32484,"station_id":"CSK","line":0,"station_name":"Cisauk","time":4,"transit":false,"distance":2519,"i_long":106.640411,"is_transit":false},{"line":6,"time":4,"distance":1784,"is_transit":false,"i_long":106.66566,"transit":false,"station_id":"SRP","station_name":"Serpong","i_lat":-6.319871},{"time":4,"station_name":"Rawa Buntu","is_transit":false,"i_lat":-6.314823,"distance":2413,"station_id":"RU","transit":false,"i_long":106.675475,"line":6},{"station_id":"SDM","line":6,"i_lat":-6.296963,"time":6,"is_transit":false,"station_name":"Sudimara","i_long":106.712277,"distance":4566,"transit":false},{"station_id":"JMU","station_name":"Jurangmangu","distance":1994,"transit":false,"time":4,"is_transit":false,"i_lat":-6.288927,"i_long":106.728916,"line":6},{"transit":false,"station_id":"PDJ","time":3,"line":6,"station_name":"Pondokranji","is_transit":false,"i_lat":-6.276362,"i_long":106.74273,"distance":2179},{"transit":false,"i_lat":-6.237242,"distance":6218,"is_transit":false,"station_name":"Kebayoran","station_id":"KBY","time":8,"i_long":106.780334,"line":6},{"transit":false,"distance":3737,"is_transit":false,"time":7,"station_id":"PLM","i_lat":-6.207404,"station_name":"Palmerah","line":6,"i_long":106.79689},{"time":6,"distance":3191,"station_name":"Tanah Abang","i_long":106.811091,"station_id":"THB","transit":true,"is_transit":true,"line":1,"i_lat":-6.185545},{"distance":3632,"is_transit":true,"station_id":"DU","i_lat":-6.155215,"time":8,"station_name":"Duri","i_long":106.800832,"line":1,"transit":true},{"i_long":106.79867,"i_lat":-6.144674,"station_id":"AK","is_transit":false,"distance":1230,"time":4,"station_name":"Angke","transit":false,"line":0},{"station_id":"KPB","time":9,"station_name":"Kampung Bandan","is_transit":true,"transit":false,"distance":4102,"i_lat":-6.132549,"i_long":106.826365,"line":0},{"station_name":"Jakarta Kota","station_id":"JAKK","distance":1364,"line":0,"is_transit":true,"transit":true,"i_lat":-6.137569,"i_long":106.812439,"time":3},{"transit":false,"is_transit":false,"station_name":"Jayakarta","time":4,"i_lat":-6.141205,"station_id":"JAY","line":7,"i_long":106.820901,"distance":1264},{"station_name":"Manggabesar","is_transit":false,"transit":false,"line":2,"time":2,"i_long":106.82482,"station_id":"MGB","distance":1080,"i_lat":-6.149769},{"station_id":"SW","distance":906,"time":2,"i_long":106.827103,"is_transit":false,"transit":false,"line":2,"station_name":"Sawah Besar","i_lat":-6.160725},{"time":2,"station_name":"Juanda","i_lat":-6.166716,"is_transit":false,"station_id":"JUA","distance":1149,"line":2,"i_long":106.828284,"transit":false},{"distance":2015,"i_lat":-6.186295,"transit":false,"i_long":106.832183,"time":4,"line":2,"is_transit":false,"station_id":"GDD","station_name":"Gondangdia"},{"is_transit":false,"transit":false,"time":3,"distance":1750,"i_lat":-6.198556,"station_id":"CKI","line":0,"station_name":"Cikini","i_long":106.840169},{"transit":true,"i_long":106.84912,"time":4,"i_lat":-6.209883,"is_transit":true,"station_id":"MRI","station_name":"Manggarai","line":0,"distance":1590},{"i_long":106.858896,"line":1,"i_lat":-6.212485,"is_transit":false,"transit":false,"station_name":"Matraman","time":2,"station_id":"MTR","distance":1275},{"i_long":106.86807400000001,"distance":1377,"station_name":"Jatinegara","transit":false,"line":0,"i_lat":-6.215091,"station_id":"JNG","time":8,"is_transit":true},{"is_transit":false,"transit":false,"i_lat":-6.2135,"time":3,"distance":3395,"i_long":106.899548,"station_id":"KLD","line":1,"station_name":"Klender"},{"i_lat":-6.215568,"i_long":106.922662,"distance":3100,"station_name":"Buaran","station_id":"BUA","is_transit":false,"time":2,"line":0,"transit":false},{"distance":1305,"is_transit":false,"station_id":"KLDB","transit":false,"line":1,"i_lat":-6.217455,"station_name":"Klenderbaru","time":1,"i_long":106.939679},{"i_long":106.951283,"is_transit":false,"distance":1385,"transit":false,"time":8,"i_lat":-6.219053,"station_id":"CUK","line":0,"station_name":"Cakung"},{"i_lat":-6.224515,"line":1,"distance":3097,"transit":false,"station_name":"Kranji","is_transit":false,"time":3,"i_long":106.977657,"station_id":"KRI"},{"transit":false,"time":4,"distance":2520,"line":0,"i_long":106.997013,"station_name":"Bekasi","i_lat":-6.236616,"is_transit":false,"station_id":"BKS"},{"distance":2368,"transit":false,"time":2,"i_lat":-6.248029,"is_transit":false,"station_id":"BKST","i_long":107.016735,"station_name":"Bekasi Timur","line":0},{"time":7,"station_id":"TB","transit":false,"line":1,"i_long":107.055722,"station_name":"Tambun","distance":4460,"i_lat":-6.258864,"is_transit":false}],[{"station_name":"Tenjo","time":0,"line":6,"station_id":"TEJ","transit":false,"i_lat":-6.327251,"i_long":106.460812,"is_transit":false,"distance":0},{"i_long":106.491338,"is_transit":false,"time":5,"i_lat":-6.338021,"transit":false,"station_name":"Daru","line":0,"distance":3902,"station_id":"DAR"},{"i_lat":-6.354349,"distance":2675,"is_transit":false,"transit":false,"line":0,"station_name":"Cilejit","i_long":106.508482,"station_id":"CJT","time":6},{"station_id":"PRP","i_long":106.568863,"line":6,"distance":7025,"station_name":"Parung Panjang","transit":false,"time":9,"i_lat":-6.3441410000000005,"is_transit":false},{"i_lat":-6.329547,"time":8,"line":0,"transit":false,"station_id":"CC","station_name":"Cicayur","i_long":106.617853,"distance":5968,"is_transit":false},{"line":0,"distance":2519,"station_name":"Cisauk","station_id":"CSK","is_transit":false,"time":4,"i_lat":-6.32484,"transit":false,"i_long":106.640411},{"station_id":"SRP","i_lat":-6.319871,"line":6,"i_long":106.66566,"station_name":"Serpong","time":4,"is_transit":false,"transit":false,"distance":1784},{"line":6,"station_id":"RU","station_name":"Rawa Buntu","i_lat":-6.314823,"i_long":106.675475,"transit":false,"is_transit":false,"distance":2413,"time":4},{"transit":false,"time":6,"station_id":"SDM","i_long":106.712277,"is_transit":false,"i_lat":-6.296963,"distance":4566,"station_name":"Sudimara","line":6},{"is_transit":false,"line":6,"distance":1994,"transit":false,"station_name":"Jurangmangu","time":4,"i_lat":-6.288927,"i_long":106.728916,"station_id":"JMU"},{"i_long":106.74273,"station_name":"Pondokranji","line":6,"i_lat":-6.276362,"distance":2179,"is_transit":false,"station_id":"PDJ","transit":false,"time":3},{"distance":6218,"time":8,"station_id":"KBY","station_name":"Kebayoran","i_long":106.780334,"is_transit":false,"i_lat":-6.237242,"line":6,"transit":false},{"time":7,"transit":false,"i_long":106.79689,"station_id":"PLM","distance":3737,"i_lat":-6.207404,"line":6,"station_name":"Palmerah","is_transit":false},{"i_lat":-6.185545,"transit":true,"is_transit":true,"distance":3191,"station_id":"THB","time":6,"station_name":"Tanah Abang","i_long":106.811091,"line":1},{"i_lat":-6.20132,"is_transit":false,"station_name":"Karet","transit":false,"distance":2029,"time":5,"line":1,"station_id":"KAT","i_long":106.816351},{"line":1,"distance":471,"i_lat":-6.201433,"i_long":106.819881,"is_transit":false,"station_name":"Sudirman Baru","transit":false,"station_id":"SUDB","time":1},{"line":1,"distance":280,"i_lat":-6.202263,"i_long":106.822649,"transit":false,"is_transit":false,"station_id":"SUD","station_name":"Sudirman","time":1},{"distance":3186,"is_transit":true,"transit":true,"time":4,"i_lat":-6.209883,"station_name":"Manggarai","i_long":106.84912,"station_id":"MRI","line":0},{"line":0,"is_transit":false,"station_name":"Cikini","time":4,"i_lat":-6.198556,"transit":false,"i_long":106.840169,"distance":1590,"station_id":"CKI"},{"line":2,"i_long":106.832183,"distance":1750,"is_transit":false,"station_name":"Gondangdia","transit":false,"station_id":"GDD","time":3,"i_lat":-6.186295},{"is_transit":false,"time":4,"i_lat":-6.166716,"station_id":"JUA","line":2,"distance":2015,"transit":false,"i_long":106.828284,"station_name":"Juanda"},{"i_lat":-6.160725,"is_transit":false,"distance":1149,"station_id":"SW","time":2,"line":2,"i_long":106.827103,"transit":false,"station_name":"Sawah Besar"},{"station_id":"MGB","i_long":106.82482,"distance":906,"transit":false,"is_transit":false,"time":2,"line":2,"station_name":"Manggabesar","i_lat":-6.149769},{"i_long":106.820901,"distance":1080,"i_lat":-6.141205,"is_transit":false,"line":7,"station_id":"JAY","station_name":"Jayakarta","transit":false,"time":2},{"transit":true,"station_id":"JAKK","is_transit":true,"time":4,"i_long":106.812439,"station_name":"Jakarta Kota","i_lat":-6.137569,"line":0,"distance":1264},{"i_lat":-6.132549,"transit":true,"is_transit":true,"time":3,"i_long":106.826365,"distance":1364,"line":0,"station_id":"KPB","station_name":"Kampung Bandan"},{"time":3,"is_transit":false,"i_long":106.836569,"line":11,"station_id":"RJW","station_name":"Rajawali","i_lat":-6.14505,"distance":1444,"transit":false},{"is_transit":false,"i_long":106.839204,"line":11,"i_lat":-6.161728,"distance":1901,"station_name":"Kemayoran","station_id":"KMO","transit":false,"time":5},{"distance":1436,"is_transit":false,"time":4,"station_name":"Pasar Senen","transit":false,"i_lat":-6.174784,"station_id":"PSE","i_long":106.84368,"line":11},{"line":11,"is_transit":false,"station_id":"GST","i_lat":-6.185975,"i_long":106.850107,"time":8,"distance":1567,"station_name":"Gang Sentiong","transit":false},{"i_lat":-6.193792,"transit":false,"station_id":"KMT","time":1,"distance":973,"line":11,"i_long":106.855437,"is_transit":false,"station_name":"Kramat"},{"is_transit":false,"station_name":"Pondok Jati","station_id":"POK","transit":false,"i_long":106.861737,"time":2,"line":11,"distance":1829,"i_lat":-6.209188},{"station_name":"Jatinegara","distance":1236,"station_id":"JNG","is_transit":true,"time":9,"i_long":106.86807400000001,"transit":true,"i_lat":-6.215091,"line":0},{"distance":3395,"transit":false,"station_id":"KLD","i_lat":-6.2135,"i_long":106.899548,"line":1,"time":3,"is_transit":false,"station_name":"Klender"},{"is_transit":false,"time":2,"station_id":"BUA","i_lat":-6.215568,"transit":false,"line":0,"distance":3100,"station_name":"Buaran","i_long":106.922662},{"i_lat":-6.217455,"transit":false,"station_name":"Klenderbaru","i_long":106.939679,"station_id":"KLDB","distance":1305,"line":1,"time":1,"is_transit":false},{"line":0,"is_transit":false,"station_name":"Cakung","distance":1385,"station_id":"CUK","transit":false,"time":8,"i_long":106.951283,"i_lat":-6.219053},{"transit":false,"i_long":106.977657,"time":3,"is_transit":false,"i_lat":-6.224515,"line":1,"station_id":"KRI","distance":3097,"station_name":"Kranji"},{"distance":2520,"transit":false,"time":4,"station_name":"Bekasi","is_transit":false,"station_id":"BKS","i_long":106.997013,"line":0,"i_lat":-6.236616},{"i_lat":-6.248029,"is_transit":false,"station_name":"Bekasi Timur","time":2,"i_long":107.016735,"line":0,"distance":2368,"transit":false,"station_id":"BKST"},{"station_name":"Tambun","i_long":107.055722,"line":1,"transit":false,"i_lat":-6.258864,"is_transit":false,"time":7,"station_id":"TB","distance":4460}]]}