{"data":[[{"station_name":"Tenjo","time":0,"distance":0,"i_long":106.460812,"i_lat":-6.327251,"transit":false,"line":6,"is_transit":false,"station_id":"TEJ"},{"is_transit":false,"transit":false,"station_name":"Daru","line":0,"time":5,"station_id":"DAR","i_lat":-6.338021,"i_long":106.491338,"distance":3902},{"time":6,"station_name":"Cilejit","station_id":"CJT","i_long":106.508482,"i_lat":-6.354349,"is_transit":false,"distance":2675,"line":0,"transit":false},{"is_transit":false,"station_id":"PRP","distance":7025,"i_lat":-6.3441410000000005,"i_long":106.568863,"transit":false,"line":6,"station_name":"Parung Panjang","time":9},{"i_long":106.617853,"is_transit":false,"station_name":"Cicayur","station_id":"CC","transit":false,"i_lat":-6.329547,"line":0,"distance":5968,"time":8},{"line":0,"transit":false,"is_transit":false,"i_long":106.640411,"distance":2519,"i_lat":-6.32484,"station_name":"Cisauk","station_id":"CSK","time":4},{"station_id":"SRP","transit":false,"time":4,"station_name":"Serpong","distance":1784,"line":6,"i_lat":-6.319871,"is_transit":false,"i_long":106.66566},{"i_long":106.675475,"line":6,"i_lat":-6.314823,"distance":2413,"transit":false,"time":4,"station_name":"Rawa Buntu","station_id":"RU","is_transit":false},{"station_name":"Sudimara","distance":4566,"i_long":106.712277,"is_transit":false,"time":6,"i_lat":-6.296963,"transit":false,"line":6,"station_id":"SDM"},{"i_lat":-6.288927,"is_transit":false,"station_id":"JMU","transit":false,"line":6,"time":4,"distance":1994,"station_name":"Jurangmangu","i_long":106.728916},{"line":6,"station_name":"Pondokranji","station_id":"PDJ","time":3,"i_lat":-6.276362,"distance":2179,"transit":false,"i_long":106.74273,"is_transit":false},{"station_name":"Kebayoran","transit":false,"is_transit":false,"i_long":106.780334,"distance":6218,"i_lat":-6.237242,"line":6,"time":8,"station_id":"KBY"},{"station_name":"Palmerah","time":7,"transit":false,"is_transit":false,"line":6,"i_long":106.79689,"distance":3737,"station_id":"PLM","i_lat":-6.207404},{"time":6,"i_lat":-6.185545,"distance":3191,"is_transit":true,"i_long":106.811091,"station_id":"THB","station_name":"Tanah Abang","transit":true,"line":1},{"is_transit":false,"transit":false,"i_lat":-6.20132,"line":1,"station_name":"Karet","distance":2029,"time":5,"i_long":106.816351,"station_id":"KAT"},{"distance":471,"time":1,"line":1,"i_lat":-6.201433,"i_long":106.819881,"is_transit":false,"station_id":"SUDB","station_name":"Sudirman Baru","transit":false},{"station_name":"Sudirman","time":1,"i_long":106.822649,"is_transit":false,"distance":280,"station_id":"SUD","i_lat":-6.202263,"transit":false,"line":1}],[{"distance":0,"is_transit":false,"i_long":106.460812,"station_name":"Tenjo","transit":false,"station_id":"TEJ","time":0,"line":6,"i_lat":-6.327251},{"i_lat":-6.338021,"time":5,"station_name":"Daru","is_transit":false,"distance":3902,"transit":false,"line":0,"station_id":"DAR","i_long":106.491338},{"transit":false,"station_id":"CJT","i_lat":-6.354349,"line":0,"i_long":106.508482,"station_name":"Cilejit","distance":2675,"time":6,"is_transit":false},{"station_name":"Parung Panjang","time":9,"i_long":106.568863,"distance":7025,"is_transit":false,"transit":false,"line":6,"i_lat":-6.3441410000000005,"station_id":"PRP"},{"line":0,"time":8,"i_long":106.617853,"distance":5968,"station_name":"Cicayur","is_transit":false,"transit":false,"i_lat":-6.329547,"station_id":"CC"},{"station_name":"Cisauk","is_transit":false,"station_id":"CSK","distance":2519,"transit":false,"time":4,"i_long":106.640411,"line":0,"i_lat":-6.32484},{"time":4,"distance":1784,"transit":false,"line":6,"i_long":106.66566,"i_lat":-6.319871,"station_id":"SRP","is_transit":false,"station_name":"Serpong"},{"station_id":"RU","i_long":106.675475,"station_name":"Rawa Buntu","i_lat":-6.314823,"distance":2413,"is_transit":false,"transit":false,"time":4,"line":6},{"i_long":106.712277,"is_transit":false,"time":6,"station_name":"Sudimara","i_lat":-6.296963,"transit":false,"line":6,"distance":4566,"station_id":"SDM"},{"i_long":106.728916,"station_id":"JMU","distance":1994,"time":4,"line":6,"transit":false,"i_lat":-6.288927,"is_transit":false,"station_name":"Jurangmangu"},{"transit":false,"i_long":106.74273,"is_transit":false,"distance":2179,"station_name":"Pondokranji","time":3,"station_id":"PDJ","i_lat":-6.276362,"line":6},{"is_transit":false,"time":8,"distance":6218,"i_long":106.780334,"i_lat":-6.237242,"station_id":"KBY","transit":false,"line":6,"station_name":"Kebayoran"},{"line":6,"distance":3737,"station_id":"PLM","station_name":"Palmerah","time":7,"i_lat":-6.207404,"is_transit":false,"transit":false,"i_long":106.79689},{"station_id":"THB","i_long":106.811091,"distance":3191,"transit":true,"station_name":"Tanah Abang","time":6,"i_lat":-6.185545,"is_transit":true,"line":1},{"line":1,"distance":3632,"i_long":106.800832,"is_transit":true,"station_id":"DU","transit":true,"time":8,"station_name":"Duri","i_lat":-6.155215},{"line":0,"transit":false,"i_long":106.79867,"time":4,"i_lat":-6.144674,"station_id":"AK","distance":1230,"is_transit":false,"station_name":"Angke"},{"station_name":"Kampung Bandan","is_transit":true,"transit":false,"station_id":"KPB","distance":4102,"i_long":106.826365,"time":9,"i_lat":-6.132549,"line":0},{"distance":1364,"i_long":106.812439,"station_id":"JAKK","line":0,"station_name":"Jakarta Kota","time":3,"is_transit":true,"transit":true,"i_lat":-6.137569},{"transit":false,"is_transit":false,"i_lat":-6.141205,"distance":1264,"station_name":"Jayakarta","line":7,"station_id":"JAY","i_long":106.820901,"time":4},{"distance":1080,"transit":false,"i_lat":-6.149769,"station_id":"MGB","is_transit":false,"line":2,"time":2,"station_name":"Manggabesar","i_long":106.82482},{"distance":906,"is_transit":false,"transit":false,"time":2,"i_long":106.827103,"station_name":"Sawah Besar","station_id":"SW","line":2,"i_lat":-6.160725},{"transit":false,"i_long":106.828284,"i_lat":-6.166716,"line":2,"station_id":"JUA","distance":1149,"time":2,"is_transit":false,"station_name":"Juanda"},{"station_name":"Gondangdia","line":2,"time":4,"transit":false,"distance":2015,"is_transit":false,"i_lat":-6.186295,"station_id":"GDD","i_long":106.832183},{"i_lat":-6.198556,"line":0,"station_name":"Cikini","i_long":106.840169,"transit":false,"is_transit":false,"time":3,"distance":1750,"station_id":"CKI"},{"distance":1590,"station_id":"MRI","station_name":"Manggarai","transit":true,"is_transit":true,"line":0,"time":4,"i_lat":-6.209883,"i_long":106.84912},{"i_lat":-6.202263,"i_long":106.822649,"station_id":"SUD","line":1,"transit":false,"time":4,"station_name":"Sudirman","is_transit":false,"distance":3186}],[{"station_name":"Tenjo","i_long":106.460812,"distance":0,"station_id":"TEJ","transit":false,"is_transit":false,"time":0,"line":6,"i_lat":-6.327251},{"line":0,"i_long":106.491338,"time":5,"is_transit":false,"station_id":"DAR","transit":false,"station_name":"Daru","i_lat":-6.338021,"distance":3902},{"is_transit":false,"i_lat":-6.354349,"station_id":"CJT","i_long":106.508482,"line":0,"station_name":"Cilejit","transit":false,"distance":2675,"time":6},{"time":9,"station_name":"Parung Panjang","distance":7025,"is_transit":false,"i_lat":-6.3441410000000005,"station_id":"PRP","transit":false,"i_long":106.568863,"line":6},{"i_lat":-6.329547,"line":0,"is_transit":false,"distance":5968,"station_id":"CC","i_long":106.617853,"transit":false,"station_name":"Cicayur","time":8},{"is_transit":false,"line":0,"i_long":106.640411,"distance":2519,"station_id":"CSK","station_name":"Cisauk","time":4,"i_lat":-6.32484,"transit":false},{"transit":false,"time":4,"i_lat":-6.319871,"distance":1784,"line":6,"is_transit":false,"station_name":"Serpong","station_id":"SRP","i_long":106.66566},{"station_id":"RU","distance":2413,"i_long":106.675475,"time":4,"i_lat":-6.314823,"transit":false,"line":6,"station_name":"Rawa Buntu","is_transit":false},{"i_long":106.712277,"is_transit":false,"station_id":"SDM","station_name":"Sudimara","time":6,"transit":false,"i_lat":-6.296963,"distance":4566,"line":6},{"distance":1994,"i_long":106.728916,"transit":false,"i_lat":-6.288927,"station_name":"Jurangmangu","time":4,"line":6,"is_transit":false,"station_id":"JMU"},{"is_transit":false,"i_lat":-6.276362,"station_name":"Pondokranji","station_id":"PDJ","i_long":106.74273,"time":3,"distance":2179,"line":6,"transit":false},{"time":8,"distance":6218,"line":6,"station_name":"Kebayoran","i_long":106.780334,"is_transit":false,"i_lat":-6.237242,"station_id":"KBY","transit":false},{"is_transit":false,"time":7,"i_long":106.79689,"transit":false,"station_name":"Palmerah","station_id":"PLM","i_lat":-6.207404,"line":6,"distance":3737},{"i_lat":-6.185545,"station_name":"Tanah Abang","i_long":106.811091,"transit":true,"is_transit":true,"distance":3191,"line":1,"time":6,"station_id":"THB"},{"station_name":"Duri","time":8,"distance":3632,"is_transit":true,"station_id":"DU","line":1,"i_lat":-6.155215,"i_long":106.800832,"transit":true},{"i_long":106.79867,"line":0,"station_id":"AK","transit":false,"distance":1230,"time":4,"is_transit":false,"i_lat":-6.144674,"station_name":"Angke"},{"station_id":"KPB","i_long":106.826365,"time":9,"transit":true,"i_lat":-6.132549,"distance":4102,"is_transit":true,"station_name":"Kampung Bandan","line":0},{"distance":1444,"station_id":"RJW","station_name":"Rajawali","i_long":106.836569,"transit":false,"i_lat":-6.14505,"line":11,"time":3,"is_transit":false},{"i_lat":-6.161728,"distance":1901,"transit":false,"station_name":"Kemayoran","station_id":"KMO","i_long":106.839204,"line":11,"is_transit":false,"time":5},{"station_id":"PSE","station_name":"Pasar Senen","line":11,"i_lat":-6.174784,"distance":1436,"transit":false,"time":4,"i_long":106.84368,"is_transit":false},{"distance":1567,"i_long":106.850107,"i_lat":-6.185975,"station_id":"GST","transit":false,"is_transit":false,"station_name":"Gang Sentiong","time":8,"line":11},{"station_name":"Kramat","time":1,"station_id":"KMT","distance":973,"i_long":106.855437,"is_transit":false,"transit":false,"i_lat":-6.193792,"line":11},{"i_lat":-6.209188,"transit":false,"i_long":106.861737,"line":11,"time":2,"station_id":"POK","is_transit":false,"distance":1829,"station_name":"Pondok Jati"},{"is_transit":true,"transit":true,"station_id":"JNG","distance":1236,"i_lat":-6.215091,"line":0,"time":9,"i_long":106.86807400000001,"station_name":"Jatinegara"},{"is_transit":false,"i_long":106.858896,"line":1,"station_name":"Matraman","distance":1377,"station_id":"MTR","transit":false,"i_lat":-6.212485,"time":2},{"station_name":"Manggarai","transit":false,"distance":1275,"i_long":106.84912,"is_transit":true,"station_id":"MRI","time":2,"i_lat":-6.209883,"line":0},{"station_name":"Sudirman","transit":false,"distance":3186,"time":4,"is_transit":false,"station_id":"SUD","i_lat":-6.202263,"i_long":106.822649,"line":1}]]}