{"data":[[{"is_transit":false,"station_id":"TEJ","station_name":"Tenjo","i_lat":-6.327251,"distance":0,"transit":false,"line":6,"time":0,"i_long":106.460812},{"station_name":"Daru","i_lat":-6.338021,"distance":3902,"line":0,"transit":false,"i_long":106.491338,"time":5,"station_id":"DAR","is_transit":false},{"transit":false,"station_name":"Cilejit","line":3,"station_id":"CJT","distance":2675,"is_transit":false,"i_lat":-6.354349,"time":6,"i_long":106.508482},{"station_id":"PRP","distance":7025,"station_name":"Parung Panjang","is_transit":false,"i_long":106.568863,"time":9,"transit":false,"i_lat":-6.3441410000000005,"line":6},{"station_name":"Cicayur","is_transit":false,"time":8,"line":3,"i_lat":-6.329547,"i_long":106.617853,"transit":false,"station_id":"CC","distance":5968},{"line":3,"distance":2519,"time":4,"station_id":"CSK","station_name":"Cisauk","i_lat":-6.32484,"i_long":106.640411,"transit":false,"is_transit":false},{"station_id":"SRP","transit":false,"is_transit":false,"line":6,"i_lat":-6.319871,"station_name":"Serpong","time":4,"distance":1784,"i_long":106.66566},{"time":4,"transit":false,"line":6,"is_transit":false,"i_long":106.675475,"distance":2413,"i_lat":-6.314823,"station_name":"Rawa Buntu","station_id":"RU"},{"is_transit":false,"i_lat":-6.296963,"i_long":106.712277,"station_id":"SDM","station_name":"Sudimara","time":6,"transit":false,"distance":4566,"line":6},{"station_name":"Jurangmangu","line":6,"i_lat":-6.288927,"distance":1994,"i_long":106.728916,"station_id":"JMU","transit":false,"is_transit":false,"time":4},{"station_id":"PDJ","is_transit":false,"transit":false,"i_lat":-6.276362,"station_name":"Pondokranji","time":3,"distance":2179,"i_long":106.74273,"line":6},{"is_transit":false,"station_name":"Kebayoran","station_id":"KBY","i_lat":-6.237242,"distance":6218,"time":8,"transit":false,"i_long":106.780334,"line":6},{"transit":false,"i_lat":-6.207404,"station_id":"PLM","station_name":"Palmerah","is_transit":false,"time":7,"line":6,"i_long":106.79689,"distance":3737},{"transit":true,"time":6,"station_name":"Tanah Abang","line":1,"is_transit":true,"station_id":"THB","i_lat":-6.185545,"distance":3191,"i_long":106.811091},{"transit":true,"distance":3632,"time":8,"station_id":"DU","station_name":"Duri","line":1,"is_transit":true,"i_lat":-6.155215,"i_long":106.800832},{"station_name":"Grogol","i_lat":-6.162021,"station_id":"GGL","i_long":106.788277,"transit":false,"distance":1700,"time":3,"is_transit":false,"line":5},{"line":5,"distance":2036,"time":2,"is_transit":false,"i_lat":-6.161433,"station_id":"PSG","station_name":"Pesing","i_long":106.771379,"transit":false},{"station_id":"TKO","station_name":"Taman Kota","line":5,"i_lat":-6.1587309999999995,"is_transit":false,"i_long":106.756522,"transit":false,"distance":1614,"time":2},{"station_name":"Bojongindah","is_transit":false,"line":5,"time":2,"station_id":"BOI","distance":2334,"i_lat":-6.159876,"i_long":106.737035,"transit":false},{"time":4,"distance":1152,"i_long":106.723064,"station_name":"Rawa Buaya","line":5,"station_id":"RW","transit":false,"is_transit":false,"i_lat":-6.162758},{"is_transit":false,"station_id":"KDS","station_name":"Kalideres","line":5,"distance":2504,"i_lat":-6.166068,"i_long":106.701612,"time":3,"transit":false},{"i_lat":-6.169933,"transit":false,"distance":2548,"line":5,"i_long":106.679458,"station_id":"PI","time":3,"station_name":"Poris","is_transit":false},{"transit":false,"line":5,"station_name":"Batuceper","i_lat":-6.171811,"i_long":106.665036,"time":3,"station_id":"BPR","distance":1834,"is_transit":false}],[{"transit":false,"is_transit":false,"line":6,"station_id":"TEJ","i_lat":-6.327251,"distance":0,"station_name":"Tenjo","time":0,"i_long":106.460812},{"is_transit":false,"station_id":"DAR","time":5,"i_lat":-6.338021,"distance":3902,"transit":false,"station_name":"Daru","i_long":106.491338,"line":0},{"line":3,"station_id":"CJT","transit":false,"is_transit":false,"i_lat":-6.354349,"time":6,"distance":2675,"i_long":106.508482,"station_name":"Cilejit"},{"station_name":"Parung Panjang","station_id":"PRP","line":6,"is_transit":false,"time":9,"distance":7025,"transit":false,"i_lat":-6.3441410000000005,"i_long":106.568863},{"is_transit":false,"station_id":"CC","i_lat":-6.329547,"time":8,"distance":5968,"station_name":"Cicayur","i_long":106.617853,"transit":false,"line":3},{"i_long":106.640411,"time":4,"transit":false,"distance":2519,"line":3,"station_name":"Cisauk","i_lat":-6.32484,"is_transit":false,"station_id":"CSK"},{"distance":1784,"line":6,"transit":false,"is_transit":false,"time":4,"station_name":"Serpong","i_lat":-6.319871,"i_long":106.66566,"station_id":"SRP"},{"i_lat":-6.314823,"i_long":106.675475,"transit":false,"station_name":"Rawa Buntu","line":6,"is_transit":false,"time":4,"distance":2413,"station_id":"RU"},{"transit":false,"is_transit":false,"line":6,"distance":4566,"time":6,"station_id":"SDM","station_name":"Sudimara","i_long":106.712277,"i_lat":-6.296963},{"distance":1994,"station_id":"JMU","i_long":106.728916,"station_name":"Jurangmangu","line":6,"time":4,"is_transit":false,"i_lat":-6.288927,"transit":false},{"i_lat":-6.276362,"i_long":106.74273,"transit":false,"distance":2179,"time":3,"is_transit":false,"line":6,"station_id":"PDJ","station_name":"Pondokranji"},{"time":8,"station_name":"Kebayoran","i_lat":-6.237242,"i_long":106.780334,"is_transit":false,"distance":6218,"station_id":"KBY","line":6,"transit":false},{"station_id":"PLM","distance":3737,"station_name":"Palmerah","transit":false,"time":7,"line":6,"is_transit":false,"i_lat":-6.207404,"i_long":106.79689},{"time":6,"distance":3191,"station_id":"THB","i_lat":-6.185545,"i_long":106.811091,"line":1,"is_transit":true,"transit":true,"station_name":"Tanah Abang"},{"distance":2029,"station_id":"KAT","time":5,"station_name":"Karet","i_long":106.816351,"is_transit":false,"i_lat":-6.20132,"line":1,"transit":false},{"i_long":106.819881,"station_id":"SUDB","time":1,"is_transit":false,"transit":false,"i_lat":-6.201433,"distance":471,"station_name":"Sudirman Baru","line":1},{"transit":false,"i_long":106.822649,"i_lat":-6.202263,"time":1,"station_name":"Sudirman","line":1,"distance":280,"is_transit":false,"station_id":"SUD"},{"line":2,"station_id":"MRI","transit":true,"distance":3186,"time":4,"is_transit":true,"i_long":106.84912,"i_lat":-6.209883,"station_name":"Manggarai"},{"distance":1590,"time":4,"i_long":106.840169,"line":2,"transit":false,"i_lat":-6.198556,"is_transit":false,"station_id":"CKI","station_name":"Cikini"},{"station_name":"Gondangdia","time":3,"station_id":"GDD","line":2,"transit":false,"is_transit":false,"i_lat":-6.186295,"distance":1750,"i_long":106.832183},{"distance":2015,"transit":false,"i_lat":-6.166716,"is_transit":false,"time":4,"station_id":"JUA","station_name":"Juanda","i_long":106.828284,"line":2},{"is_transit":false,"station_id":"SW","i_lat":-6.160725,"transit":false,"distance":1149,"time":2,"station_name":"Sawah Besar","i_long":106.827103,"line":2},{"is_transit":false,"i_long":106.82482,"transit":false,"station_name":"Manggabesar","line":2,"i_lat":-6.149769,"distance":906,"time":2,"station_id":"MGB"},{"is_transit":false,"station_name":"Jayakarta","i_lat":-6.141205,"i_long":106.820901,"distance":1080,"time":2,"line":2,"transit":false,"station_id":"JAY"},{"distance":1264,"line":2,"time":4,"i_lat":-6.137569,"i_long":106.812439,"station_id":"JAKK","transit":true,"is_transit":true,"station_name":"Jakarta Kota"},{"line":4,"i_lat":-6.132549,"transit":true,"time":3,"is_transit":true,"station_name":"Kampung Bandan","i_long":106.826365,"station_id":"KPB","distance":1364},{"is_transit":false,"distance":4102,"transit":false,"station_name":"Angke","i_lat":-6.144674,"i_long":106.79867,"line":1,"time":9,"station_id":"AK"},{"i_long":106.800832,"station_name":"Duri","distance":1230,"transit":true,"is_transit":true,"time":4,"i_lat":-6.155215,"line":1,"station_id":"DU"},{"time":3,"is_transit":false,"transit":false,"station_name":"Grogol","i_lat":-6.162021,"i_long":106.788277,"line":5,"station_id":"GGL","distance":1700},{"is_transit":false,"line":5,"transit":false,"station_id":"PSG","station_name":"Pesing","i_long":106.771379,"time":2,"i_lat":-6.161433,"distance":2036},{"station_name":"Taman Kota","i_long":106.756522,"line":5,"i_lat":-6.1587309999999995,"transit":false,"time":2,"is_transit":false,"distance":1614,"station_id":"TKO"},{"line":5,"station_name":"Bojongindah","i_long":106.737035,"transit":false,"time":2,"is_transit":false,"distance":2334,"station_id":"BOI","i_lat":-6.159876},{"station_id":"RW","i_lat":-6.162758,"time":4,"station_name":"Rawa Buaya","i_long":106.723064,"line":5,"distance":1152,"is_transit":false,"transit":false},{"i_lat":-6.166068,"transit":false,"station_name":"Kalideres","is_transit":false,"i_long":106.701612,"time":3,"distance":2504,"station_id":"KDS","line":5},{"is_transit":false,"station_id":"PI","i_long":106.679458,"distance":2548,"station_name":"Poris","line":5,"i_lat":-6.169933,"time":3,"transit":false},{"time":3,"i_lat":-6.171811,"transit":false,"line":5,"is_transit":false,"station_name":"Batuceper","distance":1834,"station_id":"BPR","i_long":106.665036}],[{"i_lat":-6.327251,"is_transit":false,"distance":0,"line":6,"station_name":"Tenjo","i_long":106.460812,"time":0,"station_id":"TEJ","transit":false},{"transit":false,"i_lat":-6.338021,"line":0,"station_name":"Daru","is_transit":false,"time":5,"i_long":106.491338,"station_id":"DAR","distance":3902},{"is_transit":false,"distance":2675,"station_name":"Cilejit","i_lat":-6.354349,"time":6,"station_id":"CJT","i_long":106.508482,"transit":false,"line":3},{"line":6,"i_long":106.568863,"station_id":"PRP","i_lat":-6.3441410000000005,"station_name":"Parung Panjang","is_transit":false,"transit":false,"distance":7025,"time":9},{"time":8,"station_name":"Cicayur","i_long":106.617853,"line":3,"transit":false,"distance":5968,"station_id":"CC","i_lat":-6.329547,"is_transit":false},{"transit":false,"is_transit":false,"i_long":106.640411,"line":3,"station_id":"CSK","time":4,"distance":2519,"i_lat":-6.32484,"station_name":"Cisauk"},{"line":6,"i_long":106.66566,"is_transit":false,"time":4,"i_lat":-6.319871,"distance":1784,"station_id":"SRP","station_name":"Serpong","transit":false},{"is_transit":false,"i_lat":-6.314823,"i_long":106.675475,"transit":false,"distance":2413,"time":4,"station_id":"RU","station_name":"Rawa Buntu","line":6},{"is_transit":false,"transit":false,"station_name":"Sudimara","i_lat":-6.296963,"station_id":"SDM","i_long":106.712277,"line":6,"distance":4566,"time":6},{"i_long":106.728916,"time":4,"station_name":"Jurangmangu","line":6,"is_transit":false,"i_lat":-6.288927,"distance":1994,"station_id":"JMU","transit":false},{"station_name":"Pondokranji","transit":false,"is_transit":false,"i_lat":-6.276362,"line":6,"station_id":"PDJ","i_long":106.74273,"time":3,"distance":2179},{"i_long":106.780334,"line":6,"transit":false,"station_id":"KBY","distance":6218,"i_lat":-6.237242,"time":8,"is_transit":false,"station_name":"Kebayoran"},{"i_lat":-6.207404,"station_name":"Palmerah","i_long":106.79689,"is_transit":false,"line":6,"time":7,"distance":3737,"station_id":"PLM","transit":false},{"i_lat":-6.185545,"i_long":106.811091,"line":1,"is_transit":true,"time":6,"distance":3191,"transit":true,"station_id":"THB","station_name":"Tanah Abang"},{"transit":false,"time":5,"is_transit":false,"station_name":"Karet","i_long":106.816351,"line":1,"distance":2029,"station_id":"KAT","i_lat":-6.20132},{"i_lat":-6.201433,"i_long":106.819881,"distance":471,"time":1,"transit":false,"is_transit":false,"line":1,"station_name":"Sudirman Baru","station_id":"SUDB"},{"line":1,"i_lat":-6.202263,"transit":false,"distance":280,"station_id":"SUD","station_name":"Sudirman","is_transit":false,"time":1,"i_long":106.822649},{"is_transit":false,"station_id":"MRI","station_name":"Manggarai","transit":false,"line":2,"time":4,"i_long":106.84912,"i_lat":-6.209883,"distance":3186},{"is_transit":false,"i_lat":-6.212485,"station_id":"MTR","i_long":106.858896,"time":2,"line":1,"station_name":"Matraman","distance":1275,"transit":false},{"i_long":106.86807400000001,"station_id":"JNG","distance":1377,"time":8,"i_lat":-6.215091,"line":1,"transit":true,"is_transit":true,"station_name":"Jatinegara"},{"station_id":"POK","i_long":106.861737,"transit":false,"distance":1236,"line":11,"i_lat":-6.209188,"station_name":"Pondok Jati","time":2,"is_transit":false},{"time":2,"i_lat":-6.193792,"i_long":106.855437,"is_transit":false,"station_id":"KMT","line":11,"transit":false,"station_name":"Kramat","distance":1829},{"time":1,"distance":973,"line":11,"transit":false,"is_transit":false,"i_lat":-6.185975,"i_long":106.850107,"station_id":"GST","station_name":"Gang Sentiong"},{"station_name":"Pasar Senen","transit":false,"time":8,"line":11,"distance":1567,"i_lat":-6.174784,"station_id":"PSE","i_long":106.84368,"is_transit":false},{"transit":false,"distance":1436,"station_id":"KMO","station_name":"Kemayoran","i_lat":-6.161728,"is_transit":false,"line":11,"i_long":106.839204,"time":4},{"is_transit":false,"station_id":"RJW","distance":1901,"transit":false,"i_long":106.836569,"line":11,"i_lat":-6.14505,"time":5,"station_name":"Rajawali"},{"i_long":106.826365,"i_lat":-6.132549,"time":3,"is_transit":true,"station_id":"KPB","distance":1444,"line":4,"transit":true,"station_name":"Kampung Bandan"},{"distance":4102,"transit":false,"station_id":"AK","time":9,"station_name":"Angke","i_lat":-6.144674,"i_long":106.79867,"line":1,"is_transit":false},{"time":4,"i_long":106.800832,"transit":true,"line":1,"is_transit":true,"distance":1230,"station_id":"DU","i_lat":-6.155215,"station_name":"Duri"},{"time":3,"i_long":106.788277,"line":5,"is_transit":false,"station_name":"Grogol","distance":1700,"station_id":"GGL","i_lat":-6.162021,"transit":false},{"i_long":106.771379,"time":2,"line":5,"station_name":"Pesing","transit":false,"is_transit":false,"i_lat":-6.161433,"station_id":"PSG","distance":2036},{"i_lat":-6.1587309999999995,"is_transit":false,"time":2,"distance":1614,"station_id":"TKO","station_name":"Taman Kota","i_long":106.756522,"line":5,"transit":false},{"distance":2334,"station_id":"BOI","is_transit":false,"i_long":106.737035,"station_name":"Bojongindah","transit":false,"line":5,"time":2,"i_lat":-6.159876},{"distance":1152,"i_long":106.723064,"transit":false,"time":4,"station_id":"RW","i_lat":-6.162758,"line":5,"station_name":"Rawa Buaya","is_transit":false},{"transit":false,"is_transit":false,"distance":2504,"station_id":"KDS","station_name":"Kalideres","i_lat":-6.166068,"i_long":106.701612,"time":3,"line":5},{"station_id":"PI","time":3,"i_long":106.679458,"station_name":"Poris","i_lat":-6.169933,"transit":false,"line":5,"is_transit":false,"distance":2548},{"station_name":"Batuceper","is_transit":false,"time":3,"i_lat":-6.171811,"line":5,"transit":false,"station_id":"BPR","i_long":106.665036,"distance":1834}]]}