{"data":[[{"i_long":106.460812,"line":6,"transit":false,"distance":0,"is_transit":false,"station_id":"TEJ","time":0,"i_lat":-6.327251,"station_name":"Tenjo"},{"time":5,"transit":false,"distance":3902,"station_name":"Daru","line":0,"i_long":106.491338,"is_transit":false,"station_id":"DAR","i_lat":-6.338021},{"station_id":"CJT","i_lat":-6.354349,"transit":false,"is_transit":false,"station_name":"Cilejit","i_long":106.508482,"distance":2675,"time":6,"line":3},{"distance":7025,"transit":false,"station_id":"PRP","i_long":106.568863,"is_transit":false,"i_lat":-6.3441410000000005,"time":9,"station_name":"Parung Panjang","line":6},{"line":3,"time":8,"distance":5968,"is_transit":false,"transit":false,"i_long":106.617853,"station_id":"CC","station_name":"Cicayur","i_lat":-6.329547},{"distance":2519,"time":4,"i_long":106.640411,"is_transit":false,"line":3,"station_name":"Cisauk","station_id":"CSK","transit":false,"i_lat":-6.32484},{"is_transit":false,"transit":false,"station_name":"Serpong","i_long":106.66566,"time":4,"i_lat":-6.319871,"line":6,"station_id":"SRP","distance":1784},{"i_lat":-6.314823,"distance":2413,"i_long":106.675475,"time":4,"is_transit":false,"transit":false,"line":6,"station_id":"RU","station_name":"Rawa Buntu"}]]}