{"data":[[{"time":0,"transit":false,"station_id":"TEJ","i_lat":-6.327251,"i_long":106.460812,"line":6,"is_transit":false,"station_name":"Tenjo","distance":0},{"station_name":"Daru","is_transit":false,"time":5,"station_id":"DAR","transit":false,"i_long":106.491338,"distance":3902,"line":0,"i_lat":-6.338021},{"i_long":106.508482,"time":6,"station_name":"Cilejit","distance":2675,"line":3,"transit":false,"station_id":"CJT","is_transit":false,"i_lat":-6.354349},{"i_long":106.568863,"time":9,"transit":false,"distance":7025,"station_name":"Parung Panjang","is_transit":false,"i_lat":-6.3441410000000005,"line":6,"station_id":"PRP"},{"is_transit":false,"time":8,"transit":false,"i_long":106.617853,"station_id":"CC","i_lat":-6.329547,"line":3,"station_name":"Cicayur","distance":5968},{"station_id":"CSK","time":4,"distance":2519,"station_name":"Cisauk","line":3,"is_transit":false,"i_long":106.640411,"transit":false,"i_lat":-6.32484},{"i_long":106.66566,"is_transit":false,"transit":false,"time":4,"distance":1784,"station_name":"Serpong","line":6,"i_lat":-6.319871,"station_id":"SRP"},{"i_long":106.675475,"line":6,"station_name":"Rawa Buntu","transit":false,"station_id":"RU","is_transit":false,"i_lat":-6.314823,"distance":2413,"time":4},{"transit":false,"i_long":106.712277,"is_transit":false,"distance":4566,"line":6,"station_id":"SDM","station_name":"Sudimara","time":6,"i_lat":-6.296963},{"transit":false,"station_id":"JMU","is_transit":false,"time":4,"distance":1994,"i_long":106.728916,"line":6,"station_name":"Jurangmangu","i_lat":-6.288927},{"station_name":"Pondokranji","transit":false,"is_transit":false,"station_id":"PDJ","i_long":106.74273,"line":6,"i_lat":-6.276362,"distance":2179,"time":3},{"i_lat":-6.237242,"transit":false,"is_transit":false,"line":6,"i_long":106.780334,"distance":6218,"time":8,"station_id":"KBY","station_name":"Kebayoran"},{"station_name":"Palmerah","line":6,"is_transit":false,"i_lat":-6.207404,"distance":3737,"i_long":106.79689,"transit":false,"time":7,"station_id":"PLM"},{"i_long":106.811091,"is_transit":true,"transit":true,"i_lat":-6.185545,"time":6,"station_name":"Tanah Abang","station_id":"THB","line":1,"distance":3191},{"line":1,"time":5,"i_long":106.816351,"transit":false,"station_id":"KAT","is_transit":false,"i_lat":-6.20132,"station_name":"Karet","distance":2029},{"line":1,"distance":471,"i_lat":-6.201433,"is_transit":false,"i_long":106.819881,"station_name":"Sudirman Baru","station_id":"SUDB","time":1,"transit":false},{"station_name":"Sudirman","station_id":"SUD","i_lat":-6.202263,"i_long":106.822649,"distance":280,"transit":false,"time":1,"is_transit":false,"line":1},{"is_transit":false,"distance":3186,"i_lat":-6.209883,"transit":false,"time":4,"station_id":"MRI","line":2,"station_name":"Manggarai","i_long":106.84912}],[{"transit":false,"is_transit":false,"station_name":"Tenjo","time":0,"line":6,"distance":0,"i_long":106.460812,"station_id":"TEJ","i_lat":-6.327251},{"line":0,"distance":3902,"time":5,"station_name":"Daru","transit":false,"i_long":106.491338,"is_transit":false,"station_id":"DAR","i_lat":-6.338021},{"station_id":"CJT","transit":false,"time":6,"i_lat":-6.354349,"distance":2675,"is_transit":false,"i_long":106.508482,"line":3,"station_name":"Cilejit"},{"distance":7025,"i_long":106.568863,"station_id":"PRP","transit":false,"station_name":"Parung Panjang","time":9,"i_lat":-6.3441410000000005,"line":6,"is_transit":false},{"station_id":"CC","time":8,"distance":5968,"i_long":106.617853,"line":3,"transit":false,"is_transit":false,"station_name":"Cicayur","i_lat":-6.329547},{"transit":false,"i_long":106.640411,"time":4,"line":3,"i_lat":-6.32484,"station_name":"Cisauk","distance":2519,"is_transit":false,"station_id":"CSK"},{"time":4,"distance":1784,"is_transit":false,"station_name":"Serpong","transit":false,"i_lat":-6.319871,"station_id":"SRP","i_long":106.66566,"line":6},{"station_name":"Rawa Buntu","time":4,"line":6,"distance":2413,"i_lat":-6.314823,"is_transit":false,"station_id":"RU","i_long":106.675475,"transit":false},{"distance":4566,"station_id":"SDM","line":6,"station_name":"Sudimara","i_long":106.712277,"transit":false,"is_transit":false,"time":6,"i_lat":-6.296963},{"line":6,"station_id":"JMU","distance":1994,"i_long":106.728916,"time":4,"is_transit":false,"transit":false,"station_name":"Jurangmangu","i_lat":-6.288927},{"station_name":"Pondokranji","time":3,"i_long":106.74273,"line":6,"station_id":"PDJ","i_lat":-6.276362,"transit":false,"is_transit":false,"distance":2179},{"i_lat":-6.237242,"distance":6218,"time":8,"transit":false,"station_id":"KBY","i_long":106.780334,"station_name":"Kebayoran","is_transit":false,"line":6},{"station_name":"Palmerah","station_id":"PLM","i_lat":-6.207404,"i_long":106.79689,"time":7,"line":6,"is_transit":false,"transit":false,"distance":3737},{"distance":3191,"time":6,"i_lat":-6.185545,"station_id":"THB","station_name":"Tanah Abang","transit":true,"is_transit":true,"i_long":106.811091,"line":1},{"distance":3632,"time":8,"station_name":"Duri","i_lat":-6.155215,"i_long":106.800832,"transit":false,"station_id":"DU","line":1,"is_transit":false},{"i_lat":-6.144674,"station_name":"Angke","time":4,"transit":false,"station_id":"AK","i_long":106.79867,"line":1,"is_transit":false,"distance":1230},{"is_transit":true,"time":9,"line":4,"distance":4102,"transit":true,"i_lat":-6.132549,"station_id":"KPB","i_long":106.826365,"station_name":"Kampung Bandan"},{"is_transit":true,"transit":true,"station_name":"Jakarta Kota","time":3,"station_id":"JAKK","i_long":106.812439,"i_lat":-6.137569,"line":2,"distance":1364},{"is_transit":false,"transit":false,"station_name":"Jayakarta","i_long":106.820901,"i_lat":-6.141205,"distance":1264,"time":4,"line":2,"station_id":"JAY"},{"distance":1080,"line":2,"time":2,"is_transit":false,"station_name":"Manggabesar","i_lat":-6.149769,"i_long":106.82482,"station_id":"MGB","transit":false},{"transit":false,"station_name":"Sawah Besar","distance":906,"is_transit":false,"time":2,"line":2,"station_id":"SW","i_lat":-6.160725,"i_long":106.827103},{"time":2,"station_id":"JUA","i_lat":-6.166716,"station_name":"Juanda","i_long":106.828284,"line":2,"transit":false,"is_transit":false,"distance":1149},{"line":2,"i_long":106.832183,"distance":2015,"is_transit":false,"time":4,"station_name":"Gondangdia","transit":false,"station_id":"GDD","i_lat":-6.186295},{"transit":false,"station_name":"Cikini","distance":1750,"line":2,"i_long":106.840169,"i_lat":-6.198556,"station_id":"CKI","is_transit":false,"time":3},{"i_lat":-6.209883,"distance":1590,"transit":false,"station_id":"MRI","time":4,"i_long":106.84912,"line":2,"is_transit":false,"station_name":"Manggarai"}],[{"transit":false,"distance":0,"station_name":"Tenjo","time":0,"station_id":"TEJ","i_long":106.460812,"is_transit":false,"line":6,"i_lat":-6.327251},{"transit":false,"time":5,"is_transit":false,"station_id":"DAR","station_name":"Daru","i_long":106.491338,"line":0,"i_lat":-6.338021,"distance":3902},{"station_id":"CJT","i_lat":-6.354349,"i_long":106.508482,"is_transit":false,"station_name":"Cilejit","transit":false,"time":6,"distance":2675,"line":3},{"distance":7025,"time":9,"i_lat":-6.3441410000000005,"transit":false,"station_name":"Parung Panjang","station_id":"PRP","line":6,"is_transit":false,"i_long":106.568863},{"i_lat":-6.329547,"transit":false,"line":3,"is_transit":false,"time":8,"distance":5968,"station_id":"CC","station_name":"Cicayur","i_long":106.617853},{"station_name":"Cisauk","time":4,"i_lat":-6.32484,"distance":2519,"i_long":106.640411,"line":3,"transit":false,"station_id":"CSK","is_transit":false},{"station_id":"SRP","line":6,"station_name":"Serpong","distance":1784,"is_transit":false,"transit":false,"time":4,"i_long":106.66566,"i_lat":-6.319871},{"station_name":"Rawa Buntu","line":6,"i_lat":-6.314823,"station_id":"RU","time":4,"transit":false,"is_transit":false,"i_long":106.675475,"distance":2413},{"distance":4566,"i_long":106.712277,"line":6,"station_name":"Sudimara","time":6,"i_lat":-6.296963,"transit":false,"station_id":"SDM","is_transit":false},{"is_transit":false,"time":4,"i_lat":-6.288927,"transit":false,"i_long":106.728916,"station_name":"Jurangmangu","distance":1994,"line":6,"station_id":"JMU"},{"i_long":106.74273,"line":6,"time":3,"distance":2179,"i_lat":-6.276362,"transit":false,"station_name":"Pondokranji","is_transit":false,"station_id":"PDJ"},{"time":8,"is_transit":false,"station_name":"Kebayoran","i_long":106.780334,"distance":6218,"i_lat":-6.237242,"transit":false,"line":6,"station_id":"KBY"},{"time":7,"distance":3737,"line":6,"i_long":106.79689,"transit":false,"station_name":"Palmerah","is_transit":false,"i_lat":-6.207404,"station_id":"PLM"},{"i_long":106.811091,"line":1,"is_transit":true,"station_name":"Tanah Abang","distance":3191,"transit":true,"i_lat":-6.185545,"time":6,"station_id":"THB"},{"i_long":106.800832,"station_id":"DU","transit":false,"time":8,"distance":3632,"i_lat":-6.155215,"is_transit":false,"line":1,"station_name":"Duri"},{"station_name":"Angke","station_id":"AK","distance":1230,"is_transit":false,"time":4,"i_long":106.79867,"line":1,"i_lat":-6.144674,"transit":false},{"distance":4102,"station_id":"KPB","is_transit":true,"i_lat":-6.132549,"line":4,"station_name":"Kampung Bandan","time":9,"transit":true,"i_long":106.826365},{"line":11,"time":3,"transit":false,"distance":1444,"i_lat":-6.14505,"station_name":"Rajawali","i_long":106.836569,"is_transit":false,"station_id":"RJW"},{"transit":false,"station_name":"Kemayoran","distance":1901,"i_lat":-6.161728,"station_id":"KMO","line":11,"time":5,"i_long":106.839204,"is_transit":false},{"station_id":"PSE","i_long":106.84368,"time":4,"station_name":"Pasar Senen","is_transit":false,"transit":false,"distance":1436,"i_lat":-6.174784,"line":11},{"transit":false,"station_name":"Gang Sentiong","i_lat":-6.185975,"time":8,"distance":1567,"station_id":"GST","i_long":106.850107,"line":11,"is_transit":false},{"time":1,"station_id":"KMT","is_transit":false,"transit":false,"station_name":"Kramat","i_long":106.855437,"line":11,"distance":973,"i_lat":-6.193792},{"is_transit":false,"station_id":"POK","distance":1829,"transit":false,"station_name":"Pondok Jati","i_long":106.861737,"time":2,"i_lat":-6.209188,"line":11},{"distance":1236,"transit":true,"station_name":"Jatinegara","time":9,"station_id":"JNG","is_transit":true,"line":1,"i_lat":-6.215091,"i_long":106.86807400000001},{"station_name":"Matraman","station_id":"MTR","is_transit":false,"time":2,"transit":false,"i_long":106.858896,"distance":1377,"i_lat":-6.212485,"line":1},{"time":2,"station_name":"Manggarai","station_id":"MRI","i_lat":-6.209883,"transit":false,"distance":1275,"line":2,"i_long":106.84912,"is_transit":false}]]}