{"data":[[{"is_transit":false,"transit":false,"station_id":"TEJ","i_long":106.460812,"i_lat":-6.327251,"distance":0,"time":0,"line":6,"station_name":"Tenjo"},{"line":0,"i_lat":-6.338021,"distance":3902,"transit":false,"is_transit":false,"time":5,"station_name":"Daru","i_long":106.491338,"station_id":"DAR"},{"transit":false,"time":6,"i_lat":-6.354349,"is_transit":false,"i_long":106.508482,"line":3,"distance":2675,"station_id":"CJT","station_name":"Cilejit"},{"is_transit":false,"distance":7025,"i_lat":-6.3441410000000005,"time":9,"transit":false,"station_name":"Parung Panjang","station_id":"PRP","i_long":106.568863,"line":6},{"is_transit":false,"i_lat":-6.329547,"station_name":"Cicayur","distance":5968,"transit":false,"i_long":106.617853,"line":3,"time":8,"station_id":"CC"},{"transit":false,"station_name":"Cisauk","line":3,"distance":2519,"time":4,"is_transit":false,"station_id":"CSK","i_lat":-6.32484,"i_long":106.640411},{"station_name":"Serpong","is_transit":false,"line":6,"time":4,"station_id":"SRP","transit":false,"i_lat":-6.319871,"distance":1784,"i_long":106.66566},{"station_name":"Rawa Buntu","line":6,"distance":2413,"i_lat":-6.314823,"time":4,"transit":false,"i_long":106.675475,"station_id":"RU","is_transit":false},{"distance":4566,"is_transit":false,"station_id":"SDM","transit":false,"station_name":"Sudimara","i_long":106.712277,"line":6,"i_lat":-6.296963,"time":6},{"distance":1994,"is_transit":false,"transit":false,"time":4,"i_lat":-6.288927,"line":6,"station_name":"Jurangmangu","station_id":"JMU","i_long":106.728916},{"i_long":106.74273,"station_id":"PDJ","is_transit":false,"i_lat":-6.276362,"line":6,"time":3,"transit":false,"station_name":"Pondokranji","distance":2179},{"station_id":"KBY","is_transit":false,"station_name":"Kebayoran","distance":6218,"line":6,"i_lat":-6.237242,"transit":false,"i_long":106.780334,"time":8},{"transit":false,"i_long":106.79689,"station_id":"PLM","distance":3737,"i_lat":-6.207404,"line":6,"time":7,"is_transit":false,"station_name":"Palmerah"},{"is_transit":true,"distance":3191,"time":6,"station_id":"THB","station_name":"Tanah Abang","i_long":106.811091,"i_lat":-6.185545,"transit":true,"line":1},{"i_lat":-6.155215,"is_transit":false,"time":8,"transit":false,"distance":3632,"i_long":106.800832,"station_id":"DU","station_name":"Duri","line":1},{"distance":1230,"time":4,"i_long":106.79867,"line":1,"station_id":"AK","station_name":"Angke","is_transit":false,"transit":false,"i_lat":-6.144674},{"station_name":"Kampung Bandan","line":4,"distance":4102,"time":9,"i_lat":-6.132549,"is_transit":true,"i_long":106.826365,"station_id":"KPB","transit":true},{"time":3,"distance":1364,"transit":true,"i_lat":-6.137569,"line":2,"i_long":106.812439,"station_id":"JAKK","station_name":"Jakarta Kota","is_transit":true},{"distance":1264,"time":4,"station_name":"Jayakarta","i_long":106.820901,"station_id":"JAY","is_transit":false,"line":2,"transit":false,"i_lat":-6.141205}],[{"distance":0,"time":0,"i_long":106.460812,"transit":false,"station_id":"TEJ","station_name":"Tenjo","i_lat":-6.327251,"is_transit":false,"line":6},{"time":5,"station_name":"Daru","i_long":106.491338,"i_lat":-6.338021,"distance":3902,"station_id":"DAR","is_transit":false,"line":0,"transit":false},{"transit":false,"time":6,"i_long":106.508482,"distance":2675,"station_name":"Cilejit","i_lat":-6.354349,"is_transit":false,"line":3,"station_id":"CJT"},{"station_name":"Parung Panjang","transit":false,"i_long":106.568863,"line":6,"i_lat":-6.3441410000000005,"station_id":"PRP","distance":7025,"is_transit":false,"time":9},{"station_id":"CC","transit":false,"is_transit":false,"i_lat":-6.329547,"i_long":106.617853,"distance":5968,"time":8,"line":3,"station_name":"Cicayur"},{"distance":2519,"transit":false,"is_transit":false,"station_id":"CSK","line":3,"i_lat":-6.32484,"station_name":"Cisauk","time":4,"i_long":106.640411},{"distance":1784,"station_id":"SRP","i_long":106.66566,"is_transit":false,"transit":false,"line":6,"time":4,"i_lat":-6.319871,"station_name":"Serpong"},{"transit":false,"distance":2413,"time":4,"line":6,"i_lat":-6.314823,"is_transit":false,"station_name":"Rawa Buntu","i_long":106.675475,"station_id":"RU"},{"station_name":"Sudimara","time":6,"station_id":"SDM","i_lat":-6.296963,"distance":4566,"transit":false,"is_transit":false,"line":6,"i_long":106.712277},{"station_name":"Jurangmangu","transit":false,"i_lat":-6.288927,"station_id":"JMU","line":6,"i_long":106.728916,"is_transit":false,"distance":1994,"time":4},{"i_long":106.74273,"is_transit":false,"station_id":"PDJ","i_lat":-6.276362,"line":6,"station_name":"Pondokranji","distance":2179,"transit":false,"time":3},{"distance":6218,"station_name":"Kebayoran","i_long":106.780334,"line":6,"station_id":"KBY","is_transit":false,"time":8,"i_lat":-6.237242,"transit":false},{"station_name":"Palmerah","station_id":"PLM","transit":false,"time":7,"distance":3737,"i_long":106.79689,"is_transit":false,"i_lat":-6.207404,"line":6},{"station_name":"Tanah Abang","station_id":"THB","time":6,"i_lat":-6.185545,"transit":true,"is_transit":true,"i_long":106.811091,"distance":3191,"line":1},{"is_transit":false,"station_id":"KAT","distance":2029,"station_name":"Karet","i_long":106.816351,"line":1,"time":5,"transit":false,"i_lat":-6.20132},{"time":1,"i_long":106.819881,"is_transit":false,"line":1,"transit":false,"station_id":"SUDB","distance":471,"i_lat":-6.201433,"station_name":"Sudirman Baru"},{"line":1,"station_id":"SUD","transit":false,"time":1,"i_long":106.822649,"distance":280,"station_name":"Sudirman","is_transit":false,"i_lat":-6.202263},{"transit":true,"station_id":"MRI","station_name":"Manggarai","i_long":106.84912,"line":2,"i_lat":-6.209883,"is_transit":true,"distance":3186,"time":4},{"i_lat":-6.198556,"time":4,"distance":1590,"station_name":"Cikini","line":2,"station_id":"CKI","is_transit":false,"i_long":106.840169,"transit":false},{"i_long":106.832183,"distance":1750,"time":3,"line":2,"is_transit":false,"transit":false,"station_name":"Gondangdia","i_lat":-6.186295,"station_id":"GDD"},{"station_id":"JUA","line":2,"time":4,"i_lat":-6.166716,"station_name":"Juanda","i_long":106.828284,"transit":false,"is_transit":false,"distance":2015},{"i_long":106.827103,"transit":false,"is_transit":false,"time":2,"line":2,"distance":1149,"i_lat":-6.160725,"station_id":"SW","station_name":"Sawah Besar"},{"station_id":"MGB","transit":false,"is_transit":false,"i_long":106.82482,"distance":906,"station_name":"Manggabesar","time":2,"i_lat":-6.149769,"line":2},{"distance":1080,"station_name":"Jayakarta","time":2,"line":2,"i_long":106.820901,"transit":false,"i_lat":-6.141205,"station_id":"JAY","is_transit":false}],[{"is_transit":false,"station_name":"Tenjo","transit":false,"station_id":"TEJ","distance":0,"i_lat":-6.327251,"i_long":106.460812,"line":6,"time":0},{"line":0,"distance":3902,"station_name":"Daru","transit":false,"time":5,"i_long":106.491338,"is_transit":false,"i_lat":-6.338021,"station_id":"DAR"},{"transit":false,"line":3,"time":6,"distance":2675,"station_id":"CJT","i_lat":-6.354349,"station_name":"Cilejit","is_transit":false,"i_long":106.508482},{"i_long":106.568863,"transit":false,"is_transit":false,"station_id":"PRP","distance":7025,"line":6,"station_name":"Parung Panjang","i_lat":-6.3441410000000005,"time":9},{"distance":5968,"is_transit":false,"station_name":"Cicayur","transit":false,"i_lat":-6.329547,"line":3,"time":8,"i_long":106.617853,"station_id":"CC"},{"line":3,"is_transit":false,"station_name":"Cisauk","i_long":106.640411,"station_id":"CSK","distance":2519,"time":4,"i_lat":-6.32484,"transit":false},{"is_transit":false,"transit":false,"distance":1784,"time":4,"i_lat":-6.319871,"station_name":"Serpong","line":6,"i_long":106.66566,"station_id":"SRP"},{"line":6,"station_name":"Rawa Buntu","transit":false,"i_lat":-6.314823,"time":4,"i_long":106.675475,"station_id":"RU","distance":2413,"is_transit":false},{"station_id":"SDM","distance":4566,"i_long":106.712277,"is_transit":false,"line":6,"time":6,"station_name":"Sudimara","transit":false,"i_lat":-6.296963},{"is_transit":false,"i_lat":-6.288927,"time":4,"i_long":106.728916,"station_id":"JMU","station_name":"Jurangmangu","line":6,"distance":1994,"transit":false},{"is_transit":false,"transit":false,"station_name":"Pondokranji","station_id":"PDJ","distance":2179,"time":3,"i_lat":-6.276362,"line":6,"i_long":106.74273},{"station_id":"KBY","is_transit":false,"i_lat":-6.237242,"distance":6218,"line":6,"transit":false,"i_long":106.780334,"time":8,"station_name":"Kebayoran"},{"time":7,"i_long":106.79689,"distance":3737,"is_transit":false,"i_lat":-6.207404,"station_name":"Palmerah","station_id":"PLM","transit":false,"line":6},{"station_id":"THB","line":1,"transit":true,"is_transit":true,"time":6,"i_long":106.811091,"station_name":"Tanah Abang","i_lat":-6.185545,"distance":3191},{"i_long":106.816351,"i_lat":-6.20132,"station_id":"KAT","distance":2029,"station_name":"Karet","is_transit":false,"line":1,"time":5,"transit":false},{"station_id":"SUDB","transit":false,"i_long":106.819881,"time":1,"station_name":"Sudirman Baru","distance":471,"i_lat":-6.201433,"line":1,"is_transit":false},{"station_id":"SUD","is_transit":false,"distance":280,"line":1,"time":1,"i_lat":-6.202263,"transit":false,"i_long":106.822649,"station_name":"Sudirman"},{"transit":false,"distance":3186,"station_id":"MRI","i_lat":-6.209883,"station_name":"Manggarai","time":4,"is_transit":false,"line":2,"i_long":106.84912},{"station_id":"MTR","i_lat":-6.212485,"line":1,"transit":false,"station_name":"Matraman","time":2,"distance":1275,"i_long":106.858896,"is_transit":false},{"i_long":106.86807400000001,"transit":true,"time":8,"station_id":"JNG","distance":1377,"line":1,"station_name":"Jatinegara","i_lat":-6.215091,"is_transit":true},{"station_id":"POK","distance":1236,"is_transit":false,"station_name":"Pondok Jati","time":2,"transit":false,"i_long":106.861737,"i_lat":-6.209188,"line":11},{"i_long":106.855437,"transit":false,"is_transit":false,"line":11,"distance":1829,"station_name":"Kramat","time":2,"i_lat":-6.193792,"station_id":"KMT"},{"station_name":"Gang Sentiong","distance":973,"i_lat":-6.185975,"i_long":106.850107,"time":1,"is_transit":false,"line":11,"station_id":"GST","transit":false},{"transit":false,"is_transit":false,"station_id":"PSE","time":8,"i_long":106.84368,"station_name":"Pasar Senen","distance":1567,"line":11,"i_lat":-6.174784},{"transit":false,"station_name":"Kemayoran","i_lat":-6.161728,"station_id":"KMO","is_transit":false,"distance":1436,"time":4,"i_long":106.839204,"line":11},{"distance":1901,"station_id":"RJW","i_lat":-6.14505,"is_transit":false,"time":5,"transit":false,"station_name":"Rajawali","i_long":106.836569,"line":11},{"distance":1444,"i_lat":-6.132549,"line":4,"station_name":"Kampung Bandan","i_long":106.826365,"station_id":"KPB","transit":true,"is_transit":true,"time":3},{"station_id":"JAKK","station_name":"Jakarta Kota","is_transit":true,"i_lat":-6.137569,"i_long":106.812439,"transit":true,"distance":1364,"time":3,"line":2},{"is_transit":false,"station_id":"JAY","station_name":"Jayakarta","i_lat":-6.141205,"line":2,"transit":false,"i_long":106.820901,"time":4,"distance":1264}],[{"station_id":"TEJ","is_transit":false,"time":0,"transit":false,"i_long":106.460812,"station_name":"Tenjo","i_lat":-6.327251,"distance":0,"line":6},{"station_name":"Daru","station_id":"DAR","transit":false,"is_transit":false,"time":5,"i_lat":-6.338021,"i_long":106.491338,"distance":3902,"line":0},{"time":6,"station_name":"Cilejit","i_long":106.508482,"line":3,"station_id":"CJT","transit":false,"i_lat":-6.354349,"is_transit":false,"distance":2675},{"transit":false,"station_name":"Parung Panjang","is_transit":false,"station_id":"PRP","time":9,"distance":7025,"i_lat":-6.3441410000000005,"i_long":106.568863,"line":6},{"station_id":"CC","station_name":"Cicayur","line":3,"is_transit":false,"time":8,"transit":false,"distance":5968,"i_long":106.617853,"i_lat":-6.329547},{"line":3,"time":4,"distance":2519,"station_name":"Cisauk","transit":false,"station_id":"CSK","is_transit":false,"i_long":106.640411,"i_lat":-6.32484},{"line":6,"transit":false,"is_transit":false,"station_name":"Serpong","i_long":106.66566,"distance":1784,"time":4,"station_id":"SRP","i_lat":-6.319871},{"station_id":"RU","distance":2413,"station_name":"Rawa Buntu","i_lat":-6.314823,"i_long":106.675475,"transit":false,"is_transit":false,"line":6,"time":4},{"distance":4566,"line":6,"is_transit":false,"station_name":"Sudimara","station_id":"SDM","i_long":106.712277,"i_lat":-6.296963,"transit":false,"time":6},{"is_transit":false,"distance":1994,"i_lat":-6.288927,"i_long":106.728916,"station_name":"Jurangmangu","transit":false,"line":6,"station_id":"JMU","time":4},{"station_name":"Pondokranji","line":6,"distance":2179,"is_transit":false,"i_long":106.74273,"time":3,"station_id":"PDJ","transit":false,"i_lat":-6.276362},{"station_name":"Kebayoran","i_lat":-6.237242,"i_long":106.780334,"line":6,"distance":6218,"station_id":"KBY","is_transit":false,"transit":false,"time":8},{"station_name":"Palmerah","distance":3737,"time":7,"i_lat":-6.207404,"is_transit":false,"transit":false,"line":6,"i_long":106.79689,"station_id":"PLM"},{"i_long":106.811091,"station_name":"Tanah Abang","is_transit":true,"transit":true,"distance":3191,"station_id":"THB","time":6,"line":1,"i_lat":-6.185545},{"station_name":"Duri","line":1,"station_id":"DU","time":8,"distance":3632,"transit":false,"is_transit":false,"i_lat":-6.155215,"i_long":106.800832},{"time":4,"station_id":"AK","transit":false,"is_transit":false,"i_lat":-6.144674,"line":1,"station_name":"Angke","distance":1230,"i_long":106.79867},{"time":9,"transit":true,"is_transit":true,"i_lat":-6.132549,"i_long":106.826365,"station_id":"KPB","distance":4102,"line":4,"station_name":"Kampung Bandan"},{"transit":false,"is_transit":false,"time":3,"station_id":"RJW","station_name":"Rajawali","i_lat":-6.14505,"i_long":106.836569,"distance":1444,"line":11},{"i_lat":-6.161728,"i_long":106.839204,"distance":1901,"is_transit":false,"line":11,"station_name":"Kemayoran","time":5,"station_id":"KMO","transit":false},{"station_name":"Pasar Senen","line":11,"transit":false,"i_lat":-6.174784,"distance":1436,"i_long":106.84368,"station_id":"PSE","is_transit":false,"time":4},{"time":8,"line":11,"i_long":106.850107,"station_id":"GST","distance":1567,"transit":false,"station_name":"Gang Sentiong","is_transit":false,"i_lat":-6.185975},{"line":11,"i_lat":-6.193792,"i_long":106.855437,"distance":973,"station_id":"KMT","transit":false,"time":1,"is_transit":false,"station_name":"Kramat"},{"is_transit":false,"i_lat":-6.209188,"transit":false,"line":11,"station_id":"POK","i_long":106.861737,"time":2,"station_name":"Pondok Jati","distance":1829},{"station_id":"JNG","distance":1236,"station_name":"Jatinegara","i_long":106.86807400000001,"transit":true,"line":1,"time":9,"is_transit":true,"i_lat":-6.215091},{"time":2,"station_name":"Matraman","station_id":"MTR","i_lat":-6.212485,"i_long":106.858896,"distance":1377,"is_transit":false,"transit":false,"line":1},{"i_lat":-6.209883,"i_long":106.84912,"line":2,"is_transit":true,"station_name":"Manggarai","distance":1275,"station_id":"MRI","transit":true,"time":2},{"i_long":106.840169,"transit":false,"distance":1590,"station_name":"Cikini","is_transit":false,"station_id":"CKI","i_lat":-6.198556,"line":2,"time":4},{"transit":false,"time":3,"line":2,"i_lat":-6.186295,"i_long":106.832183,"is_transit":false,"distance":1750,"station_name":"Gondangdia","station_id":"GDD"},{"station_id":"JUA","distance":2015,"transit":false,"is_transit":false,"time":4,"i_lat":-6.166716,"i_long":106.828284,"station_name":"Juanda","line":2},{"i_lat":-6.160725,"i_long":106.827103,"station_name":"Sawah Besar","is_transit":false,"transit":false,"time":2,"line":2,"distance":1149,"station_id":"SW"},{"transit":false,"time":2,"station_name":"Manggabesar","station_id":"MGB","distance":906,"is_transit":false,"i_long":106.82482,"line":2,"i_lat":-6.149769},{"i_lat":-6.141205,"line":2,"i_long":106.820901,"station_name":"Jayakarta","transit":false,"distance":1080,"is_transit":false,"time":2,"station_id":"JAY"}]]}