{"data":[[{"i_lat":-6.327251,"station_id":"TEJ","station_name":"Tenjo","i_long":106.460812,"line":6,"is_transit":false,"transit":false,"distance":0,"time":0},{"station_id":"DAR","transit":false,"i_lat":-6.338021,"time":5,"is_transit":false,"distance":3902,"i_long":106.491338,"line":0,"station_name":"Daru"},{"time":6,"is_transit":false,"transit":false,"i_lat":-6.354349,"distance":2675,"line":3,"station_name":"Cilejit","i_long":106.508482,"station_id":"CJT"},{"time":9,"i_lat":-6.3441410000000005,"station_id":"PRP","transit":false,"distance":7025,"i_long":106.568863,"station_name":"Parung Panjang","line":6,"is_transit":false},{"line":3,"is_transit":false,"distance":5968,"i_long":106.617853,"time":8,"transit":false,"station_id":"CC","station_name":"Cicayur","i_lat":-6.329547},{"i_long":106.640411,"line":3,"i_lat":-6.32484,"distance":2519,"is_transit":false,"time":4,"transit":false,"station_id":"CSK","station_name":"Cisauk"},{"station_id":"SRP","time":4,"station_name":"Serpong","i_long":106.66566,"distance":1784,"i_lat":-6.319871,"line":6,"transit":false,"is_transit":false},{"station_name":"Rawa Buntu","i_long":106.675475,"station_id":"RU","transit":false,"is_transit":false,"time":4,"i_lat":-6.314823,"line":6,"distance":2413},{"transit":false,"i_long":106.712277,"distance":4566,"time":6,"station_name":"Sudimara","line":6,"station_id":"SDM","is_transit":false,"i_lat":-6.296963},{"i_long":106.728916,"time":4,"station_id":"JMU","transit":false,"i_lat":-6.288927,"is_transit":false,"distance":1994,"station_name":"Jurangmangu","line":6},{"time":3,"is_transit":false,"transit":false,"line":6,"i_long":106.74273,"i_lat":-6.276362,"station_id":"PDJ","station_name":"Pondokranji","distance":2179},{"time":8,"transit":false,"distance":6218,"station_id":"KBY","i_lat":-6.237242,"i_long":106.780334,"line":6,"is_transit":false,"station_name":"Kebayoran"},{"time":7,"is_transit":false,"transit":false,"i_lat":-6.207404,"station_name":"Palmerah","i_long":106.79689,"line":6,"distance":3737,"station_id":"PLM"},{"station_id":"THB","i_long":106.811091,"line":1,"is_transit":true,"time":6,"distance":3191,"transit":true,"station_name":"Tanah Abang","i_lat":-6.185545},{"i_long":106.816351,"line":1,"distance":2029,"station_name":"Karet","i_lat":-6.20132,"is_transit":false,"station_id":"KAT","transit":false,"time":5},{"is_transit":false,"distance":471,"station_name":"Sudirman Baru","station_id":"SUDB","transit":false,"i_lat":-6.201433,"i_long":106.819881,"line":1,"time":1},{"station_name":"Sudirman","i_lat":-6.202263,"station_id":"SUD","time":1,"distance":280,"transit":false,"line":1,"is_transit":false,"i_long":106.822649},{"transit":false,"i_lat":-6.209883,"time":4,"i_long":106.84912,"is_transit":false,"station_name":"Manggarai","distance":3186,"station_id":"MRI","line":2},{"i_lat":-6.212485,"time":2,"station_id":"MTR","distance":1275,"is_transit":false,"i_long":106.858896,"station_name":"Matraman","line":1,"transit":false},{"station_name":"Jatinegara","distance":1377,"i_lat":-6.215091,"is_transit":false,"station_id":"JNG","time":8,"transit":false,"i_long":106.86807400000001,"line":1},{"distance":3395,"is_transit":false,"station_name":"Klender","i_lat":-6.2135,"line":1,"i_long":106.899548,"transit":false,"time":3,"station_id":"KLD"},{"line":1,"i_long":106.922662,"transit":false,"station_id":"BUA","time":2,"distance":3100,"station_name":"Buaran","is_transit":false,"i_lat":-6.215568},{"station_id":"KLDB","station_name":"Klenderbaru","i_long":106.939679,"distance":1305,"i_lat":-6.217455,"transit":false,"line":1,"time":1,"is_transit":false},{"station_id":"CUK","line":1,"station_name":"Cakung","distance":1385,"i_lat":-6.219053,"time":8,"i_long":106.951283,"is_transit":false,"transit":false},{"station_name":"Kranji","i_lat":-6.224515,"time":3,"station_id":"KRI","i_long":106.977657,"line":1,"is_transit":false,"distance":3097,"transit":false},{"transit":false,"station_id":"BKS","line":1,"distance":2520,"station_name":"Bekasi","i_long":106.997013,"is_transit":false,"i_lat":-6.236616,"time":4},{"is_transit":false,"station_name":"Bekasi Timur","i_long":107.016735,"line":1,"station_id":"BKST","time":2,"transit":false,"distance":2368,"i_lat":-6.248029},{"time":7,"transit":false,"distance":4460,"line":1,"station_id":"TB","station_name":"Tambun","i_long":107.055722,"i_lat":-6.258864,"is_transit":false},{"i_lat":-6.261877,"line":1,"station_id":"CIT","distance":3420,"time":3,"i_long":107.083084,"station_name":"Cibitung","transit":false,"is_transit":false}],[{"is_transit":false,"transit":false,"station_name":"Tenjo","distance":0,"station_id":"TEJ","time":0,"i_lat":-6.327251,"i_long":106.460812,"line":6},{"line":0,"i_lat":-6.338021,"transit":false,"station_name":"Daru","distance":3902,"station_id":"DAR","is_transit":false,"i_long":106.491338,"time":5},{"i_lat":-6.354349,"i_long":106.508482,"transit":false,"time":6,"is_transit":false,"line":3,"station_name":"Cilejit","station_id":"CJT","distance":2675},{"time":9,"i_lat":-6.3441410000000005,"station_id":"PRP","transit":false,"is_transit":false,"distance":7025,"i_long":106.568863,"line":6,"station_name":"Parung Panjang"},{"station_name":"Cicayur","distance":5968,"i_long":106.617853,"line":3,"is_transit":false,"time":8,"transit":false,"station_id":"CC","i_lat":-6.329547},{"station_id":"CSK","transit":false,"time":4,"i_lat":-6.32484,"is_transit":false,"station_name":"Cisauk","distance":2519,"i_long":106.640411,"line":3},{"line":6,"transit":false,"is_transit":false,"station_name":"Serpong","distance":1784,"time":4,"station_id":"SRP","i_lat":-6.319871,"i_long":106.66566},{"i_lat":-6.314823,"station_id":"RU","transit":false,"distance":2413,"line":6,"i_long":106.675475,"is_transit":false,"station_name":"Rawa Buntu","time":4},{"time":6,"i_lat":-6.296963,"station_id":"SDM","transit":false,"line":6,"station_name":"Sudimara","distance":4566,"is_transit":false,"i_long":106.712277},{"transit":false,"station_name":"Jurangmangu","i_long":106.728916,"line":6,"is_transit":false,"i_lat":-6.288927,"time":4,"distance":1994,"station_id":"JMU"},{"time":3,"distance":2179,"i_lat":-6.276362,"transit":false,"line":6,"i_long":106.74273,"is_transit":false,"station_id":"PDJ","station_name":"Pondokranji"},{"distance":6218,"i_long":106.780334,"line":6,"is_transit":false,"station_id":"KBY","transit":false,"time":8,"station_name":"Kebayoran","i_lat":-6.237242},{"line":6,"distance":3737,"is_transit":false,"station_id":"PLM","station_name":"Palmerah","transit":false,"i_lat":-6.207404,"i_long":106.79689,"time":7},{"station_id":"THB","distance":3191,"is_transit":true,"station_name":"Tanah Abang","time":6,"transit":true,"i_lat":-6.185545,"i_long":106.811091,"line":1},{"transit":false,"i_lat":-6.155215,"line":1,"i_long":106.800832,"station_name":"Duri","station_id":"DU","time":8,"is_transit":false,"distance":3632},{"station_name":"Angke","line":1,"is_transit":false,"transit":false,"time":4,"distance":1230,"i_lat":-6.144674,"station_id":"AK","i_long":106.79867},{"time":9,"i_lat":-6.132549,"station_name":"Kampung Bandan","distance":4102,"line":4,"transit":true,"station_id":"KPB","i_long":106.826365,"is_transit":true},{"transit":false,"distance":1444,"time":3,"station_id":"RJW","line":11,"is_transit":false,"i_lat":-6.14505,"i_long":106.836569,"station_name":"Rajawali"},{"station_id":"KMO","transit":false,"time":5,"station_name":"Kemayoran","i_long":106.839204,"distance":1901,"is_transit":false,"i_lat":-6.161728,"line":11},{"station_name":"Pasar Senen","i_lat":-6.174784,"distance":1436,"is_transit":false,"time":4,"line":11,"station_id":"PSE","i_long":106.84368,"transit":false},{"transit":false,"distance":1567,"i_long":106.850107,"time":8,"station_id":"GST","is_transit":false,"i_lat":-6.185975,"line":11,"station_name":"Gang Sentiong"},{"line":11,"distance":973,"time":1,"is_transit":false,"transit":false,"station_id":"KMT","i_lat":-6.193792,"i_long":106.855437,"station_name":"Kramat"},{"station_id":"POK","distance":1829,"i_lat":-6.209188,"time":2,"transit":false,"i_long":106.861737,"line":11,"station_name":"Pondok Jati","is_transit":false},{"distance":1236,"is_transit":true,"station_id":"JNG","i_long":106.86807400000001,"line":1,"transit":true,"time":9,"station_name":"Jatinegara","i_lat":-6.215091},{"distance":3395,"time":3,"i_lat":-6.2135,"i_long":106.899548,"transit":false,"line":1,"is_transit":false,"station_id":"KLD","station_name":"Klender"},{"is_transit":false,"station_name":"Buaran","station_id":"BUA","i_lat":-6.215568,"i_long":106.922662,"transit":false,"distance":3100,"time":2,"line":1},{"time":1,"distance":1305,"line":1,"station_name":"Klenderbaru","i_lat":-6.217455,"station_id":"KLDB","i_long":106.939679,"is_transit":false,"transit":false},{"line":1,"is_transit":false,"transit":false,"i_lat":-6.219053,"station_id":"CUK","time":8,"distance":1385,"i_long":106.951283,"station_name":"Cakung"},{"time":3,"is_transit":false,"i_lat":-6.224515,"line":1,"transit":false,"distance":3097,"station_name":"Kranji","station_id":"KRI","i_long":106.977657},{"transit":false,"station_id":"BKS","distance":2520,"i_lat":-6.236616,"i_long":106.997013,"line":1,"station_name":"Bekasi","time":4,"is_transit":false},{"distance":2368,"is_transit":false,"station_id":"BKST","line":1,"time":2,"station_name":"Bekasi Timur","i_long":107.016735,"transit":false,"i_lat":-6.248029},{"line":1,"i_long":107.055722,"transit":false,"distance":4460,"time":7,"station_name":"Tambun","is_transit":false,"i_lat":-6.258864,"station_id":"TB"},{"station_id":"CIT","i_lat":-6.261877,"i_long":107.083084,"time":3,"is_transit":false,"line":1,"station_name":"Cibitung","distance":3420,"transit":false}],[{"time":0,"transit":false,"i_lat":-6.327251,"line":6,"distance":0,"i_long":106.460812,"is_transit":false,"station_id":"TEJ","station_name":"Tenjo"},{"station_name":"Daru","time":5,"i_long":106.491338,"is_transit":false,"transit":false,"distance":3902,"station_id":"DAR","i_lat":-6.338021,"line":0},{"station_id":"CJT","is_transit":false,"line":3,"distance":2675,"i_long":106.508482,"transit":false,"time":6,"station_name":"Cilejit","i_lat":-6.354349},{"line":6,"station_name":"Parung Panjang","station_id":"PRP","distance":7025,"i_long":106.568863,"is_transit":false,"i_lat":-6.3441410000000005,"transit":false,"time":9},{"time":8,"i_long":106.617853,"station_id":"CC","i_lat":-6.329547,"line":3,"transit":false,"is_transit":false,"distance":5968,"station_name":"Cicayur"},{"is_transit":false,"station_id":"CSK","distance":2519,"transit":false,"i_long":106.640411,"station_name":"Cisauk","line":3,"time":4,"i_lat":-6.32484},{"transit":false,"i_lat":-6.319871,"time":4,"station_id":"SRP","is_transit":false,"distance":1784,"line":6,"station_name":"Serpong","i_long":106.66566},{"i_long":106.675475,"line":6,"i_lat":-6.314823,"time":4,"is_transit":false,"station_id":"RU","distance":2413,"station_name":"Rawa Buntu","transit":false},{"station_name":"Sudimara","i_lat":-6.296963,"distance":4566,"i_long":106.712277,"transit":false,"line":6,"is_transit":false,"time":6,"station_id":"SDM"},{"i_long":106.728916,"time":4,"transit":false,"station_name":"Jurangmangu","is_transit":false,"i_lat":-6.288927,"distance":1994,"line":6,"station_id":"JMU"},{"distance":2179,"i_long":106.74273,"station_id":"PDJ","i_lat":-6.276362,"is_transit":false,"time":3,"line":6,"station_name":"Pondokranji","transit":false},{"is_transit":false,"transit":false,"station_name":"Kebayoran","i_lat":-6.237242,"line":6,"time":8,"i_long":106.780334,"distance":6218,"station_id":"KBY"},{"distance":3737,"i_long":106.79689,"i_lat":-6.207404,"line":6,"station_name":"Palmerah","station_id":"PLM","transit":false,"is_transit":false,"time":7},{"is_transit":true,"transit":true,"time":6,"station_id":"THB","station_name":"Tanah Abang","i_lat":-6.185545,"i_long":106.811091,"distance":3191,"line":1},{"time":8,"station_name":"Duri","distance":3632,"i_lat":-6.155215,"line":1,"is_transit":false,"station_id":"DU","transit":false,"i_long":106.800832},{"transit":false,"distance":1230,"i_long":106.79867,"station_id":"AK","line":1,"is_transit":false,"i_lat":-6.144674,"time":4,"station_name":"Angke"},{"is_transit":true,"transit":true,"i_lat":-6.132549,"time":9,"station_id":"KPB","station_name":"Kampung Bandan","distance":4102,"i_long":106.826365,"line":4},{"i_lat":-6.137569,"is_transit":true,"station_name":"Jakarta Kota","time":3,"distance":1364,"i_long":106.812439,"line":2,"transit":true,"station_id":"JAKK"},{"distance":1264,"line":2,"station_id":"JAY","time":4,"is_transit":false,"i_lat":-6.141205,"transit":false,"station_name":"Jayakarta","i_long":106.820901},{"distance":1080,"i_lat":-6.149769,"i_long":106.82482,"line":2,"station_name":"Manggabesar","is_transit":false,"time":2,"transit":false,"station_id":"MGB"},{"station_name":"Sawah Besar","i_long":106.827103,"distance":906,"time":2,"is_transit":false,"transit":false,"line":2,"station_id":"SW","i_lat":-6.160725},{"i_lat":-6.166716,"i_long":106.828284,"station_id":"JUA","is_transit":false,"station_name":"Juanda","time":2,"distance":1149,"line":2,"transit":false},{"i_long":106.832183,"transit":false,"station_name":"Gondangdia","i_lat":-6.186295,"time":4,"station_id":"GDD","line":2,"is_transit":false,"distance":2015},{"station_id":"CKI","distance":1750,"station_name":"Cikini","line":2,"time":3,"i_long":106.840169,"i_lat":-6.198556,"transit":false,"is_transit":false},{"distance":1590,"transit":true,"time":4,"i_lat":-6.209883,"station_name":"Manggarai","i_long":106.84912,"is_transit":true,"station_id":"MRI","line":2},{"time":2,"distance":1275,"i_lat":-6.212485,"i_long":106.858896,"station_id":"MTR","transit":false,"station_name":"Matraman","line":1,"is_transit":false},{"i_long":106.86807400000001,"line":1,"transit":false,"distance":1377,"station_id":"JNG","station_name":"Jatinegara","time":8,"i_lat":-6.215091,"is_transit":false},{"line":1,"is_transit":false,"station_id":"KLD","station_name":"Klender","i_lat":-6.2135,"distance":3395,"transit":false,"i_long":106.899548,"time":3},{"line":1,"station_name":"Buaran","i_lat":-6.215568,"i_long":106.922662,"is_transit":false,"time":2,"transit":false,"distance":3100,"station_id":"BUA"},{"station_name":"Klenderbaru","i_lat":-6.217455,"is_transit":false,"distance":1305,"transit":false,"time":1,"station_id":"KLDB","i_long":106.939679,"line":1},{"is_transit":false,"station_id":"CUK","i_lat":-6.219053,"transit":false,"station_name":"Cakung","line":1,"time":8,"i_long":106.951283,"distance":1385},{"i_lat":-6.224515,"distance":3097,"is_transit":false,"i_long":106.977657,"transit":false,"station_name":"Kranji","station_id":"KRI","line":1,"time":3},{"time":4,"i_long":106.997013,"line":1,"transit":false,"station_id":"BKS","distance":2520,"is_transit":false,"i_lat":-6.236616,"station_name":"Bekasi"},{"time":2,"station_name":"Bekasi Timur","transit":false,"distance":2368,"i_long":107.016735,"station_id":"BKST","line":1,"i_lat":-6.248029,"is_transit":false},{"time":7,"transit":false,"i_long":107.055722,"distance":4460,"is_transit":false,"line":1,"station_id":"TB","i_lat":-6.258864,"station_name":"Tambun"},{"i_lat":-6.261877,"i_long":107.083084,"is_transit":false,"station_name":"Cibitung","distance":3420,"station_id":"CIT","transit":false,"line":1,"time":3}],[{"time":0,"is_transit":false,"transit":false,"line":6,"distance":0,"station_id":"TEJ","station_name":"Tenjo","i_lat":-6.327251,"i_long":106.460812},{"i_long":106.491338,"distance":3902,"is_transit":false,"time":5,"station_id":"DAR","i_lat":-6.338021,"line":0,"transit":false,"station_name":"Daru"},{"is_transit":false,"time":6,"i_lat":-6.354349,"i_long":106.508482,"transit":false,"station_id":"CJT","line":3,"station_name":"Cilejit","distance":2675},{"station_name":"Parung Panjang","transit":false,"i_lat":-6.3441410000000005,"is_transit":false,"line":6,"station_id":"PRP","i_long":106.568863,"time":9,"distance":7025},{"transit":false,"time":8,"station_id":"CC","is_transit":false,"i_lat":-6.329547,"i_long":106.617853,"distance":5968,"line":3,"station_name":"Cicayur"},{"i_lat":-6.32484,"transit":false,"station_id":"CSK","i_long":106.640411,"time":4,"station_name":"Cisauk","is_transit":false,"distance":2519,"line":3},{"distance":1784,"transit":false,"line":6,"time":4,"station_name":"Serpong","station_id":"SRP","is_transit":false,"i_long":106.66566,"i_lat":-6.319871},{"distance":2413,"station_name":"Rawa Buntu","time":4,"station_id":"RU","i_lat":-6.314823,"line":6,"is_transit":false,"transit":false,"i_long":106.675475},{"i_lat":-6.296963,"transit":false,"i_long":106.712277,"line":6,"time":6,"station_name":"Sudimara","distance":4566,"is_transit":false,"station_id":"SDM"},{"transit":false,"station_name":"Jurangmangu","station_id":"JMU","i_lat":-6.288927,"distance":1994,"is_transit":false,"i_long":106.728916,"time":4,"line":6},{"i_lat":-6.276362,"i_long":106.74273,"line":6,"is_transit":false,"distance":2179,"time":3,"station_name":"Pondokranji","station_id":"PDJ","transit":false},{"time":8,"transit":false,"i_long":106.780334,"distance":6218,"station_name":"Kebayoran","is_transit":false,"i_lat":-6.237242,"station_id":"KBY","line":6},{"i_long":106.79689,"is_transit":false,"station_name":"Palmerah","line":6,"i_lat":-6.207404,"distance":3737,"transit":false,"station_id":"PLM","time":7},{"is_transit":true,"transit":true,"time":6,"distance":3191,"i_lat":-6.185545,"station_name":"Tanah Abang","station_id":"THB","i_long":106.811091,"line":1},{"transit":false,"distance":2029,"station_id":"KAT","i_lat":-6.20132,"i_long":106.816351,"station_name":"Karet","time":5,"line":1,"is_transit":false},{"is_transit":false,"i_long":106.819881,"station_id":"SUDB","time":1,"line":1,"transit":false,"station_name":"Sudirman Baru","distance":471,"i_lat":-6.201433},{"station_name":"Sudirman","distance":280,"line":1,"time":1,"i_lat":-6.202263,"is_transit":false,"i_long":106.822649,"transit":false,"station_id":"SUD"},{"station_name":"Manggarai","i_lat":-6.209883,"station_id":"MRI","i_long":106.84912,"time":4,"distance":3186,"line":2,"transit":true,"is_transit":true},{"station_id":"CKI","line":2,"is_transit":false,"i_lat":-6.198556,"time":4,"station_name":"Cikini","transit":false,"distance":1590,"i_long":106.840169},{"distance":1750,"transit":false,"station_id":"GDD","line":2,"i_lat":-6.186295,"station_name":"Gondangdia","i_long":106.832183,"time":3,"is_transit":false},{"is_transit":false,"line":2,"transit":false,"station_name":"Juanda","station_id":"JUA","time":4,"distance":2015,"i_lat":-6.166716,"i_long":106.828284},{"is_transit":false,"station_name":"Sawah Besar","distance":1149,"i_long":106.827103,"transit":false,"line":2,"time":2,"i_lat":-6.160725,"station_id":"SW"},{"i_lat":-6.149769,"station_name":"Manggabesar","time":2,"station_id":"MGB","line":2,"is_transit":false,"distance":906,"i_long":106.82482,"transit":false},{"station_name":"Jayakarta","transit":false,"station_id":"JAY","distance":1080,"i_lat":-6.141205,"is_transit":false,"time":2,"i_long":106.820901,"line":2},{"distance":1264,"line":2,"transit":true,"station_id":"JAKK","station_name":"Jakarta Kota","is_transit":true,"time":4,"i_lat":-6.137569,"i_long":106.812439},{"i_long":106.826365,"is_transit":true,"line":4,"station_name":"Kampung Bandan","station_id":"KPB","distance":1364,"transit":true,"i_lat":-6.132549,"time":3},{"i_lat":-6.14505,"is_transit":false,"distance":1444,"transit":false,"station_name":"Rajawali","time":3,"station_id":"RJW","i_long":106.836569,"line":11},{"time":5,"i_lat":-6.161728,"is_transit":false,"transit":false,"station_name":"Kemayoran","line":11,"distance":1901,"station_id":"KMO","i_long":106.839204},{"is_transit":false,"station_name":"Pasar Senen","time":4,"line":11,"station_id":"PSE","i_long":106.84368,"distance":1436,"i_lat":-6.174784,"transit":false},{"station_id":"GST","is_transit":false,"i_long":106.850107,"i_lat":-6.185975,"transit":false,"line":11,"distance":1567,"time":8,"station_name":"Gang Sentiong"},{"station_id":"KMT","line":11,"station_name":"Kramat","time":1,"transit":false,"i_lat":-6.193792,"is_transit":false,"distance":973,"i_long":106.855437},{"is_transit":false,"distance":1829,"line":11,"station_name":"Pondok Jati","station_id":"POK","transit":false,"i_lat":-6.209188,"i_long":106.861737,"time":2},{"i_lat":-6.215091,"line":1,"station_id":"JNG","is_transit":true,"station_name":"Jatinegara","time":9,"i_long":106.86807400000001,"distance":1236,"transit":true},{"i_lat":-6.2135,"is_transit":false,"distance":3395,"station_id":"KLD","transit":false,"time":3,"line":1,"station_name":"Klender","i_long":106.899548},{"line":1,"transit":false,"i_lat":-6.215568,"distance":3100,"i_long":106.922662,"time":2,"station_id":"BUA","is_transit":false,"station_name":"Buaran"},{"station_id":"KLDB","time":1,"i_long":106.939679,"i_lat":-6.217455,"line":1,"is_transit":false,"transit":false,"distance":1305,"station_name":"Klenderbaru"},{"transit":false,"line":1,"station_id":"CUK","is_transit":false,"distance":1385,"i_long":106.951283,"time":8,"station_name":"Cakung","i_lat":-6.219053},{"i_lat":-6.224515,"transit":false,"time":3,"i_long":106.977657,"line":1,"is_transit":false,"distance":3097,"station_id":"KRI","station_name":"Kranji"},{"i_long":106.997013,"time":4,"distance":2520,"is_transit":false,"line":1,"transit":false,"i_lat":-6.236616,"station_name":"Bekasi","station_id":"BKS"},{"i_long":107.016735,"distance":2368,"station_name":"Bekasi Timur","transit":false,"is_transit":false,"i_lat":-6.248029,"station_id":"BKST","time":2,"line":1},{"line":1,"station_id":"TB","i_long":107.055722,"is_transit":false,"transit":false,"station_name":"Tambun","i_lat":-6.258864,"distance":4460,"time":7},{"station_name":"Cibitung","i_long":107.083084,"is_transit":false,"transit":false,"time":3,"distance":3420,"station_id":"CIT","line":1,"i_lat":-6.261877}]]}