{"data":[[{"distance":0,"station_name":"Tenjo","time":0,"line":6,"station_id":"TEJ","i_long":106.460812,"is_transit":false,"transit":false,"i_lat":-6.327251},{"distance":3902,"transit":false,"station_name":"Daru","is_transit":false,"i_lat":-6.338021,"station_id":"DAR","time":5,"i_long":106.491338,"line":0},{"transit":false,"time":6,"distance":2675,"is_transit":false,"i_lat":-6.354349,"station_id":"CJT","i_long":106.508482,"line":3,"station_name":"Cilejit"},{"i_lat":-6.3441410000000005,"i_long":106.568863,"distance":7025,"is_transit":false,"line":6,"station_id":"PRP","transit":false,"time":9,"station_name":"Parung Panjang"},{"transit":false,"i_long":106.617853,"time":8,"line":3,"is_transit":false,"station_id":"CC","station_name":"Cicayur","distance":5968,"i_lat":-6.329547},{"transit":false,"station_name":"Cisauk","i_long":106.640411,"time":4,"line":3,"distance":2519,"station_id":"CSK","i_lat":-6.32484,"is_transit":false},{"distance":1784,"is_transit":false,"line":6,"time":4,"i_lat":-6.319871,"station_name":"Serpong","station_id":"SRP","i_long":106.66566,"transit":false},{"station_name":"Rawa Buntu","time":4,"i_long":106.675475,"station_id":"RU","is_transit":false,"i_lat":-6.314823,"distance":2413,"line":6,"transit":false},{"time":6,"is_transit":false,"station_name":"Sudimara","i_long":106.712277,"i_lat":-6.296963,"line":6,"station_id":"SDM","transit":false,"distance":4566},{"station_id":"JMU","line":6,"i_long":106.728916,"station_name":"Jurangmangu","time":4,"is_transit":false,"transit":false,"distance":1994,"i_lat":-6.288927},{"transit":false,"time":3,"station_id":"PDJ","i_lat":-6.276362,"i_long":106.74273,"line":6,"distance":2179,"station_name":"Pondokranji","is_transit":false},{"station_id":"KBY","time":8,"distance":6218,"i_long":106.780334,"transit":false,"line":6,"station_name":"Kebayoran","is_transit":false,"i_lat":-6.237242},{"i_long":106.79689,"station_id":"PLM","line":6,"i_lat":-6.207404,"time":7,"station_name":"Palmerah","transit":false,"is_transit":false,"distance":3737},{"station_id":"THB","i_lat":-6.185545,"i_long":106.811091,"transit":true,"line":1,"station_name":"Tanah Abang","is_transit":true,"time":6,"distance":3191},{"station_id":"KAT","time":5,"i_lat":-6.20132,"i_long":106.816351,"distance":2029,"transit":false,"line":1,"station_name":"Karet","is_transit":false},{"i_long":106.819881,"station_name":"Sudirman Baru","line":1,"time":1,"is_transit":false,"distance":471,"station_id":"SUDB","i_lat":-6.201433,"transit":false},{"is_transit":false,"transit":false,"station_name":"Sudirman","i_lat":-6.202263,"time":1,"distance":280,"i_long":106.822649,"station_id":"SUD","line":1},{"is_transit":true,"station_id":"MRI","transit":true,"station_name":"Manggarai","i_long":106.84912,"i_lat":-6.209883,"distance":3186,"time":4,"line":2},{"i_lat":-6.226659,"i_long":106.857948,"distance":2610,"line":2,"station_name":"Tebet","time":4,"station_id":"TEB","transit":false,"is_transit":false},{"distance":1230,"station_id":"CW","i_long":106.856607,"is_transit":false,"transit":false,"i_lat":-6.242512,"line":2,"station_name":"Cawang","time":2},{"transit":false,"i_lat":-6.255332,"time":3,"is_transit":false,"station_name":"Duren Kalibata","distance":1546,"i_long":106.85449,"line":2,"station_id":"DRN"},{"transit":false,"station_id":"PSMB","is_transit":false,"station_name":"Pasar Minggu Baru","i_lat":-6.263214,"i_long":106.851577,"distance":824,"time":2,"line":2},{"transit":false,"station_id":"PSM","i_long":106.843999,"is_transit":false,"station_name":"Pasar Minggu","distance":2380,"time":2,"line":2,"i_lat":-6.2842400000000005},{"distance":2820,"i_lat":-6.3080680000000005,"transit":false,"is_transit":false,"i_long":106.838896,"time":4,"line":2,"station_id":"TNT","station_name":"Tanjung Barat"},{"is_transit":false,"line":2,"time":3,"transit":false,"station_id":"LNA","distance":2671,"i_lat":-6.330363,"station_name":"Lenteng Agung","i_long":106.832616},{"i_long":106.834175,"transit":false,"time":2,"is_transit":false,"i_lat":-6.339291,"line":2,"station_name":"Univ. Pancasila","distance":1029,"station_id":"UP"},{"distance":2264,"station_id":"UI","time":3,"i_lat":-6.360749,"is_transit":false,"transit":false,"i_long":106.831474,"station_name":"Univ. Indonesia","line":2},{"time":2,"is_transit":false,"station_name":"Pondok Cina","distance":1109,"i_lat":-6.369073,"i_long":106.831114,"transit":false,"line":2,"station_id":"POC"},{"line":2,"transit":false,"distance":2727,"station_name":"Depokbaru","is_transit":false,"time":4,"i_long":106.819451,"station_id":"DPB","i_lat":-6.391065},{"transit":false,"time":3,"i_long":106.816926,"station_id":"DP","distance":1584,"i_lat":-6.405256,"station_name":"Depok","line":2,"is_transit":false}],[{"i_long":106.460812,"i_lat":-6.327251,"is_transit":false,"station_name":"Tenjo","line":6,"time":0,"distance":0,"station_id":"TEJ","transit":false},{"i_lat":-6.338021,"transit":false,"is_transit":false,"station_name":"Daru","time":5,"i_long":106.491338,"line":0,"station_id":"DAR","distance":3902},{"i_lat":-6.354349,"station_name":"Cilejit","is_transit":false,"time":6,"distance":2675,"line":3,"transit":false,"i_long":106.508482,"station_id":"CJT"},{"time":9,"i_lat":-6.3441410000000005,"station_id":"PRP","i_long":106.568863,"is_transit":false,"transit":false,"distance":7025,"station_name":"Parung Panjang","line":6},{"time":8,"i_long":106.617853,"station_id":"CC","transit":false,"line":3,"i_lat":-6.329547,"distance":5968,"station_name":"Cicayur","is_transit":false},{"is_transit":false,"time":4,"transit":false,"i_lat":-6.32484,"line":3,"distance":2519,"station_id":"CSK","i_long":106.640411,"station_name":"Cisauk"},{"transit":false,"is_transit":false,"station_name":"Serpong","distance":1784,"i_lat":-6.319871,"i_long":106.66566,"line":6,"time":4,"station_id":"SRP"},{"i_long":106.675475,"is_transit":false,"line":6,"i_lat":-6.314823,"station_name":"Rawa Buntu","distance":2413,"station_id":"RU","time":4,"transit":false},{"distance":4566,"time":6,"i_long":106.712277,"transit":false,"is_transit":false,"station_name":"Sudimara","i_lat":-6.296963,"line":6,"station_id":"SDM"},{"is_transit":false,"i_lat":-6.288927,"line":6,"station_id":"JMU","transit":false,"time":4,"i_long":106.728916,"station_name":"Jurangmangu","distance":1994},{"station_id":"PDJ","transit":false,"distance":2179,"station_name":"Pondokranji","line":6,"time":3,"is_transit":false,"i_lat":-6.276362,"i_long":106.74273},{"line":6,"station_id":"KBY","time":8,"i_lat":-6.237242,"is_transit":false,"station_name":"Kebayoran","distance":6218,"transit":false,"i_long":106.780334},{"i_lat":-6.207404,"transit":false,"station_name":"Palmerah","i_long":106.79689,"is_transit":false,"distance":3737,"station_id":"PLM","line":6,"time":7},{"is_transit":true,"i_lat":-6.185545,"i_long":106.811091,"station_name":"Tanah Abang","station_id":"THB","line":1,"transit":true,"distance":3191,"time":6},{"line":1,"transit":false,"station_name":"Duri","station_id":"DU","is_transit":false,"time":8,"i_lat":-6.155215,"distance":3632,"i_long":106.800832},{"station_id":"AK","is_transit":false,"time":4,"distance":1230,"station_name":"Angke","transit":false,"i_lat":-6.144674,"i_long":106.79867,"line":1},{"transit":true,"station_id":"KPB","i_long":106.826365,"is_transit":true,"line":4,"time":9,"station_name":"Kampung Bandan","distance":4102,"i_lat":-6.132549},{"time":3,"distance":1364,"station_id":"JAKK","i_lat":-6.137569,"line":2,"is_transit":true,"station_name":"Jakarta Kota","transit":true,"i_long":106.812439},{"transit":false,"distance":1264,"line":2,"is_transit":false,"time":4,"i_long":106.820901,"i_lat":-6.141205,"station_name":"Jayakarta","station_id":"JAY"},{"is_transit":false,"station_id":"MGB","station_name":"Manggabesar","i_long":106.82482,"distance":1080,"line":2,"time":2,"transit":false,"i_lat":-6.149769},{"distance":906,"i_lat":-6.160725,"i_long":106.827103,"transit":false,"station_id":"SW","station_name":"Sawah Besar","is_transit":false,"time":2,"line":2},{"i_long":106.828284,"transit":false,"line":2,"distance":1149,"station_name":"Juanda","time":2,"station_id":"JUA","i_lat":-6.166716,"is_transit":false},{"i_long":106.832183,"station_name":"Gondangdia","distance":2015,"station_id":"GDD","line":2,"transit":false,"time":4,"is_transit":false,"i_lat":-6.186295},{"distance":1750,"transit":false,"line":2,"i_long":106.840169,"station_name":"Cikini","i_lat":-6.198556,"time":3,"station_id":"CKI","is_transit":false},{"distance":1590,"i_lat":-6.209883,"station_name":"Manggarai","transit":false,"time":4,"line":2,"station_id":"MRI","i_long":106.84912,"is_transit":false},{"station_id":"TEB","line":2,"transit":false,"station_name":"Tebet","i_long":106.857948,"is_transit":false,"time":4,"distance":2610,"i_lat":-6.226659},{"line":2,"is_transit":false,"i_lat":-6.242512,"transit":false,"i_long":106.856607,"station_id":"CW","time":2,"station_name":"Cawang","distance":1230},{"i_long":106.85449,"station_name":"Duren Kalibata","station_id":"DRN","distance":1546,"time":3,"transit":false,"i_lat":-6.255332,"line":2,"is_transit":false},{"distance":824,"station_id":"PSMB","i_lat":-6.263214,"line":2,"station_name":"Pasar Minggu Baru","is_transit":false,"transit":false,"time":2,"i_long":106.851577},{"transit":false,"time":2,"line":2,"station_name":"Pasar Minggu","is_transit":false,"i_long":106.843999,"distance":2380,"station_id":"PSM","i_lat":-6.2842400000000005},{"station_id":"TNT","is_transit":false,"transit":false,"station_name":"Tanjung Barat","i_lat":-6.3080680000000005,"time":4,"line":2,"i_long":106.838896,"distance":2820},{"station_name":"Lenteng Agung","station_id":"LNA","line":2,"is_transit":false,"i_lat":-6.330363,"transit":false,"i_long":106.832616,"time":3,"distance":2671},{"is_transit":false,"transit":false,"station_name":"Univ. Pancasila","distance":1029,"line":2,"i_lat":-6.339291,"station_id":"UP","time":2,"i_long":106.834175},{"time":3,"i_lat":-6.360749,"station_name":"Univ. Indonesia","transit":false,"station_id":"UI","i_long":106.831474,"line":2,"distance":2264,"is_transit":false},{"station_id":"POC","station_name":"Pondok Cina","is_transit":false,"distance":1109,"time":2,"i_lat":-6.369073,"line":2,"transit":false,"i_long":106.831114},{"line":2,"is_transit":false,"station_name":"Depokbaru","transit":false,"distance":2727,"station_id":"DPB","time":4,"i_lat":-6.391065,"i_long":106.819451},{"time":3,"line":2,"is_transit":false,"station_name":"Depok","i_lat":-6.405256,"i_long":106.816926,"transit":false,"distance":1584,"station_id":"DP"}],[{"station_name":"Tenjo","i_long":106.460812,"station_id":"TEJ","time":0,"transit":false,"is_transit":false,"distance":0,"i_lat":-6.327251,"line":6},{"transit":false,"station_id":"DAR","i_lat":-6.338021,"station_name":"Daru","line":0,"time":5,"distance":3902,"is_transit":false,"i_long":106.491338},{"station_name":"Cilejit","i_long":106.508482,"distance":2675,"station_id":"CJT","line":3,"is_transit":false,"transit":false,"time":6,"i_lat":-6.354349},{"i_long":106.568863,"line":6,"station_id":"PRP","i_lat":-6.3441410000000005,"is_transit":false,"transit":false,"distance":7025,"station_name":"Parung Panjang","time":9},{"station_id":"CC","i_lat":-6.329547,"station_name":"Cicayur","is_transit":false,"i_long":106.617853,"distance":5968,"line":3,"transit":false,"time":8},{"station_id":"CSK","time":4,"i_long":106.640411,"transit":false,"distance":2519,"i_lat":-6.32484,"is_transit":false,"line":3,"station_name":"Cisauk"},{"station_name":"Serpong","line":6,"time":4,"distance":1784,"i_lat":-6.319871,"transit":false,"is_transit":false,"i_long":106.66566,"station_id":"SRP"},{"time":4,"is_transit":false,"i_lat":-6.314823,"station_id":"RU","transit":false,"distance":2413,"line":6,"i_long":106.675475,"station_name":"Rawa Buntu"},{"time":6,"distance":4566,"station_name":"Sudimara","transit":false,"line":6,"is_transit":false,"i_lat":-6.296963,"i_long":106.712277,"station_id":"SDM"},{"station_id":"JMU","station_name":"Jurangmangu","transit":false,"distance":1994,"i_lat":-6.288927,"is_transit":false,"i_long":106.728916,"time":4,"line":6},{"i_long":106.74273,"is_transit":false,"time":3,"transit":false,"station_name":"Pondokranji","station_id":"PDJ","i_lat":-6.276362,"distance":2179,"line":6},{"distance":6218,"transit":false,"i_long":106.780334,"time":8,"station_id":"KBY","station_name":"Kebayoran","i_lat":-6.237242,"is_transit":false,"line":6},{"is_transit":false,"time":7,"station_name":"Palmerah","station_id":"PLM","distance":3737,"transit":false,"i_lat":-6.207404,"i_long":106.79689,"line":6},{"station_name":"Tanah Abang","is_transit":true,"i_lat":-6.185545,"time":6,"station_id":"THB","transit":true,"line":1,"distance":3191,"i_long":106.811091},{"time":8,"transit":false,"is_transit":false,"distance":3632,"i_long":106.800832,"i_lat":-6.155215,"station_name":"Duri","line":1,"station_id":"DU"},{"station_id":"AK","line":1,"distance":1230,"station_name":"Angke","i_long":106.79867,"time":4,"transit":false,"i_lat":-6.144674,"is_transit":false},{"station_id":"KPB","transit":true,"time":9,"distance":4102,"i_long":106.826365,"is_transit":true,"i_lat":-6.132549,"station_name":"Kampung Bandan","line":4},{"i_long":106.836569,"station_name":"Rajawali","time":3,"transit":false,"station_id":"RJW","is_transit":false,"distance":1444,"line":11,"i_lat":-6.14505},{"time":5,"station_id":"KMO","i_lat":-6.161728,"line":11,"distance":1901,"station_name":"Kemayoran","transit":false,"i_long":106.839204,"is_transit":false},{"distance":1436,"is_transit":false,"time":4,"i_lat":-6.174784,"line":11,"station_id":"PSE","station_name":"Pasar Senen","i_long":106.84368,"transit":false},{"line":11,"time":8,"transit":false,"is_transit":false,"station_name":"Gang Sentiong","i_lat":-6.185975,"station_id":"GST","i_long":106.850107,"distance":1567},{"distance":973,"is_transit":false,"station_id":"KMT","i_long":106.855437,"i_lat":-6.193792,"station_name":"Kramat","time":1,"transit":false,"line":11},{"distance":1829,"is_transit":false,"station_id":"POK","transit":false,"station_name":"Pondok Jati","i_long":106.861737,"line":11,"i_lat":-6.209188,"time":2},{"distance":1236,"i_lat":-6.215091,"station_name":"Jatinegara","i_long":106.86807400000001,"station_id":"JNG","line":1,"is_transit":true,"transit":true,"time":9},{"i_lat":-6.212485,"is_transit":false,"station_name":"Matraman","station_id":"MTR","time":2,"i_long":106.858896,"line":1,"transit":false,"distance":1377},{"time":2,"station_id":"MRI","is_transit":true,"i_lat":-6.209883,"distance":1275,"i_long":106.84912,"line":2,"station_name":"Manggarai","transit":true},{"station_name":"Tebet","is_transit":false,"station_id":"TEB","time":4,"i_lat":-6.226659,"line":2,"transit":false,"distance":2610,"i_long":106.857948},{"transit":false,"i_lat":-6.242512,"station_id":"CW","is_transit":false,"line":2,"station_name":"Cawang","time":2,"distance":1230,"i_long":106.856607},{"distance":1546,"line":2,"transit":false,"station_id":"DRN","i_lat":-6.255332,"is_transit":false,"station_name":"Duren Kalibata","i_long":106.85449,"time":3},{"i_long":106.851577,"time":2,"line":2,"i_lat":-6.263214,"station_name":"Pasar Minggu Baru","station_id":"PSMB","is_transit":false,"distance":824,"transit":false},{"station_id":"PSM","i_long":106.843999,"is_transit":false,"line":2,"station_name":"Pasar Minggu","distance":2380,"transit":false,"time":2,"i_lat":-6.2842400000000005},{"distance":2820,"line":2,"transit":false,"station_id":"TNT","station_name":"Tanjung Barat","i_lat":-6.3080680000000005,"is_transit":false,"time":4,"i_long":106.838896},{"line":2,"is_transit":false,"station_name":"Lenteng Agung","time":3,"transit":false,"station_id":"LNA","distance":2671,"i_long":106.832616,"i_lat":-6.330363},{"transit":false,"station_name":"Univ. Pancasila","station_id":"UP","i_long":106.834175,"distance":1029,"time":2,"line":2,"i_lat":-6.339291,"is_transit":false},{"i_lat":-6.360749,"distance":2264,"line":2,"transit":false,"station_id":"UI","is_transit":false,"i_long":106.831474,"time":3,"station_name":"Univ. Indonesia"},{"distance":1109,"transit":false,"station_name":"Pondok Cina","i_lat":-6.369073,"time":2,"line":2,"i_long":106.831114,"station_id":"POC","is_transit":false},{"station_id":"DPB","is_transit":false,"line":2,"time":4,"distance":2727,"i_lat":-6.391065,"station_name":"Depokbaru","i_long":106.819451,"transit":false},{"station_id":"DP","time":3,"i_lat":-6.405256,"station_name":"Depok","is_transit":false,"line":2,"transit":false,"i_long":106.816926,"distance":1584}]]}