{"data":[[{"i_long":106.460812,"distance":0,"transit":false,"time":0,"i_lat":-6.327251,"station_name":"Tenjo","line":6,"is_transit":false,"station_id":"TEJ"},{"is_transit":false,"i_long":106.491338,"line":0,"station_id":"DAR","time":5,"distance":3902,"station_name":"Daru","transit":false,"i_lat":-6.338021},{"is_transit":false,"i_lat":-6.354349,"time":6,"transit":false,"station_id":"CJT","i_long":106.508482,"station_name":"Cilejit","distance":2675,"line":3},{"line":6,"station_name":"Parung Panjang","transit":false,"i_lat":-6.3441410000000005,"i_long":106.568863,"distance":7025,"station_id":"PRP","is_transit":false,"time":9},{"is_transit":false,"time":8,"station_id":"CC","station_name":"Cicayur","transit":false,"i_long":106.617853,"line":3,"i_lat":-6.329547,"distance":5968},{"station_name":"Cisauk","transit":false,"station_id":"CSK","distance":2519,"i_long":106.640411,"line":3,"time":4,"is_transit":false,"i_lat":-6.32484},{"i_lat":-6.319871,"i_long":106.66566,"time":4,"line":6,"station_id":"SRP","transit":false,"is_transit":false,"distance":1784,"station_name":"Serpong"},{"transit":false,"line":6,"distance":2413,"time":4,"station_id":"RU","station_name":"Rawa Buntu","is_transit":false,"i_lat":-6.314823,"i_long":106.675475},{"is_transit":false,"station_id":"SDM","station_name":"Sudimara","distance":4566,"transit":false,"line":6,"i_lat":-6.296963,"time":6,"i_long":106.712277},{"i_long":106.728916,"is_transit":false,"station_name":"Jurangmangu","transit":false,"line":6,"station_id":"JMU","distance":1994,"time":4,"i_lat":-6.288927},{"time":3,"station_id":"PDJ","transit":false,"is_transit":false,"distance":2179,"line":6,"i_long":106.74273,"i_lat":-6.276362,"station_name":"Pondokranji"},{"station_id":"KBY","time":8,"i_long":106.780334,"is_transit":false,"station_name":"Kebayoran","transit":false,"line":6,"distance":6218,"i_lat":-6.237242},{"distance":3737,"station_name":"Palmerah","i_long":106.79689,"is_transit":false,"transit":false,"line":6,"station_id":"PLM","i_lat":-6.207404,"time":7},{"station_id":"THB","i_lat":-6.185545,"station_name":"Tanah Abang","time":6,"is_transit":true,"transit":true,"line":1,"distance":3191,"i_long":106.811091},{"line":1,"i_lat":-6.155215,"transit":false,"i_long":106.800832,"time":8,"station_id":"DU","distance":3632,"station_name":"Duri","is_transit":false},{"distance":1230,"station_id":"AK","is_transit":false,"i_lat":-6.144674,"i_long":106.79867,"transit":false,"station_name":"Angke","time":4,"line":1},{"distance":4102,"time":9,"i_lat":-6.132549,"i_long":106.826365,"station_id":"KPB","station_name":"Kampung Bandan","is_transit":true,"transit":true,"line":4},{"is_transit":false,"i_long":106.84464,"time":4,"transit":false,"station_name":"Ancol","distance":2185,"i_lat":-6.128023,"line":4,"station_id":"AC"},{"i_lat":-6.1109480000000005,"station_name":"Tanjung Priuk","distance":4566,"station_id":"TPK","time":9,"is_transit":false,"line":4,"transit":false,"i_long":106.880089}],[{"i_lat":-6.327251,"station_name":"Tenjo","i_long":106.460812,"transit":false,"line":6,"is_transit":false,"station_id":"TEJ","time":0,"distance":0},{"line":0,"distance":3902,"is_transit":false,"time":5,"i_lat":-6.338021,"i_long":106.491338,"transit":false,"station_name":"Daru","station_id":"DAR"},{"station_id":"CJT","station_name":"Cilejit","line":3,"i_long":106.508482,"time":6,"distance":2675,"transit":false,"is_transit":false,"i_lat":-6.354349},{"time":9,"station_id":"PRP","line":6,"distance":7025,"station_name":"Parung Panjang","is_transit":false,"i_lat":-6.3441410000000005,"transit":false,"i_long":106.568863},{"time":8,"distance":5968,"is_transit":false,"station_id":"CC","station_name":"Cicayur","transit":false,"i_long":106.617853,"i_lat":-6.329547,"line":3},{"time":4,"line":3,"station_id":"CSK","transit":false,"i_lat":-6.32484,"i_long":106.640411,"is_transit":false,"distance":2519,"station_name":"Cisauk"},{"time":4,"is_transit":false,"distance":1784,"i_lat":-6.319871,"i_long":106.66566,"transit":false,"station_name":"Serpong","station_id":"SRP","line":6},{"i_lat":-6.314823,"station_name":"Rawa Buntu","is_transit":false,"time":4,"distance":2413,"i_long":106.675475,"station_id":"RU","transit":false,"line":6},{"distance":4566,"station_id":"SDM","station_name":"Sudimara","line":6,"i_lat":-6.296963,"time":6,"is_transit":false,"transit":false,"i_long":106.712277},{"i_lat":-6.288927,"i_long":106.728916,"distance":1994,"transit":false,"line":6,"time":4,"station_id":"JMU","station_name":"Jurangmangu","is_transit":false},{"station_name":"Pondokranji","line":6,"i_long":106.74273,"transit":false,"station_id":"PDJ","is_transit":false,"distance":2179,"time":3,"i_lat":-6.276362},{"station_name":"Kebayoran","line":6,"distance":6218,"transit":false,"is_transit":false,"i_long":106.780334,"time":8,"i_lat":-6.237242,"station_id":"KBY"},{"transit":false,"station_id":"PLM","distance":3737,"time":7,"is_transit":false,"station_name":"Palmerah","i_lat":-6.207404,"i_long":106.79689,"line":6},{"i_lat":-6.185545,"station_id":"THB","transit":true,"is_transit":true,"line":1,"distance":3191,"i_long":106.811091,"station_name":"Tanah Abang","time":6},{"distance":2029,"is_transit":false,"time":5,"i_lat":-6.20132,"station_name":"Karet","i_long":106.816351,"station_id":"KAT","line":1,"transit":false},{"distance":471,"transit":false,"i_lat":-6.201433,"is_transit":false,"i_long":106.819881,"station_name":"Sudirman Baru","line":1,"time":1,"station_id":"SUDB"},{"transit":false,"i_lat":-6.202263,"station_name":"Sudirman","time":1,"i_long":106.822649,"distance":280,"line":1,"is_transit":false,"station_id":"SUD"},{"line":2,"time":4,"transit":true,"is_transit":true,"station_name":"Manggarai","station_id":"MRI","i_lat":-6.209883,"i_long":106.84912,"distance":3186},{"station_name":"Cikini","i_long":106.840169,"time":4,"station_id":"CKI","i_lat":-6.198556,"line":2,"transit":false,"distance":1590,"is_transit":false},{"distance":1750,"station_name":"Gondangdia","time":3,"line":2,"i_long":106.832183,"is_transit":false,"transit":false,"station_id":"GDD","i_lat":-6.186295},{"is_transit":false,"transit":false,"i_long":106.828284,"station_name":"Juanda","station_id":"JUA","time":4,"line":2,"i_lat":-6.166716,"distance":2015},{"station_name":"Sawah Besar","transit":false,"line":2,"is_transit":false,"i_lat":-6.160725,"time":2,"distance":1149,"i_long":106.827103,"station_id":"SW"},{"transit":false,"station_id":"MGB","i_lat":-6.149769,"time":2,"is_transit":false,"distance":906,"station_name":"Manggabesar","i_long":106.82482,"line":2},{"transit":false,"time":2,"station_name":"Jayakarta","station_id":"JAY","i_long":106.820901,"distance":1080,"is_transit":false,"i_lat":-6.141205,"line":2},{"transit":true,"distance":1264,"station_id":"JAKK","is_transit":true,"i_lat":-6.137569,"station_name":"Jakarta Kota","i_long":106.812439,"line":2,"time":4},{"is_transit":true,"line":4,"transit":true,"distance":1364,"i_lat":-6.132549,"station_id":"KPB","i_long":106.826365,"time":3,"station_name":"Kampung Bandan"},{"transit":false,"i_lat":-6.128023,"is_transit":false,"time":4,"line":4,"station_id":"AC","station_name":"Ancol","i_long":106.84464,"distance":2185},{"distance":4566,"i_lat":-6.1109480000000005,"transit":false,"time":9,"station_id":"TPK","is_transit":false,"station_name":"Tanjung Priuk","i_long":106.880089,"line":4}],[{"is_transit":false,"distance":0,"i_lat":-6.327251,"time":0,"transit":false,"i_long":106.460812,"station_name":"Tenjo","line":6,"station_id":"TEJ"},{"line":0,"i_long":106.491338,"distance":3902,"time":5,"i_lat":-6.338021,"transit":false,"station_id":"DAR","is_transit":false,"station_name":"Daru"},{"line":3,"i_long":106.508482,"station_name":"Cilejit","i_lat":-6.354349,"station_id":"CJT","is_transit":false,"time":6,"transit":false,"distance":2675},{"line":6,"is_transit":false,"station_name":"Parung Panjang","time":9,"transit":false,"station_id":"PRP","i_long":106.568863,"distance":7025,"i_lat":-6.3441410000000005},{"line":3,"station_name":"Cicayur","station_id":"CC","transit":false,"is_transit":false,"i_lat":-6.329547,"i_long":106.617853,"distance":5968,"time":8},{"i_long":106.640411,"i_lat":-6.32484,"station_id":"CSK","distance":2519,"station_name":"Cisauk","is_transit":false,"time":4,"transit":false,"line":3},{"i_long":106.66566,"station_name":"Serpong","distance":1784,"is_transit":false,"time":4,"station_id":"SRP","i_lat":-6.319871,"line":6,"transit":false},{"station_id":"RU","i_lat":-6.314823,"transit":false,"time":4,"i_long":106.675475,"line":6,"station_name":"Rawa Buntu","distance":2413,"is_transit":false},{"transit":false,"is_transit":false,"i_long":106.712277,"line":6,"distance":4566,"time":6,"station_name":"Sudimara","station_id":"SDM","i_lat":-6.296963},{"line":6,"distance":1994,"station_name":"Jurangmangu","transit":false,"i_long":106.728916,"time":4,"station_id":"JMU","i_lat":-6.288927,"is_transit":false},{"i_lat":-6.276362,"time":3,"station_id":"PDJ","is_transit":false,"station_name":"Pondokranji","distance":2179,"i_long":106.74273,"line":6,"transit":false},{"i_lat":-6.237242,"distance":6218,"i_long":106.780334,"is_transit":false,"station_name":"Kebayoran","time":8,"transit":false,"station_id":"KBY","line":6},{"distance":3737,"i_long":106.79689,"line":6,"station_id":"PLM","i_lat":-6.207404,"station_name":"Palmerah","is_transit":false,"time":7,"transit":false},{"line":1,"time":6,"i_long":106.811091,"station_name":"Tanah Abang","i_lat":-6.185545,"is_transit":true,"transit":true,"distance":3191,"station_id":"THB"},{"transit":false,"station_name":"Karet","is_transit":false,"distance":2029,"line":1,"time":5,"i_lat":-6.20132,"station_id":"KAT","i_long":106.816351},{"station_id":"SUDB","i_lat":-6.201433,"distance":471,"is_transit":false,"station_name":"Sudirman Baru","i_long":106.819881,"time":1,"line":1,"transit":false},{"i_lat":-6.202263,"time":1,"station_name":"Sudirman","is_transit":false,"transit":false,"station_id":"SUD","i_long":106.822649,"line":1,"distance":280},{"line":2,"distance":3186,"transit":false,"station_name":"Manggarai","is_transit":false,"i_long":106.84912,"time":4,"station_id":"MRI","i_lat":-6.209883},{"time":2,"transit":false,"station_id":"MTR","i_lat":-6.212485,"line":1,"is_transit":false,"distance":1275,"station_name":"Matraman","i_long":106.858896},{"line":1,"station_id":"JNG","transit":true,"is_transit":true,"station_name":"Jatinegara","i_lat":-6.215091,"i_long":106.86807400000001,"time":8,"distance":1377},{"station_name":"Pondok Jati","station_id":"POK","is_transit":false,"distance":1236,"transit":false,"i_lat":-6.209188,"line":11,"time":2,"i_long":106.861737},{"station_id":"KMT","distance":1829,"station_name":"Kramat","i_lat":-6.193792,"line":11,"transit":false,"i_long":106.855437,"is_transit":false,"time":2},{"time":1,"transit":false,"station_name":"Gang Sentiong","line":11,"station_id":"GST","distance":973,"i_lat":-6.185975,"is_transit":false,"i_long":106.850107},{"time":8,"distance":1567,"transit":false,"i_lat":-6.174784,"i_long":106.84368,"is_transit":false,"station_id":"PSE","line":11,"station_name":"Pasar Senen"},{"station_id":"KMO","i_lat":-6.161728,"station_name":"Kemayoran","distance":1436,"time":4,"transit":false,"is_transit":false,"i_long":106.839204,"line":11},{"i_lat":-6.14505,"is_transit":false,"station_id":"RJW","i_long":106.836569,"time":5,"transit":false,"station_name":"Rajawali","line":11,"distance":1901},{"station_id":"KPB","station_name":"Kampung Bandan","line":4,"time":3,"transit":true,"i_lat":-6.132549,"i_long":106.826365,"is_transit":true,"distance":1444},{"i_long":106.84464,"time":4,"line":4,"transit":false,"station_name":"Ancol","station_id":"AC","i_lat":-6.128023,"distance":2185,"is_transit":false},{"time":9,"distance":4566,"station_id":"TPK","line":4,"i_long":106.880089,"transit":false,"is_transit":false,"station_name":"Tanjung Priuk","i_lat":-6.1109480000000005}]]}