{"data":[[{"i_long":106.460812,"station_id":"TEJ","time":0,"distance":0,"i_lat":-6.327251,"station_name":"Tenjo","is_transit":false,"transit":false,"line":6},{"i_lat":-6.338021,"station_name":"Daru","time":5,"station_id":"DAR","i_long":106.491338,"transit":false,"is_transit":false,"distance":3902,"line":0},{"i_long":106.508482,"station_name":"Cilejit","line":3,"time":6,"station_id":"CJT","is_transit":false,"transit":false,"i_lat":-6.354349,"distance":2675},{"time":9,"distance":7025,"i_lat":-6.3441410000000005,"transit":false,"is_transit":false,"station_id":"PRP","i_long":106.568863,"station_name":"Parung Panjang","line":6},{"station_name":"Cicayur","station_id":"CC","line":3,"distance":5968,"is_transit":false,"i_long":106.617853,"transit":false,"time":8,"i_lat":-6.329547},{"line":3,"i_lat":-6.32484,"station_name":"Cisauk","time":4,"station_id":"CSK","i_long":106.640411,"transit":false,"distance":2519,"is_transit":false},{"i_long":106.66566,"line":6,"i_lat":-6.319871,"is_transit":false,"station_id":"SRP","distance":1784,"transit":false,"station_name":"Serpong","time":4},{"transit":false,"time":4,"i_long":106.675475,"is_transit":false,"distance":2413,"i_lat":-6.314823,"line":6,"station_id":"RU","station_name":"Rawa Buntu"},{"i_lat":-6.296963,"line":6,"i_long":106.712277,"transit":false,"time":6,"station_id":"SDM","distance":4566,"station_name":"Sudimara","is_transit":false},{"time":4,"line":6,"i_long":106.728916,"station_name":"Jurangmangu","transit":false,"distance":1994,"station_id":"JMU","is_transit":false,"i_lat":-6.288927},{"station_id":"PDJ","transit":false,"distance":2179,"line":6,"station_name":"Pondokranji","is_transit":false,"time":3,"i_lat":-6.276362,"i_long":106.74273},{"line":6,"i_long":106.780334,"distance":6218,"transit":false,"station_id":"KBY","is_transit":false,"station_name":"Kebayoran","i_lat":-6.237242,"time":8},{"station_id":"PLM","is_transit":false,"time":7,"line":6,"i_long":106.79689,"station_name":"Palmerah","transit":false,"distance":3737,"i_lat":-6.207404},{"station_id":"THB","time":6,"station_name":"Tanah Abang","i_lat":-6.185545,"line":1,"distance":3191,"i_long":106.811091,"transit":true,"is_transit":true},{"i_lat":-6.155215,"line":1,"i_long":106.800832,"distance":3632,"transit":true,"station_id":"DU","time":8,"is_transit":true,"station_name":"Duri"},{"line":5,"station_id":"GGL","i_lat":-6.162021,"time":3,"i_long":106.788277,"station_name":"Grogol","distance":1700,"transit":false,"is_transit":false},{"is_transit":false,"transit":false,"line":5,"i_long":106.771379,"time":2,"station_name":"Pesing","station_id":"PSG","distance":2036,"i_lat":-6.161433},{"station_id":"TKO","transit":false,"station_name":"Taman Kota","is_transit":false,"distance":1614,"i_lat":-6.1587309999999995,"time":2,"i_long":106.756522,"line":5},{"transit":false,"i_lat":-6.159876,"is_transit":false,"distance":2334,"i_long":106.737035,"station_name":"Bojongindah","time":2,"line":5,"station_id":"BOI"},{"time":4,"transit":false,"station_id":"RW","i_long":106.723064,"station_name":"Rawa Buaya","is_transit":false,"line":5,"i_lat":-6.162758,"distance":1152},{"station_name":"Kalideres","time":3,"transit":false,"station_id":"KDS","is_transit":false,"i_long":106.701612,"line":5,"i_lat":-6.166068,"distance":2504}],[{"distance":0,"i_lat":-6.327251,"line":6,"i_long":106.460812,"is_transit":false,"time":0,"station_name":"Tenjo","station_id":"TEJ","transit":false},{"station_id":"DAR","is_transit":false,"distance":3902,"station_name":"Daru","i_long":106.491338,"line":0,"transit":false,"i_lat":-6.338021,"time":5},{"station_id":"CJT","transit":false,"is_transit":false,"time":6,"distance":2675,"i_long":106.508482,"i_lat":-6.354349,"line":3,"station_name":"Cilejit"},{"station_id":"PRP","is_transit":false,"transit":false,"i_lat":-6.3441410000000005,"i_long":106.568863,"line":6,"distance":7025,"time":9,"station_name":"Parung Panjang"},{"i_long":106.617853,"transit":false,"line":3,"time":8,"distance":5968,"i_lat":-6.329547,"is_transit":false,"station_id":"CC","station_name":"Cicayur"},{"is_transit":false,"i_lat":-6.32484,"time":4,"i_long":106.640411,"line":3,"station_id":"CSK","distance":2519,"transit":false,"station_name":"Cisauk"},{"transit":false,"is_transit":false,"station_name":"Serpong","i_lat":-6.319871,"time":4,"distance":1784,"line":6,"station_id":"SRP","i_long":106.66566},{"transit":false,"station_id":"RU","time":4,"line":6,"is_transit":false,"station_name":"Rawa Buntu","i_long":106.675475,"distance":2413,"i_lat":-6.314823},{"is_transit":false,"line":6,"station_id":"SDM","i_long":106.712277,"station_name":"Sudimara","i_lat":-6.296963,"time":6,"transit":false,"distance":4566},{"i_long":106.728916,"transit":false,"station_name":"Jurangmangu","station_id":"JMU","time":4,"line":6,"is_transit":false,"i_lat":-6.288927,"distance":1994},{"is_transit":false,"i_lat":-6.276362,"station_name":"Pondokranji","line":6,"distance":2179,"i_long":106.74273,"transit":false,"station_id":"PDJ","time":3},{"i_long":106.780334,"transit":false,"i_lat":-6.237242,"line":6,"station_name":"Kebayoran","time":8,"is_transit":false,"distance":6218,"station_id":"KBY"},{"i_long":106.79689,"is_transit":false,"distance":3737,"i_lat":-6.207404,"station_id":"PLM","time":7,"line":6,"transit":false,"station_name":"Palmerah"},{"station_id":"THB","time":6,"station_name":"Tanah Abang","i_lat":-6.185545,"i_long":106.811091,"is_transit":true,"distance":3191,"line":1,"transit":true},{"i_long":106.816351,"is_transit":false,"transit":false,"station_id":"KAT","line":1,"distance":2029,"i_lat":-6.20132,"station_name":"Karet","time":5},{"station_id":"SUDB","line":1,"station_name":"Sudirman Baru","is_transit":false,"i_lat":-6.201433,"i_long":106.819881,"distance":471,"time":1,"transit":false},{"time":1,"is_transit":false,"distance":280,"i_lat":-6.202263,"station_id":"SUD","transit":false,"line":1,"i_long":106.822649,"station_name":"Sudirman"},{"is_transit":true,"i_long":106.84912,"line":2,"station_id":"MRI","distance":3186,"transit":true,"time":4,"station_name":"Manggarai","i_lat":-6.209883},{"station_id":"CKI","time":4,"i_lat":-6.198556,"line":2,"is_transit":false,"station_name":"Cikini","i_long":106.840169,"distance":1590,"transit":false},{"i_lat":-6.186295,"time":3,"station_name":"Gondangdia","i_long":106.832183,"line":2,"transit":false,"is_transit":false,"station_id":"GDD","distance":1750},{"is_transit":false,"i_lat":-6.166716,"line":2,"i_long":106.828284,"station_name":"Juanda","station_id":"JUA","transit":false,"time":4,"distance":2015},{"distance":1149,"station_id":"SW","line":2,"i_long":106.827103,"i_lat":-6.160725,"transit":false,"station_name":"Sawah Besar","is_transit":false,"time":2},{"station_id":"MGB","is_transit":false,"i_lat":-6.149769,"line":2,"time":2,"transit":false,"i_long":106.82482,"distance":906,"station_name":"Manggabesar"},{"transit":false,"station_name":"Jayakarta","time":2,"distance":1080,"station_id":"JAY","i_lat":-6.141205,"i_long":106.820901,"is_transit":false,"line":2},{"i_lat":-6.137569,"line":2,"transit":true,"i_long":106.812439,"is_transit":true,"distance":1264,"time":4,"station_name":"Jakarta Kota","station_id":"JAKK"},{"time":3,"station_name":"Kampung Bandan","line":4,"i_long":106.826365,"station_id":"KPB","i_lat":-6.132549,"distance":1364,"transit":true,"is_transit":true},{"transit":false,"is_transit":false,"station_name":"Angke","i_lat":-6.144674,"i_long":106.79867,"line":1,"time":9,"distance":4102,"station_id":"AK"},{"distance":1230,"line":1,"transit":true,"is_transit":true,"i_long":106.800832,"station_name":"Duri","time":4,"i_lat":-6.155215,"station_id":"DU"},{"station_id":"GGL","i_lat":-6.162021,"i_long":106.788277,"is_transit":false,"line":5,"station_name":"Grogol","distance":1700,"time":3,"transit":false},{"transit":false,"station_id":"PSG","line":5,"distance":2036,"is_transit":false,"time":2,"station_name":"Pesing","i_lat":-6.161433,"i_long":106.771379},{"i_lat":-6.1587309999999995,"transit":false,"is_transit":false,"distance":1614,"i_long":106.756522,"line":5,"time":2,"station_name":"Taman Kota","station_id":"TKO"},{"time":2,"station_name":"Bojongindah","is_transit":false,"distance":2334,"transit":false,"i_lat":-6.159876,"line":5,"i_long":106.737035,"station_id":"BOI"},{"i_lat":-6.162758,"station_name":"Rawa Buaya","line":5,"is_transit":false,"transit":false,"i_long":106.723064,"distance":1152,"time":4,"station_id":"RW"},{"line":5,"station_name":"Kalideres","i_lat":-6.166068,"station_id":"KDS","is_transit":false,"distance":2504,"i_long":106.701612,"time":3,"transit":false}],[{"line":6,"transit":false,"time":0,"distance":0,"station_name":"Tenjo","station_id":"TEJ","is_transit":false,"i_lat":-6.327251,"i_long":106.460812},{"i_long":106.491338,"is_transit":false,"station_name":"Daru","distance":3902,"transit":false,"station_id":"DAR","i_lat":-6.338021,"time":5,"line":0},{"time":6,"transit":false,"i_lat":-6.354349,"station_id":"CJT","is_transit":false,"line":3,"distance":2675,"station_name":"Cilejit","i_long":106.508482},{"time":9,"station_name":"Parung Panjang","line":6,"transit":false,"distance":7025,"station_id":"PRP","i_lat":-6.3441410000000005,"i_long":106.568863,"is_transit":false},{"transit":false,"i_lat":-6.329547,"is_transit":false,"distance":5968,"time":8,"station_name":"Cicayur","line":3,"station_id":"CC","i_long":106.617853},{"time":4,"i_lat":-6.32484,"i_long":106.640411,"station_id":"CSK","line":3,"transit":false,"station_name":"Cisauk","distance":2519,"is_transit":false},{"station_name":"Serpong","line":6,"transit":false,"time":4,"station_id":"SRP","i_lat":-6.319871,"is_transit":false,"distance":1784,"i_long":106.66566},{"transit":false,"i_lat":-6.314823,"station_id":"RU","is_transit":false,"time":4,"distance":2413,"i_long":106.675475,"station_name":"Rawa Buntu","line":6},{"time":6,"station_name":"Sudimara","i_long":106.712277,"distance":4566,"is_transit":false,"i_lat":-6.296963,"station_id":"SDM","line":6,"transit":false},{"line":6,"station_name":"Jurangmangu","transit":false,"station_id":"JMU","time":4,"i_long":106.728916,"is_transit":false,"i_lat":-6.288927,"distance":1994},{"transit":false,"is_transit":false,"i_long":106.74273,"station_id":"PDJ","i_lat":-6.276362,"station_name":"Pondokranji","time":3,"distance":2179,"line":6},{"station_id":"KBY","transit":false,"time":8,"i_lat":-6.237242,"distance":6218,"line":6,"i_long":106.780334,"is_transit":false,"station_name":"Kebayoran"},{"is_transit":false,"distance":3737,"station_id":"PLM","transit":false,"station_name":"Palmerah","time":7,"i_lat":-6.207404,"line":6,"i_long":106.79689},{"distance":3191,"i_long":106.811091,"station_name":"Tanah Abang","line":1,"is_transit":true,"i_lat":-6.185545,"station_id":"THB","time":6,"transit":true},{"station_name":"Karet","station_id":"KAT","i_lat":-6.20132,"is_transit":false,"distance":2029,"line":1,"transit":false,"i_long":106.816351,"time":5},{"distance":471,"is_transit":false,"time":1,"transit":false,"i_lat":-6.201433,"i_long":106.819881,"station_id":"SUDB","line":1,"station_name":"Sudirman Baru"},{"transit":false,"i_lat":-6.202263,"station_id":"SUD","is_transit":false,"i_long":106.822649,"line":1,"station_name":"Sudirman","distance":280,"time":1},{"i_lat":-6.209883,"station_name":"Manggarai","line":2,"time":4,"i_long":106.84912,"distance":3186,"transit":false,"station_id":"MRI","is_transit":false},{"is_transit":false,"distance":1275,"i_lat":-6.212485,"line":1,"time":2,"i_long":106.858896,"transit":false,"station_name":"Matraman","station_id":"MTR"},{"time":8,"i_lat":-6.215091,"station_name":"Jatinegara","transit":true,"distance":1377,"line":1,"i_long":106.86807400000001,"station_id":"JNG","is_transit":true},{"i_long":106.861737,"station_name":"Pondok Jati","transit":false,"station_id":"POK","time":2,"distance":1236,"is_transit":false,"i_lat":-6.209188,"line":11},{"i_long":106.855437,"time":2,"line":11,"is_transit":false,"station_name":"Kramat","distance":1829,"transit":false,"station_id":"KMT","i_lat":-6.193792},{"transit":false,"station_name":"Gang Sentiong","station_id":"GST","distance":973,"is_transit":false,"i_long":106.850107,"line":11,"time":1,"i_lat":-6.185975},{"i_lat":-6.174784,"station_id":"PSE","distance":1567,"i_long":106.84368,"is_transit":false,"time":8,"line":11,"transit":false,"station_name":"Pasar Senen"},{"station_name":"Kemayoran","i_lat":-6.161728,"station_id":"KMO","distance":1436,"is_transit":false,"i_long":106.839204,"time":4,"transit":false,"line":11},{"time":5,"station_id":"RJW","line":11,"i_long":106.836569,"station_name":"Rajawali","is_transit":false,"distance":1901,"transit":false,"i_lat":-6.14505},{"is_transit":true,"i_lat":-6.132549,"i_long":106.826365,"time":3,"distance":1444,"line":4,"transit":true,"station_id":"KPB","station_name":"Kampung Bandan"},{"transit":false,"time":9,"i_lat":-6.144674,"station_name":"Angke","i_long":106.79867,"line":1,"station_id":"AK","distance":4102,"is_transit":false},{"transit":true,"time":4,"i_lat":-6.155215,"is_transit":true,"station_name":"Duri","i_long":106.800832,"distance":1230,"station_id":"DU","line":1},{"is_transit":false,"station_id":"GGL","distance":1700,"line":5,"time":3,"transit":false,"i_lat":-6.162021,"i_long":106.788277,"station_name":"Grogol"},{"station_name":"Pesing","time":2,"i_lat":-6.161433,"station_id":"PSG","i_long":106.771379,"line":5,"transit":false,"distance":2036,"is_transit":false},{"is_transit":false,"i_lat":-6.1587309999999995,"i_long":106.756522,"line":5,"time":2,"distance":1614,"station_name":"Taman Kota","station_id":"TKO","transit":false},{"transit":false,"i_lat":-6.159876,"line":5,"station_id":"BOI","is_transit":false,"time":2,"distance":2334,"station_name":"Bojongindah","i_long":106.737035},{"line":5,"time":4,"i_lat":-6.162758,"station_id":"RW","station_name":"Rawa Buaya","is_transit":false,"distance":1152,"transit":false,"i_long":106.723064},{"transit":false,"time":3,"i_lat":-6.166068,"station_id":"KDS","station_name":"Kalideres","distance":2504,"i_long":106.701612,"line":5,"is_transit":false}]]}