{"data":[[{"i_lat":-6.327251,"station_id":"TEJ","station_name":"Tenjo","time":0,"distance":0,"line":6,"transit":false,"i_long":106.460812,"is_transit":false},{"time":5,"station_name":"Daru","is_transit":false,"distance":3902,"station_id":"DAR","transit":false,"i_lat":-6.338021,"i_long":106.491338,"line":0},{"time":6,"distance":2675,"is_transit":false,"i_lat":-6.354349,"i_long":106.508482,"line":3,"station_name":"Cilejit","transit":false,"station_id":"CJT"},{"station_id":"PRP","transit":false,"line":6,"time":9,"station_name":"Parung Panjang","is_transit":false,"i_long":106.568863,"i_lat":-6.3441410000000005,"distance":7025},{"i_long":106.617853,"station_name":"Cicayur","i_lat":-6.329547,"station_id":"CC","distance":5968,"line":3,"transit":false,"time":8,"is_transit":false},{"is_transit":false,"station_id":"CSK","station_name":"Cisauk","distance":2519,"i_lat":-6.32484,"time":4,"i_long":106.640411,"line":3,"transit":false},{"time":4,"i_long":106.66566,"distance":1784,"station_id":"SRP","is_transit":false,"line":6,"i_lat":-6.319871,"station_name":"Serpong","transit":false},{"is_transit":false,"time":4,"station_name":"Rawa Buntu","i_lat":-6.314823,"station_id":"RU","i_long":106.675475,"distance":2413,"line":6,"transit":false},{"i_long":106.712277,"i_lat":-6.296963,"line":6,"time":6,"is_transit":false,"transit":false,"distance":4566,"station_id":"SDM","station_name":"Sudimara"},{"station_id":"JMU","line":6,"distance":1994,"time":4,"station_name":"Jurangmangu","transit":false,"i_lat":-6.288927,"is_transit":false,"i_long":106.728916},{"line":6,"is_transit":false,"i_long":106.74273,"transit":false,"station_id":"PDJ","time":3,"distance":2179,"station_name":"Pondokranji","i_lat":-6.276362},{"transit":false,"distance":6218,"station_id":"KBY","time":8,"is_transit":false,"station_name":"Kebayoran","i_long":106.780334,"line":6,"i_lat":-6.237242},{"i_lat":-6.207404,"i_long":106.79689,"is_transit":false,"transit":false,"line":6,"station_id":"PLM","distance":3737,"time":7,"station_name":"Palmerah"},{"transit":true,"line":1,"distance":3191,"station_id":"THB","i_long":106.811091,"time":6,"is_transit":true,"i_lat":-6.185545,"station_name":"Tanah Abang"},{"station_id":"DU","station_name":"Duri","line":1,"transit":true,"i_long":106.800832,"i_lat":-6.155215,"time":8,"distance":3632,"is_transit":true},{"station_id":"GGL","is_transit":false,"line":5,"time":3,"station_name":"Grogol","distance":1700,"i_long":106.788277,"transit":false,"i_lat":-6.162021},{"transit":false,"time":2,"station_name":"Pesing","distance":2036,"is_transit":false,"i_long":106.771379,"station_id":"PSG","line":5,"i_lat":-6.161433},{"i_lat":-6.1587309999999995,"line":5,"is_transit":false,"transit":false,"station_name":"Taman Kota","distance":1614,"station_id":"TKO","i_long":106.756522,"time":2},{"i_lat":-6.159876,"is_transit":false,"distance":2334,"station_id":"BOI","line":5,"time":2,"station_name":"Bojongindah","i_long":106.737035,"transit":false},{"time":4,"station_name":"Rawa Buaya","distance":1152,"station_id":"RW","i_long":106.723064,"transit":false,"i_lat":-6.162758,"is_transit":false,"line":5},{"distance":2504,"transit":false,"i_long":106.701612,"line":5,"is_transit":false,"station_id":"KDS","station_name":"Kalideres","time":3,"i_lat":-6.166068}],[{"time":0,"is_transit":false,"transit":false,"station_id":"TEJ","i_lat":-6.327251,"i_long":106.460812,"station_name":"Tenjo","line":6,"distance":0},{"i_long":106.491338,"transit":false,"time":5,"is_transit":false,"distance":3902,"station_name":"Daru","i_lat":-6.338021,"line":0,"station_id":"DAR"},{"station_name":"Cilejit","time":6,"transit":false,"line":3,"station_id":"CJT","i_long":106.508482,"distance":2675,"is_transit":false,"i_lat":-6.354349},{"time":9,"line":6,"transit":false,"station_name":"Parung Panjang","is_transit":false,"distance":7025,"station_id":"PRP","i_lat":-6.3441410000000005,"i_long":106.568863},{"i_lat":-6.329547,"distance":5968,"transit":false,"station_name":"Cicayur","i_long":106.617853,"is_transit":false,"station_id":"CC","time":8,"line":3},{"i_long":106.640411,"line":3,"i_lat":-6.32484,"station_id":"CSK","distance":2519,"time":4,"is_transit":false,"transit":false,"station_name":"Cisauk"},{"distance":1784,"i_lat":-6.319871,"i_long":106.66566,"station_id":"SRP","transit":false,"line":6,"station_name":"Serpong","time":4,"is_transit":false},{"line":6,"i_long":106.675475,"station_name":"Rawa Buntu","is_transit":false,"distance":2413,"transit":false,"station_id":"RU","i_lat":-6.314823,"time":4},{"transit":false,"distance":4566,"i_lat":-6.296963,"line":6,"station_id":"SDM","time":6,"station_name":"Sudimara","i_long":106.712277,"is_transit":false},{"i_long":106.728916,"distance":1994,"is_transit":false,"line":6,"station_name":"Jurangmangu","transit":false,"time":4,"station_id":"JMU","i_lat":-6.288927},{"i_lat":-6.276362,"is_transit":false,"i_long":106.74273,"line":6,"station_name":"Pondokranji","transit":false,"distance":2179,"time":3,"station_id":"PDJ"},{"line":6,"time":8,"distance":6218,"station_id":"KBY","i_lat":-6.237242,"is_transit":false,"station_name":"Kebayoran","transit":false,"i_long":106.780334},{"station_id":"PLM","is_transit":false,"time":7,"distance":3737,"i_lat":-6.207404,"i_long":106.79689,"transit":false,"station_name":"Palmerah","line":6},{"i_lat":-6.185545,"i_long":106.811091,"station_id":"THB","distance":3191,"is_transit":true,"time":6,"transit":true,"line":1,"station_name":"Tanah Abang"},{"transit":false,"station_id":"KAT","line":1,"i_lat":-6.20132,"distance":2029,"is_transit":false,"station_name":"Karet","time":5,"i_long":106.816351},{"transit":false,"distance":471,"station_id":"SUDB","i_lat":-6.201433,"line":1,"is_transit":false,"i_long":106.819881,"station_name":"Sudirman Baru","time":1},{"i_lat":-6.202263,"station_name":"Sudirman","distance":280,"i_long":106.822649,"line":1,"time":1,"is_transit":false,"station_id":"SUD","transit":false},{"i_long":106.84912,"transit":true,"line":2,"distance":3186,"i_lat":-6.209883,"station_id":"MRI","station_name":"Manggarai","is_transit":true,"time":4},{"station_name":"Cikini","time":4,"transit":false,"i_lat":-6.198556,"station_id":"CKI","line":2,"is_transit":false,"distance":1590,"i_long":106.840169},{"line":2,"station_id":"GDD","time":3,"station_name":"Gondangdia","distance":1750,"transit":false,"i_long":106.832183,"is_transit":false,"i_lat":-6.186295},{"station_id":"JUA","distance":2015,"transit":false,"i_long":106.828284,"station_name":"Juanda","is_transit":false,"time":4,"line":2,"i_lat":-6.166716},{"distance":1149,"i_long":106.827103,"is_transit":false,"station_id":"SW","time":2,"i_lat":-6.160725,"line":2,"station_name":"Sawah Besar","transit":false},{"i_lat":-6.149769,"is_transit":false,"line":2,"i_long":106.82482,"station_id":"MGB","station_name":"Manggabesar","distance":906,"time":2,"transit":false},{"station_id":"JAY","line":2,"transit":false,"is_transit":false,"time":2,"station_name":"Jayakarta","distance":1080,"i_lat":-6.141205,"i_long":106.820901},{"i_long":106.812439,"station_id":"JAKK","station_name":"Jakarta Kota","transit":true,"is_transit":true,"line":2,"i_lat":-6.137569,"distance":1264,"time":4},{"station_name":"Kampung Bandan","line":4,"i_long":106.826365,"distance":1364,"transit":true,"station_id":"KPB","time":3,"i_lat":-6.132549,"is_transit":true},{"transit":false,"station_id":"AK","line":1,"is_transit":false,"distance":4102,"i_lat":-6.144674,"i_long":106.79867,"station_name":"Angke","time":9},{"i_lat":-6.155215,"station_id":"DU","line":1,"is_transit":true,"transit":true,"station_name":"Duri","i_long":106.800832,"distance":1230,"time":4},{"time":3,"i_lat":-6.162021,"station_name":"Grogol","station_id":"GGL","distance":1700,"transit":false,"i_long":106.788277,"line":5,"is_transit":false},{"time":2,"i_lat":-6.161433,"is_transit":false,"station_id":"PSG","transit":false,"line":5,"distance":2036,"station_name":"Pesing","i_long":106.771379},{"i_long":106.756522,"is_transit":false,"station_name":"Taman Kota","transit":false,"time":2,"i_lat":-6.1587309999999995,"line":5,"station_id":"TKO","distance":1614},{"time":2,"is_transit":false,"line":5,"transit":false,"i_long":106.737035,"i_lat":-6.159876,"distance":2334,"station_id":"BOI","station_name":"Bojongindah"},{"station_id":"RW","is_transit":false,"time":4,"i_long":106.723064,"station_name":"Rawa Buaya","distance":1152,"i_lat":-6.162758,"transit":false,"line":5},{"transit":false,"station_name":"Kalideres","time":3,"station_id":"KDS","distance":2504,"i_long":106.701612,"line":5,"is_transit":false,"i_lat":-6.166068}],[{"transit":false,"is_transit":false,"i_long":106.460812,"distance":0,"station_id":"TEJ","i_lat":-6.327251,"time":0,"station_name":"Tenjo","line":6},{"distance":3902,"station_id":"DAR","i_lat":-6.338021,"station_name":"Daru","is_transit":false,"i_long":106.491338,"line":0,"time":5,"transit":false},{"is_transit":false,"i_lat":-6.354349,"line":3,"time":6,"station_id":"CJT","transit":false,"distance":2675,"station_name":"Cilejit","i_long":106.508482},{"line":6,"is_transit":false,"station_name":"Parung Panjang","i_long":106.568863,"time":9,"i_lat":-6.3441410000000005,"distance":7025,"station_id":"PRP","transit":false},{"line":3,"distance":5968,"i_lat":-6.329547,"station_id":"CC","is_transit":false,"station_name":"Cicayur","transit":false,"i_long":106.617853,"time":8},{"distance":2519,"transit":false,"i_lat":-6.32484,"i_long":106.640411,"is_transit":false,"station_name":"Cisauk","time":4,"line":3,"station_id":"CSK"},{"line":6,"is_transit":false,"transit":false,"station_name":"Serpong","i_long":106.66566,"i_lat":-6.319871,"station_id":"SRP","distance":1784,"time":4},{"is_transit":false,"station_name":"Rawa Buntu","i_long":106.675475,"station_id":"RU","transit":false,"line":6,"i_lat":-6.314823,"time":4,"distance":2413},{"i_long":106.712277,"station_name":"Sudimara","transit":false,"line":6,"i_lat":-6.296963,"distance":4566,"time":6,"station_id":"SDM","is_transit":false},{"station_id":"JMU","distance":1994,"station_name":"Jurangmangu","transit":false,"is_transit":false,"i_lat":-6.288927,"i_long":106.728916,"line":6,"time":4},{"station_name":"Pondokranji","is_transit":false,"time":3,"line":6,"distance":2179,"i_long":106.74273,"transit":false,"i_lat":-6.276362,"station_id":"PDJ"},{"is_transit":false,"time":8,"distance":6218,"i_long":106.780334,"station_name":"Kebayoran","station_id":"KBY","line":6,"transit":false,"i_lat":-6.237242},{"is_transit":false,"station_name":"Palmerah","i_lat":-6.207404,"time":7,"distance":3737,"i_long":106.79689,"line":6,"transit":false,"station_id":"PLM"},{"i_lat":-6.185545,"i_long":106.811091,"line":1,"is_transit":true,"station_name":"Tanah Abang","transit":true,"time":6,"station_id":"THB","distance":3191},{"distance":2029,"i_lat":-6.20132,"station_name":"Karet","time":5,"transit":false,"i_long":106.816351,"station_id":"KAT","line":1,"is_transit":false},{"line":1,"time":1,"station_id":"SUDB","i_lat":-6.201433,"transit":false,"i_long":106.819881,"distance":471,"is_transit":false,"station_name":"Sudirman Baru"},{"i_lat":-6.202263,"line":1,"station_id":"SUD","i_long":106.822649,"time":1,"station_name":"Sudirman","distance":280,"transit":false,"is_transit":false},{"is_transit":false,"transit":false,"station_name":"Manggarai","line":2,"station_id":"MRI","distance":3186,"i_lat":-6.209883,"time":4,"i_long":106.84912},{"line":1,"i_lat":-6.212485,"transit":false,"time":2,"i_long":106.858896,"station_id":"MTR","station_name":"Matraman","distance":1275,"is_transit":false},{"time":8,"i_lat":-6.215091,"line":1,"station_id":"JNG","transit":true,"distance":1377,"is_transit":true,"i_long":106.86807400000001,"station_name":"Jatinegara"},{"time":2,"is_transit":false,"station_name":"Pondok Jati","distance":1236,"line":11,"transit":false,"i_long":106.861737,"station_id":"POK","i_lat":-6.209188},{"i_lat":-6.193792,"transit":false,"station_id":"KMT","station_name":"Kramat","is_transit":false,"distance":1829,"i_long":106.855437,"time":2,"line":11},{"line":11,"transit":false,"is_transit":false,"time":1,"station_name":"Gang Sentiong","station_id":"GST","distance":973,"i_long":106.850107,"i_lat":-6.185975},{"time":8,"distance":1567,"i_lat":-6.174784,"line":11,"station_id":"PSE","station_name":"Pasar Senen","transit":false,"i_long":106.84368,"is_transit":false},{"time":4,"transit":false,"is_transit":false,"station_id":"KMO","station_name":"Kemayoran","distance":1436,"i_long":106.839204,"line":11,"i_lat":-6.161728},{"distance":1901,"station_name":"Rajawali","line":11,"time":5,"i_lat":-6.14505,"i_long":106.836569,"transit":false,"station_id":"RJW","is_transit":false},{"is_transit":true,"line":4,"time":3,"i_lat":-6.132549,"i_long":106.826365,"station_name":"Kampung Bandan","transit":true,"station_id":"KPB","distance":1444},{"i_lat":-6.144674,"station_id":"AK","line":1,"time":9,"i_long":106.79867,"station_name":"Angke","transit":false,"distance":4102,"is_transit":false},{"transit":true,"is_transit":true,"station_name":"Duri","i_long":106.800832,"line":1,"i_lat":-6.155215,"station_id":"DU","distance":1230,"time":4},{"i_long":106.788277,"is_transit":false,"transit":false,"station_name":"Grogol","time":3,"line":5,"station_id":"GGL","distance":1700,"i_lat":-6.162021},{"station_id":"PSG","distance":2036,"i_long":106.771379,"i_lat":-6.161433,"is_transit":false,"time":2,"line":5,"transit":false,"station_name":"Pesing"},{"i_long":106.756522,"transit":false,"station_id":"TKO","station_name":"Taman Kota","is_transit":false,"time":2,"distance":1614,"line":5,"i_lat":-6.1587309999999995},{"station_id":"BOI","is_transit":false,"station_name":"Bojongindah","i_lat":-6.159876,"transit":false,"i_long":106.737035,"line":5,"distance":2334,"time":2},{"line":5,"time":4,"distance":1152,"is_transit":false,"station_name":"Rawa Buaya","i_long":106.723064,"station_id":"RW","i_lat":-6.162758,"transit":false},{"time":3,"line":5,"station_id":"KDS","i_long":106.701612,"station_name":"Kalideres","transit":false,"distance":2504,"i_lat":-6.166068,"is_transit":false}]]}