{"data":[[{"distance":0,"station_name":"Tenjo","time":0,"line":6,"i_long":106.460812,"i_lat":-6.327251,"station_id":"TEJ","transit":false,"is_transit":false},{"time":5,"i_lat":-6.338021,"transit":false,"station_id":"DAR","is_transit":false,"distance":3902,"i_long":106.491338,"line":0,"station_name":"Daru"},{"is_transit":false,"transit":false,"time":6,"distance":2675,"station_id":"CJT","i_lat":-6.354349,"i_long":106.508482,"line":0,"station_name":"Cilejit"},{"station_id":"PRP","is_transit":false,"transit":false,"i_lat":-6.3441410000000005,"station_name":"Parung Panjang","time":9,"distance":7025,"line":6,"i_long":106.568863},{"i_long":106.617853,"is_transit":false,"transit":false,"station_id":"CC","line":0,"time":8,"i_lat":-6.329547,"station_name":"Cicayur","distance":5968},{"distance":2519,"is_transit":false,"line":0,"i_long":106.640411,"station_name":"Cisauk","station_id":"CSK","i_lat":-6.32484,"transit":false,"time":4},{"i_lat":-6.319871,"time":4,"line":6,"is_transit":false,"station_name":"Serpong","station_id":"SRP","transit":false,"i_long":106.66566,"distance":1784},{"is_transit":false,"time":4,"distance":2413,"station_id":"RU","station_name":"Rawa Buntu","i_lat":-6.314823,"i_long":106.675475,"line":6,"transit":false},{"transit":false,"station_name":"Sudimara","station_id":"SDM","time":6,"distance":4566,"i_lat":-6.296963,"is_transit":false,"i_long":106.712277,"line":6},{"line":6,"is_transit":false,"station_id":"JMU","time":4,"i_lat":-6.288927,"station_name":"Jurangmangu","i_long":106.728916,"distance":1994,"transit":false},{"is_transit":false,"transit":false,"time":3,"distance":2179,"station_id":"PDJ","i_long":106.74273,"i_lat":-6.276362,"station_name":"Pondokranji","line":6},{"distance":6218,"i_long":106.780334,"line":6,"transit":false,"station_name":"Kebayoran","i_lat":-6.237242,"station_id":"KBY","is_transit":false,"time":8},{"line":6,"is_transit":false,"i_lat":-6.207404,"i_long":106.79689,"distance":3737,"time":7,"transit":false,"station_id":"PLM","station_name":"Palmerah"},{"time":6,"transit":true,"is_transit":true,"station_name":"Tanah Abang","i_long":106.811091,"i_lat":-6.185545,"line":1,"station_id":"THB","distance":3191},{"distance":3632,"is_transit":true,"i_lat":-6.155215,"time":8,"i_long":106.800832,"station_name":"Duri","transit":true,"station_id":"DU","line":1},{"station_id":"AK","i_lat":-6.144674,"is_transit":false,"distance":1230,"transit":false,"i_long":106.79867,"line":0,"time":4,"station_name":"Angke"},{"station_id":"KPB","distance":4102,"is_transit":true,"transit":false,"i_lat":-6.132549,"line":0,"i_long":106.826365,"station_name":"Kampung Bandan","time":9},{"is_transit":true,"i_long":106.812439,"station_id":"JAKK","i_lat":-6.137569,"transit":true,"line":0,"time":3,"station_name":"Jakarta Kota","distance":1364},{"line":7,"station_name":"Jayakarta","time":4,"is_transit":false,"transit":false,"station_id":"JAY","distance":1264,"i_long":106.820901,"i_lat":-6.141205}],[{"station_name":"Tenjo","distance":0,"time":0,"line":6,"transit":false,"i_long":106.460812,"is_transit":false,"i_lat":-6.327251,"station_id":"TEJ"},{"distance":3902,"station_name":"Daru","station_id":"DAR","is_transit":false,"transit":false,"time":5,"i_lat":-6.338021,"i_long":106.491338,"line":0},{"i_lat":-6.354349,"distance":2675,"station_name":"Cilejit","station_id":"CJT","transit":false,"line":0,"time":6,"i_long":106.508482,"is_transit":false},{"i_long":106.568863,"distance":7025,"time":9,"station_id":"PRP","station_name":"Parung Panjang","transit":false,"line":6,"i_lat":-6.3441410000000005,"is_transit":false},{"distance":5968,"i_long":106.617853,"station_name":"Cicayur","station_id":"CC","time":8,"i_lat":-6.329547,"is_transit":false,"transit":false,"line":0},{"transit":false,"i_long":106.640411,"station_id":"CSK","time":4,"line":0,"i_lat":-6.32484,"station_name":"Cisauk","distance":2519,"is_transit":false},{"i_lat":-6.319871,"is_transit":false,"transit":false,"time":4,"line":6,"distance":1784,"station_name":"Serpong","i_long":106.66566,"station_id":"SRP"},{"i_lat":-6.314823,"i_long":106.675475,"station_id":"RU","line":6,"time":4,"station_name":"Rawa Buntu","transit":false,"is_transit":false,"distance":2413},{"line":6,"transit":false,"station_id":"SDM","time":6,"is_transit":false,"distance":4566,"i_lat":-6.296963,"station_name":"Sudimara","i_long":106.712277},{"line":6,"i_long":106.728916,"station_id":"JMU","transit":false,"is_transit":false,"i_lat":-6.288927,"time":4,"station_name":"Jurangmangu","distance":1994},{"transit":false,"i_long":106.74273,"station_name":"Pondokranji","is_transit":false,"line":6,"distance":2179,"time":3,"i_lat":-6.276362,"station_id":"PDJ"},{"transit":false,"station_id":"KBY","time":8,"distance":6218,"line":6,"is_transit":false,"station_name":"Kebayoran","i_lat":-6.237242,"i_long":106.780334},{"i_long":106.79689,"is_transit":false,"distance":3737,"station_id":"PLM","transit":false,"station_name":"Palmerah","line":6,"time":7,"i_lat":-6.207404},{"station_id":"THB","station_name":"Tanah Abang","i_lat":-6.185545,"is_transit":true,"time":6,"line":1,"distance":3191,"transit":true,"i_long":106.811091},{"distance":2029,"line":1,"time":5,"station_name":"Karet","is_transit":false,"station_id":"KAT","transit":false,"i_lat":-6.20132,"i_long":106.816351},{"station_name":"Sudirman Baru","station_id":"SUDB","time":1,"is_transit":false,"i_lat":-6.201433,"line":1,"i_long":106.819881,"transit":false,"distance":471},{"is_transit":false,"station_name":"Sudirman","line":1,"i_lat":-6.202263,"station_id":"SUD","time":1,"distance":280,"i_long":106.822649,"transit":false},{"station_name":"Manggarai","station_id":"MRI","time":4,"i_long":106.84912,"line":0,"is_transit":true,"distance":3186,"i_lat":-6.209883,"transit":true},{"station_id":"CKI","i_lat":-6.198556,"time":4,"line":0,"transit":false,"distance":1590,"is_transit":false,"station_name":"Cikini","i_long":106.840169},{"i_long":106.832183,"line":2,"station_name":"Gondangdia","is_transit":false,"transit":false,"station_id":"GDD","distance":1750,"i_lat":-6.186295,"time":3},{"transit":false,"i_long":106.828284,"is_transit":false,"i_lat":-6.166716,"time":4,"line":2,"station_name":"Juanda","distance":2015,"station_id":"JUA"},{"station_id":"SW","station_name":"Sawah Besar","line":2,"time":2,"distance":1149,"i_lat":-6.160725,"is_transit":false,"i_long":106.827103,"transit":false},{"distance":906,"is_transit":false,"transit":false,"i_long":106.82482,"time":2,"station_id":"MGB","station_name":"Manggabesar","i_lat":-6.149769,"line":2},{"station_id":"JAY","time":2,"distance":1080,"station_name":"Jayakarta","i_long":106.820901,"line":7,"i_lat":-6.141205,"is_transit":false,"transit":false}],[{"line":6,"time":0,"i_long":106.460812,"is_transit":false,"station_id":"TEJ","station_name":"Tenjo","transit":false,"distance":0,"i_lat":-6.327251},{"line":0,"station_id":"DAR","i_lat":-6.338021,"i_long":106.491338,"time":5,"distance":3902,"is_transit":false,"transit":false,"station_name":"Daru"},{"transit":false,"i_long":106.508482,"distance":2675,"station_name":"Cilejit","is_transit":false,"i_lat":-6.354349,"time":6,"station_id":"CJT","line":0},{"transit":false,"i_long":106.568863,"station_name":"Parung Panjang","station_id":"PRP","i_lat":-6.3441410000000005,"distance":7025,"is_transit":false,"line":6,"time":9},{"station_name":"Cicayur","transit":false,"i_lat":-6.329547,"i_long":106.617853,"distance":5968,"time":8,"line":0,"station_id":"CC","is_transit":false},{"station_id":"CSK","is_transit":false,"distance":2519,"time":4,"station_name":"Cisauk","transit":false,"i_lat":-6.32484,"i_long":106.640411,"line":0},{"is_transit":false,"station_id":"SRP","station_name":"Serpong","i_lat":-6.319871,"line":6,"transit":false,"time":4,"distance":1784,"i_long":106.66566},{"transit":false,"station_id":"RU","i_long":106.675475,"distance":2413,"line":6,"time":4,"is_transit":false,"i_lat":-6.314823,"station_name":"Rawa Buntu"},{"i_long":106.712277,"distance":4566,"transit":false,"time":6,"station_name":"Sudimara","station_id":"SDM","is_transit":false,"line":6,"i_lat":-6.296963},{"i_long":106.728916,"station_name":"Jurangmangu","station_id":"JMU","i_lat":-6.288927,"distance":1994,"transit":false,"is_transit":false,"line":6,"time":4},{"station_id":"PDJ","time":3,"station_name":"Pondokranji","is_transit":false,"transit":false,"line":6,"distance":2179,"i_long":106.74273,"i_lat":-6.276362},{"is_transit":false,"i_lat":-6.237242,"i_long":106.780334,"station_name":"Kebayoran","line":6,"station_id":"KBY","distance":6218,"time":8,"transit":false},{"distance":3737,"i_long":106.79689,"is_transit":false,"station_id":"PLM","station_name":"Palmerah","transit":false,"time":7,"line":6,"i_lat":-6.207404},{"i_long":106.811091,"station_id":"THB","distance":3191,"transit":true,"station_name":"Tanah Abang","is_transit":true,"time":6,"line":1,"i_lat":-6.185545},{"time":5,"distance":2029,"transit":false,"station_id":"KAT","i_lat":-6.20132,"line":1,"i_long":106.816351,"station_name":"Karet","is_transit":false},{"time":1,"is_transit":false,"i_lat":-6.201433,"line":1,"station_name":"Sudirman Baru","distance":471,"station_id":"SUDB","transit":false,"i_long":106.819881},{"is_transit":false,"time":1,"station_name":"Sudirman","i_long":106.822649,"station_id":"SUD","distance":280,"line":1,"transit":false,"i_lat":-6.202263},{"time":4,"transit":false,"i_lat":-6.209883,"station_id":"MRI","line":0,"i_long":106.84912,"is_transit":true,"distance":3186,"station_name":"Manggarai"},{"station_name":"Matraman","line":1,"i_long":106.858896,"distance":1275,"is_transit":false,"station_id":"MTR","i_lat":-6.212485,"time":2,"transit":false},{"station_name":"Jatinegara","i_long":106.86807400000001,"line":0,"time":8,"station_id":"JNG","i_lat":-6.215091,"is_transit":true,"distance":1377,"transit":true},{"i_long":106.861737,"line":11,"station_id":"POK","time":2,"station_name":"Pondok Jati","transit":false,"is_transit":false,"distance":1236,"i_lat":-6.209188},{"line":11,"station_id":"KMT","is_transit":false,"transit":false,"station_name":"Kramat","distance":1829,"i_lat":-6.193792,"i_long":106.855437,"time":2},{"station_name":"Gang Sentiong","time":1,"distance":973,"line":11,"i_lat":-6.185975,"is_transit":false,"i_long":106.850107,"station_id":"GST","transit":false},{"i_long":106.84368,"line":11,"time":8,"distance":1567,"station_name":"Pasar Senen","is_transit":false,"station_id":"PSE","transit":false,"i_lat":-6.174784},{"station_name":"Kemayoran","line":11,"distance":1436,"i_lat":-6.161728,"transit":false,"time":4,"is_transit":false,"i_long":106.839204,"station_id":"KMO"},{"i_long":106.836569,"line":11,"distance":1901,"station_name":"Rajawali","i_lat":-6.14505,"is_transit":false,"station_id":"RJW","time":5,"transit":false},{"transit":true,"i_lat":-6.132549,"i_long":106.826365,"line":0,"distance":1444,"is_transit":true,"station_id":"KPB","time":3,"station_name":"Kampung Bandan"},{"time":3,"i_long":106.812439,"i_lat":-6.137569,"station_id":"JAKK","distance":1364,"transit":true,"is_transit":true,"station_name":"Jakarta Kota","line":0},{"i_long":106.820901,"station_name":"Jayakarta","station_id":"JAY","line":7,"distance":1264,"is_transit":false,"i_lat":-6.141205,"time":4,"transit":false}],[{"is_transit":false,"time":0,"line":6,"distance":0,"station_name":"Tenjo","transit":false,"station_id":"TEJ","i_lat":-6.327251,"i_long":106.460812},{"distance":3902,"i_lat":-6.338021,"line":0,"station_name":"Daru","station_id":"DAR","transit":false,"time":5,"i_long":106.491338,"is_transit":false},{"station_id":"CJT","time":6,"i_lat":-6.354349,"distance":2675,"transit":false,"i_long":106.508482,"line":0,"station_name":"Cilejit","is_transit":false},{"is_transit":false,"station_name":"Parung Panjang","line":6,"time":9,"transit":false,"distance":7025,"i_lat":-6.3441410000000005,"i_long":106.568863,"station_id":"PRP"},{"station_name":"Cicayur","i_lat":-6.329547,"line":0,"is_transit":false,"distance":5968,"time":8,"station_id":"CC","transit":false,"i_long":106.617853},{"time":4,"station_name":"Cisauk","i_lat":-6.32484,"transit":false,"line":0,"distance":2519,"i_long":106.640411,"station_id":"CSK","is_transit":false},{"distance":1784,"time":4,"i_lat":-6.319871,"i_long":106.66566,"station_id":"SRP","transit":false,"is_transit":false,"station_name":"Serpong","line":6},{"is_transit":false,"distance":2413,"i_long":106.675475,"station_id":"RU","time":4,"i_lat":-6.314823,"transit":false,"line":6,"station_name":"Rawa Buntu"},{"station_name":"Sudimara","transit":false,"station_id":"SDM","time":6,"distance":4566,"i_long":106.712277,"line":6,"is_transit":false,"i_lat":-6.296963},{"line":6,"distance":1994,"station_id":"JMU","i_lat":-6.288927,"i_long":106.728916,"station_name":"Jurangmangu","transit":false,"time":4,"is_transit":false},{"transit":false,"line":6,"station_name":"Pondokranji","is_transit":false,"distance":2179,"time":3,"station_id":"PDJ","i_lat":-6.276362,"i_long":106.74273},{"transit":false,"time":8,"i_lat":-6.237242,"i_long":106.780334,"line":6,"is_transit":false,"station_id":"KBY","distance":6218,"station_name":"Kebayoran"},{"line":6,"is_transit":false,"transit":false,"distance":3737,"i_long":106.79689,"i_lat":-6.207404,"station_name":"Palmerah","station_id":"PLM","time":7},{"transit":true,"i_lat":-6.185545,"time":6,"station_id":"THB","distance":3191,"station_name":"Tanah Abang","i_long":106.811091,"line":1,"is_transit":true},{"transit":true,"station_id":"DU","is_transit":true,"distance":3632,"time":8,"i_lat":-6.155215,"i_long":106.800832,"station_name":"Duri","line":1},{"distance":1230,"i_lat":-6.144674,"station_name":"Angke","i_long":106.79867,"transit":false,"line":0,"time":4,"station_id":"AK","is_transit":false},{"station_id":"KPB","time":9,"i_lat":-6.132549,"line":0,"distance":4102,"is_transit":true,"i_long":106.826365,"station_name":"Kampung Bandan","transit":true},{"station_id":"RJW","time":3,"i_lat":-6.14505,"is_transit":false,"station_name":"Rajawali","distance":1444,"line":11,"i_long":106.836569,"transit":false},{"time":5,"station_id":"KMO","distance":1901,"is_transit":false,"station_name":"Kemayoran","transit":false,"i_lat":-6.161728,"i_long":106.839204,"line":11},{"station_id":"PSE","i_lat":-6.174784,"line":11,"is_transit":false,"transit":false,"station_name":"Pasar Senen","i_long":106.84368,"time":4,"distance":1436},{"station_name":"Gang Sentiong","distance":1567,"time":8,"i_lat":-6.185975,"station_id":"GST","is_transit":false,"transit":false,"i_long":106.850107,"line":11},{"i_lat":-6.193792,"station_name":"Kramat","time":1,"line":11,"i_long":106.855437,"is_transit":false,"station_id":"KMT","distance":973,"transit":false},{"station_id":"POK","time":2,"is_transit":false,"distance":1829,"station_name":"Pondok Jati","i_lat":-6.209188,"i_long":106.861737,"transit":false,"line":11},{"i_lat":-6.215091,"station_name":"Jatinegara","line":0,"transit":true,"time":9,"station_id":"JNG","distance":1236,"i_long":106.86807400000001,"is_transit":true},{"is_transit":false,"time":2,"distance":1377,"station_name":"Matraman","line":1,"station_id":"MTR","transit":false,"i_lat":-6.212485,"i_long":106.858896},{"time":2,"is_transit":true,"i_long":106.84912,"station_name":"Manggarai","i_lat":-6.209883,"distance":1275,"line":0,"transit":true,"station_id":"MRI"},{"station_name":"Cikini","transit":false,"i_long":106.840169,"line":0,"station_id":"CKI","is_transit":false,"i_lat":-6.198556,"distance":1590,"time":4},{"time":3,"line":2,"i_lat":-6.186295,"distance":1750,"transit":false,"station_name":"Gondangdia","station_id":"GDD","is_transit":false,"i_long":106.832183},{"station_name":"Juanda","i_long":106.828284,"i_lat":-6.166716,"distance":2015,"time":4,"station_id":"JUA","is_transit":false,"transit":false,"line":2},{"is_transit":false,"i_lat":-6.160725,"station_name":"Sawah Besar","i_long":106.827103,"transit":false,"station_id":"SW","line":2,"distance":1149,"time":2},{"station_name":"Manggabesar","i_long":106.82482,"time":2,"distance":906,"is_transit":false,"station_id":"MGB","transit":false,"i_lat":-6.149769,"line":2},{"station_id":"JAY","station_name":"Jayakarta","i_long":106.820901,"line":7,"is_transit":false,"i_lat":-6.141205,"distance":1080,"transit":false,"time":2}]]}