{"data":[[{"line":6,"station_id":"TEJ","i_lat":-6.327251,"transit":false,"distance":0,"i_long":106.460812,"is_transit":false,"station_name":"Tenjo","time":0},{"is_transit":false,"transit":false,"station_id":"DAR","distance":3902,"station_name":"Daru","i_long":106.491338,"line":0,"time":5,"i_lat":-6.338021},{"station_id":"CJT","time":6,"station_name":"Cilejit","distance":2675,"transit":false,"i_lat":-6.354349,"line":3,"is_transit":false,"i_long":106.508482},{"distance":7025,"transit":false,"station_name":"Parung Panjang","i_lat":-6.3441410000000005,"line":6,"is_transit":false,"time":9,"station_id":"PRP","i_long":106.568863},{"station_id":"CC","line":3,"station_name":"Cicayur","is_transit":false,"time":8,"i_lat":-6.329547,"distance":5968,"i_long":106.617853,"transit":false},{"i_long":106.640411,"line":3,"station_name":"Cisauk","station_id":"CSK","is_transit":false,"distance":2519,"transit":false,"time":4,"i_lat":-6.32484},{"distance":1784,"i_long":106.66566,"time":4,"line":6,"is_transit":false,"transit":false,"station_name":"Serpong","station_id":"SRP","i_lat":-6.319871},{"transit":false,"station_name":"Rawa Buntu","i_long":106.675475,"line":6,"is_transit":false,"i_lat":-6.314823,"distance":2413,"station_id":"RU","time":4},{"station_id":"SDM","i_lat":-6.296963,"time":6,"is_transit":false,"distance":4566,"station_name":"Sudimara","i_long":106.712277,"line":6,"transit":false},{"line":6,"distance":1994,"station_id":"JMU","station_name":"Jurangmangu","time":4,"transit":false,"i_lat":-6.288927,"i_long":106.728916,"is_transit":false},{"line":6,"station_id":"PDJ","distance":2179,"i_lat":-6.276362,"is_transit":false,"transit":false,"time":3,"station_name":"Pondokranji","i_long":106.74273},{"time":8,"line":6,"i_lat":-6.237242,"i_long":106.780334,"is_transit":false,"transit":false,"station_id":"KBY","distance":6218,"station_name":"Kebayoran"},{"distance":3737,"station_name":"Palmerah","station_id":"PLM","is_transit":false,"i_lat":-6.207404,"line":6,"transit":false,"time":7,"i_long":106.79689},{"time":6,"i_lat":-6.185545,"line":1,"i_long":106.811091,"is_transit":true,"station_name":"Tanah Abang","station_id":"THB","transit":true,"distance":3191},{"time":8,"i_lat":-6.155215,"station_name":"Duri","station_id":"DU","is_transit":false,"line":1,"transit":false,"i_long":106.800832,"distance":3632},{"station_id":"AK","time":4,"distance":1230,"i_long":106.79867,"line":1,"is_transit":false,"station_name":"Angke","i_lat":-6.144674,"transit":false},{"is_transit":true,"station_id":"KPB","line":4,"station_name":"Kampung Bandan","time":9,"i_long":106.826365,"i_lat":-6.132549,"transit":true,"distance":4102},{"distance":2185,"line":4,"station_id":"AC","is_transit":false,"i_long":106.84464,"i_lat":-6.128023,"station_name":"Ancol","transit":false,"time":4},{"is_transit":false,"station_name":"Tanjung Priuk","distance":4566,"i_long":106.880089,"time":9,"line":4,"station_id":"TPK","transit":false,"i_lat":-6.1109480000000005}],[{"distance":0,"station_id":"TEJ","i_lat":-6.327251,"line":6,"time":0,"station_name":"Tenjo","is_transit":false,"transit":false,"i_long":106.460812},{"station_id":"DAR","i_long":106.491338,"line":0,"station_name":"Daru","is_transit":false,"distance":3902,"i_lat":-6.338021,"transit":false,"time":5},{"time":6,"station_id":"CJT","i_lat":-6.354349,"i_long":106.508482,"distance":2675,"line":3,"station_name":"Cilejit","transit":false,"is_transit":false},{"line":6,"station_name":"Parung Panjang","time":9,"i_long":106.568863,"transit":false,"station_id":"PRP","distance":7025,"is_transit":false,"i_lat":-6.3441410000000005},{"i_lat":-6.329547,"station_id":"CC","station_name":"Cicayur","distance":5968,"transit":false,"line":3,"time":8,"i_long":106.617853,"is_transit":false},{"station_id":"CSK","station_name":"Cisauk","is_transit":false,"i_long":106.640411,"time":4,"transit":false,"distance":2519,"line":3,"i_lat":-6.32484},{"i_long":106.66566,"station_id":"SRP","distance":1784,"station_name":"Serpong","time":4,"i_lat":-6.319871,"transit":false,"line":6,"is_transit":false},{"time":4,"is_transit":false,"i_lat":-6.314823,"station_name":"Rawa Buntu","i_long":106.675475,"line":6,"transit":false,"station_id":"RU","distance":2413},{"is_transit":false,"i_long":106.712277,"line":6,"distance":4566,"station_name":"Sudimara","time":6,"station_id":"SDM","i_lat":-6.296963,"transit":false},{"i_lat":-6.288927,"i_long":106.728916,"station_name":"Jurangmangu","station_id":"JMU","transit":false,"line":6,"is_transit":false,"distance":1994,"time":4},{"distance":2179,"station_id":"PDJ","is_transit":false,"time":3,"station_name":"Pondokranji","i_lat":-6.276362,"i_long":106.74273,"transit":false,"line":6},{"i_lat":-6.237242,"i_long":106.780334,"station_id":"KBY","is_transit":false,"time":8,"distance":6218,"transit":false,"station_name":"Kebayoran","line":6},{"line":6,"station_name":"Palmerah","is_transit":false,"station_id":"PLM","i_lat":-6.207404,"i_long":106.79689,"time":7,"transit":false,"distance":3737},{"station_id":"THB","time":6,"is_transit":true,"i_long":106.811091,"i_lat":-6.185545,"station_name":"Tanah Abang","transit":true,"distance":3191,"line":1},{"i_lat":-6.20132,"transit":false,"station_name":"Karet","distance":2029,"station_id":"KAT","line":1,"i_long":106.816351,"time":5,"is_transit":false},{"line":1,"i_long":106.819881,"i_lat":-6.201433,"station_name":"Sudirman Baru","transit":false,"time":1,"station_id":"SUDB","distance":471,"is_transit":false},{"time":1,"station_id":"SUD","is_transit":false,"distance":280,"i_long":106.822649,"line":1,"station_name":"Sudirman","i_lat":-6.202263,"transit":false},{"transit":true,"i_long":106.84912,"time":4,"distance":3186,"station_name":"Manggarai","station_id":"MRI","i_lat":-6.209883,"is_transit":true,"line":2},{"line":2,"station_id":"CKI","is_transit":false,"time":4,"distance":1590,"station_name":"Cikini","i_lat":-6.198556,"i_long":106.840169,"transit":false},{"line":2,"is_transit":false,"station_name":"Gondangdia","i_long":106.832183,"station_id":"GDD","i_lat":-6.186295,"distance":1750,"time":3,"transit":false},{"time":4,"i_lat":-6.166716,"distance":2015,"i_long":106.828284,"line":2,"transit":false,"station_name":"Juanda","station_id":"JUA","is_transit":false},{"i_long":106.827103,"is_transit":false,"transit":false,"distance":1149,"i_lat":-6.160725,"station_name":"Sawah Besar","line":2,"time":2,"station_id":"SW"},{"transit":false,"i_long":106.82482,"distance":906,"i_lat":-6.149769,"time":2,"is_transit":false,"station_id":"MGB","station_name":"Manggabesar","line":2},{"i_lat":-6.141205,"station_name":"Jayakarta","time":2,"transit":false,"distance":1080,"station_id":"JAY","is_transit":false,"i_long":106.820901,"line":2},{"line":2,"i_long":106.812439,"is_transit":true,"transit":true,"station_id":"JAKK","time":4,"station_name":"Jakarta Kota","i_lat":-6.137569,"distance":1264},{"distance":1364,"line":4,"time":3,"is_transit":true,"transit":true,"i_lat":-6.132549,"i_long":106.826365,"station_name":"Kampung Bandan","station_id":"KPB"},{"distance":2185,"is_transit":false,"line":4,"i_long":106.84464,"station_id":"AC","i_lat":-6.128023,"transit":false,"time":4,"station_name":"Ancol"},{"station_id":"TPK","is_transit":false,"time":9,"distance":4566,"i_long":106.880089,"line":4,"i_lat":-6.1109480000000005,"transit":false,"station_name":"Tanjung Priuk"}],[{"i_long":106.460812,"station_id":"TEJ","is_transit":false,"time":0,"transit":false,"i_lat":-6.327251,"line":6,"station_name":"Tenjo","distance":0},{"station_id":"DAR","station_name":"Daru","distance":3902,"transit":false,"i_long":106.491338,"line":0,"i_lat":-6.338021,"time":5,"is_transit":false},{"i_long":106.508482,"station_name":"Cilejit","transit":false,"time":6,"station_id":"CJT","is_transit":false,"i_lat":-6.354349,"line":3,"distance":2675},{"station_name":"Parung Panjang","distance":7025,"is_transit":false,"time":9,"transit":false,"i_lat":-6.3441410000000005,"i_long":106.568863,"station_id":"PRP","line":6},{"distance":5968,"station_name":"Cicayur","i_lat":-6.329547,"line":3,"station_id":"CC","i_long":106.617853,"transit":false,"is_transit":false,"time":8},{"distance":2519,"station_id":"CSK","time":4,"i_long":106.640411,"is_transit":false,"transit":false,"station_name":"Cisauk","i_lat":-6.32484,"line":3},{"transit":false,"line":6,"station_id":"SRP","station_name":"Serpong","is_transit":false,"distance":1784,"i_lat":-6.319871,"i_long":106.66566,"time":4},{"transit":false,"is_transit":false,"time":4,"line":6,"i_long":106.675475,"distance":2413,"station_id":"RU","i_lat":-6.314823,"station_name":"Rawa Buntu"},{"station_name":"Sudimara","time":6,"i_lat":-6.296963,"line":6,"is_transit":false,"transit":false,"station_id":"SDM","i_long":106.712277,"distance":4566},{"distance":1994,"line":6,"i_lat":-6.288927,"is_transit":false,"i_long":106.728916,"time":4,"transit":false,"station_name":"Jurangmangu","station_id":"JMU"},{"station_name":"Pondokranji","distance":2179,"is_transit":false,"station_id":"PDJ","transit":false,"time":3,"i_lat":-6.276362,"i_long":106.74273,"line":6},{"i_lat":-6.237242,"station_id":"KBY","is_transit":false,"transit":false,"i_long":106.780334,"station_name":"Kebayoran","time":8,"distance":6218,"line":6},{"distance":3737,"i_lat":-6.207404,"is_transit":false,"i_long":106.79689,"line":6,"transit":false,"station_name":"Palmerah","station_id":"PLM","time":7},{"station_id":"THB","station_name":"Tanah Abang","distance":3191,"time":6,"i_lat":-6.185545,"i_long":106.811091,"is_transit":true,"transit":true,"line":1},{"station_id":"KAT","station_name":"Karet","i_lat":-6.20132,"is_transit":false,"distance":2029,"transit":false,"time":5,"i_long":106.816351,"line":1},{"station_id":"SUDB","distance":471,"transit":false,"is_transit":false,"i_long":106.819881,"time":1,"station_name":"Sudirman Baru","i_lat":-6.201433,"line":1},{"is_transit":false,"i_lat":-6.202263,"i_long":106.822649,"station_id":"SUD","distance":280,"line":1,"station_name":"Sudirman","transit":false,"time":1},{"time":4,"station_id":"MRI","transit":false,"distance":3186,"is_transit":false,"station_name":"Manggarai","i_lat":-6.209883,"i_long":106.84912,"line":2},{"distance":1275,"i_long":106.858896,"time":2,"station_name":"Matraman","i_lat":-6.212485,"line":1,"is_transit":false,"transit":false,"station_id":"MTR"},{"station_id":"JNG","time":8,"i_long":106.86807400000001,"distance":1377,"is_transit":true,"transit":true,"line":1,"station_name":"Jatinegara","i_lat":-6.215091},{"i_lat":-6.209188,"i_long":106.861737,"station_id":"POK","is_transit":false,"distance":1236,"transit":false,"line":11,"station_name":"Pondok Jati","time":2},{"station_name":"Kramat","station_id":"KMT","i_lat":-6.193792,"i_long":106.855437,"distance":1829,"time":2,"is_transit":false,"line":11,"transit":false},{"station_id":"GST","i_long":106.850107,"line":11,"distance":973,"is_transit":false,"transit":false,"time":1,"i_lat":-6.185975,"station_name":"Gang Sentiong"},{"transit":false,"distance":1567,"station_id":"PSE","line":11,"i_long":106.84368,"time":8,"i_lat":-6.174784,"is_transit":false,"station_name":"Pasar Senen"},{"station_name":"Kemayoran","distance":1436,"line":11,"i_lat":-6.161728,"transit":false,"is_transit":false,"time":4,"station_id":"KMO","i_long":106.839204},{"i_lat":-6.14505,"i_long":106.836569,"station_id":"RJW","station_name":"Rajawali","is_transit":false,"transit":false,"time":5,"distance":1901,"line":11},{"station_id":"KPB","i_lat":-6.132549,"station_name":"Kampung Bandan","is_transit":true,"i_long":106.826365,"time":3,"distance":1444,"line":4,"transit":true},{"line":4,"time":4,"station_name":"Ancol","station_id":"AC","i_lat":-6.128023,"i_long":106.84464,"is_transit":false,"distance":2185,"transit":false},{"i_long":106.880089,"i_lat":-6.1109480000000005,"line":4,"transit":false,"time":9,"is_transit":false,"distance":4566,"station_name":"Tanjung Priuk","station_id":"TPK"}]]}