{"data":[[{"i_long":106.460812,"distance":0,"station_id":"TEJ","station_name":"Tenjo","line":6,"time":0,"is_transit":false,"transit":false,"i_lat":-6.327251},{"is_transit":false,"i_lat":-6.338021,"distance":3902,"transit":false,"line":0,"station_id":"DAR","station_name":"Daru","time":5,"i_long":106.491338},{"station_id":"CJT","line":3,"transit":false,"i_lat":-6.354349,"station_name":"Cilejit","is_transit":false,"time":6,"i_long":106.508482,"distance":2675},{"line":6,"is_transit":false,"transit":false,"i_long":106.568863,"i_lat":-6.3441410000000005,"time":9,"station_name":"Parung Panjang","distance":7025,"station_id":"PRP"},{"i_long":106.617853,"is_transit":false,"station_name":"Cicayur","i_lat":-6.329547,"station_id":"CC","line":3,"time":8,"distance":5968,"transit":false},{"station_id":"CSK","transit":false,"distance":2519,"time":4,"i_lat":-6.32484,"line":3,"station_name":"Cisauk","i_long":106.640411,"is_transit":false},{"line":6,"i_long":106.66566,"is_transit":false,"distance":1784,"station_name":"Serpong","time":4,"transit":false,"i_lat":-6.319871,"station_id":"SRP"},{"distance":2413,"station_id":"RU","transit":false,"i_long":106.675475,"line":6,"station_name":"Rawa Buntu","is_transit":false,"i_lat":-6.314823,"time":4},{"i_lat":-6.296963,"i_long":106.712277,"time":6,"distance":4566,"is_transit":false,"station_name":"Sudimara","line":6,"station_id":"SDM","transit":false},{"is_transit":false,"station_name":"Jurangmangu","i_long":106.728916,"transit":false,"line":6,"time":4,"i_lat":-6.288927,"distance":1994,"station_id":"JMU"},{"line":6,"is_transit":false,"time":3,"distance":2179,"i_lat":-6.276362,"station_id":"PDJ","transit":false,"station_name":"Pondokranji","i_long":106.74273},{"station_id":"KBY","is_transit":false,"transit":false,"i_long":106.780334,"line":6,"station_name":"Kebayoran","i_lat":-6.237242,"time":8,"distance":6218},{"time":7,"station_id":"PLM","distance":3737,"station_name":"Palmerah","i_long":106.79689,"line":6,"i_lat":-6.207404,"transit":false,"is_transit":false},{"line":1,"distance":3191,"is_transit":true,"i_lat":-6.185545,"i_long":106.811091,"station_name":"Tanah Abang","time":6,"transit":true,"station_id":"THB"},{"i_long":106.816351,"transit":false,"station_id":"KAT","i_lat":-6.20132,"time":5,"line":1,"distance":2029,"station_name":"Karet","is_transit":false},{"distance":471,"is_transit":false,"time":1,"i_lat":-6.201433,"station_id":"SUDB","station_name":"Sudirman Baru","transit":false,"line":1,"i_long":106.819881},{"distance":280,"transit":false,"line":1,"time":1,"i_long":106.822649,"i_lat":-6.202263,"station_name":"Sudirman","is_transit":false,"station_id":"SUD"},{"transit":false,"station_name":"Manggarai","i_lat":-6.209883,"line":2,"time":4,"distance":3186,"station_id":"MRI","i_long":106.84912,"is_transit":false},{"line":1,"station_name":"Matraman","transit":false,"station_id":"MTR","time":2,"i_lat":-6.212485,"is_transit":false,"distance":1275,"i_long":106.858896},{"is_transit":false,"i_lat":-6.215091,"station_id":"JNG","line":1,"i_long":106.86807400000001,"distance":1377,"station_name":"Jatinegara","transit":false,"time":8},{"distance":3395,"time":3,"transit":false,"line":1,"is_transit":false,"i_long":106.899548,"i_lat":-6.2135,"station_name":"Klender","station_id":"KLD"},{"is_transit":false,"i_long":106.922662,"station_name":"Buaran","i_lat":-6.215568,"line":1,"distance":3100,"station_id":"BUA","transit":false,"time":2},{"station_name":"Klenderbaru","distance":1305,"transit":false,"time":1,"i_lat":-6.217455,"station_id":"KLDB","i_long":106.939679,"line":1,"is_transit":false},{"is_transit":false,"distance":1385,"i_long":106.951283,"i_lat":-6.219053,"station_id":"CUK","line":1,"time":8,"station_name":"Cakung","transit":false},{"transit":false,"is_transit":false,"distance":3097,"station_name":"Kranji","i_long":106.977657,"i_lat":-6.224515,"time":3,"line":1,"station_id":"KRI"},{"i_long":106.997013,"station_name":"Bekasi","time":4,"transit":false,"is_transit":false,"line":1,"station_id":"BKS","distance":2520,"i_lat":-6.236616},{"station_id":"BKST","station_name":"Bekasi Timur","transit":false,"distance":2368,"time":2,"i_long":107.016735,"is_transit":false,"i_lat":-6.248029,"line":1},{"i_long":107.055722,"is_transit":false,"station_name":"Tambun","distance":4460,"time":7,"i_lat":-6.258864,"line":1,"transit":false,"station_id":"TB"},{"distance":3420,"line":1,"station_name":"Cibitung","is_transit":false,"i_long":107.083084,"i_lat":-6.261877,"time":3,"station_id":"CIT","transit":false},{"transit":false,"line":1,"station_name":"Metland Telaga Murni","is_transit":false,"station_id":"TLM","distance":2800,"i_lat":-6.262938,"time":2,"i_long":107.093313}],[{"i_long":106.460812,"station_id":"TEJ","is_transit":false,"line":6,"station_name":"Tenjo","transit":false,"i_lat":-6.327251,"distance":0,"time":0},{"time":5,"i_long":106.491338,"is_transit":false,"station_id":"DAR","i_lat":-6.338021,"line":0,"distance":3902,"station_name":"Daru","transit":false},{"transit":false,"time":6,"distance":2675,"is_transit":false,"station_name":"Cilejit","station_id":"CJT","i_long":106.508482,"i_lat":-6.354349,"line":3},{"station_name":"Parung Panjang","distance":7025,"transit":false,"time":9,"i_lat":-6.3441410000000005,"i_long":106.568863,"station_id":"PRP","line":6,"is_transit":false},{"i_lat":-6.329547,"line":3,"station_id":"CC","time":8,"distance":5968,"i_long":106.617853,"is_transit":false,"station_name":"Cicayur","transit":false},{"distance":2519,"i_lat":-6.32484,"i_long":106.640411,"is_transit":false,"station_name":"Cisauk","station_id":"CSK","line":3,"transit":false,"time":4},{"station_id":"SRP","is_transit":false,"station_name":"Serpong","i_lat":-6.319871,"line":6,"transit":false,"i_long":106.66566,"time":4,"distance":1784},{"i_lat":-6.314823,"station_id":"RU","i_long":106.675475,"line":6,"station_name":"Rawa Buntu","time":4,"distance":2413,"is_transit":false,"transit":false},{"line":6,"i_lat":-6.296963,"distance":4566,"transit":false,"station_name":"Sudimara","station_id":"SDM","is_transit":false,"i_long":106.712277,"time":6},{"i_lat":-6.288927,"time":4,"distance":1994,"i_long":106.728916,"transit":false,"station_name":"Jurangmangu","line":6,"station_id":"JMU","is_transit":false},{"station_name":"Pondokranji","time":3,"transit":false,"is_transit":false,"distance":2179,"station_id":"PDJ","i_long":106.74273,"i_lat":-6.276362,"line":6},{"transit":false,"distance":6218,"station_id":"KBY","i_long":106.780334,"station_name":"Kebayoran","time":8,"is_transit":false,"i_lat":-6.237242,"line":6},{"is_transit":false,"transit":false,"station_id":"PLM","station_name":"Palmerah","time":7,"distance":3737,"i_lat":-6.207404,"line":6,"i_long":106.79689},{"time":6,"line":1,"is_transit":true,"transit":true,"station_name":"Tanah Abang","distance":3191,"station_id":"THB","i_long":106.811091,"i_lat":-6.185545},{"station_id":"DU","time":8,"i_long":106.800832,"distance":3632,"i_lat":-6.155215,"is_transit":false,"transit":false,"station_name":"Duri","line":1},{"is_transit":false,"i_long":106.79867,"line":1,"station_id":"AK","station_name":"Angke","distance":1230,"transit":false,"i_lat":-6.144674,"time":4},{"transit":true,"i_long":106.826365,"station_name":"Kampung Bandan","time":9,"station_id":"KPB","distance":4102,"line":4,"is_transit":true,"i_lat":-6.132549},{"station_name":"Rajawali","transit":false,"distance":1444,"station_id":"RJW","i_lat":-6.14505,"i_long":106.836569,"is_transit":false,"time":3,"line":11},{"line":11,"i_long":106.839204,"time":5,"i_lat":-6.161728,"distance":1901,"station_name":"Kemayoran","station_id":"KMO","transit":false,"is_transit":false},{"station_name":"Pasar Senen","line":11,"station_id":"PSE","transit":false,"time":4,"is_transit":false,"i_long":106.84368,"i_lat":-6.174784,"distance":1436},{"is_transit":false,"i_long":106.850107,"station_name":"Gang Sentiong","transit":false,"station_id":"GST","distance":1567,"i_lat":-6.185975,"line":11,"time":8},{"time":1,"transit":false,"station_name":"Kramat","distance":973,"is_transit":false,"i_long":106.855437,"line":11,"station_id":"KMT","i_lat":-6.193792},{"station_id":"POK","i_lat":-6.209188,"distance":1829,"line":11,"time":2,"station_name":"Pondok Jati","is_transit":false,"transit":false,"i_long":106.861737},{"station_name":"Jatinegara","i_long":106.86807400000001,"i_lat":-6.215091,"line":1,"time":9,"station_id":"JNG","is_transit":true,"distance":1236,"transit":true},{"i_long":106.899548,"station_id":"KLD","distance":3395,"line":1,"transit":false,"time":3,"i_lat":-6.2135,"is_transit":false,"station_name":"Klender"},{"station_id":"BUA","i_long":106.922662,"line":1,"is_transit":false,"time":2,"i_lat":-6.215568,"transit":false,"station_name":"Buaran","distance":3100},{"transit":false,"is_transit":false,"i_long":106.939679,"line":1,"station_name":"Klenderbaru","station_id":"KLDB","distance":1305,"i_lat":-6.217455,"time":1},{"station_name":"Cakung","time":8,"is_transit":false,"station_id":"CUK","distance":1385,"transit":false,"i_lat":-6.219053,"line":1,"i_long":106.951283},{"distance":3097,"transit":false,"time":3,"station_id":"KRI","line":1,"is_transit":false,"station_name":"Kranji","i_lat":-6.224515,"i_long":106.977657},{"distance":2520,"i_lat":-6.236616,"transit":false,"line":1,"is_transit":false,"station_name":"Bekasi","time":4,"station_id":"BKS","i_long":106.997013},{"transit":false,"station_name":"Bekasi Timur","station_id":"BKST","distance":2368,"time":2,"line":1,"i_long":107.016735,"i_lat":-6.248029,"is_transit":false},{"station_id":"TB","is_transit":false,"line":1,"station_name":"Tambun","i_lat":-6.258864,"transit":false,"i_long":107.055722,"distance":4460,"time":7},{"transit":false,"is_transit":false,"station_name":"Cibitung","distance":3420,"time":3,"i_long":107.083084,"line":1,"station_id":"CIT","i_lat":-6.261877},{"transit":false,"i_lat":-6.262938,"is_transit":false,"station_name":"Metland Telaga Murni","i_long":107.093313,"distance":2800,"time":2,"line":1,"station_id":"TLM"}],[{"line":6,"time":0,"i_long":106.460812,"is_transit":false,"i_lat":-6.327251,"station_id":"TEJ","distance":0,"transit":false,"station_name":"Tenjo"},{"line":0,"i_long":106.491338,"is_transit":false,"time":5,"station_id":"DAR","i_lat":-6.338021,"distance":3902,"station_name":"Daru","transit":false},{"distance":2675,"station_name":"Cilejit","station_id":"CJT","is_transit":false,"i_long":106.508482,"i_lat":-6.354349,"line":3,"transit":false,"time":6},{"distance":7025,"i_lat":-6.3441410000000005,"transit":false,"line":6,"is_transit":false,"time":9,"station_id":"PRP","station_name":"Parung Panjang","i_long":106.568863},{"time":8,"i_lat":-6.329547,"i_long":106.617853,"transit":false,"station_name":"Cicayur","station_id":"CC","distance":5968,"line":3,"is_transit":false},{"transit":false,"station_id":"CSK","distance":2519,"time":4,"is_transit":false,"i_lat":-6.32484,"station_name":"Cisauk","i_long":106.640411,"line":3},{"station_name":"Serpong","distance":1784,"time":4,"i_long":106.66566,"line":6,"transit":false,"station_id":"SRP","is_transit":false,"i_lat":-6.319871},{"distance":2413,"station_name":"Rawa Buntu","time":4,"i_long":106.675475,"transit":false,"line":6,"i_lat":-6.314823,"station_id":"RU","is_transit":false},{"line":6,"time":6,"i_lat":-6.296963,"distance":4566,"i_long":106.712277,"station_id":"SDM","transit":false,"station_name":"Sudimara","is_transit":false},{"transit":false,"line":6,"station_id":"JMU","is_transit":false,"i_long":106.728916,"station_name":"Jurangmangu","time":4,"distance":1994,"i_lat":-6.288927},{"time":3,"transit":false,"i_long":106.74273,"i_lat":-6.276362,"line":6,"is_transit":false,"distance":2179,"station_id":"PDJ","station_name":"Pondokranji"},{"is_transit":false,"i_long":106.780334,"time":8,"line":6,"distance":6218,"transit":false,"station_id":"KBY","i_lat":-6.237242,"station_name":"Kebayoran"},{"distance":3737,"transit":false,"line":6,"time":7,"i_lat":-6.207404,"i_long":106.79689,"is_transit":false,"station_id":"PLM","station_name":"Palmerah"},{"time":6,"transit":true,"station_id":"THB","station_name":"Tanah Abang","distance":3191,"is_transit":true,"i_lat":-6.185545,"i_long":106.811091,"line":1},{"is_transit":false,"transit":false,"line":1,"time":8,"i_long":106.800832,"station_id":"DU","station_name":"Duri","i_lat":-6.155215,"distance":3632},{"transit":false,"is_transit":false,"time":4,"i_long":106.79867,"station_id":"AK","line":1,"station_name":"Angke","i_lat":-6.144674,"distance":1230},{"station_id":"KPB","i_long":106.826365,"station_name":"Kampung Bandan","i_lat":-6.132549,"is_transit":true,"time":9,"line":4,"distance":4102,"transit":true},{"i_long":106.812439,"distance":1364,"time":3,"station_id":"JAKK","station_name":"Jakarta Kota","is_transit":true,"i_lat":-6.137569,"line":2,"transit":true},{"station_id":"JAY","i_lat":-6.141205,"time":4,"line":2,"transit":false,"is_transit":false,"i_long":106.820901,"station_name":"Jayakarta","distance":1264},{"time":2,"station_id":"MGB","transit":false,"i_lat":-6.149769,"line":2,"is_transit":false,"distance":1080,"station_name":"Manggabesar","i_long":106.82482},{"station_id":"SW","distance":906,"is_transit":false,"i_long":106.827103,"time":2,"line":2,"station_name":"Sawah Besar","transit":false,"i_lat":-6.160725},{"distance":1149,"station_name":"Juanda","station_id":"JUA","transit":false,"i_lat":-6.166716,"i_long":106.828284,"is_transit":false,"line":2,"time":2},{"i_lat":-6.186295,"i_long":106.832183,"station_name":"Gondangdia","distance":2015,"station_id":"GDD","line":2,"transit":false,"is_transit":false,"time":4},{"i_long":106.840169,"station_name":"Cikini","station_id":"CKI","line":2,"is_transit":false,"i_lat":-6.198556,"distance":1750,"transit":false,"time":3},{"time":4,"line":2,"transit":true,"station_name":"Manggarai","distance":1590,"i_lat":-6.209883,"i_long":106.84912,"is_transit":true,"station_id":"MRI"},{"is_transit":false,"transit":false,"distance":1275,"station_id":"MTR","time":2,"i_lat":-6.212485,"line":1,"station_name":"Matraman","i_long":106.858896},{"i_long":106.86807400000001,"time":8,"transit":false,"distance":1377,"station_id":"JNG","line":1,"is_transit":false,"station_name":"Jatinegara","i_lat":-6.215091},{"distance":3395,"transit":false,"station_name":"Klender","is_transit":false,"i_lat":-6.2135,"station_id":"KLD","line":1,"time":3,"i_long":106.899548},{"line":1,"station_id":"BUA","station_name":"Buaran","distance":3100,"transit":false,"time":2,"is_transit":false,"i_lat":-6.215568,"i_long":106.922662},{"distance":1305,"time":1,"station_name":"Klenderbaru","transit":false,"line":1,"is_transit":false,"station_id":"KLDB","i_lat":-6.217455,"i_long":106.939679},{"distance":1385,"station_id":"CUK","transit":false,"is_transit":false,"i_lat":-6.219053,"station_name":"Cakung","time":8,"line":1,"i_long":106.951283},{"station_name":"Kranji","station_id":"KRI","i_lat":-6.224515,"distance":3097,"i_long":106.977657,"time":3,"transit":false,"is_transit":false,"line":1},{"i_lat":-6.236616,"station_name":"Bekasi","distance":2520,"i_long":106.997013,"line":1,"transit":false,"time":4,"is_transit":false,"station_id":"BKS"},{"i_lat":-6.248029,"is_transit":false,"station_id":"BKST","station_name":"Bekasi Timur","i_long":107.016735,"line":1,"distance":2368,"time":2,"transit":false},{"i_lat":-6.258864,"station_name":"Tambun","time":7,"line":1,"transit":false,"i_long":107.055722,"distance":4460,"is_transit":false,"station_id":"TB"},{"station_id":"CIT","distance":3420,"transit":false,"is_transit":false,"i_lat":-6.261877,"station_name":"Cibitung","line":1,"time":3,"i_long":107.083084},{"line":1,"station_id":"TLM","transit":false,"time":2,"distance":2800,"is_transit":false,"i_lat":-6.262938,"i_long":107.093313,"station_name":"Metland Telaga Murni"}],[{"i_lat":-6.327251,"station_id":"TEJ","line":6,"station_name":"Tenjo","distance":0,"transit":false,"is_transit":false,"i_long":106.460812,"time":0},{"station_id":"DAR","time":5,"line":0,"is_transit":false,"transit":false,"station_name":"Daru","i_lat":-6.338021,"distance":3902,"i_long":106.491338},{"station_id":"CJT","is_transit":false,"transit":false,"i_long":106.508482,"distance":2675,"i_lat":-6.354349,"line":3,"time":6,"station_name":"Cilejit"},{"i_lat":-6.3441410000000005,"time":9,"station_id":"PRP","station_name":"Parung Panjang","is_transit":false,"distance":7025,"i_long":106.568863,"line":6,"transit":false},{"is_transit":false,"line":3,"i_long":106.617853,"time":8,"distance":5968,"station_name":"Cicayur","transit":false,"station_id":"CC","i_lat":-6.329547},{"i_long":106.640411,"station_name":"Cisauk","i_lat":-6.32484,"line":3,"station_id":"CSK","time":4,"is_transit":false,"distance":2519,"transit":false},{"station_name":"Serpong","station_id":"SRP","i_lat":-6.319871,"i_long":106.66566,"time":4,"distance":1784,"transit":false,"line":6,"is_transit":false},{"is_transit":false,"transit":false,"station_id":"RU","i_lat":-6.314823,"station_name":"Rawa Buntu","i_long":106.675475,"line":6,"time":4,"distance":2413},{"line":6,"distance":4566,"transit":false,"i_lat":-6.296963,"time":6,"station_name":"Sudimara","station_id":"SDM","is_transit":false,"i_long":106.712277},{"transit":false,"station_name":"Jurangmangu","is_transit":false,"station_id":"JMU","distance":1994,"time":4,"i_lat":-6.288927,"line":6,"i_long":106.728916},{"time":3,"line":6,"station_name":"Pondokranji","transit":false,"is_transit":false,"i_long":106.74273,"i_lat":-6.276362,"station_id":"PDJ","distance":2179},{"time":8,"distance":6218,"i_long":106.780334,"i_lat":-6.237242,"station_name":"Kebayoran","station_id":"KBY","line":6,"transit":false,"is_transit":false},{"i_lat":-6.207404,"distance":3737,"station_name":"Palmerah","transit":false,"time":7,"station_id":"PLM","is_transit":false,"i_long":106.79689,"line":6},{"station_name":"Tanah Abang","i_long":106.811091,"line":1,"station_id":"THB","i_lat":-6.185545,"is_transit":true,"transit":true,"distance":3191,"time":6},{"transit":false,"i_lat":-6.20132,"i_long":106.816351,"station_id":"KAT","distance":2029,"time":5,"is_transit":false,"line":1,"station_name":"Karet"},{"transit":false,"station_name":"Sudirman Baru","time":1,"station_id":"SUDB","is_transit":false,"i_long":106.819881,"line":1,"i_lat":-6.201433,"distance":471},{"distance":280,"time":1,"is_transit":false,"i_lat":-6.202263,"line":1,"station_id":"SUD","transit":false,"station_name":"Sudirman","i_long":106.822649},{"transit":true,"line":2,"is_transit":true,"i_long":106.84912,"i_lat":-6.209883,"station_name":"Manggarai","distance":3186,"time":4,"station_id":"MRI"},{"line":2,"station_id":"CKI","distance":1590,"is_transit":false,"time":4,"i_lat":-6.198556,"station_name":"Cikini","transit":false,"i_long":106.840169},{"station_name":"Gondangdia","i_lat":-6.186295,"is_transit":false,"distance":1750,"time":3,"i_long":106.832183,"line":2,"station_id":"GDD","transit":false},{"line":2,"station_name":"Juanda","station_id":"JUA","is_transit":false,"distance":2015,"transit":false,"time":4,"i_lat":-6.166716,"i_long":106.828284},{"time":2,"i_long":106.827103,"station_name":"Sawah Besar","is_transit":false,"distance":1149,"station_id":"SW","line":2,"transit":false,"i_lat":-6.160725},{"transit":false,"i_lat":-6.149769,"is_transit":false,"distance":906,"time":2,"station_id":"MGB","i_long":106.82482,"line":2,"station_name":"Manggabesar"},{"transit":false,"i_lat":-6.141205,"is_transit":false,"station_id":"JAY","time":2,"distance":1080,"line":2,"i_long":106.820901,"station_name":"Jayakarta"},{"line":2,"is_transit":true,"transit":true,"i_long":106.812439,"distance":1264,"station_name":"Jakarta Kota","station_id":"JAKK","time":4,"i_lat":-6.137569},{"time":3,"i_lat":-6.132549,"i_long":106.826365,"distance":1364,"is_transit":true,"transit":true,"station_id":"KPB","station_name":"Kampung Bandan","line":4},{"i_lat":-6.14505,"station_id":"RJW","time":3,"is_transit":false,"transit":false,"station_name":"Rajawali","line":11,"distance":1444,"i_long":106.836569},{"time":5,"i_lat":-6.161728,"is_transit":false,"distance":1901,"station_name":"Kemayoran","i_long":106.839204,"line":11,"station_id":"KMO","transit":false},{"line":11,"time":4,"station_id":"PSE","i_long":106.84368,"transit":false,"i_lat":-6.174784,"station_name":"Pasar Senen","distance":1436,"is_transit":false},{"station_id":"GST","i_long":106.850107,"line":11,"i_lat":-6.185975,"distance":1567,"time":8,"is_transit":false,"transit":false,"station_name":"Gang Sentiong"},{"line":11,"station_name":"Kramat","is_transit":false,"transit":false,"time":1,"i_long":106.855437,"distance":973,"i_lat":-6.193792,"station_id":"KMT"},{"i_lat":-6.209188,"transit":false,"i_long":106.861737,"distance":1829,"line":11,"is_transit":false,"station_id":"POK","time":2,"station_name":"Pondok Jati"},{"transit":true,"station_name":"Jatinegara","time":9,"station_id":"JNG","distance":1236,"i_lat":-6.215091,"i_long":106.86807400000001,"is_transit":true,"line":1},{"is_transit":false,"transit":false,"i_long":106.899548,"line":1,"station_name":"Klender","i_lat":-6.2135,"time":3,"distance":3395,"station_id":"KLD"},{"line":1,"distance":3100,"i_long":106.922662,"transit":false,"i_lat":-6.215568,"is_transit":false,"time":2,"station_id":"BUA","station_name":"Buaran"},{"i_lat":-6.217455,"i_long":106.939679,"line":1,"station_id":"KLDB","station_name":"Klenderbaru","distance":1305,"transit":false,"time":1,"is_transit":false},{"distance":1385,"transit":false,"is_transit":false,"station_id":"CUK","i_lat":-6.219053,"time":8,"line":1,"i_long":106.951283,"station_name":"Cakung"},{"i_long":106.977657,"transit":false,"time":3,"station_id":"KRI","distance":3097,"i_lat":-6.224515,"line":1,"station_name":"Kranji","is_transit":false},{"i_lat":-6.236616,"i_long":106.997013,"station_name":"Bekasi","time":4,"is_transit":false,"station_id":"BKS","transit":false,"line":1,"distance":2520},{"time":2,"is_transit":false,"station_name":"Bekasi Timur","transit":false,"distance":2368,"i_long":107.016735,"station_id":"BKST","line":1,"i_lat":-6.248029},{"is_transit":false,"line":1,"distance":4460,"time":7,"station_id":"TB","i_lat":-6.258864,"i_long":107.055722,"station_name":"Tambun","transit":false},{"distance":3420,"i_lat":-6.261877,"time":3,"station_name":"Cibitung","station_id":"CIT","is_transit":false,"i_long":107.083084,"transit":false,"line":1},{"i_lat":-6.262938,"distance":2800,"station_name":"Metland Telaga Murni","is_transit":false,"station_id":"TLM","transit":false,"time":2,"i_long":107.093313,"line":1}]]}