{"data":[[{"line":6,"time":0,"station_id":"TEJ","station_name":"Tenjo","transit":false,"distance":0,"is_transit":false,"i_lat":-6.327251,"i_long":106.460812},{"i_lat":-6.338021,"station_id":"DAR","line":0,"is_transit":false,"i_long":106.491338,"distance":3902,"station_name":"Daru","time":5,"transit":false},{"line":3,"station_name":"Cilejit","station_id":"CJT","i_long":106.508482,"i_lat":-6.354349,"is_transit":false,"transit":false,"distance":2675,"time":6},{"time":9,"station_id":"PRP","line":6,"station_name":"Parung Panjang","is_transit":false,"distance":7025,"transit":false,"i_lat":-6.3441410000000005,"i_long":106.568863},{"is_transit":false,"transit":false,"station_id":"CC","distance":5968,"station_name":"Cicayur","time":8,"i_lat":-6.329547,"i_long":106.617853,"line":3},{"i_lat":-6.32484,"distance":2519,"time":4,"station_name":"Cisauk","transit":false,"i_long":106.640411,"line":3,"station_id":"CSK","is_transit":false},{"station_name":"Serpong","time":4,"is_transit":false,"i_long":106.66566,"line":6,"transit":false,"distance":1784,"i_lat":-6.319871,"station_id":"SRP"},{"station_name":"Rawa Buntu","line":6,"time":4,"transit":false,"distance":2413,"station_id":"RU","is_transit":false,"i_lat":-6.314823,"i_long":106.675475},{"station_id":"SDM","is_transit":false,"time":6,"distance":4566,"i_long":106.712277,"line":6,"station_name":"Sudimara","transit":false,"i_lat":-6.296963},{"is_transit":false,"i_long":106.728916,"i_lat":-6.288927,"line":6,"distance":1994,"transit":false,"time":4,"station_id":"JMU","station_name":"Jurangmangu"},{"i_lat":-6.276362,"time":3,"is_transit":false,"transit":false,"station_name":"Pondokranji","line":6,"station_id":"PDJ","i_long":106.74273,"distance":2179},{"is_transit":false,"line":6,"transit":false,"time":8,"distance":6218,"station_name":"Kebayoran","i_lat":-6.237242,"i_long":106.780334,"station_id":"KBY"},{"station_id":"PLM","line":6,"is_transit":false,"time":7,"distance":3737,"station_name":"Palmerah","i_lat":-6.207404,"i_long":106.79689,"transit":false},{"station_id":"THB","i_lat":-6.185545,"distance":3191,"time":6,"station_name":"Tanah Abang","is_transit":true,"line":1,"transit":true,"i_long":106.811091},{"i_long":106.816351,"time":5,"line":1,"station_id":"KAT","transit":false,"i_lat":-6.20132,"distance":2029,"is_transit":false,"station_name":"Karet"},{"station_name":"Sudirman Baru","is_transit":false,"i_lat":-6.201433,"transit":false,"i_long":106.819881,"time":1,"distance":471,"station_id":"SUDB","line":1},{"distance":280,"station_id":"SUD","i_lat":-6.202263,"is_transit":false,"line":1,"time":1,"station_name":"Sudirman","transit":false,"i_long":106.822649},{"is_transit":false,"time":4,"i_lat":-6.209883,"station_id":"MRI","line":2,"i_long":106.84912,"distance":3186,"station_name":"Manggarai","transit":false}],[{"line":6,"distance":0,"i_lat":-6.327251,"station_name":"Tenjo","station_id":"TEJ","is_transit":false,"i_long":106.460812,"time":0,"transit":false},{"i_long":106.491338,"station_name":"Daru","time":5,"transit":false,"station_id":"DAR","distance":3902,"line":0,"i_lat":-6.338021,"is_transit":false},{"distance":2675,"transit":false,"line":3,"time":6,"station_name":"Cilejit","station_id":"CJT","is_transit":false,"i_lat":-6.354349,"i_long":106.508482},{"station_name":"Parung Panjang","time":9,"i_lat":-6.3441410000000005,"line":6,"i_long":106.568863,"distance":7025,"is_transit":false,"transit":false,"station_id":"PRP"},{"is_transit":false,"station_name":"Cicayur","time":8,"station_id":"CC","distance":5968,"i_long":106.617853,"line":3,"transit":false,"i_lat":-6.329547},{"i_lat":-6.32484,"line":3,"time":4,"transit":false,"distance":2519,"is_transit":false,"station_name":"Cisauk","station_id":"CSK","i_long":106.640411},{"distance":1784,"time":4,"station_name":"Serpong","i_long":106.66566,"i_lat":-6.319871,"transit":false,"station_id":"SRP","is_transit":false,"line":6},{"transit":false,"station_id":"RU","i_lat":-6.314823,"line":6,"time":4,"distance":2413,"is_transit":false,"station_name":"Rawa Buntu","i_long":106.675475},{"station_id":"SDM","time":6,"transit":false,"distance":4566,"is_transit":false,"station_name":"Sudimara","i_lat":-6.296963,"i_long":106.712277,"line":6},{"time":4,"i_long":106.728916,"transit":false,"distance":1994,"i_lat":-6.288927,"station_id":"JMU","line":6,"station_name":"Jurangmangu","is_transit":false},{"station_id":"PDJ","is_transit":false,"transit":false,"i_long":106.74273,"station_name":"Pondokranji","i_lat":-6.276362,"line":6,"time":3,"distance":2179},{"time":8,"transit":false,"station_name":"Kebayoran","i_lat":-6.237242,"i_long":106.780334,"station_id":"KBY","distance":6218,"is_transit":false,"line":6},{"transit":false,"i_lat":-6.207404,"distance":3737,"station_name":"Palmerah","line":6,"is_transit":false,"time":7,"station_id":"PLM","i_long":106.79689},{"distance":3191,"line":1,"station_id":"THB","transit":true,"time":6,"i_long":106.811091,"station_name":"Tanah Abang","i_lat":-6.185545,"is_transit":true},{"i_lat":-6.155215,"i_long":106.800832,"is_transit":false,"time":8,"line":1,"distance":3632,"station_name":"Duri","transit":false,"station_id":"DU"},{"distance":1230,"transit":false,"time":4,"is_transit":false,"i_lat":-6.144674,"line":1,"i_long":106.79867,"station_id":"AK","station_name":"Angke"},{"time":9,"is_transit":true,"i_long":106.826365,"line":4,"transit":true,"station_id":"KPB","i_lat":-6.132549,"distance":4102,"station_name":"Kampung Bandan"},{"line":2,"station_id":"JAKK","distance":1364,"is_transit":true,"i_lat":-6.137569,"station_name":"Jakarta Kota","transit":true,"time":3,"i_long":106.812439},{"station_id":"JAY","i_lat":-6.141205,"i_long":106.820901,"time":4,"line":2,"is_transit":false,"station_name":"Jayakarta","transit":false,"distance":1264},{"is_transit":false,"i_lat":-6.149769,"distance":1080,"i_long":106.82482,"transit":false,"station_name":"Manggabesar","station_id":"MGB","line":2,"time":2},{"transit":false,"time":2,"is_transit":false,"line":2,"i_lat":-6.160725,"distance":906,"station_name":"Sawah Besar","station_id":"SW","i_long":106.827103},{"is_transit":false,"i_lat":-6.166716,"time":2,"distance":1149,"station_id":"JUA","transit":false,"station_name":"Juanda","line":2,"i_long":106.828284},{"line":2,"is_transit":false,"distance":2015,"station_name":"Gondangdia","transit":false,"time":4,"i_lat":-6.186295,"station_id":"GDD","i_long":106.832183},{"distance":1750,"i_long":106.840169,"station_name":"Cikini","station_id":"CKI","time":3,"line":2,"i_lat":-6.198556,"transit":false,"is_transit":false},{"i_long":106.84912,"i_lat":-6.209883,"time":4,"transit":false,"distance":1590,"is_transit":false,"line":2,"station_id":"MRI","station_name":"Manggarai"}],[{"is_transit":false,"station_name":"Tenjo","i_lat":-6.327251,"i_long":106.460812,"distance":0,"station_id":"TEJ","time":0,"line":6,"transit":false},{"time":5,"station_id":"DAR","is_transit":false,"line":0,"i_long":106.491338,"i_lat":-6.338021,"distance":3902,"transit":false,"station_name":"Daru"},{"line":3,"time":6,"station_id":"CJT","transit":false,"i_lat":-6.354349,"station_name":"Cilejit","distance":2675,"i_long":106.508482,"is_transit":false},{"transit":false,"is_transit":false,"i_lat":-6.3441410000000005,"i_long":106.568863,"station_id":"PRP","station_name":"Parung Panjang","line":6,"time":9,"distance":7025},{"line":3,"distance":5968,"i_long":106.617853,"is_transit":false,"station_name":"Cicayur","station_id":"CC","time":8,"i_lat":-6.329547,"transit":false},{"i_long":106.640411,"time":4,"station_id":"CSK","distance":2519,"station_name":"Cisauk","is_transit":false,"line":3,"transit":false,"i_lat":-6.32484},{"station_id":"SRP","is_transit":false,"time":4,"transit":false,"i_lat":-6.319871,"distance":1784,"line":6,"station_name":"Serpong","i_long":106.66566},{"line":6,"station_id":"RU","time":4,"transit":false,"is_transit":false,"station_name":"Rawa Buntu","i_lat":-6.314823,"i_long":106.675475,"distance":2413},{"station_id":"SDM","station_name":"Sudimara","time":6,"i_long":106.712277,"distance":4566,"is_transit":false,"transit":false,"i_lat":-6.296963,"line":6},{"transit":false,"distance":1994,"i_long":106.728916,"station_name":"Jurangmangu","i_lat":-6.288927,"is_transit":false,"time":4,"station_id":"JMU","line":6},{"i_long":106.74273,"transit":false,"time":3,"distance":2179,"i_lat":-6.276362,"line":6,"station_id":"PDJ","station_name":"Pondokranji","is_transit":false},{"is_transit":false,"station_id":"KBY","i_long":106.780334,"transit":false,"time":8,"i_lat":-6.237242,"distance":6218,"station_name":"Kebayoran","line":6},{"time":7,"i_long":106.79689,"line":6,"station_name":"Palmerah","i_lat":-6.207404,"transit":false,"distance":3737,"is_transit":false,"station_id":"PLM"},{"i_long":106.811091,"station_id":"THB","distance":3191,"time":6,"line":1,"is_transit":true,"transit":true,"station_name":"Tanah Abang","i_lat":-6.185545},{"distance":3632,"line":1,"i_long":106.800832,"is_transit":false,"i_lat":-6.155215,"time":8,"station_id":"DU","transit":false,"station_name":"Duri"},{"i_lat":-6.144674,"i_long":106.79867,"line":1,"station_id":"AK","is_transit":false,"distance":1230,"time":4,"station_name":"Angke","transit":false},{"station_name":"Kampung Bandan","i_long":106.826365,"time":9,"i_lat":-6.132549,"transit":true,"line":4,"distance":4102,"is_transit":true,"station_id":"KPB"},{"i_long":106.836569,"is_transit":false,"station_name":"Rajawali","i_lat":-6.14505,"line":11,"distance":1444,"station_id":"RJW","time":3,"transit":false},{"station_id":"KMO","station_name":"Kemayoran","time":5,"distance":1901,"i_lat":-6.161728,"i_long":106.839204,"transit":false,"line":11,"is_transit":false},{"time":4,"i_long":106.84368,"is_transit":false,"line":11,"station_name":"Pasar Senen","station_id":"PSE","distance":1436,"transit":false,"i_lat":-6.174784},{"transit":false,"is_transit":false,"time":8,"i_long":106.850107,"i_lat":-6.185975,"station_id":"GST","station_name":"Gang Sentiong","distance":1567,"line":11},{"line":11,"transit":false,"station_name":"Kramat","i_long":106.855437,"station_id":"KMT","time":1,"distance":973,"is_transit":false,"i_lat":-6.193792},{"transit":false,"i_lat":-6.209188,"i_long":106.861737,"is_transit":false,"station_id":"POK","line":11,"time":2,"station_name":"Pondok Jati","distance":1829},{"time":9,"distance":1236,"i_long":106.86807400000001,"station_id":"JNG","transit":true,"line":1,"i_lat":-6.215091,"is_transit":true,"station_name":"Jatinegara"},{"transit":false,"is_transit":false,"i_long":106.858896,"line":1,"station_name":"Matraman","station_id":"MTR","time":2,"distance":1377,"i_lat":-6.212485},{"line":2,"station_id":"MRI","i_long":106.84912,"distance":1275,"is_transit":false,"transit":false,"time":2,"station_name":"Manggarai","i_lat":-6.209883}]]}