{"data":[[{"i_long":106.460812,"is_transit":false,"station_id":"TEJ","i_lat":-6.327251,"line":6,"station_name":"Tenjo","distance":0,"transit":false,"time":0},{"distance":3902,"station_name":"Daru","i_long":106.491338,"line":0,"station_id":"DAR","is_transit":false,"time":5,"i_lat":-6.338021,"transit":false},{"station_name":"Cilejit","station_id":"CJT","transit":false,"time":6,"distance":2675,"i_long":106.508482,"is_transit":false,"i_lat":-6.354349,"line":3},{"station_name":"Parung Panjang","time":9,"station_id":"PRP","i_lat":-6.3441410000000005,"transit":false,"is_transit":false,"i_long":106.568863,"distance":7025,"line":6},{"is_transit":false,"distance":5968,"station_id":"CC","station_name":"Cicayur","i_long":106.617853,"line":3,"time":8,"transit":false,"i_lat":-6.329547},{"time":4,"i_long":106.640411,"is_transit":false,"line":3,"transit":false,"station_id":"CSK","distance":2519,"i_lat":-6.32484,"station_name":"Cisauk"},{"line":6,"station_id":"SRP","time":4,"transit":false,"i_long":106.66566,"distance":1784,"is_transit":false,"station_name":"Serpong","i_lat":-6.319871},{"line":6,"station_id":"RU","distance":2413,"time":4,"is_transit":false,"transit":false,"station_name":"Rawa Buntu","i_lat":-6.314823,"i_long":106.675475},{"distance":4566,"time":6,"i_lat":-6.296963,"i_long":106.712277,"transit":false,"line":6,"station_id":"SDM","is_transit":false,"station_name":"Sudimara"},{"distance":1994,"i_lat":-6.288927,"i_long":106.728916,"is_transit":false,"time":4,"transit":false,"line":6,"station_id":"JMU","station_name":"Jurangmangu"},{"distance":2179,"is_transit":false,"line":6,"station_id":"PDJ","transit":false,"time":3,"i_lat":-6.276362,"i_long":106.74273,"station_name":"Pondokranji"},{"transit":false,"i_long":106.780334,"station_id":"KBY","station_name":"Kebayoran","is_transit":false,"time":8,"line":6,"distance":6218,"i_lat":-6.237242},{"i_lat":-6.207404,"station_name":"Palmerah","i_long":106.79689,"time":7,"station_id":"PLM","is_transit":false,"distance":3737,"line":6,"transit":false},{"distance":3191,"station_name":"Tanah Abang","is_transit":true,"line":1,"transit":true,"time":6,"i_lat":-6.185545,"station_id":"THB","i_long":106.811091},{"station_name":"Duri","distance":3632,"is_transit":false,"i_lat":-6.155215,"i_long":106.800832,"transit":false,"time":8,"line":1,"station_id":"DU"},{"station_id":"AK","i_lat":-6.144674,"time":4,"i_long":106.79867,"transit":false,"distance":1230,"is_transit":false,"line":1,"station_name":"Angke"},{"is_transit":true,"station_name":"Kampung Bandan","time":9,"transit":true,"distance":4102,"i_long":106.826365,"i_lat":-6.132549,"line":4,"station_id":"KPB"},{"i_long":106.836569,"line":11,"i_lat":-6.14505,"time":3,"distance":1444,"is_transit":false,"station_id":"RJW","station_name":"Rajawali","transit":false},{"station_name":"Kemayoran","i_lat":-6.161728,"distance":1901,"i_long":106.839204,"transit":false,"line":11,"is_transit":false,"time":5,"station_id":"KMO"},{"i_long":106.84368,"time":4,"transit":false,"station_name":"Pasar Senen","is_transit":false,"i_lat":-6.174784,"distance":1436,"line":11,"station_id":"PSE"}],[{"distance":0,"i_long":106.460812,"station_id":"TEJ","i_lat":-6.327251,"is_transit":false,"time":0,"line":6,"station_name":"Tenjo","transit":false},{"is_transit":false,"transit":false,"station_name":"Daru","i_lat":-6.338021,"line":0,"time":5,"i_long":106.491338,"distance":3902,"station_id":"DAR"},{"time":6,"i_long":106.508482,"i_lat":-6.354349,"line":3,"station_name":"Cilejit","station_id":"CJT","transit":false,"is_transit":false,"distance":2675},{"is_transit":false,"transit":false,"station_id":"PRP","time":9,"station_name":"Parung Panjang","i_lat":-6.3441410000000005,"i_long":106.568863,"distance":7025,"line":6},{"distance":5968,"station_name":"Cicayur","time":8,"i_lat":-6.329547,"line":3,"is_transit":false,"station_id":"CC","transit":false,"i_long":106.617853},{"transit":false,"distance":2519,"i_long":106.640411,"station_id":"CSK","line":3,"is_transit":false,"i_lat":-6.32484,"time":4,"station_name":"Cisauk"},{"is_transit":false,"transit":false,"i_lat":-6.319871,"time":4,"station_id":"SRP","station_name":"Serpong","distance":1784,"i_long":106.66566,"line":6},{"i_lat":-6.314823,"is_transit":false,"station_name":"Rawa Buntu","time":4,"distance":2413,"i_long":106.675475,"line":6,"transit":false,"station_id":"RU"},{"distance":4566,"line":6,"station_id":"SDM","time":6,"is_transit":false,"i_lat":-6.296963,"transit":false,"station_name":"Sudimara","i_long":106.712277},{"station_id":"JMU","i_lat":-6.288927,"i_long":106.728916,"line":6,"station_name":"Jurangmangu","is_transit":false,"time":4,"transit":false,"distance":1994},{"station_name":"Pondokranji","i_long":106.74273,"distance":2179,"time":3,"is_transit":false,"transit":false,"line":6,"station_id":"PDJ","i_lat":-6.276362},{"i_lat":-6.237242,"i_long":106.780334,"station_id":"KBY","is_transit":false,"distance":6218,"station_name":"Kebayoran","time":8,"line":6,"transit":false},{"i_long":106.79689,"transit":false,"station_name":"Palmerah","i_lat":-6.207404,"time":7,"station_id":"PLM","line":6,"distance":3737,"is_transit":false},{"is_transit":true,"station_id":"THB","station_name":"Tanah Abang","line":1,"time":6,"i_long":106.811091,"i_lat":-6.185545,"transit":true,"distance":3191},{"distance":2029,"transit":false,"time":5,"i_lat":-6.20132,"station_name":"Karet","i_long":106.816351,"is_transit":false,"station_id":"KAT","line":1},{"time":1,"distance":471,"i_lat":-6.201433,"i_long":106.819881,"station_id":"SUDB","transit":false,"station_name":"Sudirman Baru","line":1,"is_transit":false},{"i_long":106.822649,"line":1,"distance":280,"transit":false,"station_id":"SUD","station_name":"Sudirman","time":1,"i_lat":-6.202263,"is_transit":false},{"distance":3186,"station_name":"Manggarai","time":4,"is_transit":false,"i_lat":-6.209883,"i_long":106.84912,"transit":false,"station_id":"MRI","line":2},{"i_long":106.858896,"line":1,"distance":1275,"time":2,"i_lat":-6.212485,"station_id":"MTR","transit":false,"is_transit":false,"station_name":"Matraman"},{"station_name":"Jatinegara","transit":true,"time":8,"line":1,"distance":1377,"i_lat":-6.215091,"station_id":"JNG","i_long":106.86807400000001,"is_transit":true},{"distance":1236,"line":11,"station_name":"Pondok Jati","station_id":"POK","is_transit":false,"transit":false,"time":2,"i_lat":-6.209188,"i_long":106.861737},{"i_long":106.855437,"is_transit":false,"transit":false,"station_name":"Kramat","time":2,"distance":1829,"i_lat":-6.193792,"line":11,"station_id":"KMT"},{"transit":false,"distance":973,"is_transit":false,"station_name":"Gang Sentiong","station_id":"GST","i_lat":-6.185975,"line":11,"time":1,"i_long":106.850107},{"line":11,"station_name":"Pasar Senen","distance":1567,"station_id":"PSE","time":8,"i_lat":-6.174784,"transit":false,"is_transit":false,"i_long":106.84368}],[{"distance":0,"is_transit":false,"time":0,"i_lat":-6.327251,"transit":false,"i_long":106.460812,"station_id":"TEJ","line":6,"station_name":"Tenjo"},{"station_id":"DAR","distance":3902,"station_name":"Daru","i_long":106.491338,"i_lat":-6.338021,"line":0,"is_transit":false,"time":5,"transit":false},{"station_name":"Cilejit","i_lat":-6.354349,"i_long":106.508482,"distance":2675,"line":3,"transit":false,"station_id":"CJT","time":6,"is_transit":false},{"line":6,"distance":7025,"i_long":106.568863,"station_name":"Parung Panjang","is_transit":false,"transit":false,"i_lat":-6.3441410000000005,"station_id":"PRP","time":9},{"line":3,"station_id":"CC","transit":false,"station_name":"Cicayur","distance":5968,"is_transit":false,"i_lat":-6.329547,"i_long":106.617853,"time":8},{"distance":2519,"is_transit":false,"line":3,"station_name":"Cisauk","transit":false,"time":4,"i_long":106.640411,"station_id":"CSK","i_lat":-6.32484},{"i_lat":-6.319871,"distance":1784,"i_long":106.66566,"line":6,"station_name":"Serpong","station_id":"SRP","transit":false,"is_transit":false,"time":4},{"line":6,"station_name":"Rawa Buntu","station_id":"RU","transit":false,"i_lat":-6.314823,"distance":2413,"i_long":106.675475,"is_transit":false,"time":4},{"station_id":"SDM","transit":false,"station_name":"Sudimara","i_long":106.712277,"i_lat":-6.296963,"line":6,"distance":4566,"time":6,"is_transit":false},{"time":4,"i_lat":-6.288927,"i_long":106.728916,"distance":1994,"is_transit":false,"transit":false,"station_id":"JMU","line":6,"station_name":"Jurangmangu"},{"is_transit":false,"station_id":"PDJ","station_name":"Pondokranji","line":6,"i_long":106.74273,"time":3,"distance":2179,"transit":false,"i_lat":-6.276362},{"time":8,"station_name":"Kebayoran","station_id":"KBY","i_lat":-6.237242,"distance":6218,"line":6,"is_transit":false,"transit":false,"i_long":106.780334},{"i_lat":-6.207404,"transit":false,"distance":3737,"line":6,"time":7,"is_transit":false,"station_name":"Palmerah","station_id":"PLM","i_long":106.79689},{"i_long":106.811091,"station_id":"THB","time":6,"line":1,"transit":true,"distance":3191,"is_transit":true,"i_lat":-6.185545,"station_name":"Tanah Abang"},{"time":5,"i_long":106.816351,"i_lat":-6.20132,"station_id":"KAT","transit":false,"line":1,"is_transit":false,"station_name":"Karet","distance":2029},{"i_lat":-6.201433,"is_transit":false,"i_long":106.819881,"line":1,"station_id":"SUDB","time":1,"station_name":"Sudirman Baru","transit":false,"distance":471},{"distance":280,"time":1,"i_long":106.822649,"is_transit":false,"i_lat":-6.202263,"transit":false,"station_name":"Sudirman","line":1,"station_id":"SUD"},{"station_id":"MRI","distance":3186,"transit":true,"time":4,"i_lat":-6.209883,"i_long":106.84912,"line":2,"is_transit":true,"station_name":"Manggarai"},{"transit":false,"station_id":"CKI","line":2,"i_lat":-6.198556,"is_transit":false,"station_name":"Cikini","distance":1590,"time":4,"i_long":106.840169},{"station_id":"GDD","station_name":"Gondangdia","time":3,"transit":false,"i_lat":-6.186295,"line":2,"is_transit":false,"distance":1750,"i_long":106.832183},{"i_lat":-6.166716,"station_name":"Juanda","station_id":"JUA","is_transit":false,"i_long":106.828284,"time":4,"line":2,"distance":2015,"transit":false},{"station_id":"SW","station_name":"Sawah Besar","i_lat":-6.160725,"transit":false,"time":2,"i_long":106.827103,"distance":1149,"line":2,"is_transit":false},{"i_long":106.82482,"line":2,"time":2,"station_id":"MGB","distance":906,"transit":false,"station_name":"Manggabesar","i_lat":-6.149769,"is_transit":false},{"station_name":"Jayakarta","station_id":"JAY","i_long":106.820901,"line":2,"i_lat":-6.141205,"is_transit":false,"distance":1080,"transit":false,"time":2},{"time":4,"line":2,"station_id":"JAKK","station_name":"Jakarta Kota","distance":1264,"i_long":106.812439,"transit":true,"i_lat":-6.137569,"is_transit":true},{"distance":1364,"station_name":"Kampung Bandan","i_long":106.826365,"line":4,"time":3,"transit":true,"is_transit":true,"station_id":"KPB","i_lat":-6.132549},{"station_name":"Rajawali","distance":1444,"line":11,"i_long":106.836569,"transit":false,"station_id":"RJW","i_lat":-6.14505,"is_transit":false,"time":3},{"time":5,"i_lat":-6.161728,"i_long":106.839204,"is_transit":false,"transit":false,"station_id":"KMO","distance":1901,"station_name":"Kemayoran","line":11},{"line":11,"time":4,"transit":false,"station_id":"PSE","station_name":"Pasar Senen","i_lat":-6.174784,"i_long":106.84368,"distance":1436,"is_transit":false}],[{"i_long":106.460812,"distance":0,"station_id":"TEJ","time":0,"transit":false,"i_lat":-6.327251,"station_name":"Tenjo","line":6,"is_transit":false},{"transit":false,"station_name":"Daru","station_id":"DAR","is_transit":false,"time":5,"i_lat":-6.338021,"i_long":106.491338,"line":0,"distance":3902},{"i_long":106.508482,"station_name":"Cilejit","transit":false,"i_lat":-6.354349,"line":3,"distance":2675,"is_transit":false,"station_id":"CJT","time":6},{"station_id":"PRP","i_long":106.568863,"is_transit":false,"time":9,"transit":false,"distance":7025,"station_name":"Parung Panjang","i_lat":-6.3441410000000005,"line":6},{"station_name":"Cicayur","station_id":"CC","time":8,"distance":5968,"line":3,"transit":false,"i_lat":-6.329547,"i_long":106.617853,"is_transit":false},{"station_id":"CSK","time":4,"transit":false,"station_name":"Cisauk","is_transit":false,"line":3,"i_lat":-6.32484,"i_long":106.640411,"distance":2519},{"transit":false,"time":4,"distance":1784,"i_lat":-6.319871,"station_name":"Serpong","is_transit":false,"line":6,"station_id":"SRP","i_long":106.66566},{"transit":false,"distance":2413,"time":4,"line":6,"station_name":"Rawa Buntu","i_lat":-6.314823,"i_long":106.675475,"is_transit":false,"station_id":"RU"},{"distance":4566,"transit":false,"station_name":"Sudimara","is_transit":false,"station_id":"SDM","i_lat":-6.296963,"time":6,"i_long":106.712277,"line":6},{"station_id":"JMU","station_name":"Jurangmangu","line":6,"distance":1994,"i_long":106.728916,"i_lat":-6.288927,"time":4,"is_transit":false,"transit":false},{"station_id":"PDJ","i_long":106.74273,"line":6,"transit":false,"station_name":"Pondokranji","distance":2179,"time":3,"is_transit":false,"i_lat":-6.276362},{"i_lat":-6.237242,"distance":6218,"station_id":"KBY","transit":false,"station_name":"Kebayoran","i_long":106.780334,"is_transit":false,"line":6,"time":8},{"distance":3737,"is_transit":false,"station_id":"PLM","i_long":106.79689,"station_name":"Palmerah","time":7,"line":6,"transit":false,"i_lat":-6.207404},{"time":6,"i_long":106.811091,"is_transit":true,"transit":true,"distance":3191,"line":1,"station_id":"THB","station_name":"Tanah Abang","i_lat":-6.185545},{"station_name":"Duri","time":8,"i_lat":-6.155215,"i_long":106.800832,"transit":false,"line":1,"distance":3632,"station_id":"DU","is_transit":false},{"transit":false,"station_id":"AK","is_transit":false,"time":4,"station_name":"Angke","i_long":106.79867,"i_lat":-6.144674,"distance":1230,"line":1},{"i_long":106.826365,"station_id":"KPB","station_name":"Kampung Bandan","line":4,"is_transit":true,"transit":true,"distance":4102,"time":9,"i_lat":-6.132549},{"time":3,"station_name":"Jakarta Kota","distance":1364,"station_id":"JAKK","transit":true,"i_lat":-6.137569,"i_long":106.812439,"line":2,"is_transit":true},{"line":2,"station_id":"JAY","station_name":"Jayakarta","i_lat":-6.141205,"time":4,"is_transit":false,"distance":1264,"i_long":106.820901,"transit":false},{"is_transit":false,"time":2,"line":2,"station_name":"Manggabesar","transit":false,"station_id":"MGB","i_long":106.82482,"distance":1080,"i_lat":-6.149769},{"station_name":"Sawah Besar","is_transit":false,"distance":906,"i_long":106.827103,"line":2,"i_lat":-6.160725,"time":2,"transit":false,"station_id":"SW"},{"is_transit":false,"transit":false,"i_lat":-6.166716,"line":2,"time":2,"i_long":106.828284,"station_name":"Juanda","station_id":"JUA","distance":1149},{"line":2,"transit":false,"i_lat":-6.186295,"distance":2015,"is_transit":false,"station_id":"GDD","time":4,"i_long":106.832183,"station_name":"Gondangdia"},{"transit":false,"i_lat":-6.198556,"is_transit":false,"station_name":"Cikini","station_id":"CKI","time":3,"i_long":106.840169,"line":2,"distance":1750},{"i_lat":-6.209883,"time":4,"i_long":106.84912,"distance":1590,"is_transit":true,"station_name":"Manggarai","station_id":"MRI","line":2,"transit":true},{"station_name":"Matraman","line":1,"is_transit":false,"station_id":"MTR","distance":1275,"time":2,"transit":false,"i_lat":-6.212485,"i_long":106.858896},{"time":8,"transit":true,"i_lat":-6.215091,"station_name":"Jatinegara","i_long":106.86807400000001,"station_id":"JNG","line":1,"is_transit":true,"distance":1377},{"distance":1236,"station_name":"Pondok Jati","transit":false,"is_transit":false,"time":2,"i_lat":-6.209188,"i_long":106.861737,"line":11,"station_id":"POK"},{"transit":false,"station_id":"KMT","i_long":106.855437,"line":11,"station_name":"Kramat","i_lat":-6.193792,"is_transit":false,"distance":1829,"time":2},{"line":11,"station_name":"Gang Sentiong","distance":973,"i_long":106.850107,"is_transit":false,"transit":false,"i_lat":-6.185975,"time":1,"station_id":"GST"},{"i_lat":-6.174784,"line":11,"distance":1567,"station_name":"Pasar Senen","is_transit":false,"i_long":106.84368,"transit":false,"station_id":"PSE","time":8}]]}