{"data":[[{"line":6,"is_transit":false,"transit":false,"i_lat":-6.327251,"time":0,"distance":0,"station_name":"Tenjo","station_id":"TEJ","i_long":106.460812},{"time":5,"distance":3902,"i_lat":-6.338021,"station_id":"DAR","station_name":"Daru","is_transit":false,"transit":false,"i_long":106.491338,"line":0},{"line":3,"transit":false,"time":6,"station_id":"CJT","station_name":"Cilejit","is_transit":false,"i_long":106.508482,"i_lat":-6.354349,"distance":2675},{"station_name":"Parung Panjang","transit":false,"station_id":"PRP","is_transit":false,"i_lat":-6.3441410000000005,"i_long":106.568863,"distance":7025,"time":9,"line":6},{"time":8,"is_transit":false,"station_id":"CC","station_name":"Cicayur","distance":5968,"line":3,"i_lat":-6.329547,"transit":false,"i_long":106.617853},{"time":4,"transit":false,"station_id":"CSK","line":3,"distance":2519,"station_name":"Cisauk","i_long":106.640411,"i_lat":-6.32484,"is_transit":false},{"i_lat":-6.319871,"station_id":"SRP","transit":false,"line":6,"station_name":"Serpong","time":4,"distance":1784,"is_transit":false,"i_long":106.66566},{"station_name":"Rawa Buntu","is_transit":false,"transit":false,"i_long":106.675475,"line":6,"station_id":"RU","time":4,"distance":2413,"i_lat":-6.314823},{"station_name":"Sudimara","i_lat":-6.296963,"station_id":"SDM","time":6,"line":6,"transit":false,"is_transit":false,"i_long":106.712277,"distance":4566},{"i_lat":-6.288927,"distance":1994,"station_name":"Jurangmangu","i_long":106.728916,"line":6,"time":4,"station_id":"JMU","is_transit":false,"transit":false},{"transit":false,"is_transit":false,"i_long":106.74273,"station_id":"PDJ","station_name":"Pondokranji","i_lat":-6.276362,"time":3,"distance":2179,"line":6},{"transit":false,"is_transit":false,"distance":6218,"station_name":"Kebayoran","station_id":"KBY","i_long":106.780334,"time":8,"line":6,"i_lat":-6.237242},{"is_transit":false,"i_lat":-6.207404,"time":7,"i_long":106.79689,"station_id":"PLM","transit":false,"line":6,"distance":3737,"station_name":"Palmerah"},{"station_id":"THB","i_lat":-6.185545,"distance":3191,"is_transit":true,"station_name":"Tanah Abang","transit":true,"time":6,"line":1,"i_long":106.811091},{"station_id":"KAT","is_transit":false,"i_long":106.816351,"i_lat":-6.20132,"time":5,"distance":2029,"line":1,"station_name":"Karet","transit":false},{"is_transit":false,"transit":false,"i_long":106.819881,"i_lat":-6.201433,"line":1,"station_name":"Sudirman Baru","distance":471,"time":1,"station_id":"SUDB"},{"distance":280,"i_lat":-6.202263,"station_name":"Sudirman","i_long":106.822649,"is_transit":false,"station_id":"SUD","transit":false,"time":1,"line":1},{"time":4,"station_id":"MRI","station_name":"Manggarai","i_lat":-6.209883,"is_transit":true,"i_long":106.84912,"distance":3186,"line":2,"transit":true},{"i_long":106.857948,"is_transit":false,"distance":2610,"station_name":"Tebet","time":4,"i_lat":-6.226659,"transit":false,"line":2,"station_id":"TEB"},{"i_lat":-6.242512,"line":2,"station_id":"CW","i_long":106.856607,"time":2,"is_transit":false,"transit":false,"station_name":"Cawang","distance":1230},{"is_transit":false,"distance":1546,"transit":false,"i_lat":-6.255332,"station_id":"DRN","line":2,"time":3,"station_name":"Duren Kalibata","i_long":106.85449},{"i_lat":-6.263214,"distance":824,"station_name":"Pasar Minggu Baru","is_transit":false,"i_long":106.851577,"station_id":"PSMB","time":2,"transit":false,"line":2},{"line":2,"time":2,"distance":2380,"is_transit":false,"station_id":"PSM","i_lat":-6.2842400000000005,"transit":false,"i_long":106.843999,"station_name":"Pasar Minggu"},{"transit":false,"line":2,"station_name":"Tanjung Barat","distance":2820,"i_lat":-6.3080680000000005,"is_transit":false,"station_id":"TNT","i_long":106.838896,"time":4},{"station_id":"LNA","distance":2671,"line":2,"transit":false,"i_lat":-6.330363,"station_name":"Lenteng Agung","is_transit":false,"i_long":106.832616,"time":3},{"i_long":106.834175,"line":2,"distance":1029,"i_lat":-6.339291,"time":2,"is_transit":false,"transit":false,"station_id":"UP","station_name":"Univ. Pancasila"},{"transit":false,"line":2,"is_transit":false,"time":3,"i_lat":-6.360749,"distance":2264,"i_long":106.831474,"station_name":"Univ. Indonesia","station_id":"UI"},{"transit":false,"station_name":"Pondok Cina","line":2,"time":2,"is_transit":false,"station_id":"POC","distance":1109,"i_lat":-6.369073,"i_long":106.831114},{"i_long":106.819451,"line":2,"station_id":"DPB","distance":2727,"station_name":"Depokbaru","is_transit":false,"transit":false,"i_lat":-6.391065,"time":4},{"time":3,"i_long":106.816926,"station_name":"Depok","line":2,"transit":false,"station_id":"DP","i_lat":-6.405256,"distance":1584,"is_transit":false}],[{"transit":false,"station_id":"TEJ","i_lat":-6.327251,"line":6,"time":0,"station_name":"Tenjo","i_long":106.460812,"distance":0,"is_transit":false},{"i_long":106.491338,"station_name":"Daru","transit":false,"line":0,"is_transit":false,"station_id":"DAR","i_lat":-6.338021,"time":5,"distance":3902},{"i_lat":-6.354349,"station_id":"CJT","distance":2675,"i_long":106.508482,"is_transit":false,"line":3,"transit":false,"time":6,"station_name":"Cilejit"},{"line":6,"station_name":"Parung Panjang","time":9,"transit":false,"is_transit":false,"i_lat":-6.3441410000000005,"distance":7025,"i_long":106.568863,"station_id":"PRP"},{"station_id":"CC","i_long":106.617853,"i_lat":-6.329547,"station_name":"Cicayur","line":3,"distance":5968,"transit":false,"is_transit":false,"time":8},{"transit":false,"i_long":106.640411,"distance":2519,"station_name":"Cisauk","is_transit":false,"station_id":"CSK","i_lat":-6.32484,"time":4,"line":3},{"i_lat":-6.319871,"distance":1784,"i_long":106.66566,"line":6,"time":4,"station_name":"Serpong","is_transit":false,"transit":false,"station_id":"SRP"},{"distance":2413,"transit":false,"is_transit":false,"station_name":"Rawa Buntu","i_lat":-6.314823,"i_long":106.675475,"time":4,"line":6,"station_id":"RU"},{"is_transit":false,"station_id":"SDM","line":6,"transit":false,"time":6,"station_name":"Sudimara","distance":4566,"i_lat":-6.296963,"i_long":106.712277},{"station_name":"Jurangmangu","i_lat":-6.288927,"distance":1994,"transit":false,"station_id":"JMU","i_long":106.728916,"time":4,"line":6,"is_transit":false},{"i_long":106.74273,"distance":2179,"transit":false,"time":3,"station_id":"PDJ","station_name":"Pondokranji","i_lat":-6.276362,"is_transit":false,"line":6},{"transit":false,"i_lat":-6.237242,"distance":6218,"i_long":106.780334,"is_transit":false,"station_id":"KBY","line":6,"station_name":"Kebayoran","time":8},{"is_transit":false,"line":6,"transit":false,"time":7,"station_id":"PLM","i_lat":-6.207404,"i_long":106.79689,"station_name":"Palmerah","distance":3737},{"distance":3191,"is_transit":true,"i_long":106.811091,"line":1,"transit":true,"station_name":"Tanah Abang","time":6,"i_lat":-6.185545,"station_id":"THB"},{"transit":false,"is_transit":false,"station_id":"DU","i_long":106.800832,"time":8,"i_lat":-6.155215,"line":1,"station_name":"Duri","distance":3632},{"station_name":"Angke","line":1,"transit":false,"station_id":"AK","i_lat":-6.144674,"i_long":106.79867,"time":4,"is_transit":false,"distance":1230},{"i_lat":-6.132549,"distance":4102,"station_name":"Kampung Bandan","i_long":106.826365,"time":9,"line":4,"transit":true,"station_id":"KPB","is_transit":true},{"distance":1364,"transit":true,"time":3,"station_id":"JAKK","i_lat":-6.137569,"is_transit":true,"line":2,"i_long":106.812439,"station_name":"Jakarta Kota"},{"station_name":"Jayakarta","i_long":106.820901,"transit":false,"i_lat":-6.141205,"is_transit":false,"time":4,"station_id":"JAY","line":2,"distance":1264},{"i_lat":-6.149769,"is_transit":false,"station_name":"Manggabesar","time":2,"line":2,"i_long":106.82482,"transit":false,"distance":1080,"station_id":"MGB"},{"i_long":106.827103,"transit":false,"i_lat":-6.160725,"distance":906,"is_transit":false,"line":2,"station_name":"Sawah Besar","time":2,"station_id":"SW"},{"station_id":"JUA","is_transit":false,"i_lat":-6.166716,"time":2,"station_name":"Juanda","transit":false,"i_long":106.828284,"line":2,"distance":1149},{"transit":false,"i_long":106.832183,"station_name":"Gondangdia","time":4,"is_transit":false,"distance":2015,"station_id":"GDD","i_lat":-6.186295,"line":2},{"i_long":106.840169,"station_id":"CKI","is_transit":false,"time":3,"line":2,"station_name":"Cikini","distance":1750,"transit":false,"i_lat":-6.198556},{"station_name":"Manggarai","station_id":"MRI","i_lat":-6.209883,"i_long":106.84912,"is_transit":false,"line":2,"distance":1590,"transit":false,"time":4},{"station_id":"TEB","is_transit":false,"i_lat":-6.226659,"time":4,"station_name":"Tebet","transit":false,"line":2,"i_long":106.857948,"distance":2610},{"distance":1230,"transit":false,"line":2,"station_id":"CW","time":2,"station_name":"Cawang","is_transit":false,"i_lat":-6.242512,"i_long":106.856607},{"i_long":106.85449,"is_transit":false,"station_id":"DRN","line":2,"transit":false,"time":3,"distance":1546,"station_name":"Duren Kalibata","i_lat":-6.255332},{"transit":false,"i_long":106.851577,"distance":824,"i_lat":-6.263214,"line":2,"station_name":"Pasar Minggu Baru","station_id":"PSMB","is_transit":false,"time":2},{"is_transit":false,"line":2,"distance":2380,"transit":false,"time":2,"i_lat":-6.2842400000000005,"station_name":"Pasar Minggu","i_long":106.843999,"station_id":"PSM"},{"transit":false,"i_long":106.838896,"station_id":"TNT","distance":2820,"is_transit":false,"station_name":"Tanjung Barat","line":2,"time":4,"i_lat":-6.3080680000000005},{"station_name":"Lenteng Agung","station_id":"LNA","is_transit":false,"transit":false,"i_lat":-6.330363,"time":3,"distance":2671,"i_long":106.832616,"line":2},{"i_lat":-6.339291,"station_name":"Univ. Pancasila","time":2,"distance":1029,"i_long":106.834175,"is_transit":false,"line":2,"station_id":"UP","transit":false},{"station_name":"Univ. Indonesia","is_transit":false,"i_lat":-6.360749,"line":2,"time":3,"station_id":"UI","i_long":106.831474,"distance":2264,"transit":false},{"i_long":106.831114,"transit":false,"distance":1109,"station_id":"POC","i_lat":-6.369073,"time":2,"is_transit":false,"line":2,"station_name":"Pondok Cina"},{"i_lat":-6.391065,"time":4,"transit":false,"is_transit":false,"line":2,"station_id":"DPB","station_name":"Depokbaru","i_long":106.819451,"distance":2727},{"i_lat":-6.405256,"line":2,"transit":false,"time":3,"station_id":"DP","station_name":"Depok","is_transit":false,"i_long":106.816926,"distance":1584}],[{"time":0,"distance":0,"station_id":"TEJ","transit":false,"i_lat":-6.327251,"i_long":106.460812,"station_name":"Tenjo","is_transit":false,"line":6},{"i_lat":-6.338021,"station_id":"DAR","i_long":106.491338,"station_name":"Daru","line":0,"distance":3902,"is_transit":false,"transit":false,"time":5},{"transit":false,"distance":2675,"station_name":"Cilejit","station_id":"CJT","line":3,"is_transit":false,"i_lat":-6.354349,"i_long":106.508482,"time":6},{"is_transit":false,"i_lat":-6.3441410000000005,"time":9,"i_long":106.568863,"distance":7025,"station_name":"Parung Panjang","station_id":"PRP","transit":false,"line":6},{"is_transit":false,"transit":false,"i_lat":-6.329547,"time":8,"line":3,"station_name":"Cicayur","station_id":"CC","distance":5968,"i_long":106.617853},{"i_long":106.640411,"time":4,"distance":2519,"station_name":"Cisauk","is_transit":false,"station_id":"CSK","i_lat":-6.32484,"line":3,"transit":false},{"is_transit":false,"i_lat":-6.319871,"station_name":"Serpong","time":4,"distance":1784,"transit":false,"station_id":"SRP","i_long":106.66566,"line":6},{"is_transit":false,"time":4,"i_long":106.675475,"i_lat":-6.314823,"station_name":"Rawa Buntu","station_id":"RU","distance":2413,"line":6,"transit":false},{"i_long":106.712277,"line":6,"time":6,"distance":4566,"transit":false,"station_name":"Sudimara","is_transit":false,"station_id":"SDM","i_lat":-6.296963},{"i_long":106.728916,"station_name":"Jurangmangu","station_id":"JMU","i_lat":-6.288927,"transit":false,"time":4,"line":6,"distance":1994,"is_transit":false},{"transit":false,"i_long":106.74273,"i_lat":-6.276362,"station_name":"Pondokranji","is_transit":false,"time":3,"distance":2179,"line":6,"station_id":"PDJ"},{"station_name":"Kebayoran","transit":false,"i_long":106.780334,"time":8,"distance":6218,"i_lat":-6.237242,"station_id":"KBY","line":6,"is_transit":false},{"is_transit":false,"distance":3737,"i_lat":-6.207404,"i_long":106.79689,"station_id":"PLM","time":7,"station_name":"Palmerah","transit":false,"line":6},{"i_lat":-6.185545,"time":6,"i_long":106.811091,"line":1,"station_id":"THB","distance":3191,"station_name":"Tanah Abang","is_transit":true,"transit":true},{"i_lat":-6.155215,"distance":3632,"station_name":"Duri","i_long":106.800832,"time":8,"station_id":"DU","transit":false,"line":1,"is_transit":false},{"time":4,"transit":false,"distance":1230,"i_lat":-6.144674,"station_name":"Angke","i_long":106.79867,"line":1,"is_transit":false,"station_id":"AK"},{"transit":true,"station_id":"KPB","line":4,"time":9,"is_transit":true,"i_long":106.826365,"station_name":"Kampung Bandan","distance":4102,"i_lat":-6.132549},{"station_name":"Rajawali","transit":false,"station_id":"RJW","is_transit":false,"i_long":106.836569,"line":11,"time":3,"distance":1444,"i_lat":-6.14505},{"transit":false,"i_long":106.839204,"time":5,"is_transit":false,"station_id":"KMO","distance":1901,"station_name":"Kemayoran","i_lat":-6.161728,"line":11},{"i_lat":-6.174784,"distance":1436,"i_long":106.84368,"line":11,"station_id":"PSE","station_name":"Pasar Senen","is_transit":false,"time":4,"transit":false},{"line":11,"station_name":"Gang Sentiong","i_lat":-6.185975,"time":8,"station_id":"GST","i_long":106.850107,"transit":false,"distance":1567,"is_transit":false},{"station_id":"KMT","is_transit":false,"time":1,"line":11,"i_long":106.855437,"station_name":"Kramat","transit":false,"distance":973,"i_lat":-6.193792},{"distance":1829,"i_long":106.861737,"is_transit":false,"transit":false,"time":2,"station_id":"POK","station_name":"Pondok Jati","line":11,"i_lat":-6.209188},{"i_long":106.86807400000001,"station_id":"JNG","is_transit":true,"distance":1236,"time":9,"i_lat":-6.215091,"transit":true,"line":1,"station_name":"Jatinegara"},{"i_lat":-6.212485,"station_name":"Matraman","is_transit":false,"i_long":106.858896,"line":1,"station_id":"MTR","time":2,"distance":1377,"transit":false},{"is_transit":true,"i_lat":-6.209883,"time":2,"i_long":106.84912,"transit":true,"distance":1275,"line":2,"station_name":"Manggarai","station_id":"MRI"},{"i_long":106.857948,"distance":2610,"station_name":"Tebet","station_id":"TEB","transit":false,"i_lat":-6.226659,"line":2,"is_transit":false,"time":4},{"i_lat":-6.242512,"station_name":"Cawang","distance":1230,"is_transit":false,"line":2,"transit":false,"station_id":"CW","i_long":106.856607,"time":2},{"time":3,"station_id":"DRN","station_name":"Duren Kalibata","is_transit":false,"line":2,"distance":1546,"transit":false,"i_lat":-6.255332,"i_long":106.85449},{"time":2,"line":2,"i_lat":-6.263214,"transit":false,"is_transit":false,"station_name":"Pasar Minggu Baru","station_id":"PSMB","distance":824,"i_long":106.851577},{"distance":2380,"station_name":"Pasar Minggu","station_id":"PSM","time":2,"transit":false,"i_long":106.843999,"is_transit":false,"i_lat":-6.2842400000000005,"line":2},{"is_transit":false,"station_name":"Tanjung Barat","transit":false,"line":2,"time":4,"station_id":"TNT","distance":2820,"i_long":106.838896,"i_lat":-6.3080680000000005},{"line":2,"time":3,"station_id":"LNA","transit":false,"is_transit":false,"distance":2671,"i_long":106.832616,"i_lat":-6.330363,"station_name":"Lenteng Agung"},{"station_name":"Univ. Pancasila","line":2,"station_id":"UP","is_transit":false,"distance":1029,"transit":false,"time":2,"i_long":106.834175,"i_lat":-6.339291},{"is_transit":false,"time":3,"i_long":106.831474,"distance":2264,"station_id":"UI","transit":false,"line":2,"station_name":"Univ. Indonesia","i_lat":-6.360749},{"i_long":106.831114,"line":2,"station_id":"POC","distance":1109,"time":2,"station_name":"Pondok Cina","transit":false,"i_lat":-6.369073,"is_transit":false},{"i_long":106.819451,"station_name":"Depokbaru","distance":2727,"station_id":"DPB","transit":false,"is_transit":false,"i_lat":-6.391065,"line":2,"time":4},{"line":2,"distance":1584,"time":3,"i_long":106.816926,"station_id":"DP","transit":false,"i_lat":-6.405256,"is_transit":false,"station_name":"Depok"}]]}