{"data":[[{"station_name":"Tenjo","distance":0,"is_transit":false,"station_id":"TEJ","time":0,"i_long":106.460812,"i_lat":-6.327251,"line":6,"transit":false},{"line":0,"distance":3902,"i_long":106.491338,"i_lat":-6.338021,"station_name":"Daru","station_id":"DAR","is_transit":false,"transit":false,"time":5},{"distance":2675,"station_id":"CJT","time":6,"i_long":106.508482,"line":0,"station_name":"Cilejit","i_lat":-6.354349,"transit":false,"is_transit":false},{"time":9,"distance":7025,"i_long":106.568863,"i_lat":-6.3441410000000005,"line":6,"transit":false,"station_id":"PRP","is_transit":false,"station_name":"Parung Panjang"},{"transit":false,"time":8,"i_lat":-6.329547,"line":0,"i_long":106.617853,"station_name":"Cicayur","station_id":"CC","distance":5968,"is_transit":false},{"time":4,"station_name":"Cisauk","i_lat":-6.32484,"i_long":106.640411,"is_transit":false,"station_id":"CSK","transit":false,"line":0,"distance":2519},{"line":6,"distance":1784,"time":4,"station_id":"SRP","station_name":"Serpong","i_lat":-6.319871,"transit":false,"i_long":106.66566,"is_transit":false},{"i_lat":-6.314823,"i_long":106.675475,"station_id":"RU","distance":2413,"transit":false,"time":4,"line":6,"is_transit":false,"station_name":"Rawa Buntu"},{"i_long":106.712277,"station_id":"SDM","time":6,"transit":false,"is_transit":false,"distance":4566,"station_name":"Sudimara","i_lat":-6.296963,"line":6},{"station_name":"Jurangmangu","i_lat":-6.288927,"is_transit":false,"i_long":106.728916,"line":6,"station_id":"JMU","transit":false,"distance":1994,"time":4},{"i_long":106.74273,"is_transit":false,"station_id":"PDJ","station_name":"Pondokranji","transit":false,"i_lat":-6.276362,"distance":2179,"time":3,"line":6},{"distance":6218,"station_name":"Kebayoran","i_lat":-6.237242,"transit":false,"time":8,"line":6,"i_long":106.780334,"is_transit":false,"station_id":"KBY"},{"is_transit":false,"transit":false,"station_id":"PLM","time":7,"line":6,"station_name":"Palmerah","i_lat":-6.207404,"i_long":106.79689,"distance":3737},{"time":6,"is_transit":true,"i_lat":-6.185545,"station_id":"THB","i_long":106.811091,"distance":3191,"station_name":"Tanah Abang","transit":true,"line":1},{"is_transit":false,"station_name":"Karet","time":5,"i_long":106.816351,"line":1,"distance":2029,"station_id":"KAT","transit":false,"i_lat":-6.20132},{"i_long":106.819881,"distance":471,"station_id":"SUDB","time":1,"i_lat":-6.201433,"line":1,"station_name":"Sudirman Baru","transit":false,"is_transit":false},{"i_long":106.822649,"is_transit":false,"i_lat":-6.202263,"station_name":"Sudirman","transit":false,"time":1,"distance":280,"station_id":"SUD","line":1},{"station_name":"Manggarai","i_long":106.84912,"station_id":"MRI","distance":3186,"transit":true,"time":4,"i_lat":-6.209883,"is_transit":true,"line":0},{"is_transit":false,"time":4,"line":2,"i_lat":-6.226659,"station_id":"TEB","station_name":"Tebet","transit":false,"i_long":106.857948,"distance":2610},{"i_lat":-6.242512,"station_id":"CW","time":2,"is_transit":false,"distance":1230,"station_name":"Cawang","line":0,"i_long":106.856607,"transit":false},{"transit":false,"time":3,"line":0,"station_id":"DRN","is_transit":false,"i_lat":-6.255332,"i_long":106.85449,"distance":1546,"station_name":"Duren Kalibata"},{"distance":824,"time":2,"station_name":"Pasar Minggu Baru","i_lat":-6.263214,"is_transit":false,"line":2,"station_id":"PSMB","i_long":106.851577,"transit":false},{"time":2,"transit":false,"distance":2380,"i_long":106.843999,"is_transit":false,"station_name":"Pasar Minggu","line":2,"station_id":"PSM","i_lat":-6.2842400000000005},{"line":2,"station_id":"TNT","station_name":"Tanjung Barat","i_lat":-6.3080680000000005,"i_long":106.838896,"transit":false,"time":4,"distance":2820,"is_transit":false},{"station_name":"Lenteng Agung","station_id":"LNA","line":2,"i_lat":-6.330363,"transit":false,"time":3,"is_transit":false,"i_long":106.832616,"distance":2671},{"transit":false,"station_name":"Univ. Pancasila","i_lat":-6.339291,"distance":1029,"time":2,"line":2,"station_id":"UP","i_long":106.834175,"is_transit":false},{"i_long":106.831474,"is_transit":false,"transit":false,"station_id":"UI","distance":2264,"i_lat":-6.360749,"station_name":"Univ. Indonesia","line":2,"time":3},{"station_name":"Pondok Cina","station_id":"POC","time":2,"i_long":106.831114,"i_lat":-6.369073,"line":2,"transit":false,"distance":1109,"is_transit":false},{"time":4,"i_long":106.819451,"line":0,"distance":2727,"station_name":"Depokbaru","transit":false,"i_lat":-6.391065,"is_transit":false,"station_id":"DPB"},{"time":3,"distance":1584,"station_id":"DP","is_transit":false,"line":0,"i_long":106.816926,"i_lat":-6.405256,"station_name":"Depok","transit":false}],[{"transit":false,"i_long":106.460812,"distance":0,"is_transit":false,"station_name":"Tenjo","station_id":"TEJ","i_lat":-6.327251,"line":6,"time":0},{"i_long":106.491338,"station_id":"DAR","station_name":"Daru","distance":3902,"transit":false,"time":5,"i_lat":-6.338021,"line":0,"is_transit":false},{"station_id":"CJT","transit":false,"is_transit":false,"i_lat":-6.354349,"distance":2675,"i_long":106.508482,"line":0,"time":6,"station_name":"Cilejit"},{"station_name":"Parung Panjang","i_long":106.568863,"i_lat":-6.3441410000000005,"time":9,"distance":7025,"is_transit":false,"transit":false,"line":6,"station_id":"PRP"},{"distance":5968,"station_name":"Cicayur","time":8,"i_long":106.617853,"is_transit":false,"i_lat":-6.329547,"line":0,"transit":false,"station_id":"CC"},{"time":4,"station_id":"CSK","i_long":106.640411,"i_lat":-6.32484,"is_transit":false,"station_name":"Cisauk","line":0,"distance":2519,"transit":false},{"i_long":106.66566,"line":6,"time":4,"distance":1784,"is_transit":false,"i_lat":-6.319871,"station_name":"Serpong","station_id":"SRP","transit":false},{"time":4,"i_lat":-6.314823,"station_name":"Rawa Buntu","i_long":106.675475,"line":6,"distance":2413,"station_id":"RU","transit":false,"is_transit":false},{"line":6,"time":6,"i_lat":-6.296963,"station_name":"Sudimara","i_long":106.712277,"transit":false,"distance":4566,"is_transit":false,"station_id":"SDM"},{"i_lat":-6.288927,"transit":false,"distance":1994,"line":6,"station_id":"JMU","is_transit":false,"station_name":"Jurangmangu","time":4,"i_long":106.728916},{"transit":false,"line":6,"distance":2179,"station_name":"Pondokranji","time":3,"i_lat":-6.276362,"i_long":106.74273,"is_transit":false,"station_id":"PDJ"},{"distance":6218,"transit":false,"i_lat":-6.237242,"i_long":106.780334,"station_name":"Kebayoran","is_transit":false,"time":8,"station_id":"KBY","line":6},{"is_transit":false,"station_id":"PLM","transit":false,"line":6,"station_name":"Palmerah","time":7,"i_long":106.79689,"i_lat":-6.207404,"distance":3737},{"station_name":"Tanah Abang","i_lat":-6.185545,"distance":3191,"is_transit":true,"station_id":"THB","time":6,"i_long":106.811091,"transit":true,"line":1},{"i_lat":-6.155215,"line":1,"station_id":"DU","station_name":"Duri","is_transit":true,"transit":true,"time":8,"i_long":106.800832,"distance":3632},{"i_long":106.79867,"i_lat":-6.144674,"station_name":"Angke","time":4,"line":0,"distance":1230,"is_transit":false,"station_id":"AK","transit":false},{"distance":4102,"i_long":106.826365,"transit":false,"is_transit":true,"line":0,"station_name":"Kampung Bandan","station_id":"KPB","time":9,"i_lat":-6.132549},{"i_long":106.812439,"distance":1364,"station_id":"JAKK","time":3,"i_lat":-6.137569,"line":0,"is_transit":true,"station_name":"Jakarta Kota","transit":true},{"i_lat":-6.141205,"line":7,"time":4,"is_transit":false,"station_id":"JAY","transit":false,"distance":1264,"station_name":"Jayakarta","i_long":106.820901},{"station_id":"MGB","transit":false,"time":2,"i_lat":-6.149769,"distance":1080,"is_transit":false,"station_name":"Manggabesar","line":2,"i_long":106.82482},{"is_transit":false,"i_lat":-6.160725,"distance":906,"transit":false,"station_id":"SW","station_name":"Sawah Besar","line":2,"i_long":106.827103,"time":2},{"is_transit":false,"time":2,"station_id":"JUA","station_name":"Juanda","transit":false,"i_long":106.828284,"distance":1149,"line":2,"i_lat":-6.166716},{"line":2,"distance":2015,"i_long":106.832183,"transit":false,"station_name":"Gondangdia","is_transit":false,"station_id":"GDD","time":4,"i_lat":-6.186295},{"distance":1750,"i_long":106.840169,"station_name":"Cikini","station_id":"CKI","i_lat":-6.198556,"time":3,"line":0,"transit":false,"is_transit":false},{"station_name":"Manggarai","transit":true,"is_transit":true,"station_id":"MRI","distance":1590,"i_lat":-6.209883,"time":4,"line":0,"i_long":106.84912},{"time":4,"station_id":"TEB","distance":2610,"i_long":106.857948,"transit":false,"i_lat":-6.226659,"is_transit":false,"line":2,"station_name":"Tebet"},{"station_id":"CW","time":2,"transit":false,"line":0,"i_lat":-6.242512,"distance":1230,"is_transit":false,"i_long":106.856607,"station_name":"Cawang"},{"is_transit":false,"station_name":"Duren Kalibata","line":0,"transit":false,"station_id":"DRN","distance":1546,"i_lat":-6.255332,"i_long":106.85449,"time":3},{"is_transit":false,"i_long":106.851577,"time":2,"i_lat":-6.263214,"line":2,"distance":824,"station_id":"PSMB","transit":false,"station_name":"Pasar Minggu Baru"},{"i_lat":-6.2842400000000005,"is_transit":false,"time":2,"i_long":106.843999,"line":2,"station_name":"Pasar Minggu","distance":2380,"station_id":"PSM","transit":false},{"station_id":"TNT","station_name":"Tanjung Barat","distance":2820,"line":2,"transit":false,"time":4,"is_transit":false,"i_lat":-6.3080680000000005,"i_long":106.838896},{"transit":false,"time":3,"line":2,"is_transit":false,"i_long":106.832616,"distance":2671,"i_lat":-6.330363,"station_name":"Lenteng Agung","station_id":"LNA"},{"transit":false,"is_transit":false,"station_id":"UP","time":2,"i_lat":-6.339291,"i_long":106.834175,"distance":1029,"station_name":"Univ. Pancasila","line":2},{"time":3,"station_name":"Univ. Indonesia","i_lat":-6.360749,"i_long":106.831474,"station_id":"UI","transit":false,"distance":2264,"is_transit":false,"line":2},{"distance":1109,"is_transit":false,"station_name":"Pondok Cina","i_long":106.831114,"i_lat":-6.369073,"station_id":"POC","time":2,"line":2,"transit":false},{"i_lat":-6.391065,"station_name":"Depokbaru","is_transit":false,"time":4,"distance":2727,"transit":false,"line":0,"station_id":"DPB","i_long":106.819451},{"is_transit":false,"time":3,"i_lat":-6.405256,"i_long":106.816926,"station_name":"Depok","station_id":"DP","line":0,"distance":1584,"transit":false}],[{"time":0,"station_name":"Tenjo","is_transit":false,"station_id":"TEJ","i_long":106.460812,"transit":false,"i_lat":-6.327251,"distance":0,"line":6},{"line":0,"station_name":"Daru","i_lat":-6.338021,"distance":3902,"i_long":106.491338,"is_transit":false,"station_id":"DAR","transit":false,"time":5},{"transit":false,"distance":2675,"station_name":"Cilejit","i_lat":-6.354349,"i_long":106.508482,"time":6,"line":0,"station_id":"CJT","is_transit":false},{"transit":false,"i_lat":-6.3441410000000005,"distance":7025,"station_name":"Parung Panjang","station_id":"PRP","time":9,"i_long":106.568863,"line":6,"is_transit":false},{"distance":5968,"station_id":"CC","line":0,"transit":false,"is_transit":false,"station_name":"Cicayur","i_lat":-6.329547,"time":8,"i_long":106.617853},{"station_id":"CSK","line":0,"time":4,"station_name":"Cisauk","distance":2519,"is_transit":false,"i_lat":-6.32484,"transit":false,"i_long":106.640411},{"transit":false,"station_id":"SRP","station_name":"Serpong","is_transit":false,"line":6,"distance":1784,"time":4,"i_lat":-6.319871,"i_long":106.66566},{"is_transit":false,"station_name":"Rawa Buntu","i_long":106.675475,"line":6,"time":4,"station_id":"RU","distance":2413,"transit":false,"i_lat":-6.314823},{"distance":4566,"time":6,"is_transit":false,"station_id":"SDM","transit":false,"i_long":106.712277,"station_name":"Sudimara","i_lat":-6.296963,"line":6},{"time":4,"is_transit":false,"line":6,"transit":false,"distance":1994,"station_name":"Jurangmangu","i_lat":-6.288927,"i_long":106.728916,"station_id":"JMU"},{"line":6,"station_name":"Pondokranji","i_long":106.74273,"station_id":"PDJ","transit":false,"time":3,"i_lat":-6.276362,"distance":2179,"is_transit":false},{"is_transit":false,"transit":false,"station_name":"Kebayoran","station_id":"KBY","distance":6218,"i_long":106.780334,"time":8,"line":6,"i_lat":-6.237242},{"i_long":106.79689,"line":6,"time":7,"distance":3737,"station_name":"Palmerah","station_id":"PLM","is_transit":false,"transit":false,"i_lat":-6.207404},{"time":6,"station_id":"THB","i_long":106.811091,"line":1,"is_transit":true,"transit":true,"distance":3191,"i_lat":-6.185545,"station_name":"Tanah Abang"},{"station_name":"Duri","i_long":106.800832,"line":1,"station_id":"DU","i_lat":-6.155215,"is_transit":true,"time":8,"transit":true,"distance":3632},{"time":4,"is_transit":false,"i_long":106.79867,"station_name":"Angke","station_id":"AK","transit":false,"i_lat":-6.144674,"distance":1230,"line":0},{"is_transit":true,"transit":true,"i_lat":-6.132549,"station_name":"Kampung Bandan","line":0,"i_long":106.826365,"station_id":"KPB","distance":4102,"time":9},{"distance":1444,"station_name":"Rajawali","transit":false,"time":3,"station_id":"RJW","i_long":106.836569,"i_lat":-6.14505,"is_transit":false,"line":11},{"distance":1901,"time":5,"is_transit":false,"station_id":"KMO","transit":false,"i_lat":-6.161728,"line":11,"station_name":"Kemayoran","i_long":106.839204},{"is_transit":false,"i_lat":-6.174784,"i_long":106.84368,"transit":false,"distance":1436,"station_id":"PSE","station_name":"Pasar Senen","time":4,"line":11},{"line":11,"i_long":106.850107,"transit":false,"distance":1567,"station_id":"GST","is_transit":false,"station_name":"Gang Sentiong","time":8,"i_lat":-6.185975},{"line":11,"station_id":"KMT","distance":973,"time":1,"station_name":"Kramat","i_lat":-6.193792,"is_transit":false,"transit":false,"i_long":106.855437},{"station_id":"POK","is_transit":false,"i_lat":-6.209188,"i_long":106.861737,"station_name":"Pondok Jati","transit":false,"line":11,"time":2,"distance":1829},{"transit":true,"time":9,"station_id":"JNG","station_name":"Jatinegara","distance":1236,"is_transit":true,"i_long":106.86807400000001,"line":0,"i_lat":-6.215091},{"time":2,"i_long":106.858896,"distance":1377,"i_lat":-6.212485,"line":1,"station_name":"Matraman","transit":false,"station_id":"MTR","is_transit":false},{"is_transit":true,"distance":1275,"time":2,"i_lat":-6.209883,"line":0,"station_name":"Manggarai","station_id":"MRI","i_long":106.84912,"transit":true},{"is_transit":false,"station_name":"Tebet","line":2,"i_lat":-6.226659,"time":4,"i_long":106.857948,"transit":false,"distance":2610,"station_id":"TEB"},{"is_transit":false,"line":0,"time":2,"station_name":"Cawang","distance":1230,"station_id":"CW","transit":false,"i_lat":-6.242512,"i_long":106.856607},{"line":0,"i_lat":-6.255332,"transit":false,"time":3,"is_transit":false,"distance":1546,"station_id":"DRN","station_name":"Duren Kalibata","i_long":106.85449},{"station_id":"PSMB","i_long":106.851577,"distance":824,"i_lat":-6.263214,"transit":false,"time":2,"station_name":"Pasar Minggu Baru","line":2,"is_transit":false},{"i_long":106.843999,"station_name":"Pasar Minggu","i_lat":-6.2842400000000005,"line":2,"is_transit":false,"station_id":"PSM","transit":false,"distance":2380,"time":2},{"i_lat":-6.3080680000000005,"distance":2820,"line":2,"time":4,"i_long":106.838896,"is_transit":false,"station_name":"Tanjung Barat","station_id":"TNT","transit":false},{"time":3,"station_name":"Lenteng Agung","distance":2671,"station_id":"LNA","is_transit":false,"transit":false,"i_lat":-6.330363,"line":2,"i_long":106.832616},{"i_lat":-6.339291,"station_name":"Univ. Pancasila","distance":1029,"is_transit":false,"station_id":"UP","transit":false,"line":2,"time":2,"i_long":106.834175},{"i_long":106.831474,"station_id":"UI","distance":2264,"time":3,"station_name":"Univ. Indonesia","is_transit":false,"i_lat":-6.360749,"transit":false,"line":2},{"transit":false,"station_name":"Pondok Cina","time":2,"distance":1109,"is_transit":false,"station_id":"POC","i_lat":-6.369073,"i_long":106.831114,"line":2},{"is_transit":false,"i_lat":-6.391065,"distance":2727,"station_id":"DPB","i_long":106.819451,"line":0,"transit":false,"station_name":"Depokbaru","time":4},{"distance":1584,"i_long":106.816926,"time":3,"i_lat":-6.405256,"station_id":"DP","station_name":"Depok","transit":false,"line":0,"is_transit":false}]]}