{"data":[[{"time":0,"i_lat":-6.327251,"station_id":"TEJ","distance":0,"is_transit":false,"i_long":106.460812,"transit":false,"station_name":"Tenjo","line":6},{"i_lat":-6.338021,"is_transit":false,"station_id":"DAR","distance":3902,"station_name":"Daru","line":0,"time":5,"i_long":106.491338,"transit":false},{"i_lat":-6.354349,"station_name":"Cilejit","transit":false,"distance":2675,"i_long":106.508482,"line":3,"time":6,"station_id":"CJT","is_transit":false},{"is_transit":false,"transit":false,"i_long":106.568863,"i_lat":-6.3441410000000005,"line":6,"station_name":"Parung Panjang","station_id":"PRP","time":9,"distance":7025},{"time":8,"is_transit":false,"station_id":"CC","transit":false,"i_long":106.617853,"line":3,"i_lat":-6.329547,"distance":5968,"station_name":"Cicayur"},{"station_name":"Cisauk","time":4,"station_id":"CSK","is_transit":false,"distance":2519,"transit":false,"i_lat":-6.32484,"line":3,"i_long":106.640411},{"i_long":106.66566,"line":6,"time":4,"distance":1784,"station_name":"Serpong","is_transit":false,"transit":false,"i_lat":-6.319871,"station_id":"SRP"},{"distance":2413,"line":6,"transit":false,"i_lat":-6.314823,"station_name":"Rawa Buntu","i_long":106.675475,"station_id":"RU","time":4,"is_transit":false},{"station_id":"SDM","station_name":"Sudimara","line":6,"i_lat":-6.296963,"is_transit":false,"distance":4566,"time":6,"transit":false,"i_long":106.712277},{"distance":1994,"is_transit":false,"transit":false,"i_lat":-6.288927,"i_long":106.728916,"line":6,"time":4,"station_id":"JMU","station_name":"Jurangmangu"},{"i_lat":-6.276362,"i_long":106.74273,"time":3,"distance":2179,"is_transit":false,"station_name":"Pondokranji","transit":false,"station_id":"PDJ","line":6},{"time":8,"transit":false,"i_lat":-6.237242,"i_long":106.780334,"distance":6218,"is_transit":false,"station_name":"Kebayoran","line":6,"station_id":"KBY"},{"station_name":"Palmerah","i_long":106.79689,"station_id":"PLM","line":6,"is_transit":false,"transit":false,"i_lat":-6.207404,"distance":3737,"time":7},{"is_transit":true,"transit":true,"station_id":"THB","i_lat":-6.185545,"distance":3191,"time":6,"station_name":"Tanah Abang","i_long":106.811091,"line":1},{"transit":false,"is_transit":false,"distance":2029,"i_lat":-6.20132,"station_name":"Karet","station_id":"KAT","line":1,"i_long":106.816351,"time":5},{"station_id":"SUDB","i_long":106.819881,"station_name":"Sudirman Baru","is_transit":false,"i_lat":-6.201433,"line":1,"time":1,"distance":471,"transit":false},{"line":1,"station_id":"SUD","time":1,"transit":false,"station_name":"Sudirman","distance":280,"is_transit":false,"i_lat":-6.202263,"i_long":106.822649},{"time":4,"station_name":"Manggarai","i_lat":-6.209883,"line":2,"i_long":106.84912,"station_id":"MRI","transit":false,"distance":3186,"is_transit":false},{"transit":false,"is_transit":false,"time":2,"line":1,"i_long":106.858896,"i_lat":-6.212485,"distance":1275,"station_name":"Matraman","station_id":"MTR"},{"is_transit":false,"time":8,"i_long":106.86807400000001,"line":1,"distance":1377,"transit":false,"station_name":"Jatinegara","station_id":"JNG","i_lat":-6.215091},{"i_long":106.899548,"line":1,"station_id":"KLD","station_name":"Klender","distance":3395,"time":3,"is_transit":false,"transit":false,"i_lat":-6.2135},{"station_id":"BUA","line":1,"is_transit":false,"station_name":"Buaran","i_long":106.922662,"transit":false,"i_lat":-6.215568,"time":2,"distance":3100},{"station_name":"Klenderbaru","transit":false,"station_id":"KLDB","line":1,"i_lat":-6.217455,"i_long":106.939679,"time":1,"is_transit":false,"distance":1305},{"i_lat":-6.219053,"station_name":"Cakung","i_long":106.951283,"time":8,"line":1,"distance":1385,"is_transit":false,"transit":false,"station_id":"CUK"},{"transit":false,"station_name":"Kranji","distance":3097,"station_id":"KRI","i_long":106.977657,"line":1,"time":3,"i_lat":-6.224515,"is_transit":false},{"i_long":106.997013,"line":1,"station_name":"Bekasi","is_transit":false,"transit":false,"station_id":"BKS","i_lat":-6.236616,"distance":2520,"time":4}],[{"station_name":"Tenjo","distance":0,"i_long":106.460812,"time":0,"i_lat":-6.327251,"is_transit":false,"line":6,"station_id":"TEJ","transit":false},{"line":0,"transit":false,"i_lat":-6.338021,"i_long":106.491338,"station_id":"DAR","time":5,"station_name":"Daru","is_transit":false,"distance":3902},{"transit":false,"time":6,"station_name":"Cilejit","is_transit":false,"i_lat":-6.354349,"i_long":106.508482,"station_id":"CJT","line":3,"distance":2675},{"station_name":"Parung Panjang","line":6,"i_lat":-6.3441410000000005,"station_id":"PRP","distance":7025,"i_long":106.568863,"is_transit":false,"time":9,"transit":false},{"time":8,"distance":5968,"is_transit":false,"i_long":106.617853,"i_lat":-6.329547,"transit":false,"station_id":"CC","station_name":"Cicayur","line":3},{"i_lat":-6.32484,"i_long":106.640411,"line":3,"time":4,"station_name":"Cisauk","is_transit":false,"station_id":"CSK","transit":false,"distance":2519},{"station_name":"Serpong","station_id":"SRP","line":6,"i_lat":-6.319871,"distance":1784,"i_long":106.66566,"transit":false,"is_transit":false,"time":4},{"i_long":106.675475,"time":4,"transit":false,"station_name":"Rawa Buntu","line":6,"station_id":"RU","distance":2413,"i_lat":-6.314823,"is_transit":false},{"i_lat":-6.296963,"distance":4566,"time":6,"transit":false,"station_id":"SDM","station_name":"Sudimara","i_long":106.712277,"is_transit":false,"line":6},{"i_long":106.728916,"station_name":"Jurangmangu","time":4,"station_id":"JMU","i_lat":-6.288927,"is_transit":false,"distance":1994,"transit":false,"line":6},{"station_name":"Pondokranji","distance":2179,"is_transit":false,"time":3,"i_lat":-6.276362,"station_id":"PDJ","i_long":106.74273,"line":6,"transit":false},{"line":6,"transit":false,"station_name":"Kebayoran","i_lat":-6.237242,"time":8,"is_transit":false,"i_long":106.780334,"station_id":"KBY","distance":6218},{"station_id":"PLM","station_name":"Palmerah","distance":3737,"is_transit":false,"i_lat":-6.207404,"line":6,"i_long":106.79689,"time":7,"transit":false},{"line":1,"is_transit":true,"time":6,"transit":true,"i_lat":-6.185545,"station_id":"THB","i_long":106.811091,"station_name":"Tanah Abang","distance":3191},{"line":1,"distance":3632,"transit":false,"is_transit":false,"station_id":"DU","i_lat":-6.155215,"time":8,"station_name":"Duri","i_long":106.800832},{"time":4,"i_lat":-6.144674,"line":1,"i_long":106.79867,"distance":1230,"station_name":"Angke","is_transit":false,"station_id":"AK","transit":false},{"line":4,"transit":true,"distance":4102,"time":9,"station_id":"KPB","is_transit":true,"station_name":"Kampung Bandan","i_lat":-6.132549,"i_long":106.826365},{"station_id":"RJW","i_lat":-6.14505,"line":11,"is_transit":false,"transit":false,"distance":1444,"station_name":"Rajawali","time":3,"i_long":106.836569},{"transit":false,"station_id":"KMO","distance":1901,"station_name":"Kemayoran","time":5,"i_lat":-6.161728,"line":11,"i_long":106.839204,"is_transit":false},{"station_id":"PSE","transit":false,"i_lat":-6.174784,"time":4,"distance":1436,"line":11,"station_name":"Pasar Senen","is_transit":false,"i_long":106.84368},{"transit":false,"i_lat":-6.185975,"line":11,"distance":1567,"i_long":106.850107,"station_name":"Gang Sentiong","is_transit":false,"station_id":"GST","time":8},{"line":11,"station_id":"KMT","transit":false,"station_name":"Kramat","time":1,"i_lat":-6.193792,"distance":973,"is_transit":false,"i_long":106.855437},{"distance":1829,"station_name":"Pondok Jati","is_transit":false,"station_id":"POK","i_long":106.861737,"i_lat":-6.209188,"line":11,"time":2,"transit":false},{"time":9,"i_lat":-6.215091,"i_long":106.86807400000001,"transit":true,"is_transit":true,"distance":1236,"station_id":"JNG","station_name":"Jatinegara","line":1},{"station_name":"Klender","i_long":106.899548,"i_lat":-6.2135,"station_id":"KLD","line":1,"distance":3395,"transit":false,"time":3,"is_transit":false},{"i_long":106.922662,"station_name":"Buaran","time":2,"line":1,"i_lat":-6.215568,"station_id":"BUA","is_transit":false,"distance":3100,"transit":false},{"station_id":"KLDB","distance":1305,"transit":false,"i_lat":-6.217455,"i_long":106.939679,"is_transit":false,"line":1,"time":1,"station_name":"Klenderbaru"},{"is_transit":false,"i_long":106.951283,"distance":1385,"i_lat":-6.219053,"line":1,"station_id":"CUK","transit":false,"station_name":"Cakung","time":8},{"i_lat":-6.224515,"distance":3097,"station_id":"KRI","is_transit":false,"transit":false,"i_long":106.977657,"station_name":"Kranji","time":3,"line":1},{"time":4,"i_long":106.997013,"line":1,"distance":2520,"station_id":"BKS","is_transit":false,"transit":false,"station_name":"Bekasi","i_lat":-6.236616}],[{"station_name":"Tenjo","station_id":"TEJ","i_long":106.460812,"i_lat":-6.327251,"distance":0,"transit":false,"line":6,"is_transit":false,"time":0},{"distance":3902,"i_lat":-6.338021,"transit":false,"time":5,"is_transit":false,"station_id":"DAR","station_name":"Daru","line":0,"i_long":106.491338},{"station_name":"Cilejit","station_id":"CJT","i_long":106.508482,"i_lat":-6.354349,"distance":2675,"transit":false,"is_transit":false,"line":3,"time":6},{"station_name":"Parung Panjang","i_long":106.568863,"transit":false,"i_lat":-6.3441410000000005,"distance":7025,"time":9,"line":6,"station_id":"PRP","is_transit":false},{"is_transit":false,"line":3,"station_name":"Cicayur","distance":5968,"transit":false,"station_id":"CC","time":8,"i_lat":-6.329547,"i_long":106.617853},{"line":3,"station_id":"CSK","i_long":106.640411,"distance":2519,"transit":false,"time":4,"station_name":"Cisauk","is_transit":false,"i_lat":-6.32484},{"transit":false,"time":4,"i_long":106.66566,"station_id":"SRP","is_transit":false,"distance":1784,"station_name":"Serpong","i_lat":-6.319871,"line":6},{"distance":2413,"i_long":106.675475,"transit":false,"station_name":"Rawa Buntu","i_lat":-6.314823,"is_transit":false,"station_id":"RU","line":6,"time":4},{"is_transit":false,"station_id":"SDM","station_name":"Sudimara","i_lat":-6.296963,"transit":false,"line":6,"time":6,"i_long":106.712277,"distance":4566},{"line":6,"is_transit":false,"i_lat":-6.288927,"i_long":106.728916,"station_name":"Jurangmangu","transit":false,"station_id":"JMU","distance":1994,"time":4},{"line":6,"i_long":106.74273,"time":3,"distance":2179,"transit":false,"is_transit":false,"station_id":"PDJ","station_name":"Pondokranji","i_lat":-6.276362},{"distance":6218,"time":8,"i_lat":-6.237242,"station_name":"Kebayoran","transit":false,"is_transit":false,"line":6,"i_long":106.780334,"station_id":"KBY"},{"station_name":"Palmerah","transit":false,"time":7,"i_lat":-6.207404,"i_long":106.79689,"line":6,"is_transit":false,"distance":3737,"station_id":"PLM"},{"i_long":106.811091,"is_transit":true,"distance":3191,"station_name":"Tanah Abang","line":1,"station_id":"THB","transit":true,"time":6,"i_lat":-6.185545},{"i_lat":-6.155215,"time":8,"station_name":"Duri","distance":3632,"transit":false,"is_transit":false,"station_id":"DU","i_long":106.800832,"line":1},{"station_name":"Angke","time":4,"is_transit":false,"transit":false,"i_lat":-6.144674,"station_id":"AK","i_long":106.79867,"line":1,"distance":1230},{"station_id":"KPB","transit":true,"time":9,"i_lat":-6.132549,"line":4,"is_transit":true,"distance":4102,"i_long":106.826365,"station_name":"Kampung Bandan"},{"line":2,"time":3,"is_transit":true,"station_name":"Jakarta Kota","transit":true,"i_long":106.812439,"i_lat":-6.137569,"distance":1364,"station_id":"JAKK"},{"distance":1264,"time":4,"station_id":"JAY","line":2,"is_transit":false,"transit":false,"i_long":106.820901,"i_lat":-6.141205,"station_name":"Jayakarta"},{"line":2,"transit":false,"time":2,"distance":1080,"i_long":106.82482,"station_id":"MGB","i_lat":-6.149769,"station_name":"Manggabesar","is_transit":false},{"transit":false,"station_name":"Sawah Besar","i_lat":-6.160725,"station_id":"SW","is_transit":false,"line":2,"i_long":106.827103,"distance":906,"time":2},{"i_lat":-6.166716,"transit":false,"i_long":106.828284,"line":2,"station_name":"Juanda","distance":1149,"is_transit":false,"station_id":"JUA","time":2},{"station_name":"Gondangdia","line":2,"station_id":"GDD","time":4,"i_lat":-6.186295,"transit":false,"i_long":106.832183,"distance":2015,"is_transit":false},{"time":3,"i_long":106.840169,"distance":1750,"transit":false,"line":2,"station_id":"CKI","i_lat":-6.198556,"station_name":"Cikini","is_transit":false},{"time":4,"transit":true,"station_id":"MRI","is_transit":true,"i_lat":-6.209883,"station_name":"Manggarai","distance":1590,"i_long":106.84912,"line":2},{"i_lat":-6.212485,"i_long":106.858896,"time":2,"station_name":"Matraman","line":1,"station_id":"MTR","distance":1275,"transit":false,"is_transit":false},{"i_lat":-6.215091,"transit":false,"line":1,"is_transit":false,"distance":1377,"station_id":"JNG","station_name":"Jatinegara","time":8,"i_long":106.86807400000001},{"station_id":"KLD","distance":3395,"transit":false,"line":1,"i_long":106.899548,"station_name":"Klender","time":3,"i_lat":-6.2135,"is_transit":false},{"station_id":"BUA","line":1,"distance":3100,"station_name":"Buaran","time":2,"i_lat":-6.215568,"i_long":106.922662,"transit":false,"is_transit":false},{"transit":false,"distance":1305,"time":1,"station_name":"Klenderbaru","is_transit":false,"i_lat":-6.217455,"i_long":106.939679,"line":1,"station_id":"KLDB"},{"time":8,"i_lat":-6.219053,"station_name":"Cakung","line":1,"station_id":"CUK","transit":false,"is_transit":false,"i_long":106.951283,"distance":1385},{"transit":false,"station_id":"KRI","is_transit":false,"line":1,"time":3,"i_lat":-6.224515,"station_name":"Kranji","distance":3097,"i_long":106.977657},{"station_id":"BKS","station_name":"Bekasi","transit":false,"time":4,"i_lat":-6.236616,"is_transit":false,"i_long":106.997013,"line":1,"distance":2520}],[{"station_name":"Tenjo","i_long":106.460812,"distance":0,"transit":false,"is_transit":false,"line":6,"time":0,"i_lat":-6.327251,"station_id":"TEJ"},{"distance":3902,"station_name":"Daru","transit":false,"line":0,"is_transit":false,"i_lat":-6.338021,"i_long":106.491338,"time":5,"station_id":"DAR"},{"station_id":"CJT","distance":2675,"station_name":"Cilejit","i_long":106.508482,"time":6,"is_transit":false,"transit":false,"i_lat":-6.354349,"line":3},{"transit":false,"is_transit":false,"i_long":106.568863,"station_id":"PRP","station_name":"Parung Panjang","line":6,"distance":7025,"i_lat":-6.3441410000000005,"time":9},{"i_lat":-6.329547,"i_long":106.617853,"station_id":"CC","station_name":"Cicayur","line":3,"is_transit":false,"distance":5968,"time":8,"transit":false},{"station_id":"CSK","transit":false,"distance":2519,"is_transit":false,"i_lat":-6.32484,"i_long":106.640411,"station_name":"Cisauk","time":4,"line":3},{"is_transit":false,"i_lat":-6.319871,"i_long":106.66566,"line":6,"transit":false,"station_id":"SRP","distance":1784,"station_name":"Serpong","time":4},{"distance":2413,"line":6,"station_name":"Rawa Buntu","transit":false,"i_long":106.675475,"station_id":"RU","is_transit":false,"i_lat":-6.314823,"time":4},{"station_name":"Sudimara","i_lat":-6.296963,"station_id":"SDM","is_transit":false,"i_long":106.712277,"transit":false,"line":6,"distance":4566,"time":6},{"transit":false,"time":4,"is_transit":false,"i_long":106.728916,"distance":1994,"i_lat":-6.288927,"station_id":"JMU","station_name":"Jurangmangu","line":6},{"i_lat":-6.276362,"transit":false,"station_name":"Pondokranji","line":6,"distance":2179,"is_transit":false,"i_long":106.74273,"station_id":"PDJ","time":3},{"station_name":"Kebayoran","time":8,"is_transit":false,"line":6,"distance":6218,"transit":false,"station_id":"KBY","i_lat":-6.237242,"i_long":106.780334},{"i_long":106.79689,"transit":false,"is_transit":false,"station_name":"Palmerah","line":6,"i_lat":-6.207404,"station_id":"PLM","distance":3737,"time":7},{"is_transit":true,"station_id":"THB","time":6,"station_name":"Tanah Abang","i_lat":-6.185545,"i_long":106.811091,"line":1,"transit":true,"distance":3191},{"station_id":"KAT","i_lat":-6.20132,"station_name":"Karet","line":1,"i_long":106.816351,"distance":2029,"transit":false,"time":5,"is_transit":false},{"i_long":106.819881,"station_id":"SUDB","distance":471,"i_lat":-6.201433,"line":1,"transit":false,"station_name":"Sudirman Baru","time":1,"is_transit":false},{"distance":280,"is_transit":false,"i_long":106.822649,"i_lat":-6.202263,"station_name":"Sudirman","line":1,"station_id":"SUD","time":1,"transit":false},{"time":4,"is_transit":true,"line":2,"transit":true,"station_name":"Manggarai","station_id":"MRI","i_lat":-6.209883,"i_long":106.84912,"distance":3186},{"transit":false,"line":2,"station_name":"Cikini","is_transit":false,"distance":1590,"i_lat":-6.198556,"i_long":106.840169,"station_id":"CKI","time":4},{"distance":1750,"transit":false,"time":3,"line":2,"is_transit":false,"i_long":106.832183,"station_id":"GDD","station_name":"Gondangdia","i_lat":-6.186295},{"i_lat":-6.166716,"line":2,"distance":2015,"station_id":"JUA","transit":false,"time":4,"station_name":"Juanda","is_transit":false,"i_long":106.828284},{"station_name":"Sawah Besar","transit":false,"i_long":106.827103,"time":2,"is_transit":false,"distance":1149,"i_lat":-6.160725,"station_id":"SW","line":2},{"time":2,"station_id":"MGB","i_lat":-6.149769,"line":2,"is_transit":false,"transit":false,"distance":906,"station_name":"Manggabesar","i_long":106.82482},{"i_lat":-6.141205,"transit":false,"station_id":"JAY","distance":1080,"time":2,"i_long":106.820901,"line":2,"is_transit":false,"station_name":"Jayakarta"},{"station_id":"JAKK","transit":true,"time":4,"station_name":"Jakarta Kota","i_lat":-6.137569,"is_transit":true,"line":2,"distance":1264,"i_long":106.812439},{"distance":1364,"i_lat":-6.132549,"station_id":"KPB","line":4,"is_transit":true,"i_long":106.826365,"transit":true,"station_name":"Kampung Bandan","time":3},{"line":11,"is_transit":false,"distance":1444,"i_lat":-6.14505,"station_name":"Rajawali","i_long":106.836569,"transit":false,"time":3,"station_id":"RJW"},{"station_id":"KMO","transit":false,"time":5,"i_lat":-6.161728,"line":11,"station_name":"Kemayoran","i_long":106.839204,"distance":1901,"is_transit":false},{"station_name":"Pasar Senen","line":11,"station_id":"PSE","distance":1436,"i_long":106.84368,"time":4,"is_transit":false,"i_lat":-6.174784,"transit":false},{"i_lat":-6.185975,"is_transit":false,"station_name":"Gang Sentiong","line":11,"transit":false,"distance":1567,"station_id":"GST","time":8,"i_long":106.850107},{"i_lat":-6.193792,"time":1,"distance":973,"i_long":106.855437,"transit":false,"is_transit":false,"line":11,"station_name":"Kramat","station_id":"KMT"},{"station_name":"Pondok Jati","time":2,"i_lat":-6.209188,"line":11,"is_transit":false,"distance":1829,"station_id":"POK","transit":false,"i_long":106.861737},{"i_lat":-6.215091,"distance":1236,"time":9,"transit":true,"i_long":106.86807400000001,"station_name":"Jatinegara","line":1,"is_transit":true,"station_id":"JNG"},{"is_transit":false,"transit":false,"station_id":"KLD","station_name":"Klender","i_lat":-6.2135,"line":1,"time":3,"i_long":106.899548,"distance":3395},{"station_id":"BUA","time":2,"i_lat":-6.215568,"distance":3100,"station_name":"Buaran","is_transit":false,"line":1,"transit":false,"i_long":106.922662},{"transit":false,"distance":1305,"i_long":106.939679,"is_transit":false,"station_name":"Klenderbaru","i_lat":-6.217455,"line":1,"time":1,"station_id":"KLDB"},{"i_lat":-6.219053,"i_long":106.951283,"transit":false,"time":8,"station_id":"CUK","is_transit":false,"distance":1385,"line":1,"station_name":"Cakung"},{"station_id":"KRI","station_name":"Kranji","i_lat":-6.224515,"line":1,"transit":false,"time":3,"i_long":106.977657,"is_transit":false,"distance":3097},{"distance":2520,"station_id":"BKS","time":4,"line":1,"i_lat":-6.236616,"station_name":"Bekasi","is_transit":false,"i_long":106.997013,"transit":false}]]}