{"data":[[{"transit":false,"station_name":"Tenjo","line":6,"station_id":"TEJ","is_transit":false,"time":0,"distance":0,"i_lat":-6.327251,"i_long":106.460812},{"time":5,"distance":3902,"station_name":"Daru","is_transit":false,"i_lat":-6.338021,"line":0,"i_long":106.491338,"station_id":"DAR","transit":false},{"distance":2675,"transit":false,"i_long":106.508482,"i_lat":-6.354349,"station_name":"Cilejit","is_transit":false,"station_id":"CJT","time":6,"line":3},{"i_long":106.568863,"line":6,"distance":7025,"i_lat":-6.3441410000000005,"is_transit":false,"time":9,"station_name":"Parung Panjang","station_id":"PRP","transit":false},{"line":3,"time":8,"station_id":"CC","transit":false,"i_lat":-6.329547,"is_transit":false,"i_long":106.617853,"station_name":"Cicayur","distance":5968},{"distance":2519,"station_id":"CSK","station_name":"Cisauk","transit":false,"line":3,"i_long":106.640411,"is_transit":false,"i_lat":-6.32484,"time":4},{"distance":1784,"transit":false,"i_long":106.66566,"line":6,"i_lat":-6.319871,"station_id":"SRP","station_name":"Serpong","time":4,"is_transit":false},{"line":6,"station_id":"RU","distance":2413,"transit":false,"station_name":"Rawa Buntu","i_lat":-6.314823,"is_transit":false,"i_long":106.675475,"time":4},{"i_long":106.712277,"distance":4566,"line":6,"transit":false,"time":6,"station_name":"Sudimara","is_transit":false,"station_id":"SDM","i_lat":-6.296963},{"time":4,"station_name":"Jurangmangu","station_id":"JMU","i_long":106.728916,"transit":false,"line":6,"is_transit":false,"distance":1994,"i_lat":-6.288927},{"distance":2179,"i_long":106.74273,"station_id":"PDJ","station_name":"Pondokranji","i_lat":-6.276362,"time":3,"is_transit":false,"transit":false,"line":6},{"station_name":"Kebayoran","station_id":"KBY","line":6,"time":8,"i_long":106.780334,"transit":false,"is_transit":false,"i_lat":-6.237242,"distance":6218},{"station_id":"PLM","i_lat":-6.207404,"station_name":"Palmerah","line":6,"time":7,"transit":false,"is_transit":false,"i_long":106.79689,"distance":3737},{"line":1,"is_transit":true,"distance":3191,"i_long":106.811091,"time":6,"station_id":"THB","transit":true,"i_lat":-6.185545,"station_name":"Tanah Abang"},{"distance":3632,"transit":false,"line":1,"time":8,"station_id":"DU","station_name":"Duri","is_transit":false,"i_long":106.800832,"i_lat":-6.155215},{"station_id":"AK","i_lat":-6.144674,"i_long":106.79867,"is_transit":false,"distance":1230,"station_name":"Angke","transit":false,"line":1,"time":4},{"line":4,"i_long":106.826365,"time":9,"distance":4102,"station_name":"Kampung Bandan","is_transit":true,"station_id":"KPB","transit":true,"i_lat":-6.132549},{"transit":false,"distance":1444,"line":11,"station_name":"Rajawali","is_transit":false,"i_lat":-6.14505,"i_long":106.836569,"time":3,"station_id":"RJW"},{"i_long":106.839204,"is_transit":false,"time":5,"station_id":"KMO","i_lat":-6.161728,"distance":1901,"line":11,"station_name":"Kemayoran","transit":false},{"line":11,"transit":false,"i_lat":-6.174784,"is_transit":false,"station_id":"PSE","time":4,"distance":1436,"station_name":"Pasar Senen","i_long":106.84368}],[{"i_long":106.460812,"time":0,"transit":false,"is_transit":false,"station_id":"TEJ","station_name":"Tenjo","i_lat":-6.327251,"line":6,"distance":0},{"transit":false,"i_lat":-6.338021,"line":0,"station_id":"DAR","i_long":106.491338,"time":5,"is_transit":false,"station_name":"Daru","distance":3902},{"transit":false,"is_transit":false,"station_name":"Cilejit","station_id":"CJT","distance":2675,"i_lat":-6.354349,"line":3,"time":6,"i_long":106.508482},{"time":9,"distance":7025,"i_long":106.568863,"station_name":"Parung Panjang","i_lat":-6.3441410000000005,"transit":false,"is_transit":false,"station_id":"PRP","line":6},{"station_id":"CC","distance":5968,"time":8,"station_name":"Cicayur","i_long":106.617853,"line":3,"is_transit":false,"i_lat":-6.329547,"transit":false},{"distance":2519,"station_name":"Cisauk","transit":false,"i_long":106.640411,"line":3,"time":4,"station_id":"CSK","i_lat":-6.32484,"is_transit":false},{"distance":1784,"time":4,"is_transit":false,"station_id":"SRP","i_long":106.66566,"line":6,"i_lat":-6.319871,"transit":false,"station_name":"Serpong"},{"i_long":106.675475,"i_lat":-6.314823,"time":4,"distance":2413,"line":6,"station_name":"Rawa Buntu","transit":false,"is_transit":false,"station_id":"RU"},{"line":6,"i_lat":-6.296963,"station_id":"SDM","i_long":106.712277,"distance":4566,"is_transit":false,"transit":false,"station_name":"Sudimara","time":6},{"is_transit":false,"time":4,"i_long":106.728916,"distance":1994,"line":6,"station_name":"Jurangmangu","i_lat":-6.288927,"transit":false,"station_id":"JMU"},{"i_lat":-6.276362,"distance":2179,"time":3,"i_long":106.74273,"station_name":"Pondokranji","is_transit":false,"line":6,"transit":false,"station_id":"PDJ"},{"i_lat":-6.237242,"distance":6218,"is_transit":false,"station_name":"Kebayoran","station_id":"KBY","line":6,"time":8,"transit":false,"i_long":106.780334},{"line":6,"distance":3737,"time":7,"station_name":"Palmerah","is_transit":false,"station_id":"PLM","i_lat":-6.207404,"i_long":106.79689,"transit":false},{"i_lat":-6.185545,"station_name":"Tanah Abang","station_id":"THB","distance":3191,"time":6,"is_transit":true,"transit":true,"line":1,"i_long":106.811091},{"transit":false,"distance":2029,"station_name":"Karet","station_id":"KAT","is_transit":false,"i_lat":-6.20132,"i_long":106.816351,"line":1,"time":5},{"transit":false,"station_id":"SUDB","i_long":106.819881,"station_name":"Sudirman Baru","distance":471,"is_transit":false,"line":1,"i_lat":-6.201433,"time":1},{"time":1,"transit":false,"i_lat":-6.202263,"station_id":"SUD","line":1,"station_name":"Sudirman","is_transit":false,"distance":280,"i_long":106.822649},{"distance":3186,"is_transit":false,"station_id":"MRI","station_name":"Manggarai","i_lat":-6.209883,"line":2,"time":4,"i_long":106.84912,"transit":false},{"station_id":"MTR","is_transit":false,"line":1,"time":2,"transit":false,"distance":1275,"station_name":"Matraman","i_lat":-6.212485,"i_long":106.858896},{"i_long":106.86807400000001,"station_id":"JNG","station_name":"Jatinegara","distance":1377,"transit":true,"line":1,"time":8,"is_transit":true,"i_lat":-6.215091},{"station_name":"Pondok Jati","is_transit":false,"time":2,"i_lat":-6.209188,"station_id":"POK","transit":false,"line":11,"i_long":106.861737,"distance":1236},{"station_name":"Kramat","station_id":"KMT","i_lat":-6.193792,"i_long":106.855437,"is_transit":false,"transit":false,"line":11,"distance":1829,"time":2},{"transit":false,"i_long":106.850107,"line":11,"time":1,"station_name":"Gang Sentiong","station_id":"GST","is_transit":false,"distance":973,"i_lat":-6.185975},{"distance":1567,"station_id":"PSE","time":8,"station_name":"Pasar Senen","is_transit":false,"transit":false,"i_lat":-6.174784,"i_long":106.84368,"line":11}],[{"i_lat":-6.327251,"is_transit":false,"station_id":"TEJ","i_long":106.460812,"time":0,"transit":false,"line":6,"station_name":"Tenjo","distance":0},{"distance":3902,"i_lat":-6.338021,"line":0,"i_long":106.491338,"is_transit":false,"station_name":"Daru","time":5,"station_id":"DAR","transit":false},{"station_id":"CJT","is_transit":false,"i_long":106.508482,"transit":false,"time":6,"station_name":"Cilejit","line":3,"i_lat":-6.354349,"distance":2675},{"transit":false,"is_transit":false,"i_lat":-6.3441410000000005,"line":6,"station_name":"Parung Panjang","i_long":106.568863,"time":9,"distance":7025,"station_id":"PRP"},{"distance":5968,"i_lat":-6.329547,"is_transit":false,"transit":false,"time":8,"i_long":106.617853,"line":3,"station_name":"Cicayur","station_id":"CC"},{"distance":2519,"station_id":"CSK","is_transit":false,"station_name":"Cisauk","line":3,"time":4,"i_lat":-6.32484,"i_long":106.640411,"transit":false},{"station_name":"Serpong","transit":false,"is_transit":false,"station_id":"SRP","distance":1784,"line":6,"i_lat":-6.319871,"time":4,"i_long":106.66566},{"transit":false,"distance":2413,"line":6,"i_lat":-6.314823,"time":4,"is_transit":false,"station_id":"RU","i_long":106.675475,"station_name":"Rawa Buntu"},{"distance":4566,"line":6,"time":6,"i_lat":-6.296963,"station_name":"Sudimara","transit":false,"i_long":106.712277,"station_id":"SDM","is_transit":false},{"station_id":"JMU","time":4,"transit":false,"i_long":106.728916,"distance":1994,"i_lat":-6.288927,"line":6,"is_transit":false,"station_name":"Jurangmangu"},{"station_id":"PDJ","i_lat":-6.276362,"is_transit":false,"line":6,"station_name":"Pondokranji","transit":false,"time":3,"distance":2179,"i_long":106.74273},{"line":6,"i_long":106.780334,"station_name":"Kebayoran","distance":6218,"transit":false,"time":8,"station_id":"KBY","is_transit":false,"i_lat":-6.237242},{"time":7,"station_name":"Palmerah","i_lat":-6.207404,"i_long":106.79689,"is_transit":false,"distance":3737,"line":6,"transit":false,"station_id":"PLM"},{"station_id":"THB","time":6,"distance":3191,"i_lat":-6.185545,"is_transit":true,"line":1,"station_name":"Tanah Abang","i_long":106.811091,"transit":true},{"station_id":"KAT","distance":2029,"transit":false,"i_lat":-6.20132,"line":1,"time":5,"is_transit":false,"station_name":"Karet","i_long":106.816351},{"time":1,"is_transit":false,"transit":false,"i_lat":-6.201433,"station_id":"SUDB","distance":471,"line":1,"station_name":"Sudirman Baru","i_long":106.819881},{"time":1,"i_long":106.822649,"transit":false,"station_name":"Sudirman","is_transit":false,"distance":280,"station_id":"SUD","i_lat":-6.202263,"line":1},{"distance":3186,"i_lat":-6.209883,"i_long":106.84912,"transit":true,"station_id":"MRI","station_name":"Manggarai","time":4,"is_transit":true,"line":2},{"is_transit":false,"distance":1590,"i_lat":-6.198556,"station_name":"Cikini","time":4,"station_id":"CKI","transit":false,"line":2,"i_long":106.840169},{"station_id":"GDD","i_lat":-6.186295,"distance":1750,"station_name":"Gondangdia","line":2,"is_transit":false,"time":3,"i_long":106.832183,"transit":false},{"transit":false,"time":4,"i_lat":-6.166716,"i_long":106.828284,"station_id":"JUA","is_transit":false,"line":2,"station_name":"Juanda","distance":2015},{"is_transit":false,"transit":false,"i_lat":-6.160725,"time":2,"i_long":106.827103,"station_id":"SW","distance":1149,"line":2,"station_name":"Sawah Besar"},{"station_id":"MGB","time":2,"i_long":106.82482,"i_lat":-6.149769,"is_transit":false,"distance":906,"line":2,"station_name":"Manggabesar","transit":false},{"time":2,"station_id":"JAY","distance":1080,"i_lat":-6.141205,"line":2,"is_transit":false,"station_name":"Jayakarta","i_long":106.820901,"transit":false},{"transit":true,"i_lat":-6.137569,"distance":1264,"station_name":"Jakarta Kota","time":4,"is_transit":true,"station_id":"JAKK","line":2,"i_long":106.812439},{"is_transit":true,"i_lat":-6.132549,"time":3,"station_name":"Kampung Bandan","station_id":"KPB","line":4,"i_long":106.826365,"distance":1364,"transit":true},{"transit":false,"i_lat":-6.14505,"time":3,"distance":1444,"station_name":"Rajawali","line":11,"i_long":106.836569,"is_transit":false,"station_id":"RJW"},{"station_id":"KMO","i_lat":-6.161728,"transit":false,"is_transit":false,"distance":1901,"i_long":106.839204,"station_name":"Kemayoran","time":5,"line":11},{"distance":1436,"transit":false,"is_transit":false,"i_lat":-6.174784,"time":4,"i_long":106.84368,"station_id":"PSE","line":11,"station_name":"Pasar Senen"}],[{"time":0,"station_id":"TEJ","i_long":106.460812,"distance":0,"i_lat":-6.327251,"station_name":"Tenjo","is_transit":false,"transit":false,"line":6},{"time":5,"i_lat":-6.338021,"i_long":106.491338,"station_id":"DAR","line":0,"station_name":"Daru","transit":false,"is_transit":false,"distance":3902},{"station_name":"Cilejit","line":3,"distance":2675,"is_transit":false,"station_id":"CJT","transit":false,"i_lat":-6.354349,"time":6,"i_long":106.508482},{"line":6,"station_id":"PRP","time":9,"is_transit":false,"i_lat":-6.3441410000000005,"distance":7025,"transit":false,"station_name":"Parung Panjang","i_long":106.568863},{"is_transit":false,"time":8,"transit":false,"station_name":"Cicayur","i_lat":-6.329547,"distance":5968,"station_id":"CC","i_long":106.617853,"line":3},{"transit":false,"i_lat":-6.32484,"distance":2519,"i_long":106.640411,"time":4,"line":3,"station_name":"Cisauk","is_transit":false,"station_id":"CSK"},{"i_long":106.66566,"i_lat":-6.319871,"distance":1784,"time":4,"is_transit":false,"station_name":"Serpong","station_id":"SRP","transit":false,"line":6},{"i_lat":-6.314823,"i_long":106.675475,"time":4,"station_name":"Rawa Buntu","station_id":"RU","distance":2413,"transit":false,"line":6,"is_transit":false},{"i_lat":-6.296963,"distance":4566,"station_name":"Sudimara","time":6,"station_id":"SDM","is_transit":false,"transit":false,"i_long":106.712277,"line":6},{"time":4,"i_lat":-6.288927,"transit":false,"station_id":"JMU","line":6,"station_name":"Jurangmangu","is_transit":false,"i_long":106.728916,"distance":1994},{"time":3,"i_lat":-6.276362,"i_long":106.74273,"line":6,"station_name":"Pondokranji","is_transit":false,"distance":2179,"station_id":"PDJ","transit":false},{"station_name":"Kebayoran","is_transit":false,"station_id":"KBY","line":6,"time":8,"i_lat":-6.237242,"transit":false,"distance":6218,"i_long":106.780334},{"line":6,"i_lat":-6.207404,"time":7,"station_name":"Palmerah","transit":false,"i_long":106.79689,"distance":3737,"is_transit":false,"station_id":"PLM"},{"station_id":"THB","time":6,"line":1,"i_long":106.811091,"is_transit":true,"transit":true,"station_name":"Tanah Abang","i_lat":-6.185545,"distance":3191},{"is_transit":false,"transit":false,"time":8,"line":1,"i_lat":-6.155215,"distance":3632,"station_name":"Duri","station_id":"DU","i_long":106.800832},{"time":4,"distance":1230,"is_transit":false,"station_id":"AK","transit":false,"i_long":106.79867,"line":1,"i_lat":-6.144674,"station_name":"Angke"},{"is_transit":true,"time":9,"station_name":"Kampung Bandan","i_lat":-6.132549,"i_long":106.826365,"distance":4102,"line":4,"transit":true,"station_id":"KPB"},{"distance":1364,"time":3,"is_transit":true,"i_long":106.812439,"station_name":"Jakarta Kota","line":2,"station_id":"JAKK","transit":true,"i_lat":-6.137569},{"station_id":"JAY","i_long":106.820901,"station_name":"Jayakarta","line":2,"distance":1264,"time":4,"is_transit":false,"i_lat":-6.141205,"transit":false},{"distance":1080,"is_transit":false,"station_id":"MGB","station_name":"Manggabesar","i_long":106.82482,"line":2,"transit":false,"i_lat":-6.149769,"time":2},{"i_long":106.827103,"line":2,"distance":906,"station_name":"Sawah Besar","time":2,"station_id":"SW","is_transit":false,"transit":false,"i_lat":-6.160725},{"time":2,"is_transit":false,"distance":1149,"line":2,"transit":false,"i_lat":-6.166716,"station_name":"Juanda","station_id":"JUA","i_long":106.828284},{"i_long":106.832183,"time":4,"is_transit":false,"i_lat":-6.186295,"station_name":"Gondangdia","station_id":"GDD","distance":2015,"transit":false,"line":2},{"station_name":"Cikini","line":2,"i_long":106.840169,"i_lat":-6.198556,"distance":1750,"is_transit":false,"transit":false,"station_id":"CKI","time":3},{"transit":true,"i_long":106.84912,"line":2,"i_lat":-6.209883,"distance":1590,"station_name":"Manggarai","station_id":"MRI","time":4,"is_transit":true},{"distance":1275,"is_transit":false,"time":2,"station_name":"Matraman","i_lat":-6.212485,"station_id":"MTR","line":1,"i_long":106.858896,"transit":false},{"distance":1377,"station_id":"JNG","i_lat":-6.215091,"line":1,"is_transit":true,"i_long":106.86807400000001,"time":8,"station_name":"Jatinegara","transit":true},{"line":11,"time":2,"station_name":"Pondok Jati","transit":false,"distance":1236,"is_transit":false,"i_lat":-6.209188,"i_long":106.861737,"station_id":"POK"},{"i_long":106.855437,"time":2,"station_name":"Kramat","i_lat":-6.193792,"distance":1829,"transit":false,"station_id":"KMT","is_transit":false,"line":11},{"transit":false,"time":1,"line":11,"distance":973,"station_id":"GST","i_long":106.850107,"station_name":"Gang Sentiong","i_lat":-6.185975,"is_transit":false},{"is_transit":false,"station_name":"Pasar Senen","i_long":106.84368,"line":11,"distance":1567,"time":8,"station_id":"PSE","i_lat":-6.174784,"transit":false}]]}