{"data":[[{"transit":false,"line":6,"station_id":"TEJ","station_name":"Tenjo","is_transit":false,"time":0,"i_lat":-6.327251,"i_long":106.460812,"distance":0},{"station_id":"DAR","i_lat":-6.338021,"distance":3902,"time":5,"is_transit":false,"station_name":"Daru","i_long":106.491338,"transit":false,"line":0},{"station_name":"Cilejit","i_lat":-6.354349,"i_long":106.508482,"station_id":"CJT","is_transit":false,"transit":false,"line":3,"distance":2675,"time":6},{"station_name":"Parung Panjang","i_lat":-6.3441410000000005,"line":6,"distance":7025,"transit":false,"station_id":"PRP","time":9,"is_transit":false,"i_long":106.568863},{"line":3,"distance":5968,"is_transit":false,"transit":false,"time":8,"station_id":"CC","i_long":106.617853,"i_lat":-6.329547,"station_name":"Cicayur"},{"transit":false,"station_id":"CSK","station_name":"Cisauk","i_lat":-6.32484,"distance":2519,"line":3,"i_long":106.640411,"is_transit":false,"time":4},{"station_name":"Serpong","line":6,"distance":1784,"station_id":"SRP","i_lat":-6.319871,"i_long":106.66566,"time":4,"transit":false,"is_transit":false},{"i_lat":-6.314823,"line":6,"i_long":106.675475,"transit":false,"distance":2413,"station_name":"Rawa Buntu","time":4,"is_transit":false,"station_id":"RU"}]]}