{"data":[[{"i_lat":-6.327251,"i_long":106.460812,"is_transit":false,"line":6,"time":0,"station_name":"Tenjo","distance":0,"station_id":"TEJ","transit":false},{"time":5,"station_name":"Daru","is_transit":false,"i_lat":-6.338021,"distance":3902,"transit":false,"station_id":"DAR","line":0,"i_long":106.491338},{"transit":false,"line":3,"station_id":"CJT","distance":2675,"time":6,"i_lat":-6.354349,"is_transit":false,"station_name":"Cilejit","i_long":106.508482},{"i_long":106.568863,"station_id":"PRP","time":9,"distance":7025,"transit":false,"i_lat":-6.3441410000000005,"station_name":"Parung Panjang","line":6,"is_transit":false},{"station_name":"Cicayur","i_long":106.617853,"time":8,"distance":5968,"transit":false,"is_transit":false,"i_lat":-6.329547,"station_id":"CC","line":3},{"i_lat":-6.32484,"station_id":"CSK","distance":2519,"is_transit":false,"station_name":"Cisauk","time":4,"transit":false,"line":3,"i_long":106.640411},{"i_lat":-6.319871,"line":6,"distance":1784,"is_transit":false,"station_name":"Serpong","transit":false,"station_id":"SRP","i_long":106.66566,"time":4},{"time":4,"distance":2413,"i_lat":-6.314823,"line":6,"transit":false,"is_transit":false,"station_id":"RU","station_name":"Rawa Buntu","i_long":106.675475},{"i_lat":-6.296963,"is_transit":false,"transit":false,"i_long":106.712277,"distance":4566,"station_name":"Sudimara","station_id":"SDM","line":6,"time":6},{"is_transit":false,"transit":false,"time":4,"i_lat":-6.288927,"i_long":106.728916,"distance":1994,"station_name":"Jurangmangu","line":6,"station_id":"JMU"},{"line":6,"time":3,"station_name":"Pondokranji","i_long":106.74273,"is_transit":false,"distance":2179,"station_id":"PDJ","i_lat":-6.276362,"transit":false},{"time":8,"station_id":"KBY","transit":false,"i_lat":-6.237242,"i_long":106.780334,"line":6,"distance":6218,"is_transit":false,"station_name":"Kebayoran"},{"station_name":"Palmerah","station_id":"PLM","transit":false,"i_lat":-6.207404,"i_long":106.79689,"distance":3737,"line":6,"time":7,"is_transit":false},{"i_long":106.811091,"is_transit":true,"line":1,"i_lat":-6.185545,"distance":3191,"time":6,"station_name":"Tanah Abang","station_id":"THB","transit":true},{"distance":2029,"i_lat":-6.20132,"station_name":"Karet","is_transit":false,"time":5,"i_long":106.816351,"line":1,"transit":false,"station_id":"KAT"},{"is_transit":false,"distance":471,"transit":false,"station_name":"Sudirman Baru","station_id":"SUDB","i_lat":-6.201433,"i_long":106.819881,"line":1,"time":1},{"distance":280,"line":1,"is_transit":false,"time":1,"i_lat":-6.202263,"station_id":"SUD","transit":false,"i_long":106.822649,"station_name":"Sudirman"},{"time":4,"i_lat":-6.209883,"is_transit":false,"distance":3186,"i_long":106.84912,"station_name":"Manggarai","line":2,"transit":false,"station_id":"MRI"},{"station_name":"Matraman","line":1,"time":2,"is_transit":false,"i_long":106.858896,"transit":false,"station_id":"MTR","distance":1275,"i_lat":-6.212485},{"i_long":106.86807400000001,"line":1,"station_id":"JNG","station_name":"Jatinegara","i_lat":-6.215091,"is_transit":false,"transit":false,"distance":1377,"time":8},{"station_id":"KLD","line":1,"i_long":106.899548,"is_transit":false,"station_name":"Klender","distance":3395,"time":3,"i_lat":-6.2135,"transit":false},{"i_lat":-6.215568,"i_long":106.922662,"is_transit":false,"station_id":"BUA","time":2,"line":1,"transit":false,"station_name":"Buaran","distance":3100},{"i_long":106.939679,"is_transit":false,"transit":false,"time":1,"line":1,"station_id":"KLDB","station_name":"Klenderbaru","i_lat":-6.217455,"distance":1305},{"line":1,"i_long":106.951283,"transit":false,"distance":1385,"time":8,"station_name":"Cakung","station_id":"CUK","i_lat":-6.219053,"is_transit":false},{"time":3,"transit":false,"is_transit":false,"i_lat":-6.224515,"distance":3097,"station_id":"KRI","line":1,"station_name":"Kranji","i_long":106.977657},{"i_lat":-6.236616,"distance":2520,"station_name":"Bekasi","is_transit":false,"transit":false,"i_long":106.997013,"line":1,"time":4,"station_id":"BKS"},{"station_name":"Bekasi Timur","i_long":107.016735,"distance":2368,"transit":false,"station_id":"BKST","time":2,"i_lat":-6.248029,"line":1,"is_transit":false},{"i_lat":-6.258864,"distance":4460,"is_transit":false,"line":1,"time":7,"transit":false,"station_name":"Tambun","station_id":"TB","i_long":107.055722}],[{"is_transit":false,"line":6,"i_lat":-6.327251,"time":0,"station_id":"TEJ","distance":0,"transit":false,"i_long":106.460812,"station_name":"Tenjo"},{"i_long":106.491338,"distance":3902,"line":0,"is_transit":false,"station_id":"DAR","time":5,"station_name":"Daru","transit":false,"i_lat":-6.338021},{"i_long":106.508482,"station_name":"Cilejit","is_transit":false,"line":3,"transit":false,"station_id":"CJT","i_lat":-6.354349,"time":6,"distance":2675},{"time":9,"i_lat":-6.3441410000000005,"i_long":106.568863,"line":6,"station_name":"Parung Panjang","distance":7025,"station_id":"PRP","transit":false,"is_transit":false},{"line":3,"station_id":"CC","station_name":"Cicayur","transit":false,"i_long":106.617853,"is_transit":false,"distance":5968,"time":8,"i_lat":-6.329547},{"station_name":"Cisauk","is_transit":false,"station_id":"CSK","i_lat":-6.32484,"time":4,"distance":2519,"i_long":106.640411,"line":3,"transit":false},{"station_id":"SRP","transit":false,"time":4,"is_transit":false,"station_name":"Serpong","distance":1784,"i_lat":-6.319871,"line":6,"i_long":106.66566},{"i_long":106.675475,"line":6,"is_transit":false,"station_name":"Rawa Buntu","transit":false,"i_lat":-6.314823,"station_id":"RU","time":4,"distance":2413},{"time":6,"station_id":"SDM","is_transit":false,"i_lat":-6.296963,"i_long":106.712277,"distance":4566,"station_name":"Sudimara","line":6,"transit":false},{"station_id":"JMU","station_name":"Jurangmangu","line":6,"i_lat":-6.288927,"distance":1994,"is_transit":false,"time":4,"i_long":106.728916,"transit":false},{"station_name":"Pondokranji","transit":false,"station_id":"PDJ","i_long":106.74273,"distance":2179,"time":3,"i_lat":-6.276362,"is_transit":false,"line":6},{"distance":6218,"station_id":"KBY","transit":false,"i_long":106.780334,"line":6,"time":8,"station_name":"Kebayoran","is_transit":false,"i_lat":-6.237242},{"transit":false,"time":7,"distance":3737,"station_id":"PLM","line":6,"station_name":"Palmerah","i_long":106.79689,"is_transit":false,"i_lat":-6.207404},{"station_name":"Tanah Abang","is_transit":true,"station_id":"THB","transit":true,"i_long":106.811091,"distance":3191,"line":1,"i_lat":-6.185545,"time":6},{"is_transit":false,"station_id":"DU","time":8,"i_lat":-6.155215,"station_name":"Duri","i_long":106.800832,"transit":false,"line":1,"distance":3632},{"is_transit":false,"transit":false,"station_name":"Angke","i_long":106.79867,"station_id":"AK","line":1,"time":4,"distance":1230,"i_lat":-6.144674},{"is_transit":true,"distance":4102,"station_name":"Kampung Bandan","i_long":106.826365,"i_lat":-6.132549,"station_id":"KPB","time":9,"transit":true,"line":4},{"transit":false,"is_transit":false,"i_long":106.836569,"line":11,"station_id":"RJW","time":3,"distance":1444,"i_lat":-6.14505,"station_name":"Rajawali"},{"line":11,"i_long":106.839204,"is_transit":false,"time":5,"i_lat":-6.161728,"distance":1901,"station_id":"KMO","station_name":"Kemayoran","transit":false},{"is_transit":false,"i_lat":-6.174784,"i_long":106.84368,"distance":1436,"station_id":"PSE","transit":false,"station_name":"Pasar Senen","time":4,"line":11},{"is_transit":false,"transit":false,"station_name":"Gang Sentiong","i_lat":-6.185975,"station_id":"GST","i_long":106.850107,"line":11,"distance":1567,"time":8},{"i_long":106.855437,"station_name":"Kramat","time":1,"line":11,"is_transit":false,"i_lat":-6.193792,"distance":973,"station_id":"KMT","transit":false},{"station_name":"Pondok Jati","transit":false,"is_transit":false,"i_lat":-6.209188,"line":11,"station_id":"POK","i_long":106.861737,"time":2,"distance":1829},{"i_long":106.86807400000001,"line":1,"station_id":"JNG","transit":true,"distance":1236,"i_lat":-6.215091,"time":9,"is_transit":true,"station_name":"Jatinegara"},{"i_lat":-6.2135,"station_name":"Klender","i_long":106.899548,"is_transit":false,"line":1,"time":3,"distance":3395,"station_id":"KLD","transit":false},{"i_lat":-6.215568,"i_long":106.922662,"line":1,"is_transit":false,"time":2,"distance":3100,"station_id":"BUA","transit":false,"station_name":"Buaran"},{"transit":false,"time":1,"is_transit":false,"station_name":"Klenderbaru","i_long":106.939679,"line":1,"distance":1305,"station_id":"KLDB","i_lat":-6.217455},{"i_lat":-6.219053,"i_long":106.951283,"distance":1385,"time":8,"transit":false,"is_transit":false,"line":1,"station_name":"Cakung","station_id":"CUK"},{"line":1,"i_lat":-6.224515,"station_id":"KRI","distance":3097,"transit":false,"station_name":"Kranji","is_transit":false,"time":3,"i_long":106.977657},{"is_transit":false,"station_name":"Bekasi","station_id":"BKS","transit":false,"line":1,"time":4,"i_long":106.997013,"i_lat":-6.236616,"distance":2520},{"transit":false,"i_lat":-6.248029,"station_id":"BKST","i_long":107.016735,"time":2,"line":1,"station_name":"Bekasi Timur","distance":2368,"is_transit":false},{"i_long":107.055722,"station_id":"TB","distance":4460,"time":7,"i_lat":-6.258864,"line":1,"transit":false,"is_transit":false,"station_name":"Tambun"}],[{"station_id":"TEJ","i_long":106.460812,"distance":0,"transit":false,"line":6,"i_lat":-6.327251,"station_name":"Tenjo","time":0,"is_transit":false},{"time":5,"i_lat":-6.338021,"i_long":106.491338,"is_transit":false,"station_id":"DAR","line":0,"transit":false,"station_name":"Daru","distance":3902},{"time":6,"distance":2675,"line":3,"is_transit":false,"transit":false,"i_lat":-6.354349,"i_long":106.508482,"station_id":"CJT","station_name":"Cilejit"},{"station_name":"Parung Panjang","transit":false,"time":9,"line":6,"distance":7025,"i_lat":-6.3441410000000005,"station_id":"PRP","i_long":106.568863,"is_transit":false},{"station_id":"CC","distance":5968,"transit":false,"station_name":"Cicayur","i_lat":-6.329547,"is_transit":false,"line":3,"i_long":106.617853,"time":8},{"is_transit":false,"station_id":"CSK","distance":2519,"transit":false,"i_long":106.640411,"line":3,"i_lat":-6.32484,"time":4,"station_name":"Cisauk"},{"i_long":106.66566,"i_lat":-6.319871,"time":4,"is_transit":false,"station_id":"SRP","distance":1784,"line":6,"transit":false,"station_name":"Serpong"},{"distance":2413,"station_name":"Rawa Buntu","station_id":"RU","transit":false,"time":4,"i_lat":-6.314823,"i_long":106.675475,"line":6,"is_transit":false},{"time":6,"i_long":106.712277,"transit":false,"line":6,"is_transit":false,"distance":4566,"station_id":"SDM","i_lat":-6.296963,"station_name":"Sudimara"},{"time":4,"i_long":106.728916,"line":6,"is_transit":false,"station_name":"Jurangmangu","distance":1994,"station_id":"JMU","i_lat":-6.288927,"transit":false},{"i_long":106.74273,"time":3,"line":6,"station_name":"Pondokranji","transit":false,"is_transit":false,"i_lat":-6.276362,"station_id":"PDJ","distance":2179},{"i_lat":-6.237242,"is_transit":false,"station_id":"KBY","distance":6218,"station_name":"Kebayoran","time":8,"i_long":106.780334,"line":6,"transit":false},{"distance":3737,"station_id":"PLM","is_transit":false,"i_long":106.79689,"station_name":"Palmerah","transit":false,"line":6,"time":7,"i_lat":-6.207404},{"time":6,"is_transit":true,"line":1,"distance":3191,"station_id":"THB","transit":true,"station_name":"Tanah Abang","i_long":106.811091,"i_lat":-6.185545},{"transit":false,"is_transit":false,"i_long":106.800832,"line":1,"station_id":"DU","time":8,"distance":3632,"i_lat":-6.155215,"station_name":"Duri"},{"station_name":"Angke","is_transit":false,"i_long":106.79867,"distance":1230,"station_id":"AK","i_lat":-6.144674,"line":1,"time":4,"transit":false},{"station_name":"Kampung Bandan","distance":4102,"station_id":"KPB","line":4,"i_long":106.826365,"transit":true,"time":9,"i_lat":-6.132549,"is_transit":true},{"i_long":106.812439,"transit":true,"distance":1364,"is_transit":true,"station_name":"Jakarta Kota","time":3,"line":2,"i_lat":-6.137569,"station_id":"JAKK"},{"transit":false,"time":4,"i_long":106.820901,"line":2,"station_name":"Jayakarta","is_transit":false,"distance":1264,"station_id":"JAY","i_lat":-6.141205},{"station_name":"Manggabesar","time":2,"is_transit":false,"station_id":"MGB","i_lat":-6.149769,"i_long":106.82482,"line":2,"distance":1080,"transit":false},{"station_id":"SW","line":2,"time":2,"is_transit":false,"i_long":106.827103,"distance":906,"transit":false,"i_lat":-6.160725,"station_name":"Sawah Besar"},{"i_lat":-6.166716,"is_transit":false,"transit":false,"station_id":"JUA","i_long":106.828284,"line":2,"distance":1149,"station_name":"Juanda","time":2},{"distance":2015,"time":4,"i_lat":-6.186295,"i_long":106.832183,"station_id":"GDD","line":2,"is_transit":false,"station_name":"Gondangdia","transit":false},{"is_transit":false,"distance":1750,"station_id":"CKI","transit":false,"time":3,"station_name":"Cikini","i_lat":-6.198556,"i_long":106.840169,"line":2},{"time":4,"station_name":"Manggarai","line":2,"transit":true,"distance":1590,"i_lat":-6.209883,"is_transit":true,"i_long":106.84912,"station_id":"MRI"},{"station_id":"MTR","time":2,"i_lat":-6.212485,"i_long":106.858896,"distance":1275,"is_transit":false,"station_name":"Matraman","transit":false,"line":1},{"time":8,"distance":1377,"station_id":"JNG","is_transit":false,"transit":false,"station_name":"Jatinegara","i_lat":-6.215091,"i_long":106.86807400000001,"line":1},{"station_name":"Klender","i_long":106.899548,"transit":false,"distance":3395,"is_transit":false,"station_id":"KLD","line":1,"i_lat":-6.2135,"time":3},{"i_lat":-6.215568,"time":2,"station_id":"BUA","is_transit":false,"line":1,"transit":false,"i_long":106.922662,"distance":3100,"station_name":"Buaran"},{"i_long":106.939679,"station_id":"KLDB","i_lat":-6.217455,"transit":false,"distance":1305,"is_transit":false,"station_name":"Klenderbaru","time":1,"line":1},{"is_transit":false,"station_id":"CUK","distance":1385,"i_lat":-6.219053,"line":1,"transit":false,"station_name":"Cakung","time":8,"i_long":106.951283},{"station_name":"Kranji","is_transit":false,"station_id":"KRI","transit":false,"distance":3097,"line":1,"i_lat":-6.224515,"time":3,"i_long":106.977657},{"i_lat":-6.236616,"time":4,"i_long":106.997013,"line":1,"is_transit":false,"station_id":"BKS","station_name":"Bekasi","transit":false,"distance":2520},{"time":2,"transit":false,"line":1,"station_name":"Bekasi Timur","i_long":107.016735,"i_lat":-6.248029,"station_id":"BKST","distance":2368,"is_transit":false},{"transit":false,"i_lat":-6.258864,"line":1,"time":7,"station_id":"TB","station_name":"Tambun","i_long":107.055722,"is_transit":false,"distance":4460}],[{"i_lat":-6.327251,"distance":0,"station_name":"Tenjo","time":0,"is_transit":false,"station_id":"TEJ","i_long":106.460812,"line":6,"transit":false},{"station_id":"DAR","i_long":106.491338,"is_transit":false,"station_name":"Daru","distance":3902,"time":5,"i_lat":-6.338021,"line":0,"transit":false},{"station_id":"CJT","transit":false,"line":3,"distance":2675,"time":6,"is_transit":false,"i_long":106.508482,"station_name":"Cilejit","i_lat":-6.354349},{"transit":false,"station_name":"Parung Panjang","line":6,"is_transit":false,"i_lat":-6.3441410000000005,"i_long":106.568863,"station_id":"PRP","time":9,"distance":7025},{"line":3,"distance":5968,"station_id":"CC","time":8,"transit":false,"i_lat":-6.329547,"i_long":106.617853,"is_transit":false,"station_name":"Cicayur"},{"i_long":106.640411,"time":4,"station_id":"CSK","transit":false,"distance":2519,"station_name":"Cisauk","line":3,"i_lat":-6.32484,"is_transit":false},{"line":6,"is_transit":false,"station_name":"Serpong","i_lat":-6.319871,"i_long":106.66566,"distance":1784,"transit":false,"station_id":"SRP","time":4},{"is_transit":false,"transit":false,"i_lat":-6.314823,"i_long":106.675475,"line":6,"distance":2413,"station_name":"Rawa Buntu","station_id":"RU","time":4},{"distance":4566,"station_name":"Sudimara","i_lat":-6.296963,"transit":false,"i_long":106.712277,"line":6,"station_id":"SDM","is_transit":false,"time":6},{"station_name":"Jurangmangu","is_transit":false,"i_long":106.728916,"station_id":"JMU","time":4,"transit":false,"i_lat":-6.288927,"distance":1994,"line":6},{"i_long":106.74273,"i_lat":-6.276362,"distance":2179,"station_name":"Pondokranji","station_id":"PDJ","time":3,"is_transit":false,"transit":false,"line":6},{"time":8,"is_transit":false,"transit":false,"station_name":"Kebayoran","station_id":"KBY","i_long":106.780334,"line":6,"i_lat":-6.237242,"distance":6218},{"station_name":"Palmerah","i_lat":-6.207404,"transit":false,"station_id":"PLM","time":7,"i_long":106.79689,"distance":3737,"is_transit":false,"line":6},{"transit":true,"line":1,"station_name":"Tanah Abang","is_transit":true,"i_long":106.811091,"station_id":"THB","distance":3191,"time":6,"i_lat":-6.185545},{"i_lat":-6.20132,"is_transit":false,"i_long":106.816351,"time":5,"station_name":"Karet","line":1,"station_id":"KAT","transit":false,"distance":2029},{"i_long":106.819881,"line":1,"distance":471,"station_name":"Sudirman Baru","is_transit":false,"station_id":"SUDB","i_lat":-6.201433,"transit":false,"time":1},{"transit":false,"is_transit":false,"station_name":"Sudirman","time":1,"line":1,"i_lat":-6.202263,"station_id":"SUD","distance":280,"i_long":106.822649},{"distance":3186,"line":2,"i_lat":-6.209883,"i_long":106.84912,"station_id":"MRI","transit":true,"is_transit":true,"time":4,"station_name":"Manggarai"},{"i_long":106.840169,"i_lat":-6.198556,"distance":1590,"station_id":"CKI","transit":false,"is_transit":false,"time":4,"line":2,"station_name":"Cikini"},{"time":3,"i_long":106.832183,"i_lat":-6.186295,"station_name":"Gondangdia","station_id":"GDD","distance":1750,"is_transit":false,"transit":false,"line":2},{"i_long":106.828284,"transit":false,"station_id":"JUA","station_name":"Juanda","is_transit":false,"distance":2015,"time":4,"line":2,"i_lat":-6.166716},{"line":2,"is_transit":false,"station_name":"Sawah Besar","station_id":"SW","transit":false,"i_long":106.827103,"time":2,"i_lat":-6.160725,"distance":1149},{"is_transit":false,"distance":906,"station_name":"Manggabesar","transit":false,"time":2,"station_id":"MGB","i_long":106.82482,"i_lat":-6.149769,"line":2},{"time":2,"station_id":"JAY","station_name":"Jayakarta","distance":1080,"i_long":106.820901,"transit":false,"i_lat":-6.141205,"is_transit":false,"line":2},{"transit":true,"station_name":"Jakarta Kota","station_id":"JAKK","i_long":106.812439,"time":4,"distance":1264,"line":2,"i_lat":-6.137569,"is_transit":true},{"transit":true,"station_name":"Kampung Bandan","distance":1364,"is_transit":true,"time":3,"i_lat":-6.132549,"i_long":106.826365,"line":4,"station_id":"KPB"},{"transit":false,"i_long":106.836569,"is_transit":false,"station_id":"RJW","time":3,"i_lat":-6.14505,"distance":1444,"line":11,"station_name":"Rajawali"},{"is_transit":false,"station_name":"Kemayoran","i_long":106.839204,"line":11,"transit":false,"time":5,"i_lat":-6.161728,"station_id":"KMO","distance":1901},{"time":4,"line":11,"is_transit":false,"transit":false,"distance":1436,"i_long":106.84368,"i_lat":-6.174784,"station_name":"Pasar Senen","station_id":"PSE"},{"station_name":"Gang Sentiong","transit":false,"i_lat":-6.185975,"station_id":"GST","distance":1567,"time":8,"line":11,"is_transit":false,"i_long":106.850107},{"i_long":106.855437,"is_transit":false,"line":11,"time":1,"station_id":"KMT","distance":973,"i_lat":-6.193792,"station_name":"Kramat","transit":false},{"station_name":"Pondok Jati","distance":1829,"station_id":"POK","transit":false,"time":2,"line":11,"i_lat":-6.209188,"is_transit":false,"i_long":106.861737},{"transit":true,"station_id":"JNG","i_lat":-6.215091,"i_long":106.86807400000001,"distance":1236,"time":9,"station_name":"Jatinegara","is_transit":true,"line":1},{"i_lat":-6.2135,"i_long":106.899548,"line":1,"is_transit":false,"station_id":"KLD","station_name":"Klender","time":3,"distance":3395,"transit":false},{"station_id":"BUA","transit":false,"i_long":106.922662,"line":1,"time":2,"i_lat":-6.215568,"distance":3100,"is_transit":false,"station_name":"Buaran"},{"distance":1305,"i_lat":-6.217455,"time":1,"line":1,"is_transit":false,"station_name":"Klenderbaru","transit":false,"station_id":"KLDB","i_long":106.939679},{"time":8,"station_name":"Cakung","is_transit":false,"station_id":"CUK","line":1,"distance":1385,"transit":false,"i_long":106.951283,"i_lat":-6.219053},{"i_long":106.977657,"distance":3097,"i_lat":-6.224515,"line":1,"time":3,"is_transit":false,"station_name":"Kranji","station_id":"KRI","transit":false},{"i_long":106.997013,"is_transit":false,"line":1,"distance":2520,"station_name":"Bekasi","time":4,"i_lat":-6.236616,"station_id":"BKS","transit":false},{"i_long":107.016735,"is_transit":false,"station_id":"BKST","transit":false,"i_lat":-6.248029,"line":1,"distance":2368,"station_name":"Bekasi Timur","time":2},{"transit":false,"time":7,"station_id":"TB","is_transit":false,"station_name":"Tambun","i_long":107.055722,"distance":4460,"i_lat":-6.258864,"line":1}]]}