{"data":[[{"time":0,"i_lat":-6.327251,"distance":0,"station_id":"TEJ","is_transit":false,"i_long":106.460812,"station_name":"Tenjo","line":6,"transit":false},{"time":5,"distance":3902,"station_id":"DAR","i_lat":-6.338021,"station_name":"Daru","line":0,"transit":false,"i_long":106.491338,"is_transit":false},{"line":3,"station_name":"Cilejit","distance":2675,"station_id":"CJT","transit":false,"is_transit":false,"i_lat":-6.354349,"time":6,"i_long":106.508482},{"i_lat":-6.3441410000000005,"is_transit":false,"station_id":"PRP","transit":false,"i_long":106.568863,"time":9,"line":6,"distance":7025,"station_name":"Parung Panjang"},{"distance":5968,"time":8,"station_id":"CC","i_long":106.617853,"station_name":"Cicayur","i_lat":-6.329547,"is_transit":false,"transit":false,"line":3},{"i_lat":-6.32484,"distance":2519,"is_transit":false,"line":3,"station_name":"Cisauk","time":4,"station_id":"CSK","transit":false,"i_long":106.640411},{"transit":false,"station_name":"Serpong","station_id":"SRP","i_lat":-6.319871,"time":4,"is_transit":false,"distance":1784,"i_long":106.66566,"line":6},{"station_id":"RU","station_name":"Rawa Buntu","i_lat":-6.314823,"distance":2413,"time":4,"line":6,"is_transit":false,"transit":false,"i_long":106.675475},{"station_name":"Sudimara","i_lat":-6.296963,"distance":4566,"time":6,"station_id":"SDM","i_long":106.712277,"is_transit":false,"transit":false,"line":6},{"station_name":"Jurangmangu","line":6,"transit":false,"is_transit":false,"time":4,"i_long":106.728916,"distance":1994,"station_id":"JMU","i_lat":-6.288927},{"station_id":"PDJ","line":6,"time":3,"station_name":"Pondokranji","i_long":106.74273,"distance":2179,"i_lat":-6.276362,"transit":false,"is_transit":false},{"line":6,"station_id":"KBY","i_lat":-6.237242,"i_long":106.780334,"station_name":"Kebayoran","distance":6218,"time":8,"is_transit":false,"transit":false},{"i_lat":-6.207404,"distance":3737,"station_id":"PLM","is_transit":false,"i_long":106.79689,"station_name":"Palmerah","line":6,"time":7,"transit":false},{"is_transit":true,"line":1,"station_id":"THB","i_lat":-6.185545,"time":6,"distance":3191,"transit":true,"i_long":106.811091,"station_name":"Tanah Abang"},{"station_name":"Duri","line":1,"is_transit":true,"time":8,"i_long":106.800832,"i_lat":-6.155215,"transit":true,"station_id":"DU","distance":3632},{"station_id":"GGL","i_lat":-6.162021,"transit":false,"time":3,"is_transit":false,"distance":1700,"i_long":106.788277,"line":5,"station_name":"Grogol"},{"transit":false,"station_id":"PSG","is_transit":false,"time":2,"i_lat":-6.161433,"i_long":106.771379,"station_name":"Pesing","distance":2036,"line":5},{"is_transit":false,"distance":1614,"i_lat":-6.1587309999999995,"time":2,"line":5,"transit":false,"station_name":"Taman Kota","i_long":106.756522,"station_id":"TKO"},{"transit":false,"time":2,"is_transit":false,"station_name":"Bojongindah","distance":2334,"station_id":"BOI","i_long":106.737035,"i_lat":-6.159876,"line":5},{"transit":false,"station_name":"Rawa Buaya","station_id":"RW","i_long":106.723064,"distance":1152,"line":5,"time":4,"i_lat":-6.162758,"is_transit":false},{"station_name":"Kalideres","transit":false,"i_lat":-6.166068,"i_long":106.701612,"line":5,"time":3,"is_transit":false,"station_id":"KDS","distance":2504}],[{"distance":0,"transit":false,"i_long":106.460812,"time":0,"station_id":"TEJ","i_lat":-6.327251,"line":6,"is_transit":false,"station_name":"Tenjo"},{"time":5,"i_long":106.491338,"is_transit":false,"i_lat":-6.338021,"line":0,"station_name":"Daru","transit":false,"distance":3902,"station_id":"DAR"},{"i_long":106.508482,"line":3,"is_transit":false,"time":6,"distance":2675,"station_name":"Cilejit","station_id":"CJT","i_lat":-6.354349,"transit":false},{"distance":7025,"time":9,"i_lat":-6.3441410000000005,"station_name":"Parung Panjang","station_id":"PRP","is_transit":false,"transit":false,"i_long":106.568863,"line":6},{"transit":false,"i_long":106.617853,"line":3,"distance":5968,"station_id":"CC","i_lat":-6.329547,"is_transit":false,"time":8,"station_name":"Cicayur"},{"station_name":"Cisauk","line":3,"time":4,"distance":2519,"i_lat":-6.32484,"transit":false,"is_transit":false,"station_id":"CSK","i_long":106.640411},{"station_id":"SRP","i_lat":-6.319871,"i_long":106.66566,"line":6,"distance":1784,"station_name":"Serpong","transit":false,"time":4,"is_transit":false},{"i_lat":-6.314823,"line":6,"time":4,"station_id":"RU","distance":2413,"station_name":"Rawa Buntu","is_transit":false,"i_long":106.675475,"transit":false},{"transit":false,"i_lat":-6.296963,"i_long":106.712277,"is_transit":false,"station_id":"SDM","time":6,"station_name":"Sudimara","line":6,"distance":4566},{"line":6,"station_name":"Jurangmangu","station_id":"JMU","transit":false,"distance":1994,"is_transit":false,"i_lat":-6.288927,"i_long":106.728916,"time":4},{"is_transit":false,"time":3,"i_long":106.74273,"distance":2179,"station_name":"Pondokranji","transit":false,"line":6,"station_id":"PDJ","i_lat":-6.276362},{"time":8,"distance":6218,"line":6,"station_id":"KBY","is_transit":false,"i_lat":-6.237242,"i_long":106.780334,"transit":false,"station_name":"Kebayoran"},{"transit":false,"time":7,"is_transit":false,"station_id":"PLM","station_name":"Palmerah","distance":3737,"i_lat":-6.207404,"line":6,"i_long":106.79689},{"station_name":"Tanah Abang","transit":true,"station_id":"THB","time":6,"i_long":106.811091,"distance":3191,"is_transit":true,"i_lat":-6.185545,"line":1},{"i_lat":-6.20132,"station_name":"Karet","time":5,"transit":false,"i_long":106.816351,"distance":2029,"line":1,"is_transit":false,"station_id":"KAT"},{"transit":false,"line":1,"time":1,"is_transit":false,"station_id":"SUDB","i_lat":-6.201433,"i_long":106.819881,"station_name":"Sudirman Baru","distance":471},{"distance":280,"i_lat":-6.202263,"station_id":"SUD","i_long":106.822649,"is_transit":false,"line":1,"transit":false,"time":1,"station_name":"Sudirman"},{"station_id":"MRI","distance":3186,"transit":true,"is_transit":true,"station_name":"Manggarai","i_long":106.84912,"time":4,"i_lat":-6.209883,"line":2},{"time":4,"is_transit":false,"station_id":"CKI","transit":false,"distance":1590,"i_lat":-6.198556,"line":2,"i_long":106.840169,"station_name":"Cikini"},{"station_id":"GDD","i_long":106.832183,"time":3,"transit":false,"station_name":"Gondangdia","is_transit":false,"distance":1750,"line":2,"i_lat":-6.186295},{"is_transit":false,"i_long":106.828284,"station_name":"Juanda","transit":false,"distance":2015,"time":4,"station_id":"JUA","i_lat":-6.166716,"line":2},{"is_transit":false,"i_lat":-6.160725,"time":2,"i_long":106.827103,"line":2,"station_name":"Sawah Besar","distance":1149,"station_id":"SW","transit":false},{"i_lat":-6.149769,"distance":906,"line":2,"station_id":"MGB","station_name":"Manggabesar","i_long":106.82482,"is_transit":false,"time":2,"transit":false},{"station_name":"Jayakarta","line":2,"is_transit":false,"time":2,"distance":1080,"transit":false,"i_long":106.820901,"station_id":"JAY","i_lat":-6.141205},{"transit":true,"i_long":106.812439,"time":4,"station_id":"JAKK","distance":1264,"station_name":"Jakarta Kota","line":2,"is_transit":true,"i_lat":-6.137569},{"transit":true,"i_lat":-6.132549,"i_long":106.826365,"is_transit":true,"station_id":"KPB","line":4,"time":3,"station_name":"Kampung Bandan","distance":1364},{"distance":4102,"is_transit":false,"i_lat":-6.144674,"station_id":"AK","time":9,"i_long":106.79867,"line":1,"station_name":"Angke","transit":false},{"time":4,"is_transit":true,"station_id":"DU","distance":1230,"line":1,"i_lat":-6.155215,"i_long":106.800832,"transit":true,"station_name":"Duri"},{"line":5,"is_transit":false,"i_long":106.788277,"station_id":"GGL","station_name":"Grogol","distance":1700,"time":3,"transit":false,"i_lat":-6.162021},{"station_id":"PSG","is_transit":false,"station_name":"Pesing","distance":2036,"i_lat":-6.161433,"transit":false,"time":2,"i_long":106.771379,"line":5},{"time":2,"i_lat":-6.1587309999999995,"transit":false,"is_transit":false,"distance":1614,"line":5,"station_name":"Taman Kota","i_long":106.756522,"station_id":"TKO"},{"station_name":"Bojongindah","i_long":106.737035,"i_lat":-6.159876,"transit":false,"distance":2334,"line":5,"time":2,"is_transit":false,"station_id":"BOI"},{"is_transit":false,"line":5,"transit":false,"distance":1152,"time":4,"station_name":"Rawa Buaya","i_long":106.723064,"station_id":"RW","i_lat":-6.162758},{"time":3,"station_name":"Kalideres","is_transit":false,"i_lat":-6.166068,"i_long":106.701612,"line":5,"station_id":"KDS","transit":false,"distance":2504}],[{"station_name":"Tenjo","i_lat":-6.327251,"transit":false,"is_transit":false,"time":0,"station_id":"TEJ","i_long":106.460812,"distance":0,"line":6},{"station_name":"Daru","transit":false,"line":0,"is_transit":false,"i_lat":-6.338021,"distance":3902,"i_long":106.491338,"station_id":"DAR","time":5},{"station_id":"CJT","transit":false,"station_name":"Cilejit","distance":2675,"i_lat":-6.354349,"i_long":106.508482,"line":3,"time":6,"is_transit":false},{"is_transit":false,"station_id":"PRP","i_lat":-6.3441410000000005,"distance":7025,"i_long":106.568863,"line":6,"station_name":"Parung Panjang","transit":false,"time":9},{"time":8,"station_id":"CC","station_name":"Cicayur","transit":false,"distance":5968,"i_lat":-6.329547,"is_transit":false,"i_long":106.617853,"line":3},{"transit":false,"distance":2519,"i_lat":-6.32484,"is_transit":false,"time":4,"station_name":"Cisauk","line":3,"i_long":106.640411,"station_id":"CSK"},{"time":4,"is_transit":false,"line":6,"i_lat":-6.319871,"station_name":"Serpong","station_id":"SRP","i_long":106.66566,"transit":false,"distance":1784},{"line":6,"time":4,"is_transit":false,"station_id":"RU","i_long":106.675475,"transit":false,"station_name":"Rawa Buntu","distance":2413,"i_lat":-6.314823},{"i_long":106.712277,"time":6,"transit":false,"station_id":"SDM","line":6,"station_name":"Sudimara","i_lat":-6.296963,"distance":4566,"is_transit":false},{"station_name":"Jurangmangu","i_long":106.728916,"station_id":"JMU","i_lat":-6.288927,"time":4,"transit":false,"is_transit":false,"line":6,"distance":1994},{"i_long":106.74273,"i_lat":-6.276362,"station_id":"PDJ","line":6,"time":3,"transit":false,"distance":2179,"is_transit":false,"station_name":"Pondokranji"},{"is_transit":false,"i_long":106.780334,"station_name":"Kebayoran","line":6,"i_lat":-6.237242,"transit":false,"time":8,"distance":6218,"station_id":"KBY"},{"i_lat":-6.207404,"transit":false,"distance":3737,"is_transit":false,"station_name":"Palmerah","station_id":"PLM","line":6,"i_long":106.79689,"time":7},{"distance":3191,"transit":true,"time":6,"is_transit":true,"station_id":"THB","i_long":106.811091,"line":1,"station_name":"Tanah Abang","i_lat":-6.185545},{"time":5,"is_transit":false,"line":1,"station_id":"KAT","transit":false,"i_lat":-6.20132,"i_long":106.816351,"station_name":"Karet","distance":2029},{"is_transit":false,"i_lat":-6.201433,"time":1,"transit":false,"line":1,"i_long":106.819881,"station_id":"SUDB","station_name":"Sudirman Baru","distance":471},{"distance":280,"line":1,"transit":false,"time":1,"station_name":"Sudirman","is_transit":false,"i_lat":-6.202263,"i_long":106.822649,"station_id":"SUD"},{"line":2,"is_transit":false,"transit":false,"i_lat":-6.209883,"distance":3186,"station_name":"Manggarai","time":4,"station_id":"MRI","i_long":106.84912},{"transit":false,"i_long":106.858896,"is_transit":false,"line":1,"distance":1275,"time":2,"station_name":"Matraman","i_lat":-6.212485,"station_id":"MTR"},{"is_transit":true,"time":8,"transit":true,"line":1,"station_name":"Jatinegara","station_id":"JNG","i_long":106.86807400000001,"i_lat":-6.215091,"distance":1377},{"time":2,"transit":false,"i_long":106.861737,"distance":1236,"i_lat":-6.209188,"line":11,"is_transit":false,"station_name":"Pondok Jati","station_id":"POK"},{"time":2,"transit":false,"distance":1829,"i_long":106.855437,"i_lat":-6.193792,"is_transit":false,"line":11,"station_id":"KMT","station_name":"Kramat"},{"station_id":"GST","transit":false,"time":1,"i_long":106.850107,"is_transit":false,"station_name":"Gang Sentiong","distance":973,"line":11,"i_lat":-6.185975},{"is_transit":false,"station_id":"PSE","time":8,"line":11,"i_long":106.84368,"i_lat":-6.174784,"transit":false,"distance":1567,"station_name":"Pasar Senen"},{"i_long":106.839204,"is_transit":false,"line":11,"transit":false,"distance":1436,"time":4,"station_name":"Kemayoran","i_lat":-6.161728,"station_id":"KMO"},{"time":5,"i_lat":-6.14505,"transit":false,"i_long":106.836569,"line":11,"is_transit":false,"station_name":"Rajawali","station_id":"RJW","distance":1901},{"is_transit":true,"transit":true,"time":3,"station_id":"KPB","station_name":"Kampung Bandan","i_lat":-6.132549,"i_long":106.826365,"distance":1444,"line":4},{"i_lat":-6.144674,"i_long":106.79867,"distance":4102,"is_transit":false,"line":1,"time":9,"station_name":"Angke","station_id":"AK","transit":false},{"station_name":"Duri","line":1,"transit":true,"i_lat":-6.155215,"distance":1230,"i_long":106.800832,"is_transit":true,"time":4,"station_id":"DU"},{"time":3,"line":5,"i_long":106.788277,"station_id":"GGL","transit":false,"distance":1700,"station_name":"Grogol","is_transit":false,"i_lat":-6.162021},{"line":5,"i_lat":-6.161433,"i_long":106.771379,"transit":false,"station_id":"PSG","distance":2036,"time":2,"is_transit":false,"station_name":"Pesing"},{"is_transit":false,"i_lat":-6.1587309999999995,"transit":false,"line":5,"station_id":"TKO","i_long":106.756522,"time":2,"station_name":"Taman Kota","distance":1614},{"station_id":"BOI","station_name":"Bojongindah","distance":2334,"i_long":106.737035,"transit":false,"line":5,"time":2,"is_transit":false,"i_lat":-6.159876},{"station_name":"Rawa Buaya","station_id":"RW","transit":false,"i_lat":-6.162758,"is_transit":false,"i_long":106.723064,"line":5,"distance":1152,"time":4},{"i_long":106.701612,"station_id":"KDS","distance":2504,"is_transit":false,"station_name":"Kalideres","time":3,"transit":false,"line":5,"i_lat":-6.166068}]]}