{"data":[[{"transit":false,"is_transit":false,"line":6,"distance":0,"station_name":"Tenjo","i_long":106.460812,"time":0,"station_id":"TEJ","i_lat":-6.327251},{"line":0,"distance":3902,"station_id":"DAR","station_name":"Daru","time":5,"is_transit":false,"i_long":106.491338,"transit":false,"i_lat":-6.338021},{"distance":2675,"station_id":"CJT","transit":false,"station_name":"Cilejit","i_lat":-6.354349,"i_long":106.508482,"time":6,"is_transit":false,"line":3},{"station_id":"PRP","is_transit":false,"i_lat":-6.3441410000000005,"station_name":"Parung Panjang","transit":false,"time":9,"i_long":106.568863,"line":6,"distance":7025},{"i_lat":-6.329547,"distance":5968,"station_id":"CC","i_long":106.617853,"station_name":"Cicayur","is_transit":false,"time":8,"transit":false,"line":3},{"time":4,"distance":2519,"i_lat":-6.32484,"station_name":"Cisauk","is_transit":false,"transit":false,"station_id":"CSK","i_long":106.640411,"line":3},{"i_lat":-6.319871,"line":6,"time":4,"station_id":"SRP","is_transit":false,"distance":1784,"i_long":106.66566,"transit":false,"station_name":"Serpong"},{"transit":false,"i_lat":-6.314823,"station_id":"RU","station_name":"Rawa Buntu","i_long":106.675475,"is_transit":false,"line":6,"time":4,"distance":2413}]]}