{"data":[[{"transit":false,"station_name":"Tenjo","time":0,"line":6,"station_id":"TEJ","is_transit":false,"distance":0,"i_lat":-6.327251,"i_long":106.460812},{"i_long":106.491338,"line":0,"station_name":"Daru","transit":false,"is_transit":false,"time":5,"station_id":"DAR","distance":3902,"i_lat":-6.338021},{"i_lat":-6.354349,"distance":2675,"station_name":"Cilejit","is_transit":false,"time":6,"i_long":106.508482,"station_id":"CJT","transit":false,"line":0},{"time":9,"i_lat":-6.3441410000000005,"station_name":"Parung Panjang","is_transit":false,"i_long":106.568863,"distance":7025,"transit":false,"line":6,"station_id":"PRP"},{"station_name":"Cicayur","distance":5968,"is_transit":false,"line":0,"i_lat":-6.329547,"time":8,"i_long":106.617853,"transit":false,"station_id":"CC"},{"i_lat":-6.32484,"is_transit":false,"station_id":"CSK","transit":false,"time":4,"i_long":106.640411,"line":0,"distance":2519,"station_name":"Cisauk"},{"distance":1784,"station_name":"Serpong","i_lat":-6.319871,"line":6,"time":4,"i_long":106.66566,"transit":false,"station_id":"SRP","is_transit":false},{"line":6,"time":4,"i_lat":-6.314823,"station_id":"RU","station_name":"Rawa Buntu","i_long":106.675475,"distance":2413,"is_transit":false,"transit":false},{"station_id":"SDM","station_name":"Sudimara","is_transit":false,"line":6,"i_long":106.712277,"time":6,"distance":4566,"i_lat":-6.296963,"transit":false},{"distance":1994,"is_transit":false,"station_id":"JMU","station_name":"Jurangmangu","transit":false,"i_long":106.728916,"line":6,"time":4,"i_lat":-6.288927},{"station_name":"Pondokranji","i_long":106.74273,"is_transit":false,"time":3,"station_id":"PDJ","distance":2179,"transit":false,"i_lat":-6.276362,"line":6},{"is_transit":false,"i_lat":-6.237242,"i_long":106.780334,"distance":6218,"transit":false,"line":6,"time":8,"station_name":"Kebayoran","station_id":"KBY"},{"station_id":"PLM","i_long":106.79689,"time":7,"line":6,"i_lat":-6.207404,"distance":3737,"station_name":"Palmerah","transit":false,"is_transit":false},{"station_id":"THB","i_long":106.811091,"transit":true,"distance":3191,"is_transit":true,"station_name":"Tanah Abang","time":6,"i_lat":-6.185545,"line":1},{"station_name":"Duri","is_transit":true,"i_lat":-6.155215,"transit":true,"time":8,"i_long":106.800832,"distance":3632,"line":1,"station_id":"DU"},{"i_long":106.79867,"distance":1230,"is_transit":false,"transit":false,"i_lat":-6.144674,"line":0,"station_id":"AK","station_name":"Angke","time":4},{"time":9,"i_long":106.826365,"line":0,"transit":false,"station_name":"Kampung Bandan","station_id":"KPB","i_lat":-6.132549,"distance":4102,"is_transit":true},{"i_long":106.84464,"i_lat":-6.128023,"line":0,"distance":2185,"station_name":"Ancol","transit":false,"station_id":"AC","time":4,"is_transit":false},{"station_name":"Tanjung Priuk","time":9,"transit":false,"i_long":106.880089,"is_transit":false,"distance":4566,"station_id":"TPK","i_lat":-6.1109480000000005,"line":4}],[{"distance":0,"transit":false,"i_long":106.460812,"is_transit":false,"line":6,"station_name":"Tenjo","time":0,"i_lat":-6.327251,"station_id":"TEJ"},{"line":0,"is_transit":false,"distance":3902,"station_name":"Daru","transit":false,"i_long":106.491338,"time":5,"i_lat":-6.338021,"station_id":"DAR"},{"i_lat":-6.354349,"i_long":106.508482,"station_name":"Cilejit","transit":false,"time":6,"is_transit":false,"line":0,"distance":2675,"station_id":"CJT"},{"station_name":"Parung Panjang","transit":false,"time":9,"i_long":106.568863,"station_id":"PRP","distance":7025,"is_transit":false,"i_lat":-6.3441410000000005,"line":6},{"line":0,"distance":5968,"is_transit":false,"station_name":"Cicayur","transit":false,"i_long":106.617853,"station_id":"CC","time":8,"i_lat":-6.329547},{"i_long":106.640411,"station_name":"Cisauk","i_lat":-6.32484,"distance":2519,"time":4,"station_id":"CSK","line":0,"transit":false,"is_transit":false},{"i_lat":-6.319871,"line":6,"transit":false,"time":4,"station_name":"Serpong","i_long":106.66566,"is_transit":false,"distance":1784,"station_id":"SRP"},{"i_long":106.675475,"is_transit":false,"i_lat":-6.314823,"distance":2413,"line":6,"station_name":"Rawa Buntu","time":4,"station_id":"RU","transit":false},{"transit":false,"line":6,"distance":4566,"i_lat":-6.296963,"i_long":106.712277,"time":6,"is_transit":false,"station_id":"SDM","station_name":"Sudimara"},{"line":6,"station_name":"Jurangmangu","transit":false,"i_lat":-6.288927,"distance":1994,"is_transit":false,"time":4,"i_long":106.728916,"station_id":"JMU"},{"line":6,"is_transit":false,"transit":false,"time":3,"station_id":"PDJ","distance":2179,"station_name":"Pondokranji","i_long":106.74273,"i_lat":-6.276362},{"transit":false,"time":8,"i_lat":-6.237242,"station_id":"KBY","is_transit":false,"distance":6218,"station_name":"Kebayoran","i_long":106.780334,"line":6},{"station_name":"Palmerah","time":7,"is_transit":false,"i_long":106.79689,"i_lat":-6.207404,"line":6,"station_id":"PLM","transit":false,"distance":3737},{"is_transit":true,"distance":3191,"station_id":"THB","station_name":"Tanah Abang","time":6,"i_long":106.811091,"line":1,"transit":true,"i_lat":-6.185545},{"station_name":"Karet","station_id":"KAT","distance":2029,"is_transit":false,"i_long":106.816351,"i_lat":-6.20132,"time":5,"line":1,"transit":false},{"transit":false,"line":1,"time":1,"is_transit":false,"station_name":"Sudirman Baru","distance":471,"i_long":106.819881,"i_lat":-6.201433,"station_id":"SUDB"},{"station_name":"Sudirman","time":1,"i_lat":-6.202263,"station_id":"SUD","distance":280,"transit":false,"is_transit":false,"i_long":106.822649,"line":1},{"is_transit":true,"transit":true,"distance":3186,"i_long":106.84912,"time":4,"station_id":"MRI","station_name":"Manggarai","i_lat":-6.209883,"line":0},{"line":0,"time":4,"transit":false,"distance":1590,"i_lat":-6.198556,"i_long":106.840169,"station_id":"CKI","station_name":"Cikini","is_transit":false},{"distance":1750,"time":3,"station_id":"GDD","i_long":106.832183,"i_lat":-6.186295,"is_transit":false,"line":2,"station_name":"Gondangdia","transit":false},{"is_transit":false,"station_id":"JUA","line":2,"station_name":"Juanda","distance":2015,"i_lat":-6.166716,"i_long":106.828284,"transit":false,"time":4},{"station_id":"SW","transit":false,"is_transit":false,"i_lat":-6.160725,"distance":1149,"i_long":106.827103,"station_name":"Sawah Besar","time":2,"line":2},{"i_lat":-6.149769,"transit":false,"time":2,"is_transit":false,"station_name":"Manggabesar","i_long":106.82482,"line":2,"distance":906,"station_id":"MGB"},{"i_lat":-6.141205,"i_long":106.820901,"is_transit":false,"station_name":"Jayakarta","transit":false,"distance":1080,"station_id":"JAY","time":2,"line":7},{"station_id":"JAKK","line":0,"station_name":"Jakarta Kota","transit":true,"is_transit":true,"i_lat":-6.137569,"i_long":106.812439,"time":4,"distance":1264},{"i_lat":-6.132549,"line":0,"transit":false,"i_long":106.826365,"station_name":"Kampung Bandan","station_id":"KPB","is_transit":true,"distance":1364,"time":3},{"distance":2185,"i_lat":-6.128023,"station_id":"AC","is_transit":false,"i_long":106.84464,"line":0,"transit":false,"time":4,"station_name":"Ancol"},{"station_id":"TPK","transit":false,"station_name":"Tanjung Priuk","distance":4566,"i_long":106.880089,"i_lat":-6.1109480000000005,"line":4,"time":9,"is_transit":false}],[{"i_lat":-6.327251,"line":6,"is_transit":false,"station_name":"Tenjo","transit":false,"station_id":"TEJ","i_long":106.460812,"time":0,"distance":0},{"is_transit":false,"station_name":"Daru","i_lat":-6.338021,"time":5,"station_id":"DAR","transit":false,"i_long":106.491338,"line":0,"distance":3902},{"station_id":"CJT","i_lat":-6.354349,"station_name":"Cilejit","i_long":106.508482,"line":0,"transit":false,"time":6,"distance":2675,"is_transit":false},{"station_id":"PRP","station_name":"Parung Panjang","distance":7025,"is_transit":false,"transit":false,"line":6,"i_long":106.568863,"i_lat":-6.3441410000000005,"time":9},{"line":0,"time":8,"i_lat":-6.329547,"station_name":"Cicayur","i_long":106.617853,"distance":5968,"is_transit":false,"station_id":"CC","transit":false},{"time":4,"i_lat":-6.32484,"is_transit":false,"station_id":"CSK","distance":2519,"station_name":"Cisauk","transit":false,"i_long":106.640411,"line":0},{"i_lat":-6.319871,"i_long":106.66566,"is_transit":false,"line":6,"time":4,"station_id":"SRP","distance":1784,"transit":false,"station_name":"Serpong"},{"distance":2413,"transit":false,"station_id":"RU","i_long":106.675475,"station_name":"Rawa Buntu","is_transit":false,"time":4,"i_lat":-6.314823,"line":6},{"station_id":"SDM","distance":4566,"is_transit":false,"i_long":106.712277,"station_name":"Sudimara","transit":false,"time":6,"i_lat":-6.296963,"line":6},{"i_lat":-6.288927,"distance":1994,"station_id":"JMU","is_transit":false,"station_name":"Jurangmangu","line":6,"transit":false,"i_long":106.728916,"time":4},{"station_id":"PDJ","distance":2179,"time":3,"i_lat":-6.276362,"station_name":"Pondokranji","line":6,"transit":false,"is_transit":false,"i_long":106.74273},{"line":6,"is_transit":false,"station_name":"Kebayoran","time":8,"i_long":106.780334,"station_id":"KBY","i_lat":-6.237242,"distance":6218,"transit":false},{"transit":false,"distance":3737,"station_id":"PLM","i_lat":-6.207404,"station_name":"Palmerah","i_long":106.79689,"is_transit":false,"time":7,"line":6},{"i_lat":-6.185545,"line":1,"transit":true,"distance":3191,"station_name":"Tanah Abang","station_id":"THB","time":6,"i_long":106.811091,"is_transit":true},{"station_name":"Karet","time":5,"transit":false,"i_long":106.816351,"line":1,"distance":2029,"i_lat":-6.20132,"is_transit":false,"station_id":"KAT"},{"is_transit":false,"time":1,"station_id":"SUDB","line":1,"transit":false,"station_name":"Sudirman Baru","i_lat":-6.201433,"i_long":106.819881,"distance":471},{"i_lat":-6.202263,"transit":false,"is_transit":false,"distance":280,"line":1,"station_id":"SUD","time":1,"station_name":"Sudirman","i_long":106.822649},{"is_transit":true,"station_name":"Manggarai","i_long":106.84912,"i_lat":-6.209883,"time":4,"transit":false,"line":0,"distance":3186,"station_id":"MRI"},{"station_name":"Matraman","is_transit":false,"transit":false,"time":2,"i_long":106.858896,"i_lat":-6.212485,"station_id":"MTR","distance":1275,"line":1},{"is_transit":true,"time":8,"i_lat":-6.215091,"station_name":"Jatinegara","transit":true,"i_long":106.86807400000001,"distance":1377,"line":0,"station_id":"JNG"},{"is_transit":false,"station_id":"POK","time":2,"line":11,"i_lat":-6.209188,"transit":false,"station_name":"Pondok Jati","distance":1236,"i_long":106.861737},{"transit":false,"station_name":"Kramat","line":11,"i_lat":-6.193792,"station_id":"KMT","i_long":106.855437,"time":2,"distance":1829,"is_transit":false},{"i_long":106.850107,"is_transit":false,"i_lat":-6.185975,"distance":973,"time":1,"transit":false,"station_id":"GST","line":11,"station_name":"Gang Sentiong"},{"i_long":106.84368,"distance":1567,"is_transit":false,"station_name":"Pasar Senen","transit":false,"station_id":"PSE","time":8,"line":11,"i_lat":-6.174784},{"is_transit":false,"transit":false,"i_long":106.839204,"station_id":"KMO","station_name":"Kemayoran","time":4,"i_lat":-6.161728,"line":11,"distance":1436},{"distance":1901,"transit":false,"i_long":106.836569,"station_name":"Rajawali","is_transit":false,"time":5,"station_id":"RJW","i_lat":-6.14505,"line":11},{"distance":1444,"station_id":"KPB","station_name":"Kampung Bandan","transit":true,"line":0,"i_long":106.826365,"is_transit":true,"time":3,"i_lat":-6.132549},{"time":4,"line":0,"i_lat":-6.128023,"i_long":106.84464,"distance":2185,"is_transit":false,"station_id":"AC","station_name":"Ancol","transit":false},{"time":9,"station_name":"Tanjung Priuk","transit":false,"i_long":106.880089,"distance":4566,"i_lat":-6.1109480000000005,"is_transit":false,"station_id":"TPK","line":4}]]}