{"data":[[{"station_id":"TEJ","i_long":106.460812,"line":6,"time":0,"distance":0,"i_lat":-6.327251,"transit":false,"station_name":"Tenjo","is_transit":false},{"i_lat":-6.338021,"i_long":106.491338,"line":0,"station_name":"Daru","station_id":"DAR","time":5,"transit":false,"distance":3902,"is_transit":false},{"time":6,"i_long":106.508482,"line":3,"distance":2675,"station_name":"Cilejit","station_id":"CJT","i_lat":-6.354349,"is_transit":false,"transit":false},{"i_long":106.568863,"station_id":"PRP","i_lat":-6.3441410000000005,"time":9,"transit":false,"is_transit":false,"station_name":"Parung Panjang","distance":7025,"line":6},{"transit":false,"station_name":"Cicayur","line":3,"is_transit":false,"time":8,"distance":5968,"station_id":"CC","i_long":106.617853,"i_lat":-6.329547},{"is_transit":false,"line":3,"station_id":"CSK","time":4,"i_lat":-6.32484,"transit":false,"i_long":106.640411,"station_name":"Cisauk","distance":2519},{"station_name":"Serpong","transit":false,"distance":1784,"i_lat":-6.319871,"i_long":106.66566,"station_id":"SRP","time":4,"line":6,"is_transit":false},{"line":6,"station_id":"RU","station_name":"Rawa Buntu","distance":2413,"i_lat":-6.314823,"transit":false,"is_transit":false,"time":4,"i_long":106.675475},{"line":6,"station_id":"SDM","station_name":"Sudimara","time":6,"i_long":106.712277,"transit":false,"i_lat":-6.296963,"is_transit":false,"distance":4566},{"distance":1994,"i_long":106.728916,"time":4,"line":6,"transit":false,"i_lat":-6.288927,"station_name":"Jurangmangu","is_transit":false,"station_id":"JMU"},{"station_id":"PDJ","line":6,"time":3,"i_lat":-6.276362,"is_transit":false,"station_name":"Pondokranji","i_long":106.74273,"transit":false,"distance":2179},{"station_name":"Kebayoran","time":8,"transit":false,"distance":6218,"is_transit":false,"station_id":"KBY","i_lat":-6.237242,"line":6,"i_long":106.780334},{"line":6,"is_transit":false,"transit":false,"i_long":106.79689,"station_id":"PLM","time":7,"distance":3737,"i_lat":-6.207404,"station_name":"Palmerah"},{"i_long":106.811091,"is_transit":true,"transit":true,"line":1,"i_lat":-6.185545,"station_id":"THB","distance":3191,"station_name":"Tanah Abang","time":6},{"is_transit":false,"transit":false,"time":8,"distance":3632,"i_lat":-6.155215,"i_long":106.800832,"station_name":"Duri","line":1,"station_id":"DU"},{"i_lat":-6.144674,"station_id":"AK","i_long":106.79867,"time":4,"is_transit":false,"line":1,"distance":1230,"transit":false,"station_name":"Angke"},{"distance":4102,"time":9,"i_lat":-6.132549,"i_long":106.826365,"station_id":"KPB","transit":true,"line":4,"station_name":"Kampung Bandan","is_transit":true},{"station_name":"Jakarta Kota","line":2,"i_lat":-6.137569,"is_transit":true,"transit":true,"time":3,"distance":1364,"station_id":"JAKK","i_long":106.812439},{"distance":1264,"station_id":"JAY","line":2,"is_transit":false,"i_lat":-6.141205,"station_name":"Jayakarta","time":4,"transit":false,"i_long":106.820901}],[{"station_id":"TEJ","time":0,"line":6,"transit":false,"i_lat":-6.327251,"distance":0,"station_name":"Tenjo","i_long":106.460812,"is_transit":false},{"station_name":"Daru","transit":false,"i_long":106.491338,"is_transit":false,"time":5,"i_lat":-6.338021,"line":0,"distance":3902,"station_id":"DAR"},{"station_id":"CJT","i_long":106.508482,"i_lat":-6.354349,"is_transit":false,"time":6,"line":3,"distance":2675,"transit":false,"station_name":"Cilejit"},{"is_transit":false,"station_id":"PRP","time":9,"distance":7025,"i_long":106.568863,"line":6,"transit":false,"station_name":"Parung Panjang","i_lat":-6.3441410000000005},{"time":8,"station_name":"Cicayur","station_id":"CC","transit":false,"i_lat":-6.329547,"is_transit":false,"i_long":106.617853,"line":3,"distance":5968},{"station_id":"CSK","i_long":106.640411,"time":4,"i_lat":-6.32484,"is_transit":false,"station_name":"Cisauk","transit":false,"distance":2519,"line":3},{"station_name":"Serpong","is_transit":false,"i_lat":-6.319871,"station_id":"SRP","distance":1784,"i_long":106.66566,"transit":false,"time":4,"line":6},{"transit":false,"i_lat":-6.314823,"station_name":"Rawa Buntu","time":4,"distance":2413,"i_long":106.675475,"is_transit":false,"station_id":"RU","line":6},{"transit":false,"line":6,"distance":4566,"station_id":"SDM","i_long":106.712277,"i_lat":-6.296963,"is_transit":false,"time":6,"station_name":"Sudimara"},{"station_name":"Jurangmangu","station_id":"JMU","is_transit":false,"line":6,"distance":1994,"i_lat":-6.288927,"i_long":106.728916,"time":4,"transit":false},{"is_transit":false,"station_id":"PDJ","line":6,"i_long":106.74273,"time":3,"distance":2179,"transit":false,"station_name":"Pondokranji","i_lat":-6.276362},{"distance":6218,"station_name":"Kebayoran","transit":false,"station_id":"KBY","is_transit":false,"time":8,"i_long":106.780334,"line":6,"i_lat":-6.237242},{"line":6,"i_lat":-6.207404,"time":7,"station_name":"Palmerah","station_id":"PLM","transit":false,"i_long":106.79689,"is_transit":false,"distance":3737},{"line":1,"station_name":"Tanah Abang","station_id":"THB","time":6,"distance":3191,"i_long":106.811091,"is_transit":true,"transit":true,"i_lat":-6.185545},{"time":5,"distance":2029,"station_id":"KAT","line":1,"transit":false,"i_long":106.816351,"station_name":"Karet","i_lat":-6.20132,"is_transit":false},{"transit":false,"i_lat":-6.201433,"line":1,"distance":471,"is_transit":false,"i_long":106.819881,"station_id":"SUDB","time":1,"station_name":"Sudirman Baru"},{"station_id":"SUD","time":1,"station_name":"Sudirman","transit":false,"i_lat":-6.202263,"line":1,"i_long":106.822649,"distance":280,"is_transit":false},{"is_transit":true,"transit":true,"station_name":"Manggarai","line":2,"time":4,"i_lat":-6.209883,"distance":3186,"i_long":106.84912,"station_id":"MRI"},{"distance":1590,"i_long":106.840169,"time":4,"station_name":"Cikini","transit":false,"line":2,"is_transit":false,"station_id":"CKI","i_lat":-6.198556},{"time":3,"line":2,"is_transit":false,"station_id":"GDD","distance":1750,"i_lat":-6.186295,"transit":false,"i_long":106.832183,"station_name":"Gondangdia"},{"line":2,"station_name":"Juanda","i_lat":-6.166716,"transit":false,"station_id":"JUA","time":4,"is_transit":false,"distance":2015,"i_long":106.828284},{"station_id":"SW","distance":1149,"i_lat":-6.160725,"i_long":106.827103,"line":2,"is_transit":false,"time":2,"station_name":"Sawah Besar","transit":false},{"line":2,"station_id":"MGB","time":2,"i_long":106.82482,"distance":906,"transit":false,"station_name":"Manggabesar","i_lat":-6.149769,"is_transit":false},{"is_transit":false,"time":2,"station_name":"Jayakarta","distance":1080,"i_lat":-6.141205,"line":2,"station_id":"JAY","transit":false,"i_long":106.820901}],[{"station_id":"TEJ","station_name":"Tenjo","i_lat":-6.327251,"is_transit":false,"time":0,"i_long":106.460812,"distance":0,"transit":false,"line":6},{"i_lat":-6.338021,"i_long":106.491338,"station_id":"DAR","time":5,"distance":3902,"is_transit":false,"station_name":"Daru","transit":false,"line":0},{"line":3,"time":6,"distance":2675,"station_name":"Cilejit","station_id":"CJT","transit":false,"is_transit":false,"i_lat":-6.354349,"i_long":106.508482},{"time":9,"transit":false,"i_long":106.568863,"station_id":"PRP","i_lat":-6.3441410000000005,"is_transit":false,"station_name":"Parung Panjang","line":6,"distance":7025},{"i_lat":-6.329547,"station_name":"Cicayur","time":8,"is_transit":false,"i_long":106.617853,"station_id":"CC","distance":5968,"transit":false,"line":3},{"i_lat":-6.32484,"distance":2519,"station_name":"Cisauk","is_transit":false,"station_id":"CSK","time":4,"transit":false,"i_long":106.640411,"line":3},{"i_long":106.66566,"station_id":"SRP","line":6,"distance":1784,"transit":false,"time":4,"is_transit":false,"i_lat":-6.319871,"station_name":"Serpong"},{"time":4,"transit":false,"i_long":106.675475,"is_transit":false,"distance":2413,"station_id":"RU","i_lat":-6.314823,"line":6,"station_name":"Rawa Buntu"},{"time":6,"line":6,"distance":4566,"transit":false,"i_lat":-6.296963,"i_long":106.712277,"station_name":"Sudimara","is_transit":false,"station_id":"SDM"},{"i_lat":-6.288927,"station_name":"Jurangmangu","distance":1994,"is_transit":false,"time":4,"transit":false,"station_id":"JMU","i_long":106.728916,"line":6},{"transit":false,"i_long":106.74273,"distance":2179,"i_lat":-6.276362,"line":6,"is_transit":false,"station_name":"Pondokranji","station_id":"PDJ","time":3},{"is_transit":false,"station_id":"KBY","time":8,"distance":6218,"i_lat":-6.237242,"line":6,"i_long":106.780334,"station_name":"Kebayoran","transit":false},{"i_long":106.79689,"transit":false,"line":6,"station_id":"PLM","time":7,"station_name":"Palmerah","is_transit":false,"distance":3737,"i_lat":-6.207404},{"line":1,"time":6,"i_lat":-6.185545,"station_id":"THB","i_long":106.811091,"distance":3191,"is_transit":true,"station_name":"Tanah Abang","transit":true},{"transit":false,"distance":2029,"i_lat":-6.20132,"line":1,"is_transit":false,"i_long":106.816351,"station_id":"KAT","time":5,"station_name":"Karet"},{"station_name":"Sudirman Baru","distance":471,"line":1,"i_lat":-6.201433,"i_long":106.819881,"station_id":"SUDB","time":1,"transit":false,"is_transit":false},{"i_long":106.822649,"line":1,"distance":280,"station_name":"Sudirman","time":1,"transit":false,"i_lat":-6.202263,"is_transit":false,"station_id":"SUD"},{"i_long":106.84912,"station_id":"MRI","transit":false,"time":4,"station_name":"Manggarai","is_transit":false,"distance":3186,"i_lat":-6.209883,"line":2},{"station_id":"MTR","i_lat":-6.212485,"is_transit":false,"line":1,"time":2,"transit":false,"distance":1275,"station_name":"Matraman","i_long":106.858896},{"distance":1377,"time":8,"line":1,"station_id":"JNG","is_transit":true,"i_lat":-6.215091,"i_long":106.86807400000001,"station_name":"Jatinegara","transit":true},{"time":2,"distance":1236,"line":11,"transit":false,"station_id":"POK","is_transit":false,"i_long":106.861737,"i_lat":-6.209188,"station_name":"Pondok Jati"},{"transit":false,"is_transit":false,"station_name":"Kramat","station_id":"KMT","distance":1829,"i_lat":-6.193792,"line":11,"time":2,"i_long":106.855437},{"distance":973,"station_name":"Gang Sentiong","station_id":"GST","i_lat":-6.185975,"is_transit":false,"time":1,"transit":false,"line":11,"i_long":106.850107},{"time":8,"i_lat":-6.174784,"i_long":106.84368,"station_name":"Pasar Senen","distance":1567,"transit":false,"is_transit":false,"line":11,"station_id":"PSE"},{"time":4,"is_transit":false,"station_id":"KMO","transit":false,"distance":1436,"i_lat":-6.161728,"i_long":106.839204,"line":11,"station_name":"Kemayoran"},{"i_long":106.836569,"distance":1901,"station_id":"RJW","i_lat":-6.14505,"line":11,"transit":false,"is_transit":false,"time":5,"station_name":"Rajawali"},{"i_long":106.826365,"time":3,"i_lat":-6.132549,"transit":true,"station_id":"KPB","station_name":"Kampung Bandan","distance":1444,"is_transit":true,"line":4},{"station_id":"JAKK","transit":true,"i_lat":-6.137569,"is_transit":true,"time":3,"distance":1364,"i_long":106.812439,"station_name":"Jakarta Kota","line":2},{"i_lat":-6.141205,"line":2,"time":4,"transit":false,"is_transit":false,"station_id":"JAY","i_long":106.820901,"station_name":"Jayakarta","distance":1264}],[{"transit":false,"station_id":"TEJ","i_long":106.460812,"is_transit":false,"distance":0,"time":0,"i_lat":-6.327251,"station_name":"Tenjo","line":6},{"transit":false,"is_transit":false,"time":5,"station_name":"Daru","i_lat":-6.338021,"distance":3902,"i_long":106.491338,"station_id":"DAR","line":0},{"transit":false,"station_name":"Cilejit","time":6,"line":3,"distance":2675,"i_long":106.508482,"i_lat":-6.354349,"is_transit":false,"station_id":"CJT"},{"i_lat":-6.3441410000000005,"line":6,"station_id":"PRP","i_long":106.568863,"is_transit":false,"station_name":"Parung Panjang","time":9,"transit":false,"distance":7025},{"time":8,"distance":5968,"i_long":106.617853,"transit":false,"is_transit":false,"station_id":"CC","station_name":"Cicayur","i_lat":-6.329547,"line":3},{"distance":2519,"is_transit":false,"station_name":"Cisauk","line":3,"time":4,"i_long":106.640411,"i_lat":-6.32484,"station_id":"CSK","transit":false},{"distance":1784,"station_id":"SRP","time":4,"transit":false,"line":6,"station_name":"Serpong","is_transit":false,"i_lat":-6.319871,"i_long":106.66566},{"time":4,"is_transit":false,"station_id":"RU","transit":false,"i_lat":-6.314823,"i_long":106.675475,"distance":2413,"station_name":"Rawa Buntu","line":6},{"time":6,"i_lat":-6.296963,"is_transit":false,"transit":false,"distance":4566,"i_long":106.712277,"line":6,"station_name":"Sudimara","station_id":"SDM"},{"time":4,"transit":false,"i_long":106.728916,"station_id":"JMU","i_lat":-6.288927,"station_name":"Jurangmangu","is_transit":false,"line":6,"distance":1994},{"distance":2179,"transit":false,"is_transit":false,"station_id":"PDJ","i_lat":-6.276362,"i_long":106.74273,"line":6,"station_name":"Pondokranji","time":3},{"station_name":"Kebayoran","station_id":"KBY","i_lat":-6.237242,"i_long":106.780334,"is_transit":false,"line":6,"distance":6218,"time":8,"transit":false},{"station_name":"Palmerah","time":7,"line":6,"station_id":"PLM","i_long":106.79689,"is_transit":false,"i_lat":-6.207404,"transit":false,"distance":3737},{"time":6,"i_long":106.811091,"station_name":"Tanah Abang","i_lat":-6.185545,"distance":3191,"transit":true,"station_id":"THB","line":1,"is_transit":true},{"distance":3632,"is_transit":false,"time":8,"transit":false,"i_lat":-6.155215,"line":1,"station_id":"DU","station_name":"Duri","i_long":106.800832},{"transit":false,"station_id":"AK","is_transit":false,"time":4,"i_lat":-6.144674,"i_long":106.79867,"station_name":"Angke","line":1,"distance":1230},{"distance":4102,"station_name":"Kampung Bandan","is_transit":true,"i_lat":-6.132549,"time":9,"station_id":"KPB","transit":true,"line":4,"i_long":106.826365},{"distance":1444,"station_name":"Rajawali","is_transit":false,"transit":false,"i_lat":-6.14505,"time":3,"i_long":106.836569,"line":11,"station_id":"RJW"},{"time":5,"i_lat":-6.161728,"station_id":"KMO","is_transit":false,"distance":1901,"line":11,"i_long":106.839204,"station_name":"Kemayoran","transit":false},{"is_transit":false,"line":11,"station_name":"Pasar Senen","i_long":106.84368,"distance":1436,"time":4,"station_id":"PSE","i_lat":-6.174784,"transit":false},{"station_id":"GST","transit":false,"i_lat":-6.185975,"distance":1567,"time":8,"i_long":106.850107,"station_name":"Gang Sentiong","is_transit":false,"line":11},{"station_id":"KMT","line":11,"transit":false,"station_name":"Kramat","is_transit":false,"i_lat":-6.193792,"time":1,"distance":973,"i_long":106.855437},{"time":2,"distance":1829,"station_id":"POK","transit":false,"station_name":"Pondok Jati","is_transit":false,"i_lat":-6.209188,"i_long":106.861737,"line":11},{"i_long":106.86807400000001,"is_transit":true,"time":9,"station_name":"Jatinegara","i_lat":-6.215091,"station_id":"JNG","transit":true,"distance":1236,"line":1},{"i_lat":-6.212485,"i_long":106.858896,"transit":false,"is_transit":false,"time":2,"station_name":"Matraman","distance":1377,"line":1,"station_id":"MTR"},{"line":2,"i_long":106.84912,"distance":1275,"station_id":"MRI","is_transit":true,"i_lat":-6.209883,"station_name":"Manggarai","time":2,"transit":true},{"transit":false,"station_name":"Cikini","i_lat":-6.198556,"line":2,"time":4,"i_long":106.840169,"is_transit":false,"distance":1590,"station_id":"CKI"},{"is_transit":false,"i_long":106.832183,"line":2,"transit":false,"station_name":"Gondangdia","time":3,"distance":1750,"station_id":"GDD","i_lat":-6.186295},{"time":4,"station_name":"Juanda","i_lat":-6.166716,"is_transit":false,"station_id":"JUA","i_long":106.828284,"line":2,"transit":false,"distance":2015},{"is_transit":false,"i_lat":-6.160725,"line":2,"time":2,"transit":false,"i_long":106.827103,"station_name":"Sawah Besar","station_id":"SW","distance":1149},{"is_transit":false,"station_name":"Manggabesar","transit":false,"station_id":"MGB","i_lat":-6.149769,"distance":906,"time":2,"i_long":106.82482,"line":2},{"is_transit":false,"station_name":"Jayakarta","i_long":106.820901,"time":2,"i_lat":-6.141205,"distance":1080,"station_id":"JAY","transit":false,"line":2}]]}