{"data":[[{"distance":0,"time":0,"station_id":"TEJ","is_transit":false,"line":6,"transit":false,"station_name":"Tenjo","i_lat":-6.327251,"i_long":106.460812},{"transit":false,"is_transit":false,"line":0,"station_id":"DAR","time":5,"station_name":"Daru","distance":3902,"i_lat":-6.338021,"i_long":106.491338},{"station_name":"Cilejit","time":6,"transit":false,"distance":2675,"is_transit":false,"station_id":"CJT","i_long":106.508482,"line":3,"i_lat":-6.354349},{"is_transit":false,"distance":7025,"station_id":"PRP","time":9,"i_long":106.568863,"station_name":"Parung Panjang","line":6,"i_lat":-6.3441410000000005,"transit":false},{"i_lat":-6.329547,"station_name":"Cicayur","time":8,"distance":5968,"is_transit":false,"line":3,"station_id":"CC","transit":false,"i_long":106.617853},{"i_lat":-6.32484,"is_transit":false,"station_id":"CSK","station_name":"Cisauk","distance":2519,"time":4,"transit":false,"i_long":106.640411,"line":3},{"time":4,"i_lat":-6.319871,"station_id":"SRP","i_long":106.66566,"line":6,"is_transit":false,"transit":false,"station_name":"Serpong","distance":1784},{"time":4,"distance":2413,"station_id":"RU","i_long":106.675475,"transit":false,"line":6,"is_transit":false,"i_lat":-6.314823,"station_name":"Rawa Buntu"},{"line":6,"i_lat":-6.296963,"distance":4566,"station_name":"Sudimara","i_long":106.712277,"time":6,"station_id":"SDM","is_transit":false,"transit":false},{"is_transit":false,"i_lat":-6.288927,"i_long":106.728916,"line":6,"station_id":"JMU","transit":false,"time":4,"distance":1994,"station_name":"Jurangmangu"},{"i_lat":-6.276362,"distance":2179,"station_name":"Pondokranji","transit":false,"time":3,"is_transit":false,"station_id":"PDJ","i_long":106.74273,"line":6},{"station_name":"Kebayoran","transit":false,"station_id":"KBY","is_transit":false,"i_lat":-6.237242,"time":8,"i_long":106.780334,"line":6,"distance":6218},{"line":6,"i_lat":-6.207404,"time":7,"distance":3737,"i_long":106.79689,"is_transit":false,"transit":false,"station_name":"Palmerah","station_id":"PLM"},{"transit":true,"line":1,"i_long":106.811091,"time":6,"distance":3191,"station_id":"THB","station_name":"Tanah Abang","i_lat":-6.185545,"is_transit":true},{"station_id":"KAT","i_lat":-6.20132,"line":1,"station_name":"Karet","i_long":106.816351,"time":5,"is_transit":false,"transit":false,"distance":2029},{"i_lat":-6.201433,"distance":471,"is_transit":false,"station_id":"SUDB","transit":false,"line":1,"i_long":106.819881,"station_name":"Sudirman Baru","time":1},{"transit":false,"i_lat":-6.202263,"time":1,"line":1,"distance":280,"is_transit":false,"station_name":"Sudirman","i_long":106.822649,"station_id":"SUD"},{"is_transit":true,"transit":true,"station_id":"MRI","i_long":106.84912,"line":2,"distance":3186,"i_lat":-6.209883,"time":4,"station_name":"Manggarai"},{"time":4,"station_name":"Cikini","station_id":"CKI","line":2,"i_lat":-6.198556,"i_long":106.840169,"distance":1590,"is_transit":false,"transit":false},{"transit":false,"station_name":"Gondangdia","i_lat":-6.186295,"line":2,"station_id":"GDD","i_long":106.832183,"time":3,"is_transit":false,"distance":1750}],[{"i_lat":-6.327251,"is_transit":false,"distance":0,"transit":false,"station_id":"TEJ","time":0,"i_long":106.460812,"station_name":"Tenjo","line":6},{"station_id":"DAR","distance":3902,"is_transit":false,"transit":false,"station_name":"Daru","i_lat":-6.338021,"time":5,"i_long":106.491338,"line":0},{"i_lat":-6.354349,"line":3,"i_long":106.508482,"transit":false,"distance":2675,"time":6,"station_id":"CJT","is_transit":false,"station_name":"Cilejit"},{"is_transit":false,"time":9,"transit":false,"station_id":"PRP","line":6,"distance":7025,"i_long":106.568863,"station_name":"Parung Panjang","i_lat":-6.3441410000000005},{"time":8,"distance":5968,"transit":false,"i_lat":-6.329547,"station_id":"CC","station_name":"Cicayur","is_transit":false,"i_long":106.617853,"line":3},{"time":4,"i_long":106.640411,"station_name":"Cisauk","line":3,"distance":2519,"is_transit":false,"transit":false,"i_lat":-6.32484,"station_id":"CSK"},{"is_transit":false,"station_id":"SRP","time":4,"i_lat":-6.319871,"station_name":"Serpong","i_long":106.66566,"distance":1784,"transit":false,"line":6},{"distance":2413,"is_transit":false,"transit":false,"station_id":"RU","i_long":106.675475,"time":4,"line":6,"i_lat":-6.314823,"station_name":"Rawa Buntu"},{"time":6,"station_id":"SDM","station_name":"Sudimara","is_transit":false,"transit":false,"i_long":106.712277,"i_lat":-6.296963,"line":6,"distance":4566},{"i_long":106.728916,"is_transit":false,"i_lat":-6.288927,"station_id":"JMU","station_name":"Jurangmangu","line":6,"distance":1994,"time":4,"transit":false},{"i_lat":-6.276362,"line":6,"station_id":"PDJ","distance":2179,"i_long":106.74273,"time":3,"transit":false,"is_transit":false,"station_name":"Pondokranji"},{"distance":6218,"i_lat":-6.237242,"i_long":106.780334,"is_transit":false,"line":6,"time":8,"station_id":"KBY","transit":false,"station_name":"Kebayoran"},{"distance":3737,"time":7,"is_transit":false,"transit":false,"station_name":"Palmerah","i_long":106.79689,"line":6,"i_lat":-6.207404,"station_id":"PLM"},{"line":1,"time":6,"distance":3191,"station_name":"Tanah Abang","i_long":106.811091,"transit":true,"is_transit":true,"i_lat":-6.185545,"station_id":"THB"},{"station_id":"DU","i_long":106.800832,"distance":3632,"transit":false,"i_lat":-6.155215,"is_transit":false,"line":1,"time":8,"station_name":"Duri"},{"distance":1230,"time":4,"station_id":"AK","i_lat":-6.144674,"station_name":"Angke","transit":false,"i_long":106.79867,"is_transit":false,"line":1},{"i_lat":-6.132549,"distance":4102,"i_long":106.826365,"station_name":"Kampung Bandan","time":9,"station_id":"KPB","transit":true,"is_transit":true,"line":4},{"transit":true,"i_lat":-6.137569,"i_long":106.812439,"distance":1364,"time":3,"station_id":"JAKK","station_name":"Jakarta Kota","line":2,"is_transit":true},{"is_transit":false,"line":2,"station_name":"Jayakarta","transit":false,"distance":1264,"station_id":"JAY","i_lat":-6.141205,"time":4,"i_long":106.820901},{"transit":false,"station_name":"Manggabesar","is_transit":false,"i_long":106.82482,"line":2,"distance":1080,"i_lat":-6.149769,"time":2,"station_id":"MGB"},{"distance":906,"time":2,"station_id":"SW","station_name":"Sawah Besar","i_lat":-6.160725,"is_transit":false,"i_long":106.827103,"transit":false,"line":2},{"distance":1149,"is_transit":false,"transit":false,"line":2,"station_id":"JUA","i_lat":-6.166716,"time":2,"station_name":"Juanda","i_long":106.828284},{"is_transit":false,"i_lat":-6.186295,"i_long":106.832183,"distance":2015,"station_name":"Gondangdia","line":2,"station_id":"GDD","transit":false,"time":4}],[{"i_long":106.460812,"time":0,"i_lat":-6.327251,"station_id":"TEJ","distance":0,"line":6,"transit":false,"station_name":"Tenjo","is_transit":false},{"time":5,"i_lat":-6.338021,"station_name":"Daru","distance":3902,"transit":false,"i_long":106.491338,"is_transit":false,"station_id":"DAR","line":0},{"station_id":"CJT","line":3,"time":6,"i_long":106.508482,"i_lat":-6.354349,"distance":2675,"transit":false,"is_transit":false,"station_name":"Cilejit"},{"i_lat":-6.3441410000000005,"line":6,"is_transit":false,"time":9,"transit":false,"distance":7025,"station_id":"PRP","i_long":106.568863,"station_name":"Parung Panjang"},{"i_long":106.617853,"distance":5968,"time":8,"is_transit":false,"transit":false,"station_id":"CC","station_name":"Cicayur","i_lat":-6.329547,"line":3},{"distance":2519,"line":3,"time":4,"transit":false,"i_lat":-6.32484,"is_transit":false,"i_long":106.640411,"station_name":"Cisauk","station_id":"CSK"},{"i_long":106.66566,"is_transit":false,"station_id":"SRP","station_name":"Serpong","distance":1784,"time":4,"transit":false,"i_lat":-6.319871,"line":6},{"station_name":"Rawa Buntu","station_id":"RU","i_long":106.675475,"transit":false,"time":4,"distance":2413,"line":6,"is_transit":false,"i_lat":-6.314823},{"time":6,"station_id":"SDM","i_long":106.712277,"distance":4566,"line":6,"i_lat":-6.296963,"transit":false,"is_transit":false,"station_name":"Sudimara"},{"i_long":106.728916,"time":4,"is_transit":false,"station_name":"Jurangmangu","distance":1994,"transit":false,"i_lat":-6.288927,"station_id":"JMU","line":6},{"i_lat":-6.276362,"line":6,"transit":false,"station_id":"PDJ","station_name":"Pondokranji","distance":2179,"is_transit":false,"time":3,"i_long":106.74273},{"i_long":106.780334,"i_lat":-6.237242,"is_transit":false,"station_id":"KBY","time":8,"station_name":"Kebayoran","distance":6218,"line":6,"transit":false},{"i_long":106.79689,"line":6,"distance":3737,"transit":false,"station_id":"PLM","station_name":"Palmerah","is_transit":false,"time":7,"i_lat":-6.207404},{"i_lat":-6.185545,"time":6,"is_transit":true,"i_long":106.811091,"station_name":"Tanah Abang","transit":true,"distance":3191,"line":1,"station_id":"THB"},{"i_lat":-6.155215,"line":1,"station_id":"DU","is_transit":false,"transit":false,"station_name":"Duri","i_long":106.800832,"distance":3632,"time":8},{"is_transit":false,"distance":1230,"time":4,"station_name":"Angke","i_long":106.79867,"station_id":"AK","i_lat":-6.144674,"transit":false,"line":1},{"line":4,"transit":true,"station_name":"Kampung Bandan","i_lat":-6.132549,"i_long":106.826365,"distance":4102,"time":9,"station_id":"KPB","is_transit":true},{"distance":1444,"transit":false,"time":3,"is_transit":false,"line":11,"i_long":106.836569,"station_name":"Rajawali","station_id":"RJW","i_lat":-6.14505},{"time":5,"i_lat":-6.161728,"distance":1901,"transit":false,"i_long":106.839204,"line":11,"station_id":"KMO","station_name":"Kemayoran","is_transit":false},{"i_long":106.84368,"transit":false,"station_id":"PSE","time":4,"is_transit":false,"distance":1436,"station_name":"Pasar Senen","i_lat":-6.174784,"line":11},{"station_id":"GST","time":8,"transit":false,"is_transit":false,"i_lat":-6.185975,"line":11,"station_name":"Gang Sentiong","distance":1567,"i_long":106.850107},{"i_lat":-6.193792,"station_id":"KMT","line":11,"distance":973,"transit":false,"i_long":106.855437,"time":1,"is_transit":false,"station_name":"Kramat"},{"is_transit":false,"station_name":"Pondok Jati","time":2,"i_lat":-6.209188,"i_long":106.861737,"line":11,"distance":1829,"transit":false,"station_id":"POK"},{"time":9,"station_name":"Jatinegara","is_transit":true,"transit":true,"station_id":"JNG","i_lat":-6.215091,"distance":1236,"i_long":106.86807400000001,"line":1},{"time":2,"i_long":106.858896,"is_transit":false,"line":1,"distance":1377,"transit":false,"station_id":"MTR","station_name":"Matraman","i_lat":-6.212485},{"is_transit":true,"distance":1275,"time":2,"station_id":"MRI","transit":true,"i_lat":-6.209883,"i_long":106.84912,"station_name":"Manggarai","line":2},{"time":4,"i_long":106.840169,"station_name":"Cikini","i_lat":-6.198556,"transit":false,"line":2,"distance":1590,"is_transit":false,"station_id":"CKI"},{"distance":1750,"time":3,"i_lat":-6.186295,"transit":false,"station_id":"GDD","line":2,"station_name":"Gondangdia","is_transit":false,"i_long":106.832183}],[{"i_lat":-6.327251,"transit":false,"i_long":106.460812,"line":6,"time":0,"distance":0,"station_name":"Tenjo","station_id":"TEJ","is_transit":false},{"transit":false,"i_lat":-6.338021,"line":0,"is_transit":false,"station_id":"DAR","i_long":106.491338,"station_name":"Daru","time":5,"distance":3902},{"distance":2675,"time":6,"station_id":"CJT","station_name":"Cilejit","is_transit":false,"i_lat":-6.354349,"transit":false,"i_long":106.508482,"line":3},{"i_lat":-6.3441410000000005,"line":6,"transit":false,"time":9,"i_long":106.568863,"distance":7025,"station_name":"Parung Panjang","station_id":"PRP","is_transit":false},{"i_lat":-6.329547,"distance":5968,"is_transit":false,"station_id":"CC","i_long":106.617853,"time":8,"station_name":"Cicayur","transit":false,"line":3},{"transit":false,"station_name":"Cisauk","distance":2519,"station_id":"CSK","time":4,"i_long":106.640411,"line":3,"is_transit":false,"i_lat":-6.32484},{"i_lat":-6.319871,"i_long":106.66566,"transit":false,"station_name":"Serpong","line":6,"is_transit":false,"distance":1784,"station_id":"SRP","time":4},{"i_long":106.675475,"line":6,"station_name":"Rawa Buntu","distance":2413,"time":4,"is_transit":false,"transit":false,"station_id":"RU","i_lat":-6.314823},{"time":6,"station_name":"Sudimara","line":6,"station_id":"SDM","transit":false,"i_long":106.712277,"is_transit":false,"i_lat":-6.296963,"distance":4566},{"is_transit":false,"time":4,"line":6,"station_name":"Jurangmangu","i_lat":-6.288927,"distance":1994,"transit":false,"i_long":106.728916,"station_id":"JMU"},{"i_long":106.74273,"time":3,"line":6,"is_transit":false,"station_name":"Pondokranji","transit":false,"i_lat":-6.276362,"distance":2179,"station_id":"PDJ"},{"i_long":106.780334,"line":6,"i_lat":-6.237242,"transit":false,"distance":6218,"station_name":"Kebayoran","time":8,"is_transit":false,"station_id":"KBY"},{"i_lat":-6.207404,"is_transit":false,"transit":false,"line":6,"time":7,"station_name":"Palmerah","i_long":106.79689,"distance":3737,"station_id":"PLM"},{"time":6,"is_transit":true,"station_id":"THB","station_name":"Tanah Abang","distance":3191,"i_lat":-6.185545,"i_long":106.811091,"transit":true,"line":1},{"station_name":"Karet","line":1,"is_transit":false,"i_long":106.816351,"time":5,"station_id":"KAT","distance":2029,"i_lat":-6.20132,"transit":false},{"is_transit":false,"i_lat":-6.201433,"distance":471,"time":1,"transit":false,"station_name":"Sudirman Baru","i_long":106.819881,"line":1,"station_id":"SUDB"},{"i_lat":-6.202263,"i_long":106.822649,"time":1,"line":1,"station_id":"SUD","is_transit":false,"transit":false,"distance":280,"station_name":"Sudirman"},{"line":2,"station_id":"MRI","transit":false,"distance":3186,"is_transit":false,"time":4,"i_long":106.84912,"station_name":"Manggarai","i_lat":-6.209883},{"i_long":106.858896,"is_transit":false,"station_id":"MTR","transit":false,"line":1,"distance":1275,"time":2,"i_lat":-6.212485,"station_name":"Matraman"},{"line":1,"is_transit":true,"distance":1377,"station_name":"Jatinegara","i_long":106.86807400000001,"time":8,"station_id":"JNG","transit":true,"i_lat":-6.215091},{"time":2,"distance":1236,"station_id":"POK","is_transit":false,"station_name":"Pondok Jati","i_long":106.861737,"line":11,"transit":false,"i_lat":-6.209188},{"distance":1829,"i_long":106.855437,"line":11,"i_lat":-6.193792,"time":2,"is_transit":false,"transit":false,"station_id":"KMT","station_name":"Kramat"},{"station_id":"GST","distance":973,"time":1,"transit":false,"is_transit":false,"i_long":106.850107,"line":11,"i_lat":-6.185975,"station_name":"Gang Sentiong"},{"time":8,"station_id":"PSE","station_name":"Pasar Senen","i_lat":-6.174784,"distance":1567,"line":11,"transit":false,"i_long":106.84368,"is_transit":false},{"transit":false,"i_lat":-6.161728,"distance":1436,"station_id":"KMO","i_long":106.839204,"station_name":"Kemayoran","line":11,"is_transit":false,"time":4},{"i_long":106.836569,"line":11,"time":5,"i_lat":-6.14505,"transit":false,"distance":1901,"is_transit":false,"station_id":"RJW","station_name":"Rajawali"},{"transit":true,"line":4,"i_lat":-6.132549,"is_transit":true,"time":3,"station_id":"KPB","station_name":"Kampung Bandan","distance":1444,"i_long":106.826365},{"line":2,"transit":true,"station_name":"Jakarta Kota","is_transit":true,"time":3,"station_id":"JAKK","distance":1364,"i_long":106.812439,"i_lat":-6.137569},{"line":2,"is_transit":false,"station_name":"Jayakarta","time":4,"i_long":106.820901,"distance":1264,"station_id":"JAY","transit":false,"i_lat":-6.141205},{"distance":1080,"is_transit":false,"time":2,"transit":false,"station_id":"MGB","station_name":"Manggabesar","i_lat":-6.149769,"i_long":106.82482,"line":2},{"time":2,"station_id":"SW","line":2,"i_long":106.827103,"station_name":"Sawah Besar","transit":false,"is_transit":false,"i_lat":-6.160725,"distance":906},{"distance":1149,"i_lat":-6.166716,"line":2,"time":2,"is_transit":false,"transit":false,"station_id":"JUA","station_name":"Juanda","i_long":106.828284},{"i_long":106.832183,"line":2,"i_lat":-6.186295,"distance":2015,"time":4,"station_name":"Gondangdia","transit":false,"station_id":"GDD","is_transit":false}]]}