{"data":[[{"station_name":"Tenjo","line":6,"station_id":"TEJ","time":0,"distance":0,"transit":false,"i_lat":-6.327251,"is_transit":false,"i_long":106.460812},{"is_transit":false,"i_lat":-6.338021,"station_name":"Daru","station_id":"DAR","transit":false,"i_long":106.491338,"line":0,"time":5,"distance":3902},{"line":3,"time":6,"i_long":106.508482,"distance":2675,"station_name":"Cilejit","i_lat":-6.354349,"transit":false,"is_transit":false,"station_id":"CJT"},{"i_long":106.568863,"time":9,"station_id":"PRP","station_name":"Parung Panjang","distance":7025,"transit":false,"line":6,"i_lat":-6.3441410000000005,"is_transit":false},{"is_transit":false,"station_id":"CC","station_name":"Cicayur","line":3,"i_lat":-6.329547,"distance":5968,"i_long":106.617853,"transit":false,"time":8},{"is_transit":false,"time":4,"i_long":106.640411,"station_name":"Cisauk","line":3,"distance":2519,"i_lat":-6.32484,"transit":false,"station_id":"CSK"},{"station_id":"SRP","line":6,"time":4,"station_name":"Serpong","is_transit":false,"transit":false,"i_long":106.66566,"i_lat":-6.319871,"distance":1784},{"transit":false,"station_name":"Rawa Buntu","time":4,"distance":2413,"line":6,"i_long":106.675475,"is_transit":false,"i_lat":-6.314823,"station_id":"RU"},{"time":6,"distance":4566,"is_transit":false,"i_long":106.712277,"transit":false,"i_lat":-6.296963,"station_id":"SDM","line":6,"station_name":"Sudimara"},{"is_transit":false,"station_name":"Jurangmangu","station_id":"JMU","i_long":106.728916,"line":6,"transit":false,"i_lat":-6.288927,"distance":1994,"time":4},{"station_name":"Pondokranji","time":3,"i_long":106.74273,"line":6,"i_lat":-6.276362,"transit":false,"distance":2179,"is_transit":false,"station_id":"PDJ"},{"station_id":"KBY","is_transit":false,"station_name":"Kebayoran","time":8,"transit":false,"i_long":106.780334,"i_lat":-6.237242,"distance":6218,"line":6},{"station_id":"PLM","line":6,"time":7,"is_transit":false,"i_long":106.79689,"i_lat":-6.207404,"transit":false,"station_name":"Palmerah","distance":3737},{"i_lat":-6.185545,"distance":3191,"line":1,"i_long":106.811091,"station_name":"Tanah Abang","is_transit":true,"station_id":"THB","time":6,"transit":true},{"transit":true,"station_id":"DU","distance":3632,"i_long":106.800832,"line":1,"station_name":"Duri","i_lat":-6.155215,"is_transit":true,"time":8},{"i_lat":-6.162021,"time":3,"is_transit":false,"line":5,"station_name":"Grogol","i_long":106.788277,"transit":false,"distance":1700,"station_id":"GGL"},{"is_transit":false,"i_long":106.771379,"transit":false,"time":2,"distance":2036,"station_name":"Pesing","i_lat":-6.161433,"line":5,"station_id":"PSG"},{"transit":false,"station_id":"TKO","i_lat":-6.1587309999999995,"i_long":106.756522,"station_name":"Taman Kota","distance":1614,"line":5,"is_transit":false,"time":2},{"time":2,"transit":false,"line":5,"is_transit":false,"i_long":106.737035,"i_lat":-6.159876,"station_id":"BOI","station_name":"Bojongindah","distance":2334},{"line":5,"station_id":"RW","station_name":"Rawa Buaya","distance":1152,"i_lat":-6.162758,"transit":false,"i_long":106.723064,"time":4,"is_transit":false},{"station_id":"KDS","i_long":106.701612,"station_name":"Kalideres","i_lat":-6.166068,"line":5,"is_transit":false,"transit":false,"distance":2504,"time":3},{"station_name":"Poris","i_lat":-6.169933,"station_id":"PI","is_transit":false,"transit":false,"i_long":106.679458,"time":3,"distance":2548,"line":5},{"time":3,"i_lat":-6.171811,"station_id":"BPR","station_name":"Batuceper","is_transit":false,"distance":1834,"transit":false,"i_long":106.665036,"line":5}],[{"station_name":"Tenjo","station_id":"TEJ","distance":0,"i_lat":-6.327251,"transit":false,"time":0,"line":6,"i_long":106.460812,"is_transit":false},{"i_long":106.491338,"station_name":"Daru","i_lat":-6.338021,"distance":3902,"time":5,"is_transit":false,"transit":false,"station_id":"DAR","line":0},{"station_id":"CJT","station_name":"Cilejit","time":6,"is_transit":false,"transit":false,"distance":2675,"i_lat":-6.354349,"line":3,"i_long":106.508482},{"is_transit":false,"line":6,"i_long":106.568863,"station_id":"PRP","station_name":"Parung Panjang","distance":7025,"i_lat":-6.3441410000000005,"transit":false,"time":9},{"i_lat":-6.329547,"time":8,"transit":false,"is_transit":false,"i_long":106.617853,"distance":5968,"station_name":"Cicayur","station_id":"CC","line":3},{"transit":false,"line":3,"station_name":"Cisauk","is_transit":false,"distance":2519,"i_lat":-6.32484,"station_id":"CSK","i_long":106.640411,"time":4},{"station_name":"Serpong","station_id":"SRP","i_long":106.66566,"i_lat":-6.319871,"line":6,"time":4,"transit":false,"distance":1784,"is_transit":false},{"i_lat":-6.314823,"line":6,"i_long":106.675475,"station_id":"RU","distance":2413,"is_transit":false,"station_name":"Rawa Buntu","time":4,"transit":false},{"line":6,"transit":false,"i_lat":-6.296963,"station_id":"SDM","distance":4566,"station_name":"Sudimara","is_transit":false,"i_long":106.712277,"time":6},{"station_id":"JMU","station_name":"Jurangmangu","is_transit":false,"time":4,"transit":false,"i_lat":-6.288927,"i_long":106.728916,"line":6,"distance":1994},{"transit":false,"time":3,"i_long":106.74273,"station_name":"Pondokranji","station_id":"PDJ","line":6,"distance":2179,"i_lat":-6.276362,"is_transit":false},{"station_id":"KBY","line":6,"station_name":"Kebayoran","distance":6218,"time":8,"i_long":106.780334,"transit":false,"i_lat":-6.237242,"is_transit":false},{"distance":3737,"station_id":"PLM","line":6,"transit":false,"station_name":"Palmerah","i_lat":-6.207404,"is_transit":false,"i_long":106.79689,"time":7},{"is_transit":true,"i_lat":-6.185545,"i_long":106.811091,"line":1,"station_id":"THB","time":6,"station_name":"Tanah Abang","distance":3191,"transit":true},{"time":5,"station_name":"Karet","station_id":"KAT","transit":false,"line":1,"distance":2029,"i_lat":-6.20132,"is_transit":false,"i_long":106.816351},{"station_name":"Sudirman Baru","station_id":"SUDB","transit":false,"distance":471,"time":1,"line":1,"is_transit":false,"i_lat":-6.201433,"i_long":106.819881},{"i_lat":-6.202263,"i_long":106.822649,"station_name":"Sudirman","distance":280,"transit":false,"time":1,"line":1,"station_id":"SUD","is_transit":false},{"i_long":106.84912,"station_id":"MRI","line":2,"time":4,"distance":3186,"transit":true,"is_transit":true,"station_name":"Manggarai","i_lat":-6.209883},{"time":4,"transit":false,"line":2,"distance":1590,"station_name":"Cikini","is_transit":false,"i_long":106.840169,"station_id":"CKI","i_lat":-6.198556},{"transit":false,"i_long":106.832183,"station_id":"GDD","line":2,"time":3,"is_transit":false,"distance":1750,"i_lat":-6.186295,"station_name":"Gondangdia"},{"station_name":"Juanda","station_id":"JUA","time":4,"is_transit":false,"i_lat":-6.166716,"transit":false,"distance":2015,"line":2,"i_long":106.828284},{"is_transit":false,"i_lat":-6.160725,"time":2,"transit":false,"line":2,"distance":1149,"i_long":106.827103,"station_name":"Sawah Besar","station_id":"SW"},{"i_long":106.82482,"time":2,"line":2,"station_id":"MGB","distance":906,"is_transit":false,"station_name":"Manggabesar","transit":false,"i_lat":-6.149769},{"station_name":"Jayakarta","distance":1080,"line":2,"time":2,"i_long":106.820901,"transit":false,"station_id":"JAY","i_lat":-6.141205,"is_transit":false},{"time":4,"station_id":"JAKK","i_long":106.812439,"transit":true,"is_transit":true,"line":2,"i_lat":-6.137569,"station_name":"Jakarta Kota","distance":1264},{"i_lat":-6.132549,"line":4,"distance":1364,"transit":true,"station_name":"Kampung Bandan","station_id":"KPB","time":3,"is_transit":true,"i_long":106.826365},{"station_id":"AK","distance":4102,"is_transit":false,"time":9,"i_lat":-6.144674,"i_long":106.79867,"transit":false,"line":1,"station_name":"Angke"},{"is_transit":true,"i_lat":-6.155215,"i_long":106.800832,"transit":true,"distance":1230,"line":1,"time":4,"station_id":"DU","station_name":"Duri"},{"is_transit":false,"distance":1700,"time":3,"i_long":106.788277,"transit":false,"station_name":"Grogol","line":5,"i_lat":-6.162021,"station_id":"GGL"},{"is_transit":false,"i_long":106.771379,"station_name":"Pesing","line":5,"time":2,"transit":false,"station_id":"PSG","i_lat":-6.161433,"distance":2036},{"is_transit":false,"transit":false,"station_id":"TKO","i_long":106.756522,"station_name":"Taman Kota","distance":1614,"i_lat":-6.1587309999999995,"line":5,"time":2},{"is_transit":false,"distance":2334,"time":2,"station_id":"BOI","transit":false,"i_lat":-6.159876,"line":5,"i_long":106.737035,"station_name":"Bojongindah"},{"station_name":"Rawa Buaya","time":4,"station_id":"RW","distance":1152,"i_lat":-6.162758,"i_long":106.723064,"line":5,"transit":false,"is_transit":false},{"station_name":"Kalideres","transit":false,"line":5,"i_long":106.701612,"is_transit":false,"station_id":"KDS","time":3,"distance":2504,"i_lat":-6.166068},{"i_lat":-6.169933,"transit":false,"time":3,"line":5,"is_transit":false,"i_long":106.679458,"station_name":"Poris","distance":2548,"station_id":"PI"},{"transit":false,"line":5,"is_transit":false,"time":3,"station_id":"BPR","station_name":"Batuceper","distance":1834,"i_long":106.665036,"i_lat":-6.171811}],[{"distance":0,"transit":false,"i_lat":-6.327251,"line":6,"station_id":"TEJ","time":0,"is_transit":false,"i_long":106.460812,"station_name":"Tenjo"},{"station_id":"DAR","station_name":"Daru","transit":false,"i_lat":-6.338021,"line":0,"is_transit":false,"i_long":106.491338,"distance":3902,"time":5},{"transit":false,"i_long":106.508482,"line":3,"time":6,"is_transit":false,"i_lat":-6.354349,"distance":2675,"station_name":"Cilejit","station_id":"CJT"},{"is_transit":false,"transit":false,"time":9,"line":6,"station_id":"PRP","station_name":"Parung Panjang","i_lat":-6.3441410000000005,"i_long":106.568863,"distance":7025},{"transit":false,"time":8,"line":3,"station_id":"CC","station_name":"Cicayur","distance":5968,"is_transit":false,"i_lat":-6.329547,"i_long":106.617853},{"distance":2519,"station_id":"CSK","time":4,"is_transit":false,"i_lat":-6.32484,"i_long":106.640411,"line":3,"transit":false,"station_name":"Cisauk"},{"line":6,"i_long":106.66566,"station_name":"Serpong","transit":false,"is_transit":false,"time":4,"distance":1784,"station_id":"SRP","i_lat":-6.319871},{"is_transit":false,"transit":false,"i_lat":-6.314823,"line":6,"distance":2413,"station_name":"Rawa Buntu","station_id":"RU","time":4,"i_long":106.675475},{"i_lat":-6.296963,"line":6,"distance":4566,"is_transit":false,"time":6,"station_name":"Sudimara","station_id":"SDM","transit":false,"i_long":106.712277},{"i_long":106.728916,"line":6,"station_name":"Jurangmangu","station_id":"JMU","time":4,"is_transit":false,"transit":false,"distance":1994,"i_lat":-6.288927},{"distance":2179,"time":3,"i_long":106.74273,"transit":false,"line":6,"i_lat":-6.276362,"is_transit":false,"station_name":"Pondokranji","station_id":"PDJ"},{"is_transit":false,"i_lat":-6.237242,"line":6,"station_id":"KBY","transit":false,"i_long":106.780334,"station_name":"Kebayoran","time":8,"distance":6218},{"station_name":"Palmerah","transit":false,"is_transit":false,"line":6,"station_id":"PLM","time":7,"i_lat":-6.207404,"i_long":106.79689,"distance":3737},{"is_transit":true,"i_long":106.811091,"transit":true,"station_name":"Tanah Abang","line":1,"time":6,"i_lat":-6.185545,"station_id":"THB","distance":3191},{"station_name":"Karet","station_id":"KAT","i_long":106.816351,"is_transit":false,"i_lat":-6.20132,"line":1,"transit":false,"time":5,"distance":2029},{"time":1,"station_name":"Sudirman Baru","is_transit":false,"transit":false,"i_long":106.819881,"station_id":"SUDB","i_lat":-6.201433,"line":1,"distance":471},{"i_lat":-6.202263,"time":1,"transit":false,"station_id":"SUD","line":1,"is_transit":false,"distance":280,"station_name":"Sudirman","i_long":106.822649},{"time":4,"is_transit":false,"station_name":"Manggarai","distance":3186,"transit":false,"i_lat":-6.209883,"line":2,"station_id":"MRI","i_long":106.84912},{"i_long":106.858896,"time":2,"distance":1275,"is_transit":false,"station_id":"MTR","station_name":"Matraman","transit":false,"line":1,"i_lat":-6.212485},{"station_name":"Jatinegara","transit":true,"distance":1377,"line":1,"time":8,"i_lat":-6.215091,"is_transit":true,"station_id":"JNG","i_long":106.86807400000001},{"time":2,"i_lat":-6.209188,"i_long":106.861737,"station_name":"Pondok Jati","distance":1236,"station_id":"POK","is_transit":false,"transit":false,"line":11},{"station_name":"Kramat","transit":false,"i_long":106.855437,"station_id":"KMT","time":2,"i_lat":-6.193792,"line":11,"distance":1829,"is_transit":false},{"station_id":"GST","transit":false,"station_name":"Gang Sentiong","i_lat":-6.185975,"line":11,"distance":973,"is_transit":false,"time":1,"i_long":106.850107},{"time":8,"station_name":"Pasar Senen","i_long":106.84368,"station_id":"PSE","distance":1567,"line":11,"i_lat":-6.174784,"transit":false,"is_transit":false},{"station_id":"KMO","distance":1436,"transit":false,"is_transit":false,"i_lat":-6.161728,"i_long":106.839204,"line":11,"station_name":"Kemayoran","time":4},{"time":5,"station_id":"RJW","i_long":106.836569,"is_transit":false,"station_name":"Rajawali","i_lat":-6.14505,"distance":1901,"transit":false,"line":11},{"is_transit":true,"line":4,"station_id":"KPB","station_name":"Kampung Bandan","time":3,"transit":true,"i_lat":-6.132549,"i_long":106.826365,"distance":1444},{"is_transit":false,"time":9,"i_lat":-6.144674,"transit":false,"station_id":"AK","i_long":106.79867,"station_name":"Angke","distance":4102,"line":1},{"time":4,"i_lat":-6.155215,"distance":1230,"station_id":"DU","line":1,"station_name":"Duri","is_transit":true,"transit":true,"i_long":106.800832},{"distance":1700,"station_name":"Grogol","is_transit":false,"station_id":"GGL","transit":false,"time":3,"i_long":106.788277,"i_lat":-6.162021,"line":5},{"i_long":106.771379,"is_transit":false,"distance":2036,"time":2,"line":5,"i_lat":-6.161433,"transit":false,"station_id":"PSG","station_name":"Pesing"},{"distance":1614,"station_id":"TKO","i_lat":-6.1587309999999995,"is_transit":false,"i_long":106.756522,"line":5,"time":2,"station_name":"Taman Kota","transit":false},{"i_long":106.737035,"line":5,"station_name":"Bojongindah","i_lat":-6.159876,"time":2,"transit":false,"station_id":"BOI","distance":2334,"is_transit":false},{"time":4,"transit":false,"is_transit":false,"station_id":"RW","i_lat":-6.162758,"station_name":"Rawa Buaya","i_long":106.723064,"distance":1152,"line":5},{"transit":false,"i_long":106.701612,"line":5,"is_transit":false,"time":3,"station_name":"Kalideres","distance":2504,"station_id":"KDS","i_lat":-6.166068},{"station_id":"PI","time":3,"line":5,"station_name":"Poris","transit":false,"i_long":106.679458,"is_transit":false,"i_lat":-6.169933,"distance":2548},{"station_id":"BPR","transit":false,"i_long":106.665036,"time":3,"distance":1834,"is_transit":false,"line":5,"station_name":"Batuceper","i_lat":-6.171811}]]}