{"data":[[{"station_name":"Tenjo","distance":0,"time":0,"transit":false,"i_long":106.460812,"line":6,"is_transit":false,"i_lat":-6.327251,"station_id":"TEJ"},{"distance":3902,"time":5,"station_id":"DAR","line":0,"i_long":106.491338,"is_transit":false,"i_lat":-6.338021,"transit":false,"station_name":"Daru"},{"station_id":"CJT","is_transit":false,"i_long":106.508482,"line":3,"time":6,"station_name":"Cilejit","distance":2675,"i_lat":-6.354349,"transit":false},{"line":6,"station_name":"Parung Panjang","is_transit":false,"transit":false,"i_lat":-6.3441410000000005,"time":9,"distance":7025,"station_id":"PRP","i_long":106.568863},{"station_id":"CC","is_transit":false,"i_long":106.617853,"transit":false,"time":8,"i_lat":-6.329547,"station_name":"Cicayur","distance":5968,"line":3},{"station_id":"CSK","i_long":106.640411,"is_transit":false,"line":3,"station_name":"Cisauk","time":4,"i_lat":-6.32484,"distance":2519,"transit":false},{"is_transit":false,"time":4,"i_lat":-6.319871,"transit":false,"station_name":"Serpong","line":6,"distance":1784,"i_long":106.66566,"station_id":"SRP"},{"station_name":"Rawa Buntu","time":4,"line":6,"station_id":"RU","distance":2413,"i_lat":-6.314823,"i_long":106.675475,"is_transit":false,"transit":false},{"time":6,"i_long":106.712277,"line":6,"is_transit":false,"distance":4566,"station_name":"Sudimara","station_id":"SDM","i_lat":-6.296963,"transit":false},{"is_transit":false,"i_lat":-6.288927,"line":6,"station_id":"JMU","distance":1994,"i_long":106.728916,"time":4,"station_name":"Jurangmangu","transit":false},{"i_lat":-6.276362,"is_transit":false,"i_long":106.74273,"station_name":"Pondokranji","station_id":"PDJ","distance":2179,"transit":false,"time":3,"line":6},{"station_name":"Kebayoran","station_id":"KBY","time":8,"is_transit":false,"distance":6218,"i_long":106.780334,"line":6,"transit":false,"i_lat":-6.237242},{"station_id":"PLM","time":7,"distance":3737,"i_long":106.79689,"transit":false,"station_name":"Palmerah","is_transit":false,"line":6,"i_lat":-6.207404},{"distance":3191,"station_id":"THB","transit":true,"station_name":"Tanah Abang","i_lat":-6.185545,"i_long":106.811091,"is_transit":true,"time":6,"line":1},{"station_name":"Karet","time":5,"line":1,"station_id":"KAT","transit":false,"i_long":106.816351,"is_transit":false,"distance":2029,"i_lat":-6.20132},{"station_name":"Sudirman Baru","time":1,"is_transit":false,"line":1,"distance":471,"station_id":"SUDB","i_lat":-6.201433,"i_long":106.819881,"transit":false},{"line":1,"i_lat":-6.202263,"station_name":"Sudirman","station_id":"SUD","time":1,"transit":false,"is_transit":false,"distance":280,"i_long":106.822649},{"station_id":"MRI","distance":3186,"i_long":106.84912,"line":2,"i_lat":-6.209883,"transit":false,"station_name":"Manggarai","is_transit":false,"time":4},{"station_name":"Matraman","transit":false,"station_id":"MTR","line":1,"i_lat":-6.212485,"distance":1275,"is_transit":false,"i_long":106.858896,"time":2},{"is_transit":false,"distance":1377,"i_lat":-6.215091,"i_long":106.86807400000001,"line":1,"transit":false,"time":8,"station_name":"Jatinegara","station_id":"JNG"},{"distance":3395,"is_transit":false,"station_id":"KLD","time":3,"i_long":106.899548,"line":1,"i_lat":-6.2135,"station_name":"Klender","transit":false},{"line":1,"station_name":"Buaran","i_long":106.922662,"is_transit":false,"transit":false,"station_id":"BUA","time":2,"i_lat":-6.215568,"distance":3100},{"station_name":"Klenderbaru","line":1,"distance":1305,"i_lat":-6.217455,"transit":false,"is_transit":false,"i_long":106.939679,"station_id":"KLDB","time":1},{"station_id":"CUK","is_transit":false,"station_name":"Cakung","line":1,"time":8,"distance":1385,"transit":false,"i_long":106.951283,"i_lat":-6.219053},{"i_lat":-6.224515,"is_transit":false,"line":1,"i_long":106.977657,"transit":false,"distance":3097,"time":3,"station_id":"KRI","station_name":"Kranji"},{"time":4,"i_long":106.997013,"distance":2520,"line":1,"station_name":"Bekasi","transit":false,"station_id":"BKS","is_transit":false,"i_lat":-6.236616},{"line":1,"i_long":107.016735,"station_name":"Bekasi Timur","transit":false,"time":2,"distance":2368,"station_id":"BKST","is_transit":false,"i_lat":-6.248029},{"i_long":107.055722,"transit":false,"time":7,"station_id":"TB","is_transit":false,"station_name":"Tambun","distance":4460,"i_lat":-6.258864,"line":1}],[{"station_name":"Tenjo","time":0,"transit":false,"is_transit":false,"i_lat":-6.327251,"station_id":"TEJ","distance":0,"i_long":106.460812,"line":6},{"station_name":"Daru","transit":false,"is_transit":false,"distance":3902,"line":0,"i_long":106.491338,"time":5,"station_id":"DAR","i_lat":-6.338021},{"i_long":106.508482,"is_transit":false,"i_lat":-6.354349,"station_name":"Cilejit","time":6,"transit":false,"distance":2675,"station_id":"CJT","line":3},{"is_transit":false,"transit":false,"time":9,"i_long":106.568863,"line":6,"distance":7025,"station_name":"Parung Panjang","i_lat":-6.3441410000000005,"station_id":"PRP"},{"is_transit":false,"time":8,"i_long":106.617853,"i_lat":-6.329547,"station_id":"CC","station_name":"Cicayur","transit":false,"distance":5968,"line":3},{"time":4,"distance":2519,"line":3,"i_lat":-6.32484,"station_id":"CSK","transit":false,"station_name":"Cisauk","i_long":106.640411,"is_transit":false},{"time":4,"is_transit":false,"i_lat":-6.319871,"station_id":"SRP","station_name":"Serpong","transit":false,"line":6,"i_long":106.66566,"distance":1784},{"i_lat":-6.314823,"time":4,"station_name":"Rawa Buntu","transit":false,"station_id":"RU","i_long":106.675475,"is_transit":false,"line":6,"distance":2413},{"i_lat":-6.296963,"transit":false,"is_transit":false,"station_id":"SDM","distance":4566,"i_long":106.712277,"line":6,"station_name":"Sudimara","time":6},{"line":6,"is_transit":false,"i_long":106.728916,"transit":false,"station_name":"Jurangmangu","station_id":"JMU","i_lat":-6.288927,"time":4,"distance":1994},{"is_transit":false,"i_lat":-6.276362,"transit":false,"distance":2179,"station_id":"PDJ","time":3,"i_long":106.74273,"line":6,"station_name":"Pondokranji"},{"transit":false,"distance":6218,"station_name":"Kebayoran","time":8,"station_id":"KBY","is_transit":false,"i_lat":-6.237242,"line":6,"i_long":106.780334},{"is_transit":false,"time":7,"station_id":"PLM","i_lat":-6.207404,"line":6,"distance":3737,"station_name":"Palmerah","transit":false,"i_long":106.79689},{"time":6,"station_name":"Tanah Abang","distance":3191,"transit":true,"station_id":"THB","line":1,"i_long":106.811091,"is_transit":true,"i_lat":-6.185545},{"transit":false,"station_id":"DU","i_long":106.800832,"line":1,"i_lat":-6.155215,"station_name":"Duri","time":8,"is_transit":false,"distance":3632},{"distance":1230,"line":1,"transit":false,"station_id":"AK","i_lat":-6.144674,"i_long":106.79867,"is_transit":false,"station_name":"Angke","time":4},{"i_long":106.826365,"line":4,"time":9,"distance":4102,"station_id":"KPB","station_name":"Kampung Bandan","i_lat":-6.132549,"transit":true,"is_transit":true},{"station_id":"RJW","line":11,"i_lat":-6.14505,"distance":1444,"station_name":"Rajawali","i_long":106.836569,"is_transit":false,"transit":false,"time":3},{"station_id":"KMO","is_transit":false,"distance":1901,"time":5,"i_lat":-6.161728,"station_name":"Kemayoran","i_long":106.839204,"line":11,"transit":false},{"station_id":"PSE","i_lat":-6.174784,"i_long":106.84368,"is_transit":false,"station_name":"Pasar Senen","time":4,"distance":1436,"line":11,"transit":false},{"i_lat":-6.185975,"is_transit":false,"i_long":106.850107,"line":11,"time":8,"distance":1567,"transit":false,"station_id":"GST","station_name":"Gang Sentiong"},{"transit":false,"is_transit":false,"time":1,"station_name":"Kramat","i_lat":-6.193792,"i_long":106.855437,"line":11,"distance":973,"station_id":"KMT"},{"is_transit":false,"distance":1829,"station_id":"POK","time":2,"i_lat":-6.209188,"transit":false,"i_long":106.861737,"line":11,"station_name":"Pondok Jati"},{"station_id":"JNG","time":9,"transit":true,"distance":1236,"i_lat":-6.215091,"i_long":106.86807400000001,"is_transit":true,"line":1,"station_name":"Jatinegara"},{"station_name":"Klender","time":3,"i_lat":-6.2135,"station_id":"KLD","is_transit":false,"i_long":106.899548,"line":1,"transit":false,"distance":3395},{"distance":3100,"i_long":106.922662,"line":1,"transit":false,"i_lat":-6.215568,"station_id":"BUA","is_transit":false,"time":2,"station_name":"Buaran"},{"i_long":106.939679,"line":1,"is_transit":false,"station_id":"KLDB","distance":1305,"time":1,"transit":false,"station_name":"Klenderbaru","i_lat":-6.217455},{"transit":false,"distance":1385,"i_lat":-6.219053,"station_id":"CUK","time":8,"is_transit":false,"i_long":106.951283,"line":1,"station_name":"Cakung"},{"time":3,"line":1,"station_name":"Kranji","station_id":"KRI","distance":3097,"i_long":106.977657,"i_lat":-6.224515,"transit":false,"is_transit":false},{"distance":2520,"line":1,"i_lat":-6.236616,"transit":false,"station_id":"BKS","is_transit":false,"station_name":"Bekasi","time":4,"i_long":106.997013},{"i_lat":-6.248029,"i_long":107.016735,"line":1,"distance":2368,"transit":false,"time":2,"station_id":"BKST","is_transit":false,"station_name":"Bekasi Timur"},{"i_long":107.055722,"is_transit":false,"station_name":"Tambun","distance":4460,"time":7,"i_lat":-6.258864,"transit":false,"line":1,"station_id":"TB"}],[{"transit":false,"station_id":"TEJ","i_lat":-6.327251,"is_transit":false,"time":0,"i_long":106.460812,"station_name":"Tenjo","line":6,"distance":0},{"line":0,"transit":false,"station_name":"Daru","time":5,"i_long":106.491338,"is_transit":false,"i_lat":-6.338021,"distance":3902,"station_id":"DAR"},{"i_lat":-6.354349,"transit":false,"i_long":106.508482,"station_id":"CJT","time":6,"is_transit":false,"station_name":"Cilejit","distance":2675,"line":3},{"station_id":"PRP","station_name":"Parung Panjang","i_long":106.568863,"time":9,"line":6,"transit":false,"i_lat":-6.3441410000000005,"is_transit":false,"distance":7025},{"i_lat":-6.329547,"transit":false,"i_long":106.617853,"station_id":"CC","line":3,"time":8,"station_name":"Cicayur","is_transit":false,"distance":5968},{"line":3,"station_name":"Cisauk","i_lat":-6.32484,"is_transit":false,"time":4,"distance":2519,"i_long":106.640411,"transit":false,"station_id":"CSK"},{"i_long":106.66566,"station_name":"Serpong","distance":1784,"transit":false,"is_transit":false,"i_lat":-6.319871,"line":6,"station_id":"SRP","time":4},{"time":4,"i_long":106.675475,"transit":false,"station_id":"RU","station_name":"Rawa Buntu","is_transit":false,"i_lat":-6.314823,"line":6,"distance":2413},{"line":6,"distance":4566,"transit":false,"time":6,"is_transit":false,"station_id":"SDM","i_lat":-6.296963,"i_long":106.712277,"station_name":"Sudimara"},{"station_id":"JMU","time":4,"distance":1994,"is_transit":false,"i_lat":-6.288927,"transit":false,"line":6,"station_name":"Jurangmangu","i_long":106.728916},{"distance":2179,"station_name":"Pondokranji","transit":false,"station_id":"PDJ","i_lat":-6.276362,"is_transit":false,"i_long":106.74273,"time":3,"line":6},{"distance":6218,"i_long":106.780334,"time":8,"is_transit":false,"station_id":"KBY","station_name":"Kebayoran","line":6,"i_lat":-6.237242,"transit":false},{"is_transit":false,"transit":false,"time":7,"station_id":"PLM","station_name":"Palmerah","distance":3737,"i_long":106.79689,"i_lat":-6.207404,"line":6},{"station_id":"THB","distance":3191,"station_name":"Tanah Abang","i_lat":-6.185545,"line":1,"transit":true,"time":6,"is_transit":true,"i_long":106.811091},{"i_long":106.800832,"station_id":"DU","time":8,"station_name":"Duri","i_lat":-6.155215,"line":1,"transit":false,"distance":3632,"is_transit":false},{"station_id":"AK","i_lat":-6.144674,"distance":1230,"i_long":106.79867,"line":1,"is_transit":false,"transit":false,"station_name":"Angke","time":4},{"i_lat":-6.132549,"time":9,"i_long":106.826365,"station_id":"KPB","is_transit":true,"distance":4102,"line":4,"transit":true,"station_name":"Kampung Bandan"},{"distance":1364,"line":2,"time":3,"transit":true,"station_id":"JAKK","station_name":"Jakarta Kota","i_lat":-6.137569,"i_long":106.812439,"is_transit":true},{"i_long":106.820901,"station_id":"JAY","time":4,"is_transit":false,"station_name":"Jayakarta","transit":false,"distance":1264,"i_lat":-6.141205,"line":2},{"i_long":106.82482,"distance":1080,"line":2,"station_id":"MGB","is_transit":false,"transit":false,"station_name":"Manggabesar","time":2,"i_lat":-6.149769},{"time":2,"distance":906,"station_id":"SW","is_transit":false,"station_name":"Sawah Besar","line":2,"i_lat":-6.160725,"i_long":106.827103,"transit":false},{"time":2,"i_long":106.828284,"line":2,"station_name":"Juanda","distance":1149,"is_transit":false,"i_lat":-6.166716,"transit":false,"station_id":"JUA"},{"station_id":"GDD","transit":false,"distance":2015,"is_transit":false,"i_lat":-6.186295,"i_long":106.832183,"station_name":"Gondangdia","time":4,"line":2},{"is_transit":false,"station_id":"CKI","line":2,"distance":1750,"i_lat":-6.198556,"time":3,"station_name":"Cikini","i_long":106.840169,"transit":false},{"station_id":"MRI","i_lat":-6.209883,"i_long":106.84912,"transit":true,"line":2,"distance":1590,"is_transit":true,"station_name":"Manggarai","time":4},{"distance":1275,"line":1,"i_long":106.858896,"is_transit":false,"station_name":"Matraman","station_id":"MTR","i_lat":-6.212485,"transit":false,"time":2},{"is_transit":false,"station_id":"JNG","i_long":106.86807400000001,"transit":false,"station_name":"Jatinegara","i_lat":-6.215091,"time":8,"line":1,"distance":1377},{"time":3,"station_name":"Klender","i_long":106.899548,"is_transit":false,"station_id":"KLD","distance":3395,"i_lat":-6.2135,"transit":false,"line":1},{"is_transit":false,"i_long":106.922662,"time":2,"transit":false,"station_name":"Buaran","line":1,"i_lat":-6.215568,"distance":3100,"station_id":"BUA"},{"transit":false,"i_long":106.939679,"line":1,"station_id":"KLDB","station_name":"Klenderbaru","time":1,"is_transit":false,"distance":1305,"i_lat":-6.217455},{"is_transit":false,"i_lat":-6.219053,"line":1,"station_id":"CUK","time":8,"i_long":106.951283,"transit":false,"station_name":"Cakung","distance":1385},{"distance":3097,"time":3,"i_lat":-6.224515,"transit":false,"i_long":106.977657,"line":1,"station_id":"KRI","is_transit":false,"station_name":"Kranji"},{"station_id":"BKS","i_long":106.997013,"line":1,"transit":false,"is_transit":false,"distance":2520,"i_lat":-6.236616,"time":4,"station_name":"Bekasi"},{"time":2,"distance":2368,"transit":false,"station_id":"BKST","station_name":"Bekasi Timur","i_lat":-6.248029,"i_long":107.016735,"line":1,"is_transit":false},{"i_lat":-6.258864,"distance":4460,"line":1,"is_transit":false,"transit":false,"station_id":"TB","i_long":107.055722,"station_name":"Tambun","time":7}],[{"distance":0,"i_long":106.460812,"transit":false,"i_lat":-6.327251,"is_transit":false,"line":6,"time":0,"station_id":"TEJ","station_name":"Tenjo"},{"i_lat":-6.338021,"distance":3902,"transit":false,"station_name":"Daru","time":5,"i_long":106.491338,"line":0,"station_id":"DAR","is_transit":false},{"i_long":106.508482,"station_id":"CJT","i_lat":-6.354349,"transit":false,"line":3,"time":6,"station_name":"Cilejit","distance":2675,"is_transit":false},{"time":9,"line":6,"i_long":106.568863,"transit":false,"station_id":"PRP","is_transit":false,"station_name":"Parung Panjang","i_lat":-6.3441410000000005,"distance":7025},{"transit":false,"station_name":"Cicayur","distance":5968,"station_id":"CC","is_transit":false,"i_lat":-6.329547,"i_long":106.617853,"time":8,"line":3},{"i_long":106.640411,"i_lat":-6.32484,"line":3,"is_transit":false,"station_name":"Cisauk","station_id":"CSK","distance":2519,"time":4,"transit":false},{"transit":false,"time":4,"i_lat":-6.319871,"i_long":106.66566,"distance":1784,"station_id":"SRP","is_transit":false,"station_name":"Serpong","line":6},{"station_id":"RU","distance":2413,"is_transit":false,"station_name":"Rawa Buntu","i_long":106.675475,"time":4,"line":6,"i_lat":-6.314823,"transit":false},{"transit":false,"is_transit":false,"station_name":"Sudimara","distance":4566,"time":6,"i_lat":-6.296963,"i_long":106.712277,"line":6,"station_id":"SDM"},{"i_long":106.728916,"is_transit":false,"time":4,"transit":false,"station_id":"JMU","i_lat":-6.288927,"line":6,"station_name":"Jurangmangu","distance":1994},{"line":6,"station_id":"PDJ","station_name":"Pondokranji","time":3,"is_transit":false,"distance":2179,"i_long":106.74273,"transit":false,"i_lat":-6.276362},{"time":8,"i_lat":-6.237242,"station_name":"Kebayoran","is_transit":false,"i_long":106.780334,"line":6,"distance":6218,"transit":false,"station_id":"KBY"},{"line":6,"station_name":"Palmerah","time":7,"transit":false,"i_long":106.79689,"is_transit":false,"distance":3737,"station_id":"PLM","i_lat":-6.207404},{"distance":3191,"i_lat":-6.185545,"station_id":"THB","line":1,"time":6,"transit":true,"station_name":"Tanah Abang","i_long":106.811091,"is_transit":true},{"time":5,"distance":2029,"i_lat":-6.20132,"i_long":106.816351,"line":1,"station_id":"KAT","station_name":"Karet","is_transit":false,"transit":false},{"transit":false,"i_long":106.819881,"i_lat":-6.201433,"line":1,"station_name":"Sudirman Baru","distance":471,"station_id":"SUDB","time":1,"is_transit":false},{"station_name":"Sudirman","station_id":"SUD","i_lat":-6.202263,"time":1,"transit":false,"is_transit":false,"i_long":106.822649,"line":1,"distance":280},{"i_long":106.84912,"is_transit":true,"station_id":"MRI","time":4,"line":2,"transit":true,"station_name":"Manggarai","i_lat":-6.209883,"distance":3186},{"time":4,"transit":false,"distance":1590,"station_id":"CKI","i_long":106.840169,"i_lat":-6.198556,"is_transit":false,"station_name":"Cikini","line":2},{"transit":false,"is_transit":false,"i_lat":-6.186295,"line":2,"station_id":"GDD","station_name":"Gondangdia","time":3,"distance":1750,"i_long":106.832183},{"distance":2015,"i_lat":-6.166716,"i_long":106.828284,"transit":false,"station_id":"JUA","time":4,"line":2,"station_name":"Juanda","is_transit":false},{"transit":false,"i_long":106.827103,"distance":1149,"is_transit":false,"station_id":"SW","line":2,"station_name":"Sawah Besar","time":2,"i_lat":-6.160725},{"station_id":"MGB","is_transit":false,"station_name":"Manggabesar","line":2,"i_long":106.82482,"time":2,"i_lat":-6.149769,"distance":906,"transit":false},{"transit":false,"is_transit":false,"station_name":"Jayakarta","time":2,"station_id":"JAY","i_lat":-6.141205,"i_long":106.820901,"distance":1080,"line":2},{"line":2,"station_name":"Jakarta Kota","station_id":"JAKK","i_long":106.812439,"is_transit":true,"distance":1264,"i_lat":-6.137569,"transit":true,"time":4},{"time":3,"line":4,"station_name":"Kampung Bandan","is_transit":true,"distance":1364,"i_long":106.826365,"transit":true,"i_lat":-6.132549,"station_id":"KPB"},{"station_name":"Rajawali","station_id":"RJW","transit":false,"distance":1444,"line":11,"i_lat":-6.14505,"time":3,"i_long":106.836569,"is_transit":false},{"distance":1901,"i_lat":-6.161728,"transit":false,"station_id":"KMO","station_name":"Kemayoran","is_transit":false,"time":5,"i_long":106.839204,"line":11},{"transit":false,"is_transit":false,"station_id":"PSE","line":11,"station_name":"Pasar Senen","time":4,"distance":1436,"i_lat":-6.174784,"i_long":106.84368},{"transit":false,"i_long":106.850107,"time":8,"i_lat":-6.185975,"is_transit":false,"station_name":"Gang Sentiong","distance":1567,"line":11,"station_id":"GST"},{"line":11,"distance":973,"i_lat":-6.193792,"station_id":"KMT","is_transit":false,"time":1,"transit":false,"station_name":"Kramat","i_long":106.855437},{"i_long":106.861737,"time":2,"station_id":"POK","is_transit":false,"station_name":"Pondok Jati","distance":1829,"transit":false,"i_lat":-6.209188,"line":11},{"distance":1236,"station_id":"JNG","i_lat":-6.215091,"i_long":106.86807400000001,"line":1,"transit":true,"is_transit":true,"station_name":"Jatinegara","time":9},{"is_transit":false,"station_id":"KLD","i_lat":-6.2135,"station_name":"Klender","i_long":106.899548,"transit":false,"time":3,"distance":3395,"line":1},{"line":1,"station_name":"Buaran","time":2,"distance":3100,"i_long":106.922662,"transit":false,"station_id":"BUA","is_transit":false,"i_lat":-6.215568},{"distance":1305,"is_transit":false,"i_long":106.939679,"station_id":"KLDB","time":1,"line":1,"station_name":"Klenderbaru","transit":false,"i_lat":-6.217455},{"i_long":106.951283,"line":1,"is_transit":false,"transit":false,"station_id":"CUK","station_name":"Cakung","distance":1385,"i_lat":-6.219053,"time":8},{"station_name":"Kranji","i_long":106.977657,"line":1,"distance":3097,"time":3,"transit":false,"station_id":"KRI","is_transit":false,"i_lat":-6.224515},{"station_name":"Bekasi","transit":false,"is_transit":false,"station_id":"BKS","distance":2520,"time":4,"i_lat":-6.236616,"i_long":106.997013,"line":1},{"distance":2368,"is_transit":false,"i_lat":-6.248029,"station_name":"Bekasi Timur","time":2,"i_long":107.016735,"station_id":"BKST","transit":false,"line":1},{"distance":4460,"line":1,"station_name":"Tambun","time":7,"i_long":107.055722,"transit":false,"station_id":"TB","is_transit":false,"i_lat":-6.258864}]]}