{"data":[[{"distance":0,"is_transit":false,"transit":false,"i_long":106.460812,"line":6,"time":0,"station_id":"TEJ","station_name":"Tenjo","i_lat":-6.327251},{"i_long":106.491338,"is_transit":false,"distance":3902,"station_id":"DAR","station_name":"Daru","i_lat":-6.338021,"line":0,"transit":false,"time":5},{"i_lat":-6.354349,"line":0,"station_name":"Cilejit","time":6,"distance":2675,"transit":false,"station_id":"CJT","is_transit":false,"i_long":106.508482},{"distance":7025,"station_name":"Parung Panjang","transit":false,"station_id":"PRP","time":9,"i_lat":-6.3441410000000005,"is_transit":false,"line":6,"i_long":106.568863},{"station_id":"CC","station_name":"Cicayur","transit":false,"i_long":106.617853,"line":0,"is_transit":false,"time":8,"i_lat":-6.329547,"distance":5968},{"is_transit":false,"transit":false,"i_lat":-6.32484,"i_long":106.640411,"line":0,"distance":2519,"station_id":"CSK","station_name":"Cisauk","time":4},{"time":4,"is_transit":false,"station_name":"Serpong","distance":1784,"transit":false,"line":6,"i_long":106.66566,"i_lat":-6.319871,"station_id":"SRP"},{"i_lat":-6.314823,"i_long":106.675475,"time":4,"is_transit":false,"transit":false,"line":6,"station_id":"RU","station_name":"Rawa Buntu","distance":2413},{"transit":false,"line":6,"is_transit":false,"time":6,"station_name":"Sudimara","distance":4566,"station_id":"SDM","i_lat":-6.296963,"i_long":106.712277},{"distance":1994,"station_id":"JMU","station_name":"Jurangmangu","time":4,"line":6,"transit":false,"i_lat":-6.288927,"i_long":106.728916,"is_transit":false},{"line":6,"station_id":"PDJ","i_lat":-6.276362,"transit":false,"is_transit":false,"distance":2179,"time":3,"station_name":"Pondokranji","i_long":106.74273},{"is_transit":false,"station_name":"Kebayoran","line":6,"station_id":"KBY","i_long":106.780334,"transit":false,"time":8,"distance":6218,"i_lat":-6.237242},{"station_name":"Palmerah","i_long":106.79689,"i_lat":-6.207404,"is_transit":false,"station_id":"PLM","transit":false,"line":6,"distance":3737,"time":7},{"i_lat":-6.185545,"station_id":"THB","time":6,"line":1,"transit":true,"station_name":"Tanah Abang","i_long":106.811091,"distance":3191,"is_transit":true},{"i_lat":-6.20132,"time":5,"distance":2029,"transit":false,"station_name":"Karet","is_transit":false,"station_id":"KAT","line":1,"i_long":106.816351},{"is_transit":false,"station_name":"Sudirman Baru","i_lat":-6.201433,"i_long":106.819881,"station_id":"SUDB","transit":false,"distance":471,"time":1,"line":1},{"station_id":"SUD","i_lat":-6.202263,"distance":280,"station_name":"Sudirman","time":1,"is_transit":false,"i_long":106.822649,"line":1,"transit":false},{"station_name":"Manggarai","time":4,"is_transit":true,"transit":false,"distance":3186,"station_id":"MRI","i_lat":-6.209883,"i_long":106.84912,"line":0}],[{"transit":false,"station_name":"Tenjo","time":0,"i_lat":-6.327251,"distance":0,"i_long":106.460812,"line":6,"is_transit":false,"station_id":"TEJ"},{"i_long":106.491338,"time":5,"station_id":"DAR","station_name":"Daru","line":0,"is_transit":false,"distance":3902,"i_lat":-6.338021,"transit":false},{"station_name":"Cilejit","distance":2675,"line":0,"i_lat":-6.354349,"transit":false,"station_id":"CJT","i_long":106.508482,"is_transit":false,"time":6},{"is_transit":false,"station_name":"Parung Panjang","time":9,"transit":false,"i_long":106.568863,"distance":7025,"line":6,"station_id":"PRP","i_lat":-6.3441410000000005},{"station_name":"Cicayur","distance":5968,"i_lat":-6.329547,"time":8,"transit":false,"line":0,"i_long":106.617853,"is_transit":false,"station_id":"CC"},{"station_name":"Cisauk","station_id":"CSK","transit":false,"is_transit":false,"time":4,"i_long":106.640411,"i_lat":-6.32484,"line":0,"distance":2519},{"station_id":"SRP","time":4,"is_transit":false,"transit":false,"station_name":"Serpong","i_long":106.66566,"i_lat":-6.319871,"line":6,"distance":1784},{"station_id":"RU","i_lat":-6.314823,"i_long":106.675475,"is_transit":false,"station_name":"Rawa Buntu","transit":false,"line":6,"distance":2413,"time":4},{"i_lat":-6.296963,"line":6,"distance":4566,"time":6,"is_transit":false,"station_name":"Sudimara","transit":false,"i_long":106.712277,"station_id":"SDM"},{"distance":1994,"transit":false,"time":4,"i_long":106.728916,"station_name":"Jurangmangu","is_transit":false,"station_id":"JMU","line":6,"i_lat":-6.288927},{"i_long":106.74273,"line":6,"time":3,"distance":2179,"station_name":"Pondokranji","i_lat":-6.276362,"is_transit":false,"station_id":"PDJ","transit":false},{"i_long":106.780334,"station_id":"KBY","line":6,"transit":false,"station_name":"Kebayoran","i_lat":-6.237242,"is_transit":false,"time":8,"distance":6218},{"line":6,"distance":3737,"time":7,"i_lat":-6.207404,"station_id":"PLM","is_transit":false,"transit":false,"i_long":106.79689,"station_name":"Palmerah"},{"distance":3191,"station_id":"THB","time":6,"station_name":"Tanah Abang","is_transit":true,"i_long":106.811091,"line":1,"i_lat":-6.185545,"transit":true},{"time":8,"i_lat":-6.155215,"i_long":106.800832,"distance":3632,"is_transit":true,"station_id":"DU","line":1,"station_name":"Duri","transit":true},{"station_name":"Angke","station_id":"AK","i_long":106.79867,"line":0,"time":4,"is_transit":false,"i_lat":-6.144674,"distance":1230,"transit":false},{"time":9,"transit":false,"station_name":"Kampung Bandan","distance":4102,"is_transit":true,"i_lat":-6.132549,"i_long":106.826365,"station_id":"KPB","line":0},{"is_transit":true,"i_long":106.812439,"station_name":"Jakarta Kota","transit":true,"i_lat":-6.137569,"line":0,"distance":1364,"time":3,"station_id":"JAKK"},{"i_long":106.820901,"time":4,"distance":1264,"station_id":"JAY","station_name":"Jayakarta","transit":false,"i_lat":-6.141205,"is_transit":false,"line":7},{"station_id":"MGB","line":2,"distance":1080,"is_transit":false,"station_name":"Manggabesar","i_lat":-6.149769,"transit":false,"time":2,"i_long":106.82482},{"station_name":"Sawah Besar","station_id":"SW","line":2,"is_transit":false,"transit":false,"i_long":106.827103,"time":2,"distance":906,"i_lat":-6.160725},{"i_long":106.828284,"transit":false,"i_lat":-6.166716,"time":2,"station_id":"JUA","station_name":"Juanda","line":2,"distance":1149,"is_transit":false},{"time":4,"distance":2015,"station_id":"GDD","line":2,"i_lat":-6.186295,"is_transit":false,"station_name":"Gondangdia","transit":false,"i_long":106.832183},{"station_name":"Cikini","i_long":106.840169,"i_lat":-6.198556,"time":3,"distance":1750,"is_transit":false,"line":0,"station_id":"CKI","transit":false},{"station_name":"Manggarai","transit":false,"time":4,"distance":1590,"is_transit":true,"i_lat":-6.209883,"line":0,"i_long":106.84912,"station_id":"MRI"}],[{"is_transit":false,"transit":false,"station_name":"Tenjo","distance":0,"station_id":"TEJ","time":0,"i_lat":-6.327251,"i_long":106.460812,"line":6},{"time":5,"i_long":106.491338,"line":0,"station_id":"DAR","distance":3902,"transit":false,"is_transit":false,"station_name":"Daru","i_lat":-6.338021},{"transit":false,"line":0,"i_long":106.508482,"station_id":"CJT","i_lat":-6.354349,"is_transit":false,"station_name":"Cilejit","distance":2675,"time":6},{"line":6,"station_name":"Parung Panjang","time":9,"station_id":"PRP","i_long":106.568863,"i_lat":-6.3441410000000005,"distance":7025,"transit":false,"is_transit":false},{"i_lat":-6.329547,"station_name":"Cicayur","line":0,"station_id":"CC","distance":5968,"i_long":106.617853,"is_transit":false,"time":8,"transit":false},{"line":0,"transit":false,"i_long":106.640411,"station_name":"Cisauk","time":4,"distance":2519,"station_id":"CSK","i_lat":-6.32484,"is_transit":false},{"i_long":106.66566,"distance":1784,"is_transit":false,"time":4,"line":6,"station_id":"SRP","transit":false,"station_name":"Serpong","i_lat":-6.319871},{"station_name":"Rawa Buntu","distance":2413,"time":4,"i_long":106.675475,"i_lat":-6.314823,"line":6,"transit":false,"is_transit":false,"station_id":"RU"},{"station_id":"SDM","distance":4566,"is_transit":false,"time":6,"transit":false,"station_name":"Sudimara","i_lat":-6.296963,"i_long":106.712277,"line":6},{"time":4,"i_lat":-6.288927,"line":6,"transit":false,"i_long":106.728916,"station_name":"Jurangmangu","distance":1994,"is_transit":false,"station_id":"JMU"},{"time":3,"i_long":106.74273,"station_id":"PDJ","transit":false,"distance":2179,"is_transit":false,"line":6,"station_name":"Pondokranji","i_lat":-6.276362},{"station_id":"KBY","transit":false,"i_long":106.780334,"distance":6218,"line":6,"station_name":"Kebayoran","is_transit":false,"time":8,"i_lat":-6.237242},{"distance":3737,"line":6,"station_name":"Palmerah","time":7,"station_id":"PLM","is_transit":false,"transit":false,"i_long":106.79689,"i_lat":-6.207404},{"time":6,"i_long":106.811091,"distance":3191,"transit":true,"line":1,"i_lat":-6.185545,"station_id":"THB","station_name":"Tanah Abang","is_transit":true},{"line":1,"i_lat":-6.155215,"station_name":"Duri","transit":true,"station_id":"DU","time":8,"distance":3632,"is_transit":true,"i_long":106.800832},{"time":4,"distance":1230,"is_transit":false,"transit":false,"station_name":"Angke","line":0,"i_lat":-6.144674,"station_id":"AK","i_long":106.79867},{"is_transit":true,"time":9,"transit":true,"i_long":106.826365,"line":0,"distance":4102,"i_lat":-6.132549,"station_name":"Kampung Bandan","station_id":"KPB"},{"distance":1444,"time":3,"is_transit":false,"station_id":"RJW","transit":false,"i_lat":-6.14505,"line":11,"station_name":"Rajawali","i_long":106.836569},{"is_transit":false,"i_lat":-6.161728,"i_long":106.839204,"transit":false,"distance":1901,"station_id":"KMO","station_name":"Kemayoran","time":5,"line":11},{"line":11,"i_long":106.84368,"transit":false,"distance":1436,"station_id":"PSE","is_transit":false,"station_name":"Pasar Senen","time":4,"i_lat":-6.174784},{"line":11,"station_id":"GST","distance":1567,"time":8,"station_name":"Gang Sentiong","i_lat":-6.185975,"is_transit":false,"transit":false,"i_long":106.850107},{"station_id":"KMT","is_transit":false,"i_lat":-6.193792,"i_long":106.855437,"station_name":"Kramat","transit":false,"line":11,"time":1,"distance":973},{"transit":false,"time":2,"station_id":"POK","station_name":"Pondok Jati","distance":1829,"is_transit":false,"i_long":106.861737,"line":11,"i_lat":-6.209188},{"time":9,"i_long":106.86807400000001,"distance":1236,"i_lat":-6.215091,"line":0,"station_name":"Jatinegara","transit":true,"station_id":"JNG","is_transit":true},{"is_transit":false,"distance":1377,"time":2,"i_lat":-6.212485,"line":1,"station_name":"Matraman","station_id":"MTR","i_long":106.858896,"transit":false},{"is_transit":true,"station_name":"Manggarai","line":0,"i_lat":-6.209883,"time":2,"i_long":106.84912,"transit":false,"distance":1275,"station_id":"MRI"}]]}