{"data":[[{"i_lat":-6.327251,"station_id":"TEJ","distance":0,"is_transit":false,"time":0,"transit":false,"i_long":106.460812,"line":6,"station_name":"Tenjo"},{"time":5,"line":0,"is_transit":false,"station_id":"DAR","transit":false,"i_long":106.491338,"distance":3902,"i_lat":-6.338021,"station_name":"Daru"},{"time":6,"distance":2675,"i_long":106.508482,"transit":false,"line":3,"station_name":"Cilejit","i_lat":-6.354349,"is_transit":false,"station_id":"CJT"},{"i_lat":-6.3441410000000005,"distance":7025,"is_transit":false,"station_name":"Parung Panjang","i_long":106.568863,"line":6,"time":9,"transit":false,"station_id":"PRP"},{"i_long":106.617853,"is_transit":false,"transit":false,"station_name":"Cicayur","station_id":"CC","distance":5968,"i_lat":-6.329547,"time":8,"line":3},{"station_id":"CSK","line":3,"distance":2519,"i_lat":-6.32484,"station_name":"Cisauk","time":4,"is_transit":false,"i_long":106.640411,"transit":false},{"transit":false,"is_transit":false,"time":4,"station_name":"Serpong","i_long":106.66566,"line":6,"distance":1784,"station_id":"SRP","i_lat":-6.319871},{"time":4,"station_id":"RU","station_name":"Rawa Buntu","line":6,"i_long":106.675475,"transit":false,"i_lat":-6.314823,"is_transit":false,"distance":2413},{"i_long":106.712277,"station_name":"Sudimara","transit":false,"station_id":"SDM","is_transit":false,"i_lat":-6.296963,"distance":4566,"time":6,"line":6},{"distance":1994,"i_long":106.728916,"is_transit":false,"time":4,"transit":false,"station_id":"JMU","line":6,"i_lat":-6.288927,"station_name":"Jurangmangu"},{"i_long":106.74273,"transit":false,"station_name":"Pondokranji","time":3,"is_transit":false,"i_lat":-6.276362,"station_id":"PDJ","line":6,"distance":2179},{"transit":false,"station_id":"KBY","line":6,"i_lat":-6.237242,"is_transit":false,"station_name":"Kebayoran","distance":6218,"time":8,"i_long":106.780334},{"station_id":"PLM","transit":false,"i_long":106.79689,"line":6,"is_transit":false,"i_lat":-6.207404,"time":7,"station_name":"Palmerah","distance":3737},{"i_lat":-6.185545,"i_long":106.811091,"station_id":"THB","transit":true,"distance":3191,"time":6,"station_name":"Tanah Abang","line":1,"is_transit":true},{"time":8,"i_long":106.800832,"station_name":"Duri","i_lat":-6.155215,"transit":false,"is_transit":false,"line":1,"station_id":"DU","distance":3632},{"transit":false,"station_id":"AK","i_lat":-6.144674,"time":4,"is_transit":false,"line":1,"station_name":"Angke","i_long":106.79867,"distance":1230},{"distance":4102,"station_id":"KPB","is_transit":true,"time":9,"i_long":106.826365,"transit":true,"station_name":"Kampung Bandan","line":4,"i_lat":-6.132549},{"distance":1444,"is_transit":false,"time":3,"station_name":"Rajawali","i_lat":-6.14505,"i_long":106.836569,"line":11,"transit":false,"station_id":"RJW"},{"time":5,"i_lat":-6.161728,"station_id":"KMO","line":11,"station_name":"Kemayoran","distance":1901,"is_transit":false,"transit":false,"i_long":106.839204},{"transit":false,"station_name":"Pasar Senen","i_lat":-6.174784,"line":11,"is_transit":false,"time":4,"distance":1436,"station_id":"PSE","i_long":106.84368}],[{"line":6,"is_transit":false,"i_long":106.460812,"station_name":"Tenjo","time":0,"transit":false,"station_id":"TEJ","distance":0,"i_lat":-6.327251},{"i_lat":-6.338021,"time":5,"station_id":"DAR","i_long":106.491338,"station_name":"Daru","transit":false,"is_transit":false,"line":0,"distance":3902},{"line":3,"time":6,"transit":false,"station_name":"Cilejit","distance":2675,"i_lat":-6.354349,"is_transit":false,"i_long":106.508482,"station_id":"CJT"},{"is_transit":false,"time":9,"distance":7025,"transit":false,"i_lat":-6.3441410000000005,"station_name":"Parung Panjang","line":6,"station_id":"PRP","i_long":106.568863},{"i_long":106.617853,"line":3,"is_transit":false,"station_name":"Cicayur","transit":false,"station_id":"CC","time":8,"i_lat":-6.329547,"distance":5968},{"i_lat":-6.32484,"station_name":"Cisauk","is_transit":false,"line":3,"transit":false,"station_id":"CSK","i_long":106.640411,"time":4,"distance":2519},{"transit":false,"station_name":"Serpong","line":6,"is_transit":false,"time":4,"distance":1784,"i_lat":-6.319871,"station_id":"SRP","i_long":106.66566},{"station_name":"Rawa Buntu","transit":false,"i_lat":-6.314823,"is_transit":false,"line":6,"time":4,"station_id":"RU","i_long":106.675475,"distance":2413},{"transit":false,"is_transit":false,"i_lat":-6.296963,"i_long":106.712277,"station_name":"Sudimara","distance":4566,"time":6,"station_id":"SDM","line":6},{"is_transit":false,"distance":1994,"time":4,"i_long":106.728916,"line":6,"transit":false,"i_lat":-6.288927,"station_name":"Jurangmangu","station_id":"JMU"},{"station_id":"PDJ","distance":2179,"station_name":"Pondokranji","i_long":106.74273,"time":3,"is_transit":false,"line":6,"transit":false,"i_lat":-6.276362},{"station_name":"Kebayoran","transit":false,"station_id":"KBY","time":8,"i_long":106.780334,"is_transit":false,"line":6,"i_lat":-6.237242,"distance":6218},{"i_lat":-6.207404,"time":7,"station_id":"PLM","transit":false,"i_long":106.79689,"distance":3737,"station_name":"Palmerah","is_transit":false,"line":6},{"distance":3191,"station_name":"Tanah Abang","i_lat":-6.185545,"i_long":106.811091,"line":1,"time":6,"station_id":"THB","transit":true,"is_transit":true},{"i_long":106.816351,"transit":false,"line":1,"i_lat":-6.20132,"station_id":"KAT","station_name":"Karet","time":5,"distance":2029,"is_transit":false},{"i_lat":-6.201433,"line":1,"station_id":"SUDB","time":1,"transit":false,"station_name":"Sudirman Baru","is_transit":false,"distance":471,"i_long":106.819881},{"i_lat":-6.202263,"line":1,"time":1,"distance":280,"transit":false,"station_name":"Sudirman","is_transit":false,"i_long":106.822649,"station_id":"SUD"},{"distance":3186,"transit":false,"station_name":"Manggarai","is_transit":false,"station_id":"MRI","time":4,"i_lat":-6.209883,"line":2,"i_long":106.84912},{"transit":false,"time":2,"distance":1275,"station_id":"MTR","i_lat":-6.212485,"is_transit":false,"i_long":106.858896,"station_name":"Matraman","line":1},{"time":8,"station_id":"JNG","transit":true,"is_transit":true,"distance":1377,"station_name":"Jatinegara","i_lat":-6.215091,"line":1,"i_long":106.86807400000001},{"transit":false,"station_id":"POK","distance":1236,"line":11,"i_long":106.861737,"station_name":"Pondok Jati","i_lat":-6.209188,"is_transit":false,"time":2},{"station_name":"Kramat","transit":false,"time":2,"station_id":"KMT","distance":1829,"i_lat":-6.193792,"line":11,"i_long":106.855437,"is_transit":false},{"station_name":"Gang Sentiong","is_transit":false,"distance":973,"station_id":"GST","time":1,"i_long":106.850107,"line":11,"i_lat":-6.185975,"transit":false},{"transit":false,"i_long":106.84368,"is_transit":false,"line":11,"station_name":"Pasar Senen","station_id":"PSE","i_lat":-6.174784,"time":8,"distance":1567}],[{"distance":0,"transit":false,"is_transit":false,"station_name":"Tenjo","time":0,"i_long":106.460812,"station_id":"TEJ","line":6,"i_lat":-6.327251},{"is_transit":false,"i_long":106.491338,"distance":3902,"station_name":"Daru","station_id":"DAR","transit":false,"time":5,"line":0,"i_lat":-6.338021},{"is_transit":false,"time":6,"station_name":"Cilejit","station_id":"CJT","distance":2675,"i_lat":-6.354349,"i_long":106.508482,"line":3,"transit":false},{"distance":7025,"station_name":"Parung Panjang","station_id":"PRP","transit":false,"time":9,"is_transit":false,"i_long":106.568863,"line":6,"i_lat":-6.3441410000000005},{"is_transit":false,"i_long":106.617853,"time":8,"station_name":"Cicayur","transit":false,"distance":5968,"i_lat":-6.329547,"line":3,"station_id":"CC"},{"line":3,"distance":2519,"station_id":"CSK","time":4,"i_lat":-6.32484,"transit":false,"is_transit":false,"station_name":"Cisauk","i_long":106.640411},{"station_id":"SRP","transit":false,"line":6,"is_transit":false,"station_name":"Serpong","distance":1784,"time":4,"i_lat":-6.319871,"i_long":106.66566},{"station_name":"Rawa Buntu","station_id":"RU","is_transit":false,"time":4,"i_lat":-6.314823,"transit":false,"line":6,"distance":2413,"i_long":106.675475},{"station_id":"SDM","transit":false,"line":6,"station_name":"Sudimara","is_transit":false,"distance":4566,"time":6,"i_lat":-6.296963,"i_long":106.712277},{"time":4,"transit":false,"i_long":106.728916,"is_transit":false,"distance":1994,"station_name":"Jurangmangu","station_id":"JMU","i_lat":-6.288927,"line":6},{"i_long":106.74273,"i_lat":-6.276362,"line":6,"station_id":"PDJ","distance":2179,"station_name":"Pondokranji","is_transit":false,"time":3,"transit":false},{"transit":false,"i_lat":-6.237242,"i_long":106.780334,"line":6,"is_transit":false,"station_name":"Kebayoran","station_id":"KBY","time":8,"distance":6218},{"is_transit":false,"station_id":"PLM","time":7,"distance":3737,"i_lat":-6.207404,"i_long":106.79689,"station_name":"Palmerah","line":6,"transit":false},{"transit":true,"station_name":"Tanah Abang","is_transit":true,"time":6,"distance":3191,"i_lat":-6.185545,"i_long":106.811091,"station_id":"THB","line":1},{"time":5,"is_transit":false,"distance":2029,"i_lat":-6.20132,"line":1,"station_id":"KAT","transit":false,"i_long":106.816351,"station_name":"Karet"},{"station_id":"SUDB","station_name":"Sudirman Baru","i_lat":-6.201433,"time":1,"i_long":106.819881,"distance":471,"line":1,"transit":false,"is_transit":false},{"transit":false,"line":1,"distance":280,"time":1,"i_lat":-6.202263,"i_long":106.822649,"is_transit":false,"station_name":"Sudirman","station_id":"SUD"},{"distance":3186,"station_name":"Manggarai","i_lat":-6.209883,"transit":true,"station_id":"MRI","time":4,"i_long":106.84912,"line":2,"is_transit":true},{"time":4,"station_id":"CKI","station_name":"Cikini","i_lat":-6.198556,"transit":false,"line":2,"is_transit":false,"distance":1590,"i_long":106.840169},{"station_name":"Gondangdia","station_id":"GDD","time":3,"i_long":106.832183,"is_transit":false,"line":2,"distance":1750,"transit":false,"i_lat":-6.186295},{"station_name":"Juanda","time":4,"i_long":106.828284,"line":2,"is_transit":false,"distance":2015,"transit":false,"i_lat":-6.166716,"station_id":"JUA"},{"distance":1149,"is_transit":false,"station_id":"SW","line":2,"transit":false,"station_name":"Sawah Besar","i_lat":-6.160725,"time":2,"i_long":106.827103},{"station_id":"MGB","i_long":106.82482,"distance":906,"time":2,"transit":false,"is_transit":false,"i_lat":-6.149769,"line":2,"station_name":"Manggabesar"},{"distance":1080,"station_id":"JAY","time":2,"i_long":106.820901,"station_name":"Jayakarta","line":2,"is_transit":false,"i_lat":-6.141205,"transit":false},{"station_name":"Jakarta Kota","distance":1264,"time":4,"i_long":106.812439,"transit":true,"is_transit":true,"station_id":"JAKK","i_lat":-6.137569,"line":2},{"i_long":106.826365,"distance":1364,"time":3,"station_name":"Kampung Bandan","is_transit":true,"line":4,"transit":true,"i_lat":-6.132549,"station_id":"KPB"},{"is_transit":false,"station_id":"RJW","line":11,"station_name":"Rajawali","distance":1444,"transit":false,"i_long":106.836569,"time":3,"i_lat":-6.14505},{"station_id":"KMO","is_transit":false,"distance":1901,"time":5,"station_name":"Kemayoran","line":11,"i_long":106.839204,"transit":false,"i_lat":-6.161728},{"i_long":106.84368,"time":4,"line":11,"station_id":"PSE","is_transit":false,"station_name":"Pasar Senen","transit":false,"distance":1436,"i_lat":-6.174784}],[{"i_lat":-6.327251,"line":6,"time":0,"distance":0,"is_transit":false,"transit":false,"station_id":"TEJ","i_long":106.460812,"station_name":"Tenjo"},{"i_long":106.491338,"is_transit":false,"transit":false,"station_name":"Daru","time":5,"distance":3902,"line":0,"station_id":"DAR","i_lat":-6.338021},{"time":6,"station_name":"Cilejit","station_id":"CJT","i_long":106.508482,"is_transit":false,"i_lat":-6.354349,"transit":false,"distance":2675,"line":3},{"station_name":"Parung Panjang","is_transit":false,"i_lat":-6.3441410000000005,"station_id":"PRP","i_long":106.568863,"distance":7025,"transit":false,"time":9,"line":6},{"i_long":106.617853,"line":3,"transit":false,"station_id":"CC","distance":5968,"time":8,"station_name":"Cicayur","is_transit":false,"i_lat":-6.329547},{"station_name":"Cisauk","transit":false,"time":4,"i_long":106.640411,"line":3,"station_id":"CSK","is_transit":false,"distance":2519,"i_lat":-6.32484},{"station_id":"SRP","time":4,"line":6,"distance":1784,"i_long":106.66566,"is_transit":false,"i_lat":-6.319871,"transit":false,"station_name":"Serpong"},{"station_name":"Rawa Buntu","station_id":"RU","i_lat":-6.314823,"i_long":106.675475,"line":6,"is_transit":false,"distance":2413,"time":4,"transit":false},{"i_long":106.712277,"transit":false,"station_name":"Sudimara","is_transit":false,"time":6,"station_id":"SDM","distance":4566,"i_lat":-6.296963,"line":6},{"distance":1994,"i_long":106.728916,"line":6,"time":4,"i_lat":-6.288927,"station_id":"JMU","transit":false,"station_name":"Jurangmangu","is_transit":false},{"is_transit":false,"time":3,"station_name":"Pondokranji","transit":false,"station_id":"PDJ","i_long":106.74273,"distance":2179,"i_lat":-6.276362,"line":6},{"i_long":106.780334,"distance":6218,"transit":false,"is_transit":false,"station_id":"KBY","station_name":"Kebayoran","i_lat":-6.237242,"line":6,"time":8},{"is_transit":false,"line":6,"station_name":"Palmerah","distance":3737,"time":7,"transit":false,"i_lat":-6.207404,"i_long":106.79689,"station_id":"PLM"},{"transit":true,"station_id":"THB","is_transit":true,"distance":3191,"i_lat":-6.185545,"line":1,"station_name":"Tanah Abang","i_long":106.811091,"time":6},{"station_id":"DU","i_long":106.800832,"time":8,"transit":false,"station_name":"Duri","distance":3632,"line":1,"is_transit":false,"i_lat":-6.155215},{"station_name":"Angke","distance":1230,"i_lat":-6.144674,"station_id":"AK","i_long":106.79867,"transit":false,"line":1,"is_transit":false,"time":4},{"time":9,"station_name":"Kampung Bandan","line":4,"i_lat":-6.132549,"station_id":"KPB","distance":4102,"is_transit":true,"transit":true,"i_long":106.826365},{"station_name":"Jakarta Kota","i_lat":-6.137569,"transit":true,"is_transit":true,"distance":1364,"i_long":106.812439,"station_id":"JAKK","line":2,"time":3},{"distance":1264,"line":2,"station_id":"JAY","time":4,"i_lat":-6.141205,"i_long":106.820901,"station_name":"Jayakarta","transit":false,"is_transit":false},{"is_transit":false,"distance":1080,"transit":false,"i_lat":-6.149769,"time":2,"station_name":"Manggabesar","i_long":106.82482,"line":2,"station_id":"MGB"},{"i_lat":-6.160725,"time":2,"station_id":"SW","is_transit":false,"line":2,"station_name":"Sawah Besar","distance":906,"i_long":106.827103,"transit":false},{"time":2,"station_id":"JUA","is_transit":false,"distance":1149,"i_long":106.828284,"station_name":"Juanda","line":2,"i_lat":-6.166716,"transit":false},{"transit":false,"station_name":"Gondangdia","distance":2015,"time":4,"i_lat":-6.186295,"i_long":106.832183,"station_id":"GDD","is_transit":false,"line":2},{"station_name":"Cikini","transit":false,"time":3,"station_id":"CKI","i_lat":-6.198556,"line":2,"i_long":106.840169,"is_transit":false,"distance":1750},{"is_transit":true,"transit":true,"i_lat":-6.209883,"distance":1590,"i_long":106.84912,"station_id":"MRI","time":4,"station_name":"Manggarai","line":2},{"line":1,"i_lat":-6.212485,"is_transit":false,"i_long":106.858896,"station_id":"MTR","time":2,"transit":false,"station_name":"Matraman","distance":1275},{"line":1,"transit":true,"i_lat":-6.215091,"time":8,"is_transit":true,"station_name":"Jatinegara","distance":1377,"i_long":106.86807400000001,"station_id":"JNG"},{"is_transit":false,"transit":false,"time":2,"i_lat":-6.209188,"station_id":"POK","station_name":"Pondok Jati","line":11,"distance":1236,"i_long":106.861737},{"transit":false,"station_id":"KMT","is_transit":false,"distance":1829,"i_lat":-6.193792,"i_long":106.855437,"line":11,"time":2,"station_name":"Kramat"},{"line":11,"i_long":106.850107,"station_id":"GST","distance":973,"transit":false,"i_lat":-6.185975,"is_transit":false,"time":1,"station_name":"Gang Sentiong"},{"station_name":"Pasar Senen","time":8,"distance":1567,"i_lat":-6.174784,"is_transit":false,"i_long":106.84368,"station_id":"PSE","transit":false,"line":11}]]}