{"data":[[{"is_transit":false,"transit":false,"line":6,"station_name":"Tenjo","time":0,"station_id":"TEJ","i_lat":-6.327251,"distance":0,"i_long":106.460812},{"line":0,"station_name":"Daru","i_lat":-6.338021,"time":5,"station_id":"DAR","distance":3902,"i_long":106.491338,"is_transit":false,"transit":false},{"distance":2675,"station_name":"Cilejit","i_lat":-6.354349,"time":6,"i_long":106.508482,"line":3,"transit":false,"is_transit":false,"station_id":"CJT"},{"station_name":"Parung Panjang","is_transit":false,"line":6,"time":9,"i_long":106.568863,"station_id":"PRP","transit":false,"i_lat":-6.3441410000000005,"distance":7025},{"time":8,"transit":false,"station_id":"CC","station_name":"Cicayur","is_transit":false,"i_lat":-6.329547,"distance":5968,"i_long":106.617853,"line":3},{"transit":false,"i_lat":-6.32484,"i_long":106.640411,"distance":2519,"time":4,"station_id":"CSK","station_name":"Cisauk","line":3,"is_transit":false},{"is_transit":false,"line":6,"station_name":"Serpong","transit":false,"distance":1784,"station_id":"SRP","i_lat":-6.319871,"time":4,"i_long":106.66566},{"transit":false,"station_name":"Rawa Buntu","is_transit":false,"i_long":106.675475,"line":6,"distance":2413,"i_lat":-6.314823,"time":4,"station_id":"RU"},{"distance":4566,"time":6,"station_id":"SDM","station_name":"Sudimara","i_lat":-6.296963,"is_transit":false,"i_long":106.712277,"transit":false,"line":6},{"distance":1994,"is_transit":false,"transit":false,"line":6,"station_id":"JMU","i_lat":-6.288927,"time":4,"station_name":"Jurangmangu","i_long":106.728916},{"is_transit":false,"i_lat":-6.276362,"i_long":106.74273,"distance":2179,"station_name":"Pondokranji","line":6,"station_id":"PDJ","transit":false,"time":3},{"i_long":106.780334,"time":8,"i_lat":-6.237242,"station_id":"KBY","distance":6218,"line":6,"station_name":"Kebayoran","transit":false,"is_transit":false},{"time":7,"i_lat":-6.207404,"station_name":"Palmerah","distance":3737,"transit":false,"i_long":106.79689,"is_transit":false,"station_id":"PLM","line":6},{"station_id":"THB","line":1,"time":6,"i_long":106.811091,"i_lat":-6.185545,"distance":3191,"transit":true,"station_name":"Tanah Abang","is_transit":true},{"i_lat":-6.20132,"line":1,"is_transit":false,"time":5,"transit":false,"distance":2029,"station_id":"KAT","i_long":106.816351,"station_name":"Karet"},{"i_long":106.819881,"time":1,"distance":471,"station_id":"SUDB","is_transit":false,"transit":false,"station_name":"Sudirman Baru","i_lat":-6.201433,"line":1},{"distance":280,"line":1,"time":1,"transit":false,"i_lat":-6.202263,"is_transit":false,"i_long":106.822649,"station_name":"Sudirman","station_id":"SUD"},{"i_long":106.84912,"is_transit":false,"station_id":"MRI","station_name":"Manggarai","time":4,"distance":3186,"transit":false,"i_lat":-6.209883,"line":2},{"station_name":"Matraman","station_id":"MTR","i_long":106.858896,"transit":false,"time":2,"distance":1275,"line":1,"is_transit":false,"i_lat":-6.212485},{"time":8,"station_id":"JNG","i_long":106.86807400000001,"distance":1377,"line":1,"i_lat":-6.215091,"transit":false,"is_transit":false,"station_name":"Jatinegara"},{"i_long":106.899548,"time":3,"is_transit":false,"station_name":"Klender","distance":3395,"transit":false,"i_lat":-6.2135,"station_id":"KLD","line":1},{"i_lat":-6.215568,"line":1,"transit":false,"station_id":"BUA","station_name":"Buaran","distance":3100,"time":2,"is_transit":false,"i_long":106.922662},{"i_long":106.939679,"i_lat":-6.217455,"is_transit":false,"station_name":"Klenderbaru","time":1,"station_id":"KLDB","distance":1305,"line":1,"transit":false},{"i_long":106.951283,"line":1,"distance":1385,"transit":false,"station_name":"Cakung","station_id":"CUK","time":8,"is_transit":false,"i_lat":-6.219053},{"i_lat":-6.224515,"time":3,"is_transit":false,"i_long":106.977657,"station_name":"Kranji","transit":false,"distance":3097,"line":1,"station_id":"KRI"},{"i_lat":-6.236616,"line":1,"station_id":"BKS","is_transit":false,"transit":false,"station_name":"Bekasi","i_long":106.997013,"distance":2520,"time":4},{"time":2,"distance":2368,"is_transit":false,"station_name":"Bekasi Timur","i_long":107.016735,"station_id":"BKST","i_lat":-6.248029,"transit":false,"line":1},{"line":1,"transit":false,"station_name":"Tambun","i_lat":-6.258864,"i_long":107.055722,"distance":4460,"time":7,"station_id":"TB","is_transit":false},{"i_long":107.083084,"time":3,"transit":false,"is_transit":false,"station_id":"CIT","distance":3420,"station_name":"Cibitung","i_lat":-6.261877,"line":1},{"time":2,"transit":false,"station_name":"Metland Telaga Murni","distance":2800,"station_id":"TLM","i_long":107.093313,"i_lat":-6.262938,"line":1,"is_transit":false}],[{"station_id":"TEJ","i_long":106.460812,"transit":false,"time":0,"is_transit":false,"station_name":"Tenjo","i_lat":-6.327251,"line":6,"distance":0},{"i_lat":-6.338021,"time":5,"is_transit":false,"station_id":"DAR","station_name":"Daru","line":0,"transit":false,"distance":3902,"i_long":106.491338},{"time":6,"is_transit":false,"distance":2675,"i_lat":-6.354349,"station_id":"CJT","line":3,"i_long":106.508482,"transit":false,"station_name":"Cilejit"},{"i_lat":-6.3441410000000005,"line":6,"station_name":"Parung Panjang","i_long":106.568863,"station_id":"PRP","distance":7025,"is_transit":false,"transit":false,"time":9},{"i_lat":-6.329547,"station_name":"Cicayur","i_long":106.617853,"distance":5968,"time":8,"transit":false,"station_id":"CC","is_transit":false,"line":3},{"station_id":"CSK","distance":2519,"is_transit":false,"i_lat":-6.32484,"time":4,"transit":false,"line":3,"station_name":"Cisauk","i_long":106.640411},{"is_transit":false,"time":4,"station_name":"Serpong","station_id":"SRP","line":6,"transit":false,"i_lat":-6.319871,"i_long":106.66566,"distance":1784},{"station_name":"Rawa Buntu","i_lat":-6.314823,"transit":false,"line":6,"is_transit":false,"distance":2413,"station_id":"RU","i_long":106.675475,"time":4},{"i_lat":-6.296963,"line":6,"distance":4566,"transit":false,"station_name":"Sudimara","is_transit":false,"station_id":"SDM","i_long":106.712277,"time":6},{"i_lat":-6.288927,"transit":false,"i_long":106.728916,"line":6,"time":4,"station_id":"JMU","is_transit":false,"distance":1994,"station_name":"Jurangmangu"},{"is_transit":false,"transit":false,"i_lat":-6.276362,"station_id":"PDJ","distance":2179,"station_name":"Pondokranji","line":6,"time":3,"i_long":106.74273},{"is_transit":false,"station_id":"KBY","station_name":"Kebayoran","i_lat":-6.237242,"distance":6218,"i_long":106.780334,"transit":false,"time":8,"line":6},{"station_name":"Palmerah","transit":false,"distance":3737,"time":7,"i_lat":-6.207404,"i_long":106.79689,"line":6,"is_transit":false,"station_id":"PLM"},{"i_lat":-6.185545,"i_long":106.811091,"distance":3191,"is_transit":true,"transit":true,"line":1,"time":6,"station_id":"THB","station_name":"Tanah Abang"},{"time":8,"is_transit":false,"transit":false,"i_lat":-6.155215,"i_long":106.800832,"station_name":"Duri","station_id":"DU","distance":3632,"line":1},{"line":1,"time":4,"i_long":106.79867,"i_lat":-6.144674,"is_transit":false,"station_id":"AK","transit":false,"station_name":"Angke","distance":1230},{"time":9,"distance":4102,"station_name":"Kampung Bandan","i_long":106.826365,"station_id":"KPB","transit":true,"line":4,"is_transit":true,"i_lat":-6.132549},{"line":11,"time":3,"i_long":106.836569,"transit":false,"station_name":"Rajawali","is_transit":false,"distance":1444,"i_lat":-6.14505,"station_id":"RJW"},{"station_name":"Kemayoran","distance":1901,"transit":false,"is_transit":false,"i_long":106.839204,"line":11,"i_lat":-6.161728,"time":5,"station_id":"KMO"},{"time":4,"distance":1436,"station_name":"Pasar Senen","station_id":"PSE","is_transit":false,"i_lat":-6.174784,"i_long":106.84368,"line":11,"transit":false},{"i_long":106.850107,"i_lat":-6.185975,"station_id":"GST","distance":1567,"is_transit":false,"transit":false,"line":11,"time":8,"station_name":"Gang Sentiong"},{"time":1,"i_long":106.855437,"distance":973,"i_lat":-6.193792,"is_transit":false,"station_name":"Kramat","station_id":"KMT","line":11,"transit":false},{"is_transit":false,"i_long":106.861737,"line":11,"i_lat":-6.209188,"transit":false,"station_id":"POK","distance":1829,"time":2,"station_name":"Pondok Jati"},{"time":9,"station_name":"Jatinegara","i_lat":-6.215091,"station_id":"JNG","transit":true,"is_transit":true,"i_long":106.86807400000001,"line":1,"distance":1236},{"transit":false,"station_name":"Klender","time":3,"line":1,"i_lat":-6.2135,"station_id":"KLD","is_transit":false,"distance":3395,"i_long":106.899548},{"line":1,"distance":3100,"is_transit":false,"i_long":106.922662,"time":2,"station_id":"BUA","transit":false,"station_name":"Buaran","i_lat":-6.215568},{"i_long":106.939679,"station_id":"KLDB","time":1,"i_lat":-6.217455,"station_name":"Klenderbaru","is_transit":false,"line":1,"transit":false,"distance":1305},{"station_id":"CUK","distance":1385,"i_lat":-6.219053,"i_long":106.951283,"station_name":"Cakung","line":1,"transit":false,"time":8,"is_transit":false},{"i_lat":-6.224515,"i_long":106.977657,"station_id":"KRI","time":3,"line":1,"transit":false,"distance":3097,"is_transit":false,"station_name":"Kranji"},{"i_long":106.997013,"is_transit":false,"line":1,"station_id":"BKS","transit":false,"time":4,"i_lat":-6.236616,"station_name":"Bekasi","distance":2520},{"line":1,"i_lat":-6.248029,"distance":2368,"i_long":107.016735,"is_transit":false,"transit":false,"time":2,"station_name":"Bekasi Timur","station_id":"BKST"},{"i_lat":-6.258864,"station_name":"Tambun","station_id":"TB","line":1,"i_long":107.055722,"transit":false,"time":7,"is_transit":false,"distance":4460},{"distance":3420,"station_id":"CIT","i_long":107.083084,"line":1,"transit":false,"time":3,"i_lat":-6.261877,"station_name":"Cibitung","is_transit":false},{"transit":false,"time":2,"station_id":"TLM","is_transit":false,"i_lat":-6.262938,"line":1,"station_name":"Metland Telaga Murni","distance":2800,"i_long":107.093313}],[{"transit":false,"station_id":"TEJ","time":0,"is_transit":false,"i_lat":-6.327251,"distance":0,"i_long":106.460812,"station_name":"Tenjo","line":6},{"transit":false,"station_id":"DAR","i_lat":-6.338021,"station_name":"Daru","distance":3902,"is_transit":false,"line":0,"time":5,"i_long":106.491338},{"time":6,"station_id":"CJT","distance":2675,"is_transit":false,"line":3,"i_long":106.508482,"i_lat":-6.354349,"transit":false,"station_name":"Cilejit"},{"station_id":"PRP","is_transit":false,"transit":false,"distance":7025,"i_lat":-6.3441410000000005,"station_name":"Parung Panjang","i_long":106.568863,"line":6,"time":9},{"line":3,"station_name":"Cicayur","station_id":"CC","transit":false,"distance":5968,"i_lat":-6.329547,"is_transit":false,"i_long":106.617853,"time":8},{"station_name":"Cisauk","line":3,"i_lat":-6.32484,"is_transit":false,"station_id":"CSK","transit":false,"distance":2519,"time":4,"i_long":106.640411},{"station_name":"Serpong","transit":false,"is_transit":false,"station_id":"SRP","time":4,"line":6,"distance":1784,"i_long":106.66566,"i_lat":-6.319871},{"transit":false,"station_name":"Rawa Buntu","distance":2413,"line":6,"time":4,"is_transit":false,"station_id":"RU","i_lat":-6.314823,"i_long":106.675475},{"station_name":"Sudimara","station_id":"SDM","distance":4566,"line":6,"time":6,"i_lat":-6.296963,"is_transit":false,"i_long":106.712277,"transit":false},{"transit":false,"i_lat":-6.288927,"station_id":"JMU","station_name":"Jurangmangu","time":4,"line":6,"distance":1994,"is_transit":false,"i_long":106.728916},{"station_id":"PDJ","station_name":"Pondokranji","i_long":106.74273,"is_transit":false,"distance":2179,"transit":false,"time":3,"i_lat":-6.276362,"line":6},{"is_transit":false,"time":8,"distance":6218,"i_long":106.780334,"i_lat":-6.237242,"line":6,"station_id":"KBY","transit":false,"station_name":"Kebayoran"},{"distance":3737,"transit":false,"is_transit":false,"i_lat":-6.207404,"i_long":106.79689,"line":6,"station_name":"Palmerah","time":7,"station_id":"PLM"},{"i_lat":-6.185545,"time":6,"transit":true,"distance":3191,"i_long":106.811091,"station_id":"THB","line":1,"station_name":"Tanah Abang","is_transit":true},{"station_name":"Duri","is_transit":false,"line":1,"i_long":106.800832,"distance":3632,"station_id":"DU","i_lat":-6.155215,"transit":false,"time":8},{"transit":false,"station_name":"Angke","station_id":"AK","distance":1230,"is_transit":false,"i_lat":-6.144674,"i_long":106.79867,"line":1,"time":4},{"i_lat":-6.132549,"line":4,"distance":4102,"is_transit":true,"i_long":106.826365,"time":9,"station_name":"Kampung Bandan","transit":true,"station_id":"KPB"},{"distance":1364,"station_id":"JAKK","is_transit":true,"time":3,"i_lat":-6.137569,"station_name":"Jakarta Kota","i_long":106.812439,"transit":true,"line":2},{"i_lat":-6.141205,"line":2,"station_id":"JAY","is_transit":false,"i_long":106.820901,"transit":false,"distance":1264,"station_name":"Jayakarta","time":4},{"i_lat":-6.149769,"i_long":106.82482,"distance":1080,"transit":false,"is_transit":false,"line":2,"time":2,"station_id":"MGB","station_name":"Manggabesar"},{"time":2,"i_long":106.827103,"is_transit":false,"transit":false,"distance":906,"line":2,"i_lat":-6.160725,"station_name":"Sawah Besar","station_id":"SW"},{"station_name":"Juanda","distance":1149,"i_long":106.828284,"time":2,"i_lat":-6.166716,"station_id":"JUA","transit":false,"line":2,"is_transit":false},{"is_transit":false,"station_id":"GDD","station_name":"Gondangdia","distance":2015,"i_lat":-6.186295,"transit":false,"i_long":106.832183,"line":2,"time":4},{"station_id":"CKI","i_lat":-6.198556,"is_transit":false,"station_name":"Cikini","time":3,"i_long":106.840169,"distance":1750,"line":2,"transit":false},{"time":4,"i_lat":-6.209883,"i_long":106.84912,"line":2,"transit":true,"station_name":"Manggarai","is_transit":true,"distance":1590,"station_id":"MRI"},{"distance":1275,"time":2,"i_lat":-6.212485,"is_transit":false,"station_id":"MTR","transit":false,"i_long":106.858896,"station_name":"Matraman","line":1},{"station_name":"Jatinegara","line":1,"is_transit":false,"transit":false,"i_long":106.86807400000001,"distance":1377,"station_id":"JNG","time":8,"i_lat":-6.215091},{"i_lat":-6.2135,"station_id":"KLD","station_name":"Klender","i_long":106.899548,"distance":3395,"time":3,"transit":false,"line":1,"is_transit":false},{"i_long":106.922662,"distance":3100,"time":2,"line":1,"is_transit":false,"i_lat":-6.215568,"station_name":"Buaran","station_id":"BUA","transit":false},{"i_long":106.939679,"line":1,"transit":false,"time":1,"distance":1305,"is_transit":false,"station_name":"Klenderbaru","i_lat":-6.217455,"station_id":"KLDB"},{"i_long":106.951283,"station_name":"Cakung","i_lat":-6.219053,"time":8,"line":1,"transit":false,"distance":1385,"station_id":"CUK","is_transit":false},{"station_id":"KRI","distance":3097,"is_transit":false,"transit":false,"station_name":"Kranji","time":3,"i_lat":-6.224515,"i_long":106.977657,"line":1},{"distance":2520,"i_long":106.997013,"station_name":"Bekasi","is_transit":false,"i_lat":-6.236616,"station_id":"BKS","line":1,"time":4,"transit":false},{"distance":2368,"i_long":107.016735,"line":1,"station_id":"BKST","i_lat":-6.248029,"station_name":"Bekasi Timur","is_transit":false,"transit":false,"time":2},{"line":1,"time":7,"i_long":107.055722,"station_name":"Tambun","i_lat":-6.258864,"is_transit":false,"transit":false,"station_id":"TB","distance":4460},{"transit":false,"station_name":"Cibitung","is_transit":false,"distance":3420,"line":1,"time":3,"i_lat":-6.261877,"station_id":"CIT","i_long":107.083084},{"station_id":"TLM","i_lat":-6.262938,"distance":2800,"is_transit":false,"station_name":"Metland Telaga Murni","i_long":107.093313,"time":2,"line":1,"transit":false}],[{"i_lat":-6.327251,"time":0,"station_name":"Tenjo","is_transit":false,"transit":false,"station_id":"TEJ","i_long":106.460812,"line":6,"distance":0},{"station_name":"Daru","distance":3902,"i_long":106.491338,"transit":false,"is_transit":false,"line":0,"time":5,"station_id":"DAR","i_lat":-6.338021},{"i_lat":-6.354349,"transit":false,"station_name":"Cilejit","station_id":"CJT","time":6,"is_transit":false,"line":3,"distance":2675,"i_long":106.508482},{"time":9,"station_id":"PRP","i_lat":-6.3441410000000005,"i_long":106.568863,"station_name":"Parung Panjang","transit":false,"is_transit":false,"line":6,"distance":7025},{"is_transit":false,"transit":false,"i_lat":-6.329547,"line":3,"i_long":106.617853,"station_id":"CC","distance":5968,"station_name":"Cicayur","time":8},{"i_long":106.640411,"is_transit":false,"line":3,"time":4,"transit":false,"station_name":"Cisauk","station_id":"CSK","i_lat":-6.32484,"distance":2519},{"i_lat":-6.319871,"station_name":"Serpong","is_transit":false,"transit":false,"i_long":106.66566,"line":6,"station_id":"SRP","distance":1784,"time":4},{"i_lat":-6.314823,"station_id":"RU","station_name":"Rawa Buntu","line":6,"time":4,"i_long":106.675475,"transit":false,"distance":2413,"is_transit":false},{"distance":4566,"line":6,"time":6,"station_name":"Sudimara","is_transit":false,"i_long":106.712277,"station_id":"SDM","transit":false,"i_lat":-6.296963},{"distance":1994,"is_transit":false,"station_name":"Jurangmangu","i_long":106.728916,"line":6,"i_lat":-6.288927,"station_id":"JMU","transit":false,"time":4},{"line":6,"i_long":106.74273,"station_name":"Pondokranji","time":3,"station_id":"PDJ","transit":false,"distance":2179,"is_transit":false,"i_lat":-6.276362},{"line":6,"station_id":"KBY","time":8,"distance":6218,"transit":false,"i_long":106.780334,"i_lat":-6.237242,"station_name":"Kebayoran","is_transit":false},{"time":7,"i_lat":-6.207404,"line":6,"is_transit":false,"i_long":106.79689,"station_name":"Palmerah","transit":false,"station_id":"PLM","distance":3737},{"station_id":"THB","line":1,"is_transit":true,"transit":true,"station_name":"Tanah Abang","i_lat":-6.185545,"distance":3191,"time":6,"i_long":106.811091},{"distance":2029,"i_lat":-6.20132,"station_name":"Karet","time":5,"line":1,"i_long":106.816351,"transit":false,"station_id":"KAT","is_transit":false},{"station_name":"Sudirman Baru","i_lat":-6.201433,"distance":471,"i_long":106.819881,"time":1,"station_id":"SUDB","transit":false,"line":1,"is_transit":false},{"is_transit":false,"distance":280,"i_long":106.822649,"time":1,"station_name":"Sudirman","transit":false,"station_id":"SUD","i_lat":-6.202263,"line":1},{"i_long":106.84912,"line":2,"station_name":"Manggarai","is_transit":true,"time":4,"distance":3186,"station_id":"MRI","transit":true,"i_lat":-6.209883},{"transit":false,"station_name":"Cikini","station_id":"CKI","time":4,"i_lat":-6.198556,"is_transit":false,"distance":1590,"i_long":106.840169,"line":2},{"station_name":"Gondangdia","is_transit":false,"i_long":106.832183,"transit":false,"station_id":"GDD","i_lat":-6.186295,"distance":1750,"time":3,"line":2},{"distance":2015,"is_transit":false,"station_id":"JUA","station_name":"Juanda","time":4,"line":2,"i_long":106.828284,"transit":false,"i_lat":-6.166716},{"distance":1149,"i_lat":-6.160725,"station_id":"SW","line":2,"station_name":"Sawah Besar","i_long":106.827103,"transit":false,"is_transit":false,"time":2},{"time":2,"line":2,"transit":false,"distance":906,"is_transit":false,"i_lat":-6.149769,"station_name":"Manggabesar","i_long":106.82482,"station_id":"MGB"},{"transit":false,"time":2,"station_id":"JAY","line":2,"i_lat":-6.141205,"distance":1080,"is_transit":false,"i_long":106.820901,"station_name":"Jayakarta"},{"transit":true,"station_name":"Jakarta Kota","is_transit":true,"i_lat":-6.137569,"time":4,"distance":1264,"station_id":"JAKK","i_long":106.812439,"line":2},{"transit":true,"i_lat":-6.132549,"time":3,"i_long":106.826365,"station_name":"Kampung Bandan","distance":1364,"line":4,"station_id":"KPB","is_transit":true},{"is_transit":false,"station_name":"Rajawali","station_id":"RJW","i_lat":-6.14505,"transit":false,"distance":1444,"time":3,"line":11,"i_long":106.836569},{"time":5,"distance":1901,"station_id":"KMO","station_name":"Kemayoran","i_lat":-6.161728,"i_long":106.839204,"transit":false,"line":11,"is_transit":false},{"is_transit":false,"i_lat":-6.174784,"station_name":"Pasar Senen","time":4,"station_id":"PSE","i_long":106.84368,"line":11,"distance":1436,"transit":false},{"is_transit":false,"i_long":106.850107,"transit":false,"distance":1567,"station_name":"Gang Sentiong","i_lat":-6.185975,"time":8,"line":11,"station_id":"GST"},{"transit":false,"i_long":106.855437,"station_name":"Kramat","i_lat":-6.193792,"line":11,"station_id":"KMT","distance":973,"is_transit":false,"time":1},{"distance":1829,"is_transit":false,"transit":false,"time":2,"i_lat":-6.209188,"i_long":106.861737,"station_id":"POK","line":11,"station_name":"Pondok Jati"},{"station_id":"JNG","transit":true,"time":9,"distance":1236,"i_long":106.86807400000001,"station_name":"Jatinegara","is_transit":true,"i_lat":-6.215091,"line":1},{"is_transit":false,"line":1,"i_lat":-6.2135,"station_id":"KLD","i_long":106.899548,"transit":false,"station_name":"Klender","distance":3395,"time":3},{"i_long":106.922662,"time":2,"i_lat":-6.215568,"is_transit":false,"line":1,"transit":false,"station_name":"Buaran","station_id":"BUA","distance":3100},{"transit":false,"i_lat":-6.217455,"line":1,"station_name":"Klenderbaru","station_id":"KLDB","i_long":106.939679,"time":1,"is_transit":false,"distance":1305},{"station_id":"CUK","time":8,"station_name":"Cakung","i_lat":-6.219053,"line":1,"is_transit":false,"distance":1385,"transit":false,"i_long":106.951283},{"station_name":"Kranji","distance":3097,"station_id":"KRI","is_transit":false,"time":3,"i_lat":-6.224515,"transit":false,"line":1,"i_long":106.977657},{"station_id":"BKS","i_long":106.997013,"station_name":"Bekasi","line":1,"is_transit":false,"distance":2520,"i_lat":-6.236616,"transit":false,"time":4},{"is_transit":false,"i_lat":-6.248029,"time":2,"i_long":107.016735,"distance":2368,"transit":false,"station_name":"Bekasi Timur","line":1,"station_id":"BKST"},{"i_lat":-6.258864,"station_id":"TB","is_transit":false,"distance":4460,"i_long":107.055722,"station_name":"Tambun","line":1,"transit":false,"time":7},{"transit":false,"station_name":"Cibitung","i_long":107.083084,"line":1,"station_id":"CIT","i_lat":-6.261877,"is_transit":false,"time":3,"distance":3420},{"distance":2800,"i_long":107.093313,"station_id":"TLM","i_lat":-6.262938,"station_name":"Metland Telaga Murni","time":2,"line":1,"transit":false,"is_transit":false}]]}