{"data":[[{"line":6,"is_transit":false,"i_lat":-6.327251,"i_long":106.460812,"station_id":"TEJ","transit":false,"station_name":"Tenjo","time":0,"distance":0},{"i_lat":-6.338021,"station_name":"Daru","line":0,"time":5,"station_id":"DAR","is_transit":false,"distance":3902,"transit":false,"i_long":106.491338},{"transit":false,"station_name":"Cilejit","station_id":"CJT","time":6,"distance":2675,"is_transit":false,"i_lat":-6.354349,"i_long":106.508482,"line":3},{"transit":false,"line":6,"distance":7025,"is_transit":false,"i_lat":-6.3441410000000005,"time":9,"station_id":"PRP","station_name":"Parung Panjang","i_long":106.568863},{"is_transit":false,"time":8,"i_long":106.617853,"i_lat":-6.329547,"distance":5968,"station_name":"Cicayur","line":3,"transit":false,"station_id":"CC"},{"station_name":"Cisauk","transit":false,"time":4,"distance":2519,"i_lat":-6.32484,"i_long":106.640411,"line":3,"is_transit":false,"station_id":"CSK"},{"station_name":"Serpong","i_long":106.66566,"is_transit":false,"time":4,"distance":1784,"transit":false,"station_id":"SRP","line":6,"i_lat":-6.319871},{"distance":2413,"i_long":106.675475,"station_id":"RU","time":4,"i_lat":-6.314823,"transit":false,"station_name":"Rawa Buntu","is_transit":false,"line":6},{"transit":false,"station_name":"Sudimara","distance":4566,"is_transit":false,"time":6,"station_id":"SDM","i_lat":-6.296963,"line":6,"i_long":106.712277},{"is_transit":false,"station_name":"Jurangmangu","time":4,"line":6,"i_lat":-6.288927,"station_id":"JMU","distance":1994,"i_long":106.728916,"transit":false},{"time":3,"is_transit":false,"station_id":"PDJ","distance":2179,"transit":false,"line":6,"station_name":"Pondokranji","i_long":106.74273,"i_lat":-6.276362},{"time":8,"distance":6218,"line":6,"i_lat":-6.237242,"i_long":106.780334,"station_name":"Kebayoran","transit":false,"station_id":"KBY","is_transit":false},{"is_transit":false,"station_id":"PLM","time":7,"i_long":106.79689,"i_lat":-6.207404,"transit":false,"line":6,"station_name":"Palmerah","distance":3737},{"station_id":"THB","time":6,"distance":3191,"is_transit":true,"line":1,"station_name":"Tanah Abang","i_lat":-6.185545,"i_long":106.811091,"transit":true},{"station_name":"Karet","is_transit":false,"time":5,"distance":2029,"transit":false,"i_long":106.816351,"i_lat":-6.20132,"line":1,"station_id":"KAT"},{"is_transit":false,"distance":471,"time":1,"i_lat":-6.201433,"station_name":"Sudirman Baru","station_id":"SUDB","i_long":106.819881,"transit":false,"line":1},{"station_id":"SUD","distance":280,"i_lat":-6.202263,"time":1,"transit":false,"i_long":106.822649,"is_transit":false,"station_name":"Sudirman","line":1},{"time":4,"transit":false,"is_transit":false,"station_name":"Manggarai","i_long":106.84912,"i_lat":-6.209883,"line":2,"station_id":"MRI","distance":3186},{"distance":1275,"station_name":"Matraman","time":2,"line":1,"station_id":"MTR","i_long":106.858896,"is_transit":false,"transit":false,"i_lat":-6.212485},{"distance":1377,"transit":false,"station_name":"Jatinegara","is_transit":false,"i_lat":-6.215091,"station_id":"JNG","time":8,"i_long":106.86807400000001,"line":1},{"transit":false,"time":3,"distance":3395,"is_transit":false,"i_lat":-6.2135,"station_id":"KLD","i_long":106.899548,"line":1,"station_name":"Klender"},{"i_lat":-6.215568,"i_long":106.922662,"distance":3100,"is_transit":false,"line":1,"station_id":"BUA","transit":false,"time":2,"station_name":"Buaran"},{"transit":false,"i_long":106.939679,"time":1,"line":1,"is_transit":false,"station_id":"KLDB","station_name":"Klenderbaru","distance":1305,"i_lat":-6.217455},{"transit":false,"station_name":"Cakung","i_long":106.951283,"time":8,"line":1,"distance":1385,"station_id":"CUK","i_lat":-6.219053,"is_transit":false},{"distance":3097,"is_transit":false,"line":1,"time":3,"i_lat":-6.224515,"station_name":"Kranji","station_id":"KRI","i_long":106.977657,"transit":false},{"station_name":"Bekasi","time":4,"i_long":106.997013,"station_id":"BKS","is_transit":false,"i_lat":-6.236616,"distance":2520,"line":1,"transit":false},{"time":2,"is_transit":false,"station_name":"Bekasi Timur","i_long":107.016735,"i_lat":-6.248029,"line":1,"station_id":"BKST","transit":false,"distance":2368},{"station_id":"TB","line":1,"i_long":107.055722,"station_name":"Tambun","time":7,"is_transit":false,"transit":false,"distance":4460,"i_lat":-6.258864},{"transit":false,"time":3,"station_id":"CIT","i_lat":-6.261877,"i_long":107.083084,"line":1,"distance":3420,"station_name":"Cibitung","is_transit":false}],[{"station_id":"TEJ","time":0,"distance":0,"i_long":106.460812,"transit":false,"line":6,"station_name":"Tenjo","is_transit":false,"i_lat":-6.327251},{"i_long":106.491338,"station_id":"DAR","line":0,"i_lat":-6.338021,"time":5,"station_name":"Daru","transit":false,"is_transit":false,"distance":3902},{"station_id":"CJT","i_lat":-6.354349,"i_long":106.508482,"transit":false,"line":3,"station_name":"Cilejit","is_transit":false,"time":6,"distance":2675},{"station_id":"PRP","time":9,"i_lat":-6.3441410000000005,"i_long":106.568863,"distance":7025,"transit":false,"line":6,"station_name":"Parung Panjang","is_transit":false},{"i_long":106.617853,"station_name":"Cicayur","line":3,"time":8,"is_transit":false,"distance":5968,"station_id":"CC","i_lat":-6.329547,"transit":false},{"is_transit":false,"transit":false,"station_name":"Cisauk","i_lat":-6.32484,"time":4,"distance":2519,"i_long":106.640411,"station_id":"CSK","line":3},{"line":6,"i_long":106.66566,"i_lat":-6.319871,"distance":1784,"station_name":"Serpong","is_transit":false,"transit":false,"station_id":"SRP","time":4},{"transit":false,"station_id":"RU","i_long":106.675475,"line":6,"distance":2413,"i_lat":-6.314823,"is_transit":false,"station_name":"Rawa Buntu","time":4},{"line":6,"distance":4566,"transit":false,"is_transit":false,"station_name":"Sudimara","station_id":"SDM","i_long":106.712277,"time":6,"i_lat":-6.296963},{"i_lat":-6.288927,"is_transit":false,"i_long":106.728916,"line":6,"time":4,"transit":false,"station_name":"Jurangmangu","station_id":"JMU","distance":1994},{"time":3,"station_name":"Pondokranji","is_transit":false,"i_long":106.74273,"distance":2179,"i_lat":-6.276362,"station_id":"PDJ","line":6,"transit":false},{"line":6,"is_transit":false,"transit":false,"distance":6218,"i_lat":-6.237242,"i_long":106.780334,"station_name":"Kebayoran","station_id":"KBY","time":8},{"i_lat":-6.207404,"line":6,"transit":false,"station_name":"Palmerah","station_id":"PLM","is_transit":false,"time":7,"distance":3737,"i_long":106.79689},{"i_lat":-6.185545,"station_id":"THB","is_transit":true,"time":6,"station_name":"Tanah Abang","i_long":106.811091,"distance":3191,"line":1,"transit":true},{"transit":false,"station_id":"DU","station_name":"Duri","time":8,"line":1,"is_transit":false,"distance":3632,"i_lat":-6.155215,"i_long":106.800832},{"i_long":106.79867,"station_id":"AK","station_name":"Angke","i_lat":-6.144674,"line":1,"transit":false,"is_transit":false,"distance":1230,"time":4},{"line":4,"is_transit":true,"time":9,"i_long":106.826365,"distance":4102,"station_name":"Kampung Bandan","station_id":"KPB","i_lat":-6.132549,"transit":true},{"line":11,"transit":false,"distance":1444,"station_name":"Rajawali","is_transit":false,"time":3,"i_long":106.836569,"station_id":"RJW","i_lat":-6.14505},{"transit":false,"time":5,"i_long":106.839204,"station_id":"KMO","distance":1901,"i_lat":-6.161728,"station_name":"Kemayoran","line":11,"is_transit":false},{"i_long":106.84368,"i_lat":-6.174784,"is_transit":false,"station_name":"Pasar Senen","line":11,"time":4,"distance":1436,"station_id":"PSE","transit":false},{"i_lat":-6.185975,"transit":false,"is_transit":false,"station_name":"Gang Sentiong","time":8,"i_long":106.850107,"line":11,"station_id":"GST","distance":1567},{"i_lat":-6.193792,"station_name":"Kramat","is_transit":false,"time":1,"distance":973,"line":11,"transit":false,"i_long":106.855437,"station_id":"KMT"},{"time":2,"i_lat":-6.209188,"station_id":"POK","i_long":106.861737,"is_transit":false,"transit":false,"distance":1829,"station_name":"Pondok Jati","line":11},{"time":9,"i_long":106.86807400000001,"station_id":"JNG","transit":true,"line":1,"i_lat":-6.215091,"distance":1236,"station_name":"Jatinegara","is_transit":true},{"is_transit":false,"time":3,"transit":false,"i_lat":-6.2135,"line":1,"distance":3395,"station_id":"KLD","i_long":106.899548,"station_name":"Klender"},{"transit":false,"is_transit":false,"station_name":"Buaran","distance":3100,"i_lat":-6.215568,"i_long":106.922662,"line":1,"time":2,"station_id":"BUA"},{"i_long":106.939679,"is_transit":false,"line":1,"i_lat":-6.217455,"station_name":"Klenderbaru","distance":1305,"station_id":"KLDB","time":1,"transit":false},{"distance":1385,"time":8,"i_long":106.951283,"transit":false,"is_transit":false,"station_name":"Cakung","i_lat":-6.219053,"line":1,"station_id":"CUK"},{"is_transit":false,"i_lat":-6.224515,"line":1,"station_id":"KRI","transit":false,"time":3,"i_long":106.977657,"station_name":"Kranji","distance":3097},{"station_id":"BKS","transit":false,"distance":2520,"station_name":"Bekasi","line":1,"time":4,"is_transit":false,"i_lat":-6.236616,"i_long":106.997013},{"line":1,"station_id":"BKST","time":2,"i_lat":-6.248029,"is_transit":false,"station_name":"Bekasi Timur","distance":2368,"transit":false,"i_long":107.016735},{"i_lat":-6.258864,"transit":false,"station_name":"Tambun","i_long":107.055722,"is_transit":false,"distance":4460,"station_id":"TB","line":1,"time":7},{"is_transit":false,"i_lat":-6.261877,"i_long":107.083084,"station_name":"Cibitung","station_id":"CIT","line":1,"transit":false,"distance":3420,"time":3}],[{"transit":false,"time":0,"line":6,"distance":0,"i_lat":-6.327251,"station_id":"TEJ","station_name":"Tenjo","i_long":106.460812,"is_transit":false},{"transit":false,"i_long":106.491338,"station_name":"Daru","time":5,"is_transit":false,"line":0,"station_id":"DAR","i_lat":-6.338021,"distance":3902},{"is_transit":false,"i_long":106.508482,"line":3,"transit":false,"station_name":"Cilejit","distance":2675,"time":6,"i_lat":-6.354349,"station_id":"CJT"},{"i_long":106.568863,"is_transit":false,"time":9,"station_name":"Parung Panjang","line":6,"station_id":"PRP","transit":false,"distance":7025,"i_lat":-6.3441410000000005},{"is_transit":false,"line":3,"i_lat":-6.329547,"transit":false,"i_long":106.617853,"distance":5968,"time":8,"station_name":"Cicayur","station_id":"CC"},{"transit":false,"distance":2519,"i_lat":-6.32484,"i_long":106.640411,"time":4,"station_id":"CSK","line":3,"station_name":"Cisauk","is_transit":false},{"station_id":"SRP","line":6,"station_name":"Serpong","time":4,"is_transit":false,"i_lat":-6.319871,"distance":1784,"transit":false,"i_long":106.66566},{"station_name":"Rawa Buntu","transit":false,"is_transit":false,"time":4,"distance":2413,"station_id":"RU","i_long":106.675475,"i_lat":-6.314823,"line":6},{"i_long":106.712277,"station_name":"Sudimara","station_id":"SDM","i_lat":-6.296963,"time":6,"distance":4566,"line":6,"transit":false,"is_transit":false},{"time":4,"station_id":"JMU","i_long":106.728916,"is_transit":false,"distance":1994,"i_lat":-6.288927,"line":6,"transit":false,"station_name":"Jurangmangu"},{"station_name":"Pondokranji","time":3,"is_transit":false,"station_id":"PDJ","i_lat":-6.276362,"transit":false,"i_long":106.74273,"distance":2179,"line":6},{"station_name":"Kebayoran","station_id":"KBY","i_lat":-6.237242,"is_transit":false,"line":6,"transit":false,"time":8,"distance":6218,"i_long":106.780334},{"station_name":"Palmerah","is_transit":false,"transit":false,"line":6,"i_long":106.79689,"time":7,"station_id":"PLM","distance":3737,"i_lat":-6.207404},{"distance":3191,"i_lat":-6.185545,"station_id":"THB","i_long":106.811091,"time":6,"line":1,"station_name":"Tanah Abang","is_transit":true,"transit":true},{"i_long":106.800832,"line":1,"time":8,"station_id":"DU","distance":3632,"i_lat":-6.155215,"transit":false,"is_transit":false,"station_name":"Duri"},{"time":4,"line":1,"station_name":"Angke","i_long":106.79867,"distance":1230,"transit":false,"is_transit":false,"i_lat":-6.144674,"station_id":"AK"},{"station_name":"Kampung Bandan","time":9,"line":4,"i_long":106.826365,"transit":true,"station_id":"KPB","is_transit":true,"distance":4102,"i_lat":-6.132549},{"distance":1364,"i_lat":-6.137569,"station_id":"JAKK","time":3,"transit":true,"station_name":"Jakarta Kota","is_transit":true,"i_long":106.812439,"line":2},{"distance":1264,"station_name":"Jayakarta","station_id":"JAY","time":4,"i_lat":-6.141205,"is_transit":false,"line":2,"transit":false,"i_long":106.820901},{"i_lat":-6.149769,"i_long":106.82482,"station_id":"MGB","time":2,"station_name":"Manggabesar","transit":false,"distance":1080,"line":2,"is_transit":false},{"time":2,"transit":false,"is_transit":false,"distance":906,"station_id":"SW","i_long":106.827103,"line":2,"station_name":"Sawah Besar","i_lat":-6.160725},{"transit":false,"time":2,"line":2,"i_lat":-6.166716,"station_id":"JUA","i_long":106.828284,"distance":1149,"is_transit":false,"station_name":"Juanda"},{"i_long":106.832183,"is_transit":false,"station_id":"GDD","time":4,"line":2,"i_lat":-6.186295,"distance":2015,"transit":false,"station_name":"Gondangdia"},{"i_lat":-6.198556,"time":3,"i_long":106.840169,"is_transit":false,"transit":false,"station_id":"CKI","line":2,"station_name":"Cikini","distance":1750},{"is_transit":true,"i_lat":-6.209883,"line":2,"i_long":106.84912,"time":4,"transit":true,"distance":1590,"station_name":"Manggarai","station_id":"MRI"},{"station_id":"MTR","transit":false,"time":2,"distance":1275,"is_transit":false,"i_long":106.858896,"line":1,"i_lat":-6.212485,"station_name":"Matraman"},{"i_long":106.86807400000001,"transit":false,"station_name":"Jatinegara","time":8,"i_lat":-6.215091,"station_id":"JNG","line":1,"distance":1377,"is_transit":false},{"transit":false,"distance":3395,"is_transit":false,"station_name":"Klender","i_lat":-6.2135,"i_long":106.899548,"station_id":"KLD","time":3,"line":1},{"time":2,"is_transit":false,"station_id":"BUA","distance":3100,"transit":false,"i_lat":-6.215568,"station_name":"Buaran","i_long":106.922662,"line":1},{"station_name":"Klenderbaru","is_transit":false,"line":1,"i_long":106.939679,"distance":1305,"transit":false,"station_id":"KLDB","time":1,"i_lat":-6.217455},{"distance":1385,"i_lat":-6.219053,"station_id":"CUK","i_long":106.951283,"line":1,"station_name":"Cakung","is_transit":false,"transit":false,"time":8},{"is_transit":false,"station_id":"KRI","time":3,"station_name":"Kranji","transit":false,"distance":3097,"line":1,"i_lat":-6.224515,"i_long":106.977657},{"is_transit":false,"line":1,"transit":false,"distance":2520,"i_lat":-6.236616,"station_id":"BKS","station_name":"Bekasi","i_long":106.997013,"time":4},{"is_transit":false,"station_name":"Bekasi Timur","line":1,"i_long":107.016735,"station_id":"BKST","time":2,"i_lat":-6.248029,"transit":false,"distance":2368},{"station_id":"TB","transit":false,"time":7,"line":1,"is_transit":false,"i_long":107.055722,"station_name":"Tambun","distance":4460,"i_lat":-6.258864},{"is_transit":false,"i_long":107.083084,"station_id":"CIT","station_name":"Cibitung","time":3,"transit":false,"distance":3420,"i_lat":-6.261877,"line":1}],[{"distance":0,"station_id":"TEJ","time":0,"line":6,"i_lat":-6.327251,"transit":false,"i_long":106.460812,"is_transit":false,"station_name":"Tenjo"},{"i_lat":-6.338021,"station_id":"DAR","line":0,"transit":false,"is_transit":false,"distance":3902,"station_name":"Daru","i_long":106.491338,"time":5},{"distance":2675,"time":6,"line":3,"station_id":"CJT","transit":false,"i_lat":-6.354349,"i_long":106.508482,"station_name":"Cilejit","is_transit":false},{"is_transit":false,"station_id":"PRP","i_long":106.568863,"time":9,"transit":false,"distance":7025,"station_name":"Parung Panjang","i_lat":-6.3441410000000005,"line":6},{"station_id":"CC","time":8,"i_lat":-6.329547,"line":3,"is_transit":false,"distance":5968,"i_long":106.617853,"station_name":"Cicayur","transit":false},{"distance":2519,"transit":false,"is_transit":false,"time":4,"station_name":"Cisauk","i_lat":-6.32484,"line":3,"i_long":106.640411,"station_id":"CSK"},{"transit":false,"i_long":106.66566,"station_id":"SRP","time":4,"distance":1784,"i_lat":-6.319871,"line":6,"is_transit":false,"station_name":"Serpong"},{"distance":2413,"station_name":"Rawa Buntu","i_long":106.675475,"transit":false,"time":4,"station_id":"RU","is_transit":false,"i_lat":-6.314823,"line":6},{"transit":false,"distance":4566,"time":6,"station_name":"Sudimara","i_long":106.712277,"is_transit":false,"line":6,"station_id":"SDM","i_lat":-6.296963},{"is_transit":false,"line":6,"distance":1994,"station_id":"JMU","transit":false,"time":4,"i_lat":-6.288927,"i_long":106.728916,"station_name":"Jurangmangu"},{"transit":false,"distance":2179,"i_lat":-6.276362,"i_long":106.74273,"station_id":"PDJ","time":3,"station_name":"Pondokranji","is_transit":false,"line":6},{"i_long":106.780334,"i_lat":-6.237242,"is_transit":false,"time":8,"line":6,"transit":false,"station_id":"KBY","distance":6218,"station_name":"Kebayoran"},{"transit":false,"station_id":"PLM","distance":3737,"station_name":"Palmerah","i_lat":-6.207404,"time":7,"line":6,"i_long":106.79689,"is_transit":false},{"transit":true,"i_lat":-6.185545,"station_id":"THB","is_transit":true,"line":1,"station_name":"Tanah Abang","time":6,"distance":3191,"i_long":106.811091},{"distance":2029,"line":1,"transit":false,"station_id":"KAT","i_lat":-6.20132,"is_transit":false,"station_name":"Karet","i_long":106.816351,"time":5},{"i_long":106.819881,"time":1,"line":1,"i_lat":-6.201433,"station_name":"Sudirman Baru","station_id":"SUDB","is_transit":false,"distance":471,"transit":false},{"station_id":"SUD","i_long":106.822649,"is_transit":false,"line":1,"station_name":"Sudirman","distance":280,"transit":false,"time":1,"i_lat":-6.202263},{"distance":3186,"line":2,"transit":true,"station_id":"MRI","station_name":"Manggarai","i_lat":-6.209883,"is_transit":true,"time":4,"i_long":106.84912},{"line":2,"is_transit":false,"station_name":"Cikini","time":4,"transit":false,"station_id":"CKI","distance":1590,"i_long":106.840169,"i_lat":-6.198556},{"station_name":"Gondangdia","i_long":106.832183,"is_transit":false,"transit":false,"time":3,"i_lat":-6.186295,"station_id":"GDD","line":2,"distance":1750},{"transit":false,"is_transit":false,"station_id":"JUA","i_long":106.828284,"distance":2015,"i_lat":-6.166716,"line":2,"station_name":"Juanda","time":4},{"i_long":106.827103,"line":2,"station_name":"Sawah Besar","station_id":"SW","is_transit":false,"i_lat":-6.160725,"distance":1149,"transit":false,"time":2},{"station_name":"Manggabesar","is_transit":false,"station_id":"MGB","line":2,"time":2,"transit":false,"i_lat":-6.149769,"i_long":106.82482,"distance":906},{"is_transit":false,"i_lat":-6.141205,"line":2,"station_id":"JAY","time":2,"i_long":106.820901,"distance":1080,"station_name":"Jayakarta","transit":false},{"time":4,"transit":true,"i_long":106.812439,"station_id":"JAKK","is_transit":true,"distance":1264,"line":2,"station_name":"Jakarta Kota","i_lat":-6.137569},{"station_id":"KPB","station_name":"Kampung Bandan","is_transit":true,"time":3,"distance":1364,"i_lat":-6.132549,"transit":true,"i_long":106.826365,"line":4},{"i_lat":-6.14505,"transit":false,"is_transit":false,"station_id":"RJW","time":3,"distance":1444,"line":11,"station_name":"Rajawali","i_long":106.836569},{"i_long":106.839204,"time":5,"station_id":"KMO","transit":false,"line":11,"distance":1901,"is_transit":false,"i_lat":-6.161728,"station_name":"Kemayoran"},{"transit":false,"time":4,"distance":1436,"i_long":106.84368,"line":11,"station_name":"Pasar Senen","i_lat":-6.174784,"station_id":"PSE","is_transit":false},{"time":8,"distance":1567,"i_long":106.850107,"transit":false,"station_name":"Gang Sentiong","line":11,"i_lat":-6.185975,"station_id":"GST","is_transit":false},{"is_transit":false,"transit":false,"distance":973,"i_long":106.855437,"time":1,"station_name":"Kramat","i_lat":-6.193792,"line":11,"station_id":"KMT"},{"transit":false,"is_transit":false,"i_long":106.861737,"line":11,"distance":1829,"time":2,"station_name":"Pondok Jati","i_lat":-6.209188,"station_id":"POK"},{"i_long":106.86807400000001,"line":1,"transit":true,"time":9,"distance":1236,"i_lat":-6.215091,"is_transit":true,"station_id":"JNG","station_name":"Jatinegara"},{"station_name":"Klender","time":3,"i_lat":-6.2135,"station_id":"KLD","transit":false,"is_transit":false,"distance":3395,"line":1,"i_long":106.899548},{"station_name":"Buaran","distance":3100,"line":1,"is_transit":false,"i_lat":-6.215568,"transit":false,"station_id":"BUA","time":2,"i_long":106.922662},{"distance":1305,"station_id":"KLDB","line":1,"is_transit":false,"i_lat":-6.217455,"station_name":"Klenderbaru","transit":false,"time":1,"i_long":106.939679},{"is_transit":false,"transit":false,"station_name":"Cakung","time":8,"distance":1385,"i_lat":-6.219053,"i_long":106.951283,"line":1,"station_id":"CUK"},{"i_lat":-6.224515,"transit":false,"i_long":106.977657,"time":3,"distance":3097,"station_name":"Kranji","line":1,"station_id":"KRI","is_transit":false},{"transit":false,"station_id":"BKS","i_long":106.997013,"line":1,"is_transit":false,"time":4,"i_lat":-6.236616,"station_name":"Bekasi","distance":2520},{"transit":false,"i_lat":-6.248029,"line":1,"station_id":"BKST","time":2,"is_transit":false,"station_name":"Bekasi Timur","i_long":107.016735,"distance":2368},{"i_long":107.055722,"station_name":"Tambun","transit":false,"time":7,"is_transit":false,"station_id":"TB","i_lat":-6.258864,"line":1,"distance":4460},{"station_name":"Cibitung","time":3,"i_long":107.083084,"station_id":"CIT","distance":3420,"is_transit":false,"i_lat":-6.261877,"line":1,"transit":false}]]}