{"data":[[{"station_name":"Tenjo","line":6,"is_transit":false,"distance":0,"station_id":"TEJ","transit":false,"i_long":106.460812,"time":0,"i_lat":-6.327251},{"distance":3902,"line":0,"i_lat":-6.338021,"i_long":106.491338,"is_transit":false,"transit":false,"time":5,"station_id":"DAR","station_name":"Daru"},{"station_id":"CJT","distance":2675,"station_name":"Cilejit","time":6,"transit":false,"i_long":106.508482,"line":0,"i_lat":-6.354349,"is_transit":false},{"is_transit":false,"station_id":"PRP","station_name":"Parung Panjang","distance":7025,"transit":false,"i_lat":-6.3441410000000005,"line":6,"i_long":106.568863,"time":9},{"i_lat":-6.329547,"time":8,"distance":5968,"is_transit":false,"transit":false,"i_long":106.617853,"line":0,"station_id":"CC","station_name":"Cicayur"},{"transit":false,"station_id":"CSK","i_long":106.640411,"distance":2519,"is_transit":false,"line":0,"station_name":"Cisauk","time":4,"i_lat":-6.32484},{"line":6,"is_transit":false,"i_long":106.66566,"transit":false,"distance":1784,"station_id":"SRP","station_name":"Serpong","time":4,"i_lat":-6.319871},{"station_id":"RU","time":4,"is_transit":false,"distance":2413,"station_name":"Rawa Buntu","i_lat":-6.314823,"i_long":106.675475,"line":6,"transit":false},{"is_transit":false,"time":6,"transit":false,"station_name":"Sudimara","i_long":106.712277,"station_id":"SDM","i_lat":-6.296963,"line":6,"distance":4566},{"transit":false,"time":4,"is_transit":false,"station_id":"JMU","i_lat":-6.288927,"station_name":"Jurangmangu","line":6,"distance":1994,"i_long":106.728916},{"time":3,"transit":false,"line":6,"is_transit":false,"i_long":106.74273,"i_lat":-6.276362,"distance":2179,"station_id":"PDJ","station_name":"Pondokranji"},{"line":6,"i_lat":-6.237242,"distance":6218,"transit":false,"is_transit":false,"i_long":106.780334,"time":8,"station_id":"KBY","station_name":"Kebayoran"},{"station_id":"PLM","transit":false,"i_lat":-6.207404,"distance":3737,"time":7,"station_name":"Palmerah","is_transit":false,"i_long":106.79689,"line":6},{"is_transit":true,"time":6,"station_id":"THB","transit":true,"line":1,"i_long":106.811091,"distance":3191,"station_name":"Tanah Abang","i_lat":-6.185545},{"distance":2029,"i_long":106.816351,"line":1,"is_transit":false,"station_name":"Karet","i_lat":-6.20132,"time":5,"station_id":"KAT","transit":false},{"station_id":"SUDB","transit":false,"line":1,"distance":471,"station_name":"Sudirman Baru","time":1,"i_lat":-6.201433,"i_long":106.819881,"is_transit":false},{"station_id":"SUD","time":1,"station_name":"Sudirman","is_transit":false,"transit":false,"i_lat":-6.202263,"distance":280,"line":1,"i_long":106.822649},{"transit":false,"is_transit":true,"i_long":106.84912,"i_lat":-6.209883,"time":4,"station_id":"MRI","station_name":"Manggarai","line":0,"distance":3186},{"time":2,"is_transit":false,"i_long":106.858896,"station_name":"Matraman","transit":false,"i_lat":-6.212485,"distance":1275,"station_id":"MTR","line":1},{"station_name":"Jatinegara","i_long":106.86807400000001,"is_transit":true,"station_id":"JNG","line":0,"transit":false,"time":8,"i_lat":-6.215091,"distance":1377},{"station_name":"Klender","i_lat":-6.2135,"is_transit":false,"i_long":106.899548,"distance":3395,"station_id":"KLD","time":3,"transit":false,"line":1},{"i_lat":-6.215568,"station_id":"BUA","distance":3100,"is_transit":false,"time":2,"station_name":"Buaran","i_long":106.922662,"transit":false,"line":0},{"station_name":"Klenderbaru","distance":1305,"station_id":"KLDB","i_lat":-6.217455,"line":1,"is_transit":false,"i_long":106.939679,"transit":false,"time":1},{"i_lat":-6.219053,"is_transit":false,"i_long":106.951283,"transit":false,"time":8,"station_id":"CUK","distance":1385,"station_name":"Cakung","line":0},{"station_name":"Kranji","line":1,"distance":3097,"i_long":106.977657,"transit":false,"is_transit":false,"i_lat":-6.224515,"time":3,"station_id":"KRI"},{"transit":false,"time":4,"line":0,"is_transit":false,"i_long":106.997013,"station_id":"BKS","station_name":"Bekasi","distance":2520,"i_lat":-6.236616}],[{"line":6,"station_id":"TEJ","i_long":106.460812,"time":0,"i_lat":-6.327251,"transit":false,"distance":0,"station_name":"Tenjo","is_transit":false},{"time":5,"transit":false,"i_long":106.491338,"is_transit":false,"station_id":"DAR","station_name":"Daru","line":0,"distance":3902,"i_lat":-6.338021},{"station_id":"CJT","i_long":106.508482,"is_transit":false,"transit":false,"time":6,"line":0,"i_lat":-6.354349,"distance":2675,"station_name":"Cilejit"},{"station_name":"Parung Panjang","transit":false,"time":9,"station_id":"PRP","i_long":106.568863,"distance":7025,"line":6,"i_lat":-6.3441410000000005,"is_transit":false},{"station_name":"Cicayur","is_transit":false,"i_lat":-6.329547,"i_long":106.617853,"line":0,"transit":false,"station_id":"CC","distance":5968,"time":8},{"i_lat":-6.32484,"distance":2519,"station_name":"Cisauk","time":4,"transit":false,"i_long":106.640411,"line":0,"is_transit":false,"station_id":"CSK"},{"i_lat":-6.319871,"i_long":106.66566,"station_id":"SRP","is_transit":false,"transit":false,"line":6,"time":4,"distance":1784,"station_name":"Serpong"},{"station_id":"RU","i_lat":-6.314823,"time":4,"line":6,"transit":false,"i_long":106.675475,"distance":2413,"station_name":"Rawa Buntu","is_transit":false},{"distance":4566,"station_name":"Sudimara","transit":false,"line":6,"station_id":"SDM","time":6,"is_transit":false,"i_lat":-6.296963,"i_long":106.712277},{"i_long":106.728916,"line":6,"station_name":"Jurangmangu","time":4,"is_transit":false,"i_lat":-6.288927,"transit":false,"distance":1994,"station_id":"JMU"},{"station_name":"Pondokranji","transit":false,"line":6,"distance":2179,"station_id":"PDJ","is_transit":false,"i_long":106.74273,"time":3,"i_lat":-6.276362},{"i_long":106.780334,"line":6,"transit":false,"is_transit":false,"station_name":"Kebayoran","distance":6218,"station_id":"KBY","time":8,"i_lat":-6.237242},{"line":6,"i_long":106.79689,"is_transit":false,"time":7,"distance":3737,"station_name":"Palmerah","transit":false,"station_id":"PLM","i_lat":-6.207404},{"i_lat":-6.185545,"transit":true,"station_name":"Tanah Abang","i_long":106.811091,"distance":3191,"is_transit":true,"station_id":"THB","line":1,"time":6},{"i_lat":-6.155215,"line":1,"transit":true,"station_name":"Duri","i_long":106.800832,"time":8,"distance":3632,"is_transit":true,"station_id":"DU"},{"transit":false,"line":0,"station_name":"Angke","i_lat":-6.144674,"is_transit":false,"distance":1230,"station_id":"AK","time":4,"i_long":106.79867},{"distance":4102,"transit":true,"i_long":106.826365,"i_lat":-6.132549,"is_transit":true,"station_id":"KPB","station_name":"Kampung Bandan","time":9,"line":0},{"line":11,"distance":1444,"station_id":"RJW","station_name":"Rajawali","transit":false,"time":3,"i_lat":-6.14505,"i_long":106.836569,"is_transit":false},{"is_transit":false,"station_name":"Kemayoran","transit":false,"i_lat":-6.161728,"i_long":106.839204,"time":5,"distance":1901,"line":11,"station_id":"KMO"},{"is_transit":false,"time":4,"i_long":106.84368,"line":11,"station_name":"Pasar Senen","station_id":"PSE","i_lat":-6.174784,"transit":false,"distance":1436},{"station_id":"GST","time":8,"i_lat":-6.185975,"distance":1567,"transit":false,"station_name":"Gang Sentiong","is_transit":false,"i_long":106.850107,"line":11},{"is_transit":false,"i_long":106.855437,"station_id":"KMT","station_name":"Kramat","line":11,"distance":973,"time":1,"transit":false,"i_lat":-6.193792},{"station_name":"Pondok Jati","i_lat":-6.209188,"line":11,"i_long":106.861737,"is_transit":false,"distance":1829,"station_id":"POK","time":2,"transit":false},{"line":0,"distance":1236,"station_id":"JNG","transit":true,"i_lat":-6.215091,"time":9,"i_long":106.86807400000001,"is_transit":true,"station_name":"Jatinegara"},{"i_long":106.899548,"distance":3395,"station_name":"Klender","transit":false,"time":3,"line":1,"is_transit":false,"station_id":"KLD","i_lat":-6.2135},{"transit":false,"station_id":"BUA","station_name":"Buaran","i_lat":-6.215568,"i_long":106.922662,"line":0,"time":2,"distance":3100,"is_transit":false},{"is_transit":false,"station_id":"KLDB","time":1,"i_long":106.939679,"i_lat":-6.217455,"distance":1305,"transit":false,"line":1,"station_name":"Klenderbaru"},{"time":8,"distance":1385,"i_lat":-6.219053,"station_id":"CUK","is_transit":false,"line":0,"station_name":"Cakung","transit":false,"i_long":106.951283},{"is_transit":false,"i_lat":-6.224515,"distance":3097,"i_long":106.977657,"station_id":"KRI","station_name":"Kranji","transit":false,"time":3,"line":1},{"i_lat":-6.236616,"transit":false,"line":0,"time":4,"i_long":106.997013,"station_id":"BKS","station_name":"Bekasi","is_transit":false,"distance":2520}],[{"i_long":106.460812,"station_id":"TEJ","time":0,"is_transit":false,"i_lat":-6.327251,"station_name":"Tenjo","transit":false,"line":6,"distance":0},{"i_lat":-6.338021,"is_transit":false,"transit":false,"distance":3902,"i_long":106.491338,"line":0,"station_name":"Daru","time":5,"station_id":"DAR"},{"line":0,"is_transit":false,"station_name":"Cilejit","station_id":"CJT","i_long":106.508482,"time":6,"transit":false,"i_lat":-6.354349,"distance":2675},{"station_id":"PRP","i_lat":-6.3441410000000005,"transit":false,"is_transit":false,"i_long":106.568863,"station_name":"Parung Panjang","time":9,"distance":7025,"line":6},{"distance":5968,"line":0,"is_transit":false,"time":8,"i_lat":-6.329547,"transit":false,"i_long":106.617853,"station_id":"CC","station_name":"Cicayur"},{"line":0,"station_id":"CSK","i_lat":-6.32484,"time":4,"i_long":106.640411,"distance":2519,"transit":false,"is_transit":false,"station_name":"Cisauk"},{"distance":1784,"station_id":"SRP","transit":false,"line":6,"is_transit":false,"time":4,"station_name":"Serpong","i_lat":-6.319871,"i_long":106.66566},{"i_long":106.675475,"distance":2413,"time":4,"i_lat":-6.314823,"station_id":"RU","station_name":"Rawa Buntu","line":6,"is_transit":false,"transit":false},{"i_lat":-6.296963,"i_long":106.712277,"time":6,"station_name":"Sudimara","line":6,"distance":4566,"station_id":"SDM","is_transit":false,"transit":false},{"transit":false,"time":4,"i_lat":-6.288927,"station_name":"Jurangmangu","is_transit":false,"line":6,"i_long":106.728916,"distance":1994,"station_id":"JMU"},{"station_name":"Pondokranji","time":3,"distance":2179,"i_long":106.74273,"i_lat":-6.276362,"transit":false,"line":6,"is_transit":false,"station_id":"PDJ"},{"is_transit":false,"transit":false,"station_name":"Kebayoran","line":6,"time":8,"station_id":"KBY","i_lat":-6.237242,"i_long":106.780334,"distance":6218},{"time":7,"station_name":"Palmerah","station_id":"PLM","i_long":106.79689,"i_lat":-6.207404,"is_transit":false,"distance":3737,"line":6,"transit":false},{"is_transit":true,"station_id":"THB","distance":3191,"i_lat":-6.185545,"i_long":106.811091,"transit":true,"line":1,"station_name":"Tanah Abang","time":6},{"i_long":106.800832,"is_transit":true,"station_name":"Duri","station_id":"DU","transit":true,"i_lat":-6.155215,"line":1,"distance":3632,"time":8},{"line":0,"transit":false,"is_transit":false,"i_long":106.79867,"distance":1230,"i_lat":-6.144674,"station_name":"Angke","station_id":"AK","time":4},{"station_id":"KPB","transit":false,"time":9,"station_name":"Kampung Bandan","distance":4102,"line":0,"i_lat":-6.132549,"is_transit":true,"i_long":106.826365},{"i_long":106.812439,"distance":1364,"is_transit":true,"station_name":"Jakarta Kota","transit":true,"line":0,"time":3,"station_id":"JAKK","i_lat":-6.137569},{"distance":1264,"is_transit":false,"i_long":106.820901,"station_name":"Jayakarta","station_id":"JAY","line":7,"i_lat":-6.141205,"time":4,"transit":false},{"station_name":"Manggabesar","line":2,"time":2,"i_long":106.82482,"transit":false,"distance":1080,"is_transit":false,"station_id":"MGB","i_lat":-6.149769},{"line":2,"distance":906,"is_transit":false,"transit":false,"station_name":"Sawah Besar","time":2,"i_long":106.827103,"i_lat":-6.160725,"station_id":"SW"},{"time":2,"distance":1149,"transit":false,"is_transit":false,"i_long":106.828284,"station_name":"Juanda","station_id":"JUA","i_lat":-6.166716,"line":2},{"distance":2015,"i_lat":-6.186295,"time":4,"i_long":106.832183,"station_id":"GDD","line":2,"is_transit":false,"transit":false,"station_name":"Gondangdia"},{"transit":false,"station_name":"Cikini","distance":1750,"i_lat":-6.198556,"time":3,"station_id":"CKI","is_transit":false,"i_long":106.840169,"line":0},{"i_long":106.84912,"time":4,"station_name":"Manggarai","distance":1590,"is_transit":true,"i_lat":-6.209883,"transit":true,"station_id":"MRI","line":0},{"station_id":"MTR","transit":false,"i_long":106.858896,"line":1,"distance":1275,"i_lat":-6.212485,"time":2,"is_transit":false,"station_name":"Matraman"},{"is_transit":true,"distance":1377,"i_lat":-6.215091,"station_id":"JNG","station_name":"Jatinegara","i_long":106.86807400000001,"transit":false,"line":0,"time":8},{"distance":3395,"is_transit":false,"i_long":106.899548,"station_name":"Klender","transit":false,"station_id":"KLD","time":3,"line":1,"i_lat":-6.2135},{"i_lat":-6.215568,"time":2,"station_name":"Buaran","is_transit":false,"distance":3100,"transit":false,"line":0,"station_id":"BUA","i_long":106.922662},{"transit":false,"station_id":"KLDB","i_lat":-6.217455,"line":1,"i_long":106.939679,"station_name":"Klenderbaru","distance":1305,"time":1,"is_transit":false},{"station_name":"Cakung","time":8,"i_long":106.951283,"distance":1385,"is_transit":false,"transit":false,"line":0,"i_lat":-6.219053,"station_id":"CUK"},{"line":1,"time":3,"i_long":106.977657,"distance":3097,"station_name":"Kranji","is_transit":false,"transit":false,"i_lat":-6.224515,"station_id":"KRI"},{"station_name":"Bekasi","is_transit":false,"station_id":"BKS","distance":2520,"transit":false,"time":4,"i_long":106.997013,"line":0,"i_lat":-6.236616}],[{"time":0,"line":6,"i_long":106.460812,"transit":false,"station_name":"Tenjo","distance":0,"is_transit":false,"station_id":"TEJ","i_lat":-6.327251},{"station_id":"DAR","transit":false,"station_name":"Daru","time":5,"distance":3902,"i_long":106.491338,"is_transit":false,"i_lat":-6.338021,"line":0},{"distance":2675,"time":6,"station_id":"CJT","transit":false,"is_transit":false,"line":0,"i_long":106.508482,"station_name":"Cilejit","i_lat":-6.354349},{"time":9,"line":6,"is_transit":false,"station_id":"PRP","distance":7025,"transit":false,"station_name":"Parung Panjang","i_long":106.568863,"i_lat":-6.3441410000000005},{"station_name":"Cicayur","station_id":"CC","i_long":106.617853,"i_lat":-6.329547,"distance":5968,"line":0,"time":8,"transit":false,"is_transit":false},{"station_id":"CSK","line":0,"transit":false,"time":4,"station_name":"Cisauk","i_lat":-6.32484,"distance":2519,"i_long":106.640411,"is_transit":false},{"station_name":"Serpong","i_lat":-6.319871,"distance":1784,"time":4,"i_long":106.66566,"is_transit":false,"station_id":"SRP","line":6,"transit":false},{"time":4,"line":6,"distance":2413,"station_name":"Rawa Buntu","is_transit":false,"transit":false,"i_lat":-6.314823,"station_id":"RU","i_long":106.675475},{"distance":4566,"i_long":106.712277,"i_lat":-6.296963,"line":6,"is_transit":false,"station_id":"SDM","time":6,"transit":false,"station_name":"Sudimara"},{"transit":false,"i_long":106.728916,"is_transit":false,"station_id":"JMU","line":6,"station_name":"Jurangmangu","distance":1994,"i_lat":-6.288927,"time":4},{"i_long":106.74273,"is_transit":false,"transit":false,"time":3,"station_name":"Pondokranji","station_id":"PDJ","i_lat":-6.276362,"distance":2179,"line":6},{"distance":6218,"i_long":106.780334,"line":6,"station_id":"KBY","i_lat":-6.237242,"time":8,"is_transit":false,"station_name":"Kebayoran","transit":false},{"i_long":106.79689,"distance":3737,"line":6,"station_name":"Palmerah","station_id":"PLM","is_transit":false,"transit":false,"time":7,"i_lat":-6.207404},{"station_id":"THB","station_name":"Tanah Abang","i_lat":-6.185545,"time":6,"distance":3191,"transit":true,"i_long":106.811091,"line":1,"is_transit":true},{"transit":false,"is_transit":false,"time":5,"i_long":106.816351,"station_id":"KAT","line":1,"station_name":"Karet","distance":2029,"i_lat":-6.20132},{"time":1,"transit":false,"line":1,"i_lat":-6.201433,"i_long":106.819881,"distance":471,"is_transit":false,"station_id":"SUDB","station_name":"Sudirman Baru"},{"station_id":"SUD","station_name":"Sudirman","i_long":106.822649,"i_lat":-6.202263,"time":1,"line":1,"is_transit":false,"distance":280,"transit":false},{"line":0,"station_id":"MRI","i_long":106.84912,"i_lat":-6.209883,"station_name":"Manggarai","time":4,"distance":3186,"transit":true,"is_transit":true},{"time":4,"i_long":106.840169,"i_lat":-6.198556,"station_id":"CKI","line":0,"is_transit":false,"station_name":"Cikini","transit":false,"distance":1590},{"i_long":106.832183,"station_id":"GDD","station_name":"Gondangdia","line":2,"i_lat":-6.186295,"distance":1750,"transit":false,"time":3,"is_transit":false},{"line":2,"is_transit":false,"distance":2015,"i_lat":-6.166716,"i_long":106.828284,"station_id":"JUA","station_name":"Juanda","time":4,"transit":false},{"i_long":106.827103,"station_name":"Sawah Besar","i_lat":-6.160725,"station_id":"SW","time":2,"line":2,"distance":1149,"is_transit":false,"transit":false},{"distance":906,"station_id":"MGB","i_long":106.82482,"time":2,"transit":false,"station_name":"Manggabesar","is_transit":false,"i_lat":-6.149769,"line":2},{"i_lat":-6.141205,"i_long":106.820901,"station_name":"Jayakarta","distance":1080,"transit":false,"is_transit":false,"time":2,"station_id":"JAY","line":7},{"station_id":"JAKK","station_name":"Jakarta Kota","distance":1264,"time":4,"i_long":106.812439,"transit":true,"line":0,"is_transit":true,"i_lat":-6.137569},{"station_id":"KPB","is_transit":true,"time":3,"station_name":"Kampung Bandan","distance":1364,"i_long":106.826365,"transit":true,"i_lat":-6.132549,"line":0},{"distance":1444,"time":3,"line":11,"is_transit":false,"transit":false,"station_name":"Rajawali","station_id":"RJW","i_lat":-6.14505,"i_long":106.836569},{"i_long":106.839204,"transit":false,"station_name":"Kemayoran","line":11,"is_transit":false,"i_lat":-6.161728,"station_id":"KMO","distance":1901,"time":5},{"station_name":"Pasar Senen","station_id":"PSE","transit":false,"i_long":106.84368,"time":4,"line":11,"i_lat":-6.174784,"distance":1436,"is_transit":false},{"station_id":"GST","is_transit":false,"distance":1567,"i_lat":-6.185975,"line":11,"station_name":"Gang Sentiong","i_long":106.850107,"transit":false,"time":8},{"transit":false,"i_lat":-6.193792,"is_transit":false,"station_id":"KMT","i_long":106.855437,"distance":973,"time":1,"line":11,"station_name":"Kramat"},{"distance":1829,"time":2,"i_long":106.861737,"i_lat":-6.209188,"line":11,"station_id":"POK","is_transit":false,"station_name":"Pondok Jati","transit":false},{"distance":1236,"is_transit":true,"i_long":106.86807400000001,"time":9,"station_id":"JNG","transit":true,"i_lat":-6.215091,"line":0,"station_name":"Jatinegara"},{"distance":3395,"time":3,"station_name":"Klender","is_transit":false,"station_id":"KLD","i_lat":-6.2135,"transit":false,"i_long":106.899548,"line":1},{"i_long":106.922662,"i_lat":-6.215568,"station_id":"BUA","distance":3100,"line":0,"is_transit":false,"station_name":"Buaran","transit":false,"time":2},{"station_name":"Klenderbaru","station_id":"KLDB","time":1,"line":1,"is_transit":false,"i_lat":-6.217455,"transit":false,"distance":1305,"i_long":106.939679},{"line":0,"distance":1385,"is_transit":false,"station_id":"CUK","transit":false,"time":8,"i_long":106.951283,"i_lat":-6.219053,"station_name":"Cakung"},{"station_id":"KRI","transit":false,"time":3,"i_lat":-6.224515,"distance":3097,"line":1,"station_name":"Kranji","is_transit":false,"i_long":106.977657},{"time":4,"is_transit":false,"station_id":"BKS","station_name":"Bekasi","transit":false,"distance":2520,"i_lat":-6.236616,"line":0,"i_long":106.997013}]]}