{"data":[[{"i_long":106.460812,"distance":0,"line":6,"time":0,"is_transit":false,"transit":false,"station_id":"TEJ","station_name":"Tenjo","i_lat":-6.327251},{"is_transit":false,"station_id":"DAR","transit":false,"i_lat":-6.338021,"line":0,"i_long":106.491338,"distance":3902,"station_name":"Daru","time":5},{"station_id":"CJT","line":0,"time":6,"i_long":106.508482,"transit":false,"is_transit":false,"distance":2675,"i_lat":-6.354349,"station_name":"Cilejit"},{"i_long":106.568863,"station_name":"Parung Panjang","i_lat":-6.3441410000000005,"station_id":"PRP","transit":false,"distance":7025,"is_transit":false,"time":9,"line":6},{"i_long":106.617853,"line":0,"distance":5968,"transit":false,"is_transit":false,"i_lat":-6.329547,"station_name":"Cicayur","time":8,"station_id":"CC"},{"time":4,"i_long":106.640411,"distance":2519,"station_id":"CSK","i_lat":-6.32484,"line":0,"transit":false,"station_name":"Cisauk","is_transit":false},{"i_lat":-6.319871,"is_transit":false,"i_long":106.66566,"station_id":"SRP","station_name":"Serpong","line":6,"distance":1784,"transit":false,"time":4},{"station_name":"Rawa Buntu","transit":false,"i_long":106.675475,"i_lat":-6.314823,"station_id":"RU","line":6,"is_transit":false,"distance":2413,"time":4}]]}