{"data":[[{"transit":false,"is_transit":false,"distance":0,"station_id":"TEJ","time":0,"i_long":106.460812,"line":6,"station_name":"Tenjo","i_lat":-6.327251},{"time":5,"is_transit":false,"line":6,"i_lat":-6.328533,"distance":2974,"transit":false,"station_id":"TGS","station_name":"Tigaraksa","i_long":106.425991},{"distance":2651,"transit":false,"time":3,"station_name":"Cikoya","i_long":106.411216,"station_id":"CKY","i_lat":-6.33561,"is_transit":false,"line":3},{"distance":1853,"transit":false,"station_name":"Maja","is_transit":false,"line":6,"i_lat":-6.332307,"station_id":"MJ","i_long":106.394373,"time":4},{"i_long":106.332092,"station_id":"CTR","i_lat":-6.334892,"line":3,"transit":false,"station_name":"Citeras","distance":7293,"time":10,"is_transit":false}]]}