{"data":[[{"distance":0,"transit":false,"i_lat":-6.327251,"line":6,"is_transit":false,"time":0,"i_long":106.460812,"station_name":"Tenjo","station_id":"TEJ"},{"distance":3902,"station_name":"Daru","is_transit":false,"transit":false,"i_lat":-6.338021,"station_id":"DAR","time":5,"i_long":106.491338,"line":0},{"line":3,"station_id":"CJT","is_transit":false,"station_name":"Cilejit","time":6,"transit":false,"i_lat":-6.354349,"distance":2675,"i_long":106.508482},{"i_lat":-6.3441410000000005,"time":9,"distance":7025,"is_transit":false,"transit":false,"station_name":"Parung Panjang","i_long":106.568863,"line":6,"station_id":"PRP"},{"i_long":106.617853,"transit":false,"is_transit":false,"distance":5968,"line":3,"i_lat":-6.329547,"time":8,"station_name":"Cicayur","station_id":"CC"},{"time":4,"line":3,"i_lat":-6.32484,"is_transit":false,"transit":false,"distance":2519,"station_id":"CSK","i_long":106.640411,"station_name":"Cisauk"},{"station_id":"SRP","is_transit":false,"i_long":106.66566,"transit":false,"station_name":"Serpong","distance":1784,"time":4,"line":6,"i_lat":-6.319871},{"i_lat":-6.314823,"is_transit":false,"transit":false,"station_name":"Rawa Buntu","line":6,"distance":2413,"time":4,"station_id":"RU","i_long":106.675475},{"is_transit":false,"station_id":"SDM","i_lat":-6.296963,"transit":false,"station_name":"Sudimara","i_long":106.712277,"line":6,"distance":4566,"time":6},{"i_lat":-6.288927,"is_transit":false,"time":4,"i_long":106.728916,"line":6,"transit":false,"distance":1994,"station_name":"Jurangmangu","station_id":"JMU"},{"station_name":"Pondokranji","i_lat":-6.276362,"distance":2179,"line":6,"is_transit":false,"transit":false,"station_id":"PDJ","i_long":106.74273,"time":3},{"station_name":"Kebayoran","is_transit":false,"transit":false,"i_lat":-6.237242,"time":8,"i_long":106.780334,"line":6,"distance":6218,"station_id":"KBY"}]]}