{"data":[[{"i_long":106.460812,"is_transit":false,"transit":false,"i_lat":-6.327251,"station_id":"TEJ","time":0,"distance":0,"station_name":"Tenjo","line":6},{"station_id":"DAR","transit":false,"i_lat":-6.338021,"i_long":106.491338,"is_transit":false,"time":5,"distance":3902,"station_name":"Daru","line":0},{"i_long":106.508482,"time":6,"is_transit":false,"station_id":"CJT","distance":2675,"i_lat":-6.354349,"transit":false,"line":0,"station_name":"Cilejit"},{"station_name":"Parung Panjang","transit":false,"distance":7025,"i_lat":-6.3441410000000005,"time":9,"i_long":106.568863,"line":6,"is_transit":false,"station_id":"PRP"},{"i_lat":-6.329547,"transit":false,"station_name":"Cicayur","distance":5968,"is_transit":false,"time":8,"station_id":"CC","line":0,"i_long":106.617853},{"station_name":"Cisauk","is_transit":false,"distance":2519,"station_id":"CSK","transit":false,"i_lat":-6.32484,"line":0,"i_long":106.640411,"time":4},{"transit":false,"distance":1784,"i_lat":-6.319871,"station_id":"SRP","is_transit":false,"i_long":106.66566,"time":4,"station_name":"Serpong","line":6},{"distance":2413,"time":4,"is_transit":false,"station_id":"RU","station_name":"Rawa Buntu","i_long":106.675475,"transit":false,"i_lat":-6.314823,"line":6},{"is_transit":false,"transit":false,"distance":4566,"station_name":"Sudimara","i_lat":-6.296963,"time":6,"line":6,"station_id":"SDM","i_long":106.712277},{"distance":1994,"station_id":"JMU","i_long":106.728916,"is_transit":false,"i_lat":-6.288927,"transit":false,"station_name":"Jurangmangu","time":4,"line":6},{"i_long":106.74273,"is_transit":false,"i_lat":-6.276362,"distance":2179,"time":3,"line":6,"station_name":"Pondokranji","transit":false,"station_id":"PDJ"},{"time":8,"station_name":"Kebayoran","is_transit":false,"transit":false,"distance":6218,"i_long":106.780334,"i_lat":-6.237242,"line":6,"station_id":"KBY"},{"transit":false,"time":7,"station_name":"Palmerah","distance":3737,"line":6,"i_long":106.79689,"i_lat":-6.207404,"station_id":"PLM","is_transit":false},{"distance":3191,"i_long":106.811091,"line":1,"transit":true,"i_lat":-6.185545,"time":6,"station_name":"Tanah Abang","station_id":"THB","is_transit":true},{"i_long":106.816351,"station_id":"KAT","is_transit":false,"station_name":"Karet","line":1,"transit":false,"i_lat":-6.20132,"distance":2029,"time":5},{"transit":false,"distance":471,"station_id":"SUDB","is_transit":false,"time":1,"i_long":106.819881,"line":1,"i_lat":-6.201433,"station_name":"Sudirman Baru"},{"line":1,"transit":false,"station_id":"SUD","station_name":"Sudirman","time":1,"is_transit":false,"i_lat":-6.202263,"distance":280,"i_long":106.822649},{"distance":3186,"station_name":"Manggarai","time":4,"line":0,"station_id":"MRI","i_long":106.84912,"is_transit":true,"transit":false,"i_lat":-6.209883},{"i_long":106.858896,"is_transit":false,"station_name":"Matraman","transit":false,"line":1,"distance":1275,"time":2,"station_id":"MTR","i_lat":-6.212485},{"station_id":"JNG","i_long":106.86807400000001,"is_transit":true,"station_name":"Jatinegara","time":8,"distance":1377,"transit":false,"i_lat":-6.215091,"line":0},{"time":3,"i_long":106.899548,"line":1,"transit":false,"i_lat":-6.2135,"station_id":"KLD","is_transit":false,"station_name":"Klender","distance":3395},{"station_name":"Buaran","i_long":106.922662,"line":0,"time":2,"transit":false,"station_id":"BUA","distance":3100,"is_transit":false,"i_lat":-6.215568},{"is_transit":false,"station_name":"Klenderbaru","transit":false,"distance":1305,"i_long":106.939679,"line":1,"station_id":"KLDB","i_lat":-6.217455,"time":1},{"i_lat":-6.219053,"transit":false,"is_transit":false,"i_long":106.951283,"station_name":"Cakung","station_id":"CUK","line":0,"distance":1385,"time":8},{"is_transit":false,"distance":3097,"station_id":"KRI","time":3,"station_name":"Kranji","i_lat":-6.224515,"i_long":106.977657,"line":1,"transit":false},{"is_transit":false,"time":4,"line":0,"station_id":"BKS","distance":2520,"station_name":"Bekasi","i_lat":-6.236616,"i_long":106.997013,"transit":false},{"time":2,"station_name":"Bekasi Timur","i_long":107.016735,"is_transit":false,"station_id":"BKST","i_lat":-6.248029,"transit":false,"distance":2368,"line":0},{"station_name":"Tambun","is_transit":false,"station_id":"TB","time":7,"i_lat":-6.258864,"i_long":107.055722,"line":1,"distance":4460,"transit":false},{"time":3,"line":0,"distance":3420,"is_transit":false,"station_id":"CIT","transit":false,"station_name":"Cibitung","i_long":107.083084,"i_lat":-6.261877}],[{"i_lat":-6.327251,"time":0,"distance":0,"transit":false,"i_long":106.460812,"line":6,"station_id":"TEJ","is_transit":false,"station_name":"Tenjo"},{"time":5,"station_name":"Daru","station_id":"DAR","transit":false,"is_transit":false,"line":0,"distance":3902,"i_long":106.491338,"i_lat":-6.338021},{"station_id":"CJT","distance":2675,"transit":false,"is_transit":false,"i_long":106.508482,"i_lat":-6.354349,"station_name":"Cilejit","time":6,"line":0},{"transit":false,"line":6,"station_name":"Parung Panjang","time":9,"i_long":106.568863,"i_lat":-6.3441410000000005,"distance":7025,"is_transit":false,"station_id":"PRP"},{"i_lat":-6.329547,"station_id":"CC","line":0,"is_transit":false,"i_long":106.617853,"distance":5968,"station_name":"Cicayur","transit":false,"time":8},{"station_name":"Cisauk","distance":2519,"time":4,"station_id":"CSK","is_transit":false,"line":0,"i_long":106.640411,"transit":false,"i_lat":-6.32484},{"line":6,"is_transit":false,"i_long":106.66566,"distance":1784,"i_lat":-6.319871,"station_id":"SRP","time":4,"station_name":"Serpong","transit":false},{"distance":2413,"time":4,"station_id":"RU","is_transit":false,"transit":false,"i_lat":-6.314823,"station_name":"Rawa Buntu","i_long":106.675475,"line":6},{"is_transit":false,"distance":4566,"station_name":"Sudimara","i_lat":-6.296963,"transit":false,"time":6,"i_long":106.712277,"station_id":"SDM","line":6},{"distance":1994,"station_id":"JMU","transit":false,"line":6,"time":4,"i_long":106.728916,"i_lat":-6.288927,"station_name":"Jurangmangu","is_transit":false},{"transit":false,"station_id":"PDJ","distance":2179,"is_transit":false,"station_name":"Pondokranji","time":3,"line":6,"i_lat":-6.276362,"i_long":106.74273},{"distance":6218,"line":6,"i_long":106.780334,"time":8,"is_transit":false,"i_lat":-6.237242,"station_name":"Kebayoran","transit":false,"station_id":"KBY"},{"i_long":106.79689,"line":6,"station_id":"PLM","time":7,"i_lat":-6.207404,"distance":3737,"transit":false,"is_transit":false,"station_name":"Palmerah"},{"station_name":"Tanah Abang","is_transit":true,"time":6,"i_lat":-6.185545,"transit":true,"i_long":106.811091,"distance":3191,"line":1,"station_id":"THB"},{"i_lat":-6.155215,"time":8,"i_long":106.800832,"line":1,"distance":3632,"is_transit":true,"station_id":"DU","transit":true,"station_name":"Duri"},{"i_lat":-6.144674,"transit":false,"line":0,"station_id":"AK","i_long":106.79867,"distance":1230,"time":4,"is_transit":false,"station_name":"Angke"},{"transit":true,"line":0,"station_name":"Kampung Bandan","distance":4102,"station_id":"KPB","time":9,"i_lat":-6.132549,"i_long":106.826365,"is_transit":true},{"distance":1444,"station_name":"Rajawali","i_long":106.836569,"station_id":"RJW","transit":false,"i_lat":-6.14505,"line":11,"is_transit":false,"time":3},{"distance":1901,"is_transit":false,"station_name":"Kemayoran","i_long":106.839204,"i_lat":-6.161728,"line":11,"transit":false,"time":5,"station_id":"KMO"},{"line":11,"transit":false,"i_lat":-6.174784,"i_long":106.84368,"station_id":"PSE","is_transit":false,"distance":1436,"station_name":"Pasar Senen","time":4},{"line":11,"distance":1567,"is_transit":false,"station_id":"GST","i_long":106.850107,"station_name":"Gang Sentiong","time":8,"i_lat":-6.185975,"transit":false},{"station_id":"KMT","distance":973,"is_transit":false,"time":1,"transit":false,"line":11,"station_name":"Kramat","i_lat":-6.193792,"i_long":106.855437},{"time":2,"distance":1829,"is_transit":false,"transit":false,"station_id":"POK","i_lat":-6.209188,"station_name":"Pondok Jati","line":11,"i_long":106.861737},{"distance":1236,"time":9,"transit":true,"station_id":"JNG","station_name":"Jatinegara","i_lat":-6.215091,"line":0,"is_transit":true,"i_long":106.86807400000001},{"i_long":106.899548,"station_id":"KLD","line":1,"station_name":"Klender","distance":3395,"transit":false,"time":3,"is_transit":false,"i_lat":-6.2135},{"line":0,"transit":false,"is_transit":false,"station_name":"Buaran","time":2,"i_lat":-6.215568,"i_long":106.922662,"distance":3100,"station_id":"BUA"},{"is_transit":false,"i_lat":-6.217455,"line":1,"transit":false,"station_name":"Klenderbaru","station_id":"KLDB","time":1,"i_long":106.939679,"distance":1305},{"is_transit":false,"station_id":"CUK","i_long":106.951283,"station_name":"Cakung","distance":1385,"transit":false,"time":8,"i_lat":-6.219053,"line":0},{"time":3,"line":1,"is_transit":false,"transit":false,"station_name":"Kranji","distance":3097,"i_long":106.977657,"i_lat":-6.224515,"station_id":"KRI"},{"i_long":106.997013,"is_transit":false,"time":4,"i_lat":-6.236616,"line":0,"distance":2520,"station_id":"BKS","transit":false,"station_name":"Bekasi"},{"distance":2368,"is_transit":false,"station_id":"BKST","i_long":107.016735,"transit":false,"line":0,"station_name":"Bekasi Timur","time":2,"i_lat":-6.248029},{"is_transit":false,"i_long":107.055722,"line":1,"distance":4460,"i_lat":-6.258864,"transit":false,"station_id":"TB","station_name":"Tambun","time":7},{"line":0,"is_transit":false,"i_long":107.083084,"time":3,"distance":3420,"transit":false,"station_name":"Cibitung","i_lat":-6.261877,"station_id":"CIT"}],[{"i_long":106.460812,"transit":false,"station_id":"TEJ","i_lat":-6.327251,"line":6,"distance":0,"is_transit":false,"station_name":"Tenjo","time":0},{"i_long":106.491338,"transit":false,"station_name":"Daru","station_id":"DAR","i_lat":-6.338021,"distance":3902,"line":0,"time":5,"is_transit":false},{"station_name":"Cilejit","transit":false,"distance":2675,"i_lat":-6.354349,"is_transit":false,"time":6,"i_long":106.508482,"station_id":"CJT","line":0},{"station_id":"PRP","station_name":"Parung Panjang","time":9,"i_long":106.568863,"i_lat":-6.3441410000000005,"distance":7025,"is_transit":false,"transit":false,"line":6},{"i_long":106.617853,"is_transit":false,"station_name":"Cicayur","transit":false,"time":8,"line":0,"distance":5968,"station_id":"CC","i_lat":-6.329547},{"station_name":"Cisauk","is_transit":false,"transit":false,"station_id":"CSK","distance":2519,"i_long":106.640411,"line":0,"i_lat":-6.32484,"time":4},{"i_lat":-6.319871,"station_id":"SRP","is_transit":false,"i_long":106.66566,"station_name":"Serpong","line":6,"time":4,"distance":1784,"transit":false},{"is_transit":false,"station_name":"Rawa Buntu","time":4,"transit":false,"distance":2413,"i_lat":-6.314823,"line":6,"i_long":106.675475,"station_id":"RU"},{"transit":false,"station_id":"SDM","time":6,"i_long":106.712277,"line":6,"distance":4566,"is_transit":false,"i_lat":-6.296963,"station_name":"Sudimara"},{"station_name":"Jurangmangu","transit":false,"i_long":106.728916,"i_lat":-6.288927,"distance":1994,"station_id":"JMU","time":4,"line":6,"is_transit":false},{"transit":false,"i_long":106.74273,"station_name":"Pondokranji","i_lat":-6.276362,"is_transit":false,"station_id":"PDJ","distance":2179,"line":6,"time":3},{"transit":false,"i_lat":-6.237242,"station_name":"Kebayoran","i_long":106.780334,"distance":6218,"is_transit":false,"line":6,"time":8,"station_id":"KBY"},{"i_lat":-6.207404,"is_transit":false,"time":7,"line":6,"station_name":"Palmerah","i_long":106.79689,"distance":3737,"station_id":"PLM","transit":false},{"time":6,"i_long":106.811091,"station_id":"THB","i_lat":-6.185545,"distance":3191,"transit":true,"station_name":"Tanah Abang","is_transit":true,"line":1},{"transit":true,"line":1,"distance":3632,"station_name":"Duri","time":8,"station_id":"DU","i_lat":-6.155215,"i_long":106.800832,"is_transit":true},{"i_long":106.79867,"transit":false,"distance":1230,"is_transit":false,"station_name":"Angke","time":4,"i_lat":-6.144674,"line":0,"station_id":"AK"},{"is_transit":true,"distance":4102,"station_id":"KPB","time":9,"i_lat":-6.132549,"i_long":106.826365,"station_name":"Kampung Bandan","line":0,"transit":false},{"station_id":"JAKK","transit":true,"is_transit":true,"i_lat":-6.137569,"station_name":"Jakarta Kota","time":3,"i_long":106.812439,"line":0,"distance":1364},{"station_id":"JAY","i_long":106.820901,"transit":false,"station_name":"Jayakarta","is_transit":false,"i_lat":-6.141205,"time":4,"distance":1264,"line":7},{"i_lat":-6.149769,"is_transit":false,"line":2,"distance":1080,"station_name":"Manggabesar","time":2,"station_id":"MGB","transit":false,"i_long":106.82482},{"i_lat":-6.160725,"transit":false,"time":2,"station_name":"Sawah Besar","is_transit":false,"station_id":"SW","i_long":106.827103,"line":2,"distance":906},{"time":2,"i_long":106.828284,"is_transit":false,"station_id":"JUA","transit":false,"i_lat":-6.166716,"distance":1149,"line":2,"station_name":"Juanda"},{"i_long":106.832183,"line":2,"i_lat":-6.186295,"is_transit":false,"station_name":"Gondangdia","distance":2015,"transit":false,"time":4,"station_id":"GDD"},{"line":0,"distance":1750,"transit":false,"station_name":"Cikini","i_lat":-6.198556,"i_long":106.840169,"is_transit":false,"station_id":"CKI","time":3},{"i_lat":-6.209883,"line":0,"distance":1590,"transit":true,"station_id":"MRI","time":4,"is_transit":true,"station_name":"Manggarai","i_long":106.84912},{"distance":1275,"transit":false,"time":2,"line":1,"is_transit":false,"i_long":106.858896,"station_id":"MTR","station_name":"Matraman","i_lat":-6.212485},{"i_long":106.86807400000001,"station_id":"JNG","i_lat":-6.215091,"line":0,"station_name":"Jatinegara","is_transit":true,"distance":1377,"transit":false,"time":8},{"distance":3395,"station_id":"KLD","i_long":106.899548,"line":1,"station_name":"Klender","time":3,"i_lat":-6.2135,"is_transit":false,"transit":false},{"line":0,"is_transit":false,"distance":3100,"transit":false,"station_id":"BUA","station_name":"Buaran","i_long":106.922662,"i_lat":-6.215568,"time":2},{"station_name":"Klenderbaru","distance":1305,"is_transit":false,"transit":false,"line":1,"i_long":106.939679,"station_id":"KLDB","time":1,"i_lat":-6.217455},{"is_transit":false,"station_id":"CUK","i_long":106.951283,"line":0,"distance":1385,"station_name":"Cakung","transit":false,"i_lat":-6.219053,"time":8},{"is_transit":false,"time":3,"transit":false,"i_long":106.977657,"station_id":"KRI","station_name":"Kranji","line":1,"distance":3097,"i_lat":-6.224515},{"time":4,"station_id":"BKS","i_lat":-6.236616,"transit":false,"line":0,"i_long":106.997013,"distance":2520,"station_name":"Bekasi","is_transit":false},{"time":2,"transit":false,"is_transit":false,"station_name":"Bekasi Timur","i_lat":-6.248029,"distance":2368,"station_id":"BKST","i_long":107.016735,"line":0},{"station_name":"Tambun","distance":4460,"line":1,"i_lat":-6.258864,"transit":false,"is_transit":false,"station_id":"TB","i_long":107.055722,"time":7},{"line":0,"transit":false,"station_name":"Cibitung","i_lat":-6.261877,"is_transit":false,"time":3,"distance":3420,"i_long":107.083084,"station_id":"CIT"}],[{"station_id":"TEJ","time":0,"i_lat":-6.327251,"is_transit":false,"i_long":106.460812,"station_name":"Tenjo","transit":false,"distance":0,"line":6},{"i_lat":-6.338021,"is_transit":false,"transit":false,"distance":3902,"i_long":106.491338,"station_id":"DAR","line":0,"station_name":"Daru","time":5},{"is_transit":false,"station_id":"CJT","transit":false,"i_long":106.508482,"line":0,"station_name":"Cilejit","time":6,"i_lat":-6.354349,"distance":2675},{"time":9,"station_name":"Parung Panjang","line":6,"transit":false,"i_lat":-6.3441410000000005,"station_id":"PRP","i_long":106.568863,"distance":7025,"is_transit":false},{"is_transit":false,"station_name":"Cicayur","station_id":"CC","transit":false,"i_lat":-6.329547,"i_long":106.617853,"line":0,"time":8,"distance":5968},{"i_lat":-6.32484,"station_id":"CSK","transit":false,"distance":2519,"is_transit":false,"station_name":"Cisauk","time":4,"line":0,"i_long":106.640411},{"distance":1784,"i_lat":-6.319871,"transit":false,"is_transit":false,"station_id":"SRP","station_name":"Serpong","time":4,"i_long":106.66566,"line":6},{"i_lat":-6.314823,"station_name":"Rawa Buntu","line":6,"is_transit":false,"time":4,"i_long":106.675475,"station_id":"RU","distance":2413,"transit":false},{"i_lat":-6.296963,"time":6,"station_id":"SDM","is_transit":false,"station_name":"Sudimara","transit":false,"distance":4566,"i_long":106.712277,"line":6},{"distance":1994,"station_id":"JMU","transit":false,"station_name":"Jurangmangu","i_lat":-6.288927,"i_long":106.728916,"line":6,"is_transit":false,"time":4},{"time":3,"i_long":106.74273,"station_name":"Pondokranji","i_lat":-6.276362,"line":6,"station_id":"PDJ","is_transit":false,"transit":false,"distance":2179},{"station_name":"Kebayoran","transit":false,"station_id":"KBY","line":6,"distance":6218,"i_long":106.780334,"is_transit":false,"time":8,"i_lat":-6.237242},{"station_name":"Palmerah","distance":3737,"time":7,"i_lat":-6.207404,"transit":false,"station_id":"PLM","is_transit":false,"i_long":106.79689,"line":6},{"i_long":106.811091,"line":1,"is_transit":true,"time":6,"distance":3191,"station_name":"Tanah Abang","i_lat":-6.185545,"station_id":"THB","transit":true},{"distance":2029,"station_name":"Karet","is_transit":false,"transit":false,"time":5,"i_long":106.816351,"line":1,"station_id":"KAT","i_lat":-6.20132},{"i_long":106.819881,"distance":471,"station_name":"Sudirman Baru","is_transit":false,"time":1,"station_id":"SUDB","transit":false,"i_lat":-6.201433,"line":1},{"i_long":106.822649,"i_lat":-6.202263,"station_id":"SUD","is_transit":false,"distance":280,"line":1,"transit":false,"time":1,"station_name":"Sudirman"},{"i_long":106.84912,"is_transit":true,"distance":3186,"station_id":"MRI","station_name":"Manggarai","line":0,"time":4,"i_lat":-6.209883,"transit":true},{"line":0,"is_transit":false,"station_id":"CKI","transit":false,"time":4,"i_lat":-6.198556,"distance":1590,"station_name":"Cikini","i_long":106.840169},{"line":2,"distance":1750,"station_id":"GDD","station_name":"Gondangdia","i_lat":-6.186295,"is_transit":false,"i_long":106.832183,"time":3,"transit":false},{"station_name":"Juanda","i_lat":-6.166716,"time":4,"transit":false,"line":2,"is_transit":false,"i_long":106.828284,"station_id":"JUA","distance":2015},{"i_long":106.827103,"line":2,"distance":1149,"station_id":"SW","transit":false,"time":2,"is_transit":false,"i_lat":-6.160725,"station_name":"Sawah Besar"},{"distance":906,"i_long":106.82482,"i_lat":-6.149769,"line":2,"station_id":"MGB","is_transit":false,"station_name":"Manggabesar","transit":false,"time":2},{"transit":false,"line":7,"i_lat":-6.141205,"time":2,"station_id":"JAY","station_name":"Jayakarta","distance":1080,"is_transit":false,"i_long":106.820901},{"station_id":"JAKK","line":0,"distance":1264,"station_name":"Jakarta Kota","is_transit":true,"i_lat":-6.137569,"transit":true,"i_long":106.812439,"time":4},{"station_id":"KPB","station_name":"Kampung Bandan","i_long":106.826365,"time":3,"distance":1364,"is_transit":true,"transit":true,"line":0,"i_lat":-6.132549},{"time":3,"i_long":106.836569,"station_id":"RJW","transit":false,"station_name":"Rajawali","i_lat":-6.14505,"distance":1444,"line":11,"is_transit":false},{"is_transit":false,"time":5,"i_long":106.839204,"transit":false,"station_name":"Kemayoran","distance":1901,"i_lat":-6.161728,"station_id":"KMO","line":11},{"station_id":"PSE","distance":1436,"is_transit":false,"time":4,"transit":false,"i_long":106.84368,"station_name":"Pasar Senen","line":11,"i_lat":-6.174784},{"station_id":"GST","time":8,"i_lat":-6.185975,"distance":1567,"is_transit":false,"transit":false,"i_long":106.850107,"station_name":"Gang Sentiong","line":11},{"time":1,"station_id":"KMT","distance":973,"transit":false,"i_lat":-6.193792,"line":11,"is_transit":false,"station_name":"Kramat","i_long":106.855437},{"i_lat":-6.209188,"station_name":"Pondok Jati","distance":1829,"is_transit":false,"station_id":"POK","transit":false,"line":11,"i_long":106.861737,"time":2},{"line":0,"transit":true,"i_long":106.86807400000001,"is_transit":true,"station_name":"Jatinegara","time":9,"distance":1236,"station_id":"JNG","i_lat":-6.215091},{"i_long":106.899548,"distance":3395,"station_id":"KLD","transit":false,"time":3,"station_name":"Klender","is_transit":false,"i_lat":-6.2135,"line":1},{"line":0,"station_id":"BUA","distance":3100,"time":2,"station_name":"Buaran","is_transit":false,"i_long":106.922662,"i_lat":-6.215568,"transit":false},{"i_lat":-6.217455,"i_long":106.939679,"time":1,"line":1,"station_name":"Klenderbaru","transit":false,"is_transit":false,"distance":1305,"station_id":"KLDB"},{"i_lat":-6.219053,"is_transit":false,"i_long":106.951283,"station_name":"Cakung","time":8,"line":0,"distance":1385,"station_id":"CUK","transit":false},{"station_name":"Kranji","station_id":"KRI","i_long":106.977657,"time":3,"line":1,"distance":3097,"transit":false,"i_lat":-6.224515,"is_transit":false},{"station_name":"Bekasi","i_lat":-6.236616,"time":4,"is_transit":false,"station_id":"BKS","i_long":106.997013,"transit":false,"line":0,"distance":2520},{"time":2,"is_transit":false,"i_long":107.016735,"station_name":"Bekasi Timur","station_id":"BKST","distance":2368,"line":0,"i_lat":-6.248029,"transit":false},{"i_lat":-6.258864,"distance":4460,"line":1,"i_long":107.055722,"station_name":"Tambun","transit":false,"station_id":"TB","time":7,"is_transit":false},{"time":3,"distance":3420,"transit":false,"station_id":"CIT","i_long":107.083084,"is_transit":false,"line":0,"station_name":"Cibitung","i_lat":-6.261877}]]}