{"data":[[{"time":0,"i_lat":-6.327251,"i_long":106.460812,"is_transit":false,"station_id":"TEJ","distance":0,"line":6,"station_name":"Tenjo","transit":false},{"time":5,"station_id":"DAR","station_name":"Daru","transit":false,"distance":3902,"i_lat":-6.338021,"i_long":106.491338,"line":0,"is_transit":false},{"time":6,"is_transit":false,"station_name":"Cilejit","i_lat":-6.354349,"station_id":"CJT","i_long":106.508482,"distance":2675,"transit":false,"line":3},{"station_name":"Parung Panjang","distance":7025,"is_transit":false,"transit":false,"time":9,"i_long":106.568863,"i_lat":-6.3441410000000005,"station_id":"PRP","line":6},{"distance":5968,"transit":false,"time":8,"i_lat":-6.329547,"is_transit":false,"line":3,"station_name":"Cicayur","i_long":106.617853,"station_id":"CC"},{"is_transit":false,"station_name":"Cisauk","i_lat":-6.32484,"i_long":106.640411,"line":3,"station_id":"CSK","distance":2519,"transit":false,"time":4},{"i_long":106.66566,"is_transit":false,"transit":false,"line":6,"time":4,"i_lat":-6.319871,"station_name":"Serpong","distance":1784,"station_id":"SRP"},{"is_transit":false,"station_name":"Rawa Buntu","distance":2413,"time":4,"transit":false,"i_long":106.675475,"line":6,"i_lat":-6.314823,"station_id":"RU"},{"time":6,"station_id":"SDM","station_name":"Sudimara","line":6,"distance":4566,"transit":false,"is_transit":false,"i_lat":-6.296963,"i_long":106.712277},{"station_id":"JMU","time":4,"distance":1994,"is_transit":false,"transit":false,"i_long":106.728916,"i_lat":-6.288927,"line":6,"station_name":"Jurangmangu"},{"station_name":"Pondokranji","transit":false,"station_id":"PDJ","is_transit":false,"i_lat":-6.276362,"i_long":106.74273,"distance":2179,"line":6,"time":3},{"is_transit":false,"line":6,"station_name":"Kebayoran","i_lat":-6.237242,"transit":false,"station_id":"KBY","i_long":106.780334,"distance":6218,"time":8}]]}