{"data":[[{"time":0,"station_id":"TEJ","line":6,"i_lat":-6.327251,"i_long":106.460812,"station_name":"Tenjo","distance":0,"transit":false,"is_transit":false},{"i_lat":-6.338021,"station_name":"Daru","is_transit":false,"station_id":"DAR","i_long":106.491338,"time":5,"distance":3902,"transit":false,"line":0},{"time":6,"station_id":"CJT","is_transit":false,"i_long":106.508482,"station_name":"Cilejit","distance":2675,"transit":false,"i_lat":-6.354349,"line":0},{"line":6,"i_lat":-6.3441410000000005,"i_long":106.568863,"station_id":"PRP","transit":false,"station_name":"Parung Panjang","distance":7025,"is_transit":false,"time":9},{"time":8,"station_id":"CC","i_long":106.617853,"station_name":"Cicayur","distance":5968,"i_lat":-6.329547,"is_transit":false,"line":0,"transit":false},{"is_transit":false,"i_long":106.640411,"distance":2519,"time":4,"station_id":"CSK","transit":false,"line":0,"station_name":"Cisauk","i_lat":-6.32484},{"distance":1784,"i_long":106.66566,"station_id":"SRP","station_name":"Serpong","transit":false,"time":4,"is_transit":false,"i_lat":-6.319871,"line":6},{"is_transit":false,"i_long":106.675475,"time":4,"i_lat":-6.314823,"distance":2413,"station_name":"Rawa Buntu","station_id":"RU","transit":false,"line":6},{"line":6,"distance":4566,"time":6,"i_lat":-6.296963,"station_id":"SDM","station_name":"Sudimara","transit":false,"is_transit":false,"i_long":106.712277},{"station_id":"JMU","is_transit":false,"time":4,"distance":1994,"transit":false,"line":6,"station_name":"Jurangmangu","i_lat":-6.288927,"i_long":106.728916},{"transit":false,"is_transit":false,"i_long":106.74273,"station_id":"PDJ","time":3,"i_lat":-6.276362,"line":6,"station_name":"Pondokranji","distance":2179},{"transit":false,"i_long":106.780334,"line":6,"time":8,"distance":6218,"i_lat":-6.237242,"is_transit":false,"station_id":"KBY","station_name":"Kebayoran"},{"transit":false,"line":6,"is_transit":false,"time":7,"distance":3737,"station_name":"Palmerah","station_id":"PLM","i_lat":-6.207404,"i_long":106.79689},{"station_name":"Tanah Abang","station_id":"THB","distance":3191,"line":1,"time":6,"transit":true,"is_transit":true,"i_lat":-6.185545,"i_long":106.811091},{"station_id":"KAT","time":5,"line":1,"distance":2029,"is_transit":false,"i_long":106.816351,"i_lat":-6.20132,"transit":false,"station_name":"Karet"},{"time":1,"transit":false,"i_lat":-6.201433,"station_name":"Sudirman Baru","i_long":106.819881,"station_id":"SUDB","distance":471,"line":1,"is_transit":false},{"time":1,"station_name":"Sudirman","station_id":"SUD","transit":false,"is_transit":false,"distance":280,"i_lat":-6.202263,"line":1,"i_long":106.822649},{"distance":3186,"station_id":"MRI","time":4,"i_lat":-6.209883,"line":0,"transit":true,"station_name":"Manggarai","is_transit":true,"i_long":106.84912},{"time":4,"station_name":"Cikini","i_lat":-6.198556,"transit":false,"is_transit":false,"distance":1590,"line":0,"i_long":106.840169,"station_id":"CKI"},{"distance":1750,"line":2,"time":3,"station_name":"Gondangdia","i_lat":-6.186295,"station_id":"GDD","transit":false,"i_long":106.832183,"is_transit":false}],[{"i_long":106.460812,"station_name":"Tenjo","station_id":"TEJ","distance":0,"is_transit":false,"time":0,"transit":false,"line":6,"i_lat":-6.327251},{"time":5,"station_id":"DAR","is_transit":false,"i_lat":-6.338021,"station_name":"Daru","distance":3902,"transit":false,"i_long":106.491338,"line":0},{"line":0,"transit":false,"is_transit":false,"i_long":106.508482,"distance":2675,"time":6,"station_name":"Cilejit","station_id":"CJT","i_lat":-6.354349},{"station_id":"PRP","i_long":106.568863,"distance":7025,"is_transit":false,"time":9,"i_lat":-6.3441410000000005,"transit":false,"station_name":"Parung Panjang","line":6},{"i_long":106.617853,"station_id":"CC","transit":false,"time":8,"distance":5968,"station_name":"Cicayur","is_transit":false,"i_lat":-6.329547,"line":0},{"time":4,"transit":false,"is_transit":false,"i_lat":-6.32484,"line":0,"station_name":"Cisauk","distance":2519,"station_id":"CSK","i_long":106.640411},{"i_lat":-6.319871,"is_transit":false,"time":4,"transit":false,"i_long":106.66566,"line":6,"station_name":"Serpong","distance":1784,"station_id":"SRP"},{"line":6,"transit":false,"is_transit":false,"time":4,"distance":2413,"station_name":"Rawa Buntu","station_id":"RU","i_lat":-6.314823,"i_long":106.675475},{"i_long":106.712277,"transit":false,"time":6,"station_id":"SDM","is_transit":false,"station_name":"Sudimara","distance":4566,"i_lat":-6.296963,"line":6},{"line":6,"station_id":"JMU","time":4,"i_lat":-6.288927,"transit":false,"station_name":"Jurangmangu","is_transit":false,"i_long":106.728916,"distance":1994},{"i_lat":-6.276362,"i_long":106.74273,"line":6,"station_name":"Pondokranji","distance":2179,"is_transit":false,"station_id":"PDJ","time":3,"transit":false},{"i_lat":-6.237242,"line":6,"i_long":106.780334,"station_id":"KBY","transit":false,"station_name":"Kebayoran","is_transit":false,"time":8,"distance":6218},{"station_name":"Palmerah","line":6,"station_id":"PLM","distance":3737,"time":7,"transit":false,"is_transit":false,"i_long":106.79689,"i_lat":-6.207404},{"distance":3191,"i_lat":-6.185545,"time":6,"i_long":106.811091,"line":1,"station_name":"Tanah Abang","transit":true,"station_id":"THB","is_transit":true},{"transit":true,"line":1,"station_name":"Duri","distance":3632,"is_transit":true,"i_long":106.800832,"time":8,"station_id":"DU","i_lat":-6.155215},{"station_name":"Angke","distance":1230,"line":0,"transit":false,"time":4,"i_long":106.79867,"station_id":"AK","is_transit":false,"i_lat":-6.144674},{"i_long":106.826365,"station_name":"Kampung Bandan","i_lat":-6.132549,"station_id":"KPB","is_transit":true,"line":0,"distance":4102,"time":9,"transit":false},{"time":3,"transit":true,"i_long":106.812439,"line":0,"distance":1364,"station_id":"JAKK","station_name":"Jakarta Kota","i_lat":-6.137569,"is_transit":true},{"transit":false,"distance":1264,"i_lat":-6.141205,"line":7,"i_long":106.820901,"station_name":"Jayakarta","is_transit":false,"time":4,"station_id":"JAY"},{"transit":false,"distance":1080,"station_name":"Manggabesar","line":2,"time":2,"i_long":106.82482,"is_transit":false,"i_lat":-6.149769,"station_id":"MGB"},{"i_long":106.827103,"is_transit":false,"distance":906,"transit":false,"station_id":"SW","line":2,"time":2,"i_lat":-6.160725,"station_name":"Sawah Besar"},{"time":2,"is_transit":false,"i_long":106.828284,"transit":false,"line":2,"distance":1149,"station_name":"Juanda","i_lat":-6.166716,"station_id":"JUA"},{"station_name":"Gondangdia","i_lat":-6.186295,"line":2,"transit":false,"distance":2015,"time":4,"i_long":106.832183,"station_id":"GDD","is_transit":false}],[{"i_long":106.460812,"line":6,"distance":0,"transit":false,"time":0,"station_name":"Tenjo","is_transit":false,"station_id":"TEJ","i_lat":-6.327251},{"line":0,"distance":3902,"time":5,"is_transit":false,"i_lat":-6.338021,"station_id":"DAR","transit":false,"i_long":106.491338,"station_name":"Daru"},{"transit":false,"i_long":106.508482,"line":0,"distance":2675,"is_transit":false,"station_name":"Cilejit","i_lat":-6.354349,"time":6,"station_id":"CJT"},{"is_transit":false,"line":6,"station_name":"Parung Panjang","time":9,"transit":false,"i_long":106.568863,"distance":7025,"station_id":"PRP","i_lat":-6.3441410000000005},{"distance":5968,"i_lat":-6.329547,"is_transit":false,"station_name":"Cicayur","time":8,"i_long":106.617853,"station_id":"CC","transit":false,"line":0},{"distance":2519,"station_name":"Cisauk","line":0,"i_long":106.640411,"station_id":"CSK","is_transit":false,"i_lat":-6.32484,"transit":false,"time":4},{"distance":1784,"line":6,"station_name":"Serpong","i_lat":-6.319871,"station_id":"SRP","transit":false,"is_transit":false,"i_long":106.66566,"time":4},{"station_name":"Rawa Buntu","is_transit":false,"time":4,"station_id":"RU","line":6,"distance":2413,"i_lat":-6.314823,"transit":false,"i_long":106.675475},{"time":6,"station_name":"Sudimara","distance":4566,"i_lat":-6.296963,"i_long":106.712277,"transit":false,"is_transit":false,"line":6,"station_id":"SDM"},{"station_name":"Jurangmangu","time":4,"i_lat":-6.288927,"transit":false,"is_transit":false,"distance":1994,"i_long":106.728916,"line":6,"station_id":"JMU"},{"time":3,"transit":false,"station_name":"Pondokranji","i_long":106.74273,"line":6,"station_id":"PDJ","i_lat":-6.276362,"distance":2179,"is_transit":false},{"station_id":"KBY","station_name":"Kebayoran","distance":6218,"line":6,"transit":false,"i_lat":-6.237242,"is_transit":false,"time":8,"i_long":106.780334},{"line":6,"i_lat":-6.207404,"transit":false,"station_id":"PLM","is_transit":false,"i_long":106.79689,"time":7,"distance":3737,"station_name":"Palmerah"},{"is_transit":true,"i_lat":-6.185545,"station_name":"Tanah Abang","station_id":"THB","line":1,"distance":3191,"i_long":106.811091,"time":6,"transit":true},{"is_transit":true,"i_lat":-6.155215,"distance":3632,"i_long":106.800832,"station_name":"Duri","time":8,"transit":true,"station_id":"DU","line":1},{"i_long":106.79867,"is_transit":false,"time":4,"distance":1230,"transit":false,"i_lat":-6.144674,"line":0,"station_id":"AK","station_name":"Angke"},{"i_lat":-6.132549,"time":9,"distance":4102,"i_long":106.826365,"station_id":"KPB","is_transit":true,"station_name":"Kampung Bandan","transit":true,"line":0},{"transit":false,"line":11,"is_transit":false,"station_id":"RJW","distance":1444,"time":3,"i_lat":-6.14505,"i_long":106.836569,"station_name":"Rajawali"},{"transit":false,"is_transit":false,"i_lat":-6.161728,"i_long":106.839204,"line":11,"distance":1901,"station_id":"KMO","time":5,"station_name":"Kemayoran"},{"station_id":"PSE","station_name":"Pasar Senen","distance":1436,"is_transit":false,"transit":false,"i_long":106.84368,"i_lat":-6.174784,"time":4,"line":11},{"distance":1567,"station_id":"GST","is_transit":false,"line":11,"station_name":"Gang Sentiong","time":8,"i_long":106.850107,"i_lat":-6.185975,"transit":false},{"is_transit":false,"transit":false,"distance":973,"i_lat":-6.193792,"i_long":106.855437,"station_name":"Kramat","line":11,"time":1,"station_id":"KMT"},{"transit":false,"distance":1829,"line":11,"is_transit":false,"i_long":106.861737,"i_lat":-6.209188,"station_name":"Pondok Jati","time":2,"station_id":"POK"},{"i_lat":-6.215091,"i_long":106.86807400000001,"time":9,"line":0,"is_transit":true,"station_name":"Jatinegara","station_id":"JNG","distance":1236,"transit":true},{"station_id":"MTR","i_lat":-6.212485,"transit":false,"i_long":106.858896,"distance":1377,"time":2,"station_name":"Matraman","line":1,"is_transit":false},{"time":2,"line":0,"i_lat":-6.209883,"transit":true,"station_id":"MRI","is_transit":true,"distance":1275,"i_long":106.84912,"station_name":"Manggarai"},{"i_long":106.840169,"line":0,"is_transit":false,"i_lat":-6.198556,"station_id":"CKI","time":4,"transit":false,"station_name":"Cikini","distance":1590},{"time":3,"i_long":106.832183,"i_lat":-6.186295,"station_id":"GDD","is_transit":false,"transit":false,"distance":1750,"station_name":"Gondangdia","line":2}],[{"is_transit":false,"transit":false,"station_name":"Tenjo","station_id":"TEJ","distance":0,"time":0,"i_lat":-6.327251,"i_long":106.460812,"line":6},{"transit":false,"station_id":"DAR","i_long":106.491338,"time":5,"distance":3902,"is_transit":false,"i_lat":-6.338021,"line":0,"station_name":"Daru"},{"station_name":"Cilejit","line":0,"transit":false,"i_long":106.508482,"i_lat":-6.354349,"distance":2675,"time":6,"station_id":"CJT","is_transit":false},{"time":9,"distance":7025,"station_id":"PRP","i_long":106.568863,"transit":false,"is_transit":false,"line":6,"i_lat":-6.3441410000000005,"station_name":"Parung Panjang"},{"line":0,"station_name":"Cicayur","time":8,"i_long":106.617853,"station_id":"CC","i_lat":-6.329547,"is_transit":false,"transit":false,"distance":5968},{"time":4,"station_name":"Cisauk","station_id":"CSK","is_transit":false,"i_lat":-6.32484,"transit":false,"i_long":106.640411,"line":0,"distance":2519},{"station_name":"Serpong","time":4,"i_long":106.66566,"line":6,"is_transit":false,"transit":false,"station_id":"SRP","distance":1784,"i_lat":-6.319871},{"is_transit":false,"time":4,"i_lat":-6.314823,"i_long":106.675475,"station_name":"Rawa Buntu","distance":2413,"station_id":"RU","transit":false,"line":6},{"time":6,"distance":4566,"line":6,"station_id":"SDM","transit":false,"is_transit":false,"i_lat":-6.296963,"i_long":106.712277,"station_name":"Sudimara"},{"distance":1994,"is_transit":false,"i_lat":-6.288927,"station_id":"JMU","i_long":106.728916,"station_name":"Jurangmangu","time":4,"transit":false,"line":6},{"station_id":"PDJ","is_transit":false,"i_lat":-6.276362,"line":6,"i_long":106.74273,"time":3,"station_name":"Pondokranji","distance":2179,"transit":false},{"i_lat":-6.237242,"line":6,"is_transit":false,"i_long":106.780334,"time":8,"transit":false,"station_name":"Kebayoran","station_id":"KBY","distance":6218},{"station_name":"Palmerah","is_transit":false,"line":6,"station_id":"PLM","i_lat":-6.207404,"i_long":106.79689,"time":7,"transit":false,"distance":3737},{"i_long":106.811091,"is_transit":true,"line":1,"station_id":"THB","station_name":"Tanah Abang","distance":3191,"i_lat":-6.185545,"time":6,"transit":true},{"i_lat":-6.20132,"is_transit":false,"time":5,"station_name":"Karet","station_id":"KAT","transit":false,"distance":2029,"i_long":106.816351,"line":1},{"station_id":"SUDB","transit":false,"time":1,"distance":471,"i_lat":-6.201433,"line":1,"station_name":"Sudirman Baru","is_transit":false,"i_long":106.819881},{"transit":false,"station_id":"SUD","i_long":106.822649,"is_transit":false,"i_lat":-6.202263,"distance":280,"time":1,"station_name":"Sudirman","line":1},{"i_long":106.84912,"station_name":"Manggarai","station_id":"MRI","is_transit":true,"i_lat":-6.209883,"distance":3186,"line":0,"time":4,"transit":false},{"i_long":106.858896,"transit":false,"time":2,"station_id":"MTR","distance":1275,"i_lat":-6.212485,"is_transit":false,"line":1,"station_name":"Matraman"},{"i_long":106.86807400000001,"distance":1377,"station_id":"JNG","transit":true,"i_lat":-6.215091,"line":0,"station_name":"Jatinegara","is_transit":true,"time":8},{"station_name":"Pondok Jati","is_transit":false,"station_id":"POK","line":11,"time":2,"i_long":106.861737,"distance":1236,"i_lat":-6.209188,"transit":false},{"line":11,"distance":1829,"time":2,"i_long":106.855437,"transit":false,"i_lat":-6.193792,"station_name":"Kramat","station_id":"KMT","is_transit":false},{"transit":false,"time":1,"is_transit":false,"i_lat":-6.185975,"line":11,"i_long":106.850107,"distance":973,"station_id":"GST","station_name":"Gang Sentiong"},{"time":8,"station_id":"PSE","transit":false,"i_long":106.84368,"is_transit":false,"station_name":"Pasar Senen","distance":1567,"line":11,"i_lat":-6.174784},{"i_lat":-6.161728,"is_transit":false,"station_id":"KMO","transit":false,"i_long":106.839204,"line":11,"distance":1436,"station_name":"Kemayoran","time":4},{"station_name":"Rajawali","distance":1901,"transit":false,"time":5,"is_transit":false,"i_long":106.836569,"line":11,"station_id":"RJW","i_lat":-6.14505},{"i_lat":-6.132549,"is_transit":true,"line":0,"distance":1444,"station_id":"KPB","i_long":106.826365,"transit":true,"station_name":"Kampung Bandan","time":3},{"i_long":106.812439,"is_transit":true,"station_id":"JAKK","transit":true,"distance":1364,"station_name":"Jakarta Kota","i_lat":-6.137569,"line":0,"time":3},{"line":7,"time":4,"distance":1264,"station_id":"JAY","transit":false,"i_long":106.820901,"i_lat":-6.141205,"station_name":"Jayakarta","is_transit":false},{"transit":false,"is_transit":false,"line":2,"distance":1080,"i_lat":-6.149769,"i_long":106.82482,"station_name":"Manggabesar","time":2,"station_id":"MGB"},{"distance":906,"i_long":106.827103,"line":2,"station_name":"Sawah Besar","is_transit":false,"i_lat":-6.160725,"station_id":"SW","time":2,"transit":false},{"line":2,"station_name":"Juanda","time":2,"transit":false,"i_long":106.828284,"distance":1149,"is_transit":false,"station_id":"JUA","i_lat":-6.166716},{"i_lat":-6.186295,"station_name":"Gondangdia","transit":false,"station_id":"GDD","is_transit":false,"line":2,"distance":2015,"i_long":106.832183,"time":4}]]}