{"data":[[{"is_transit":false,"station_name":"Tenjo","i_lat":-6.327251,"line":6,"transit":false,"time":0,"distance":0,"station_id":"TEJ","i_long":106.460812},{"distance":2974,"transit":false,"line":6,"station_id":"TGS","i_lat":-6.328533,"is_transit":false,"i_long":106.425991,"station_name":"Tigaraksa","time":5},{"distance":2651,"station_name":"Cikoya","i_long":106.411216,"i_lat":-6.33561,"is_transit":false,"time":3,"transit":false,"station_id":"CKY","line":0},{"line":6,"station_name":"Maja","distance":1853,"i_long":106.394373,"station_id":"MJ","is_transit":false,"time":4,"i_lat":-6.332307,"transit":false},{"station_id":"CTR","i_long":106.332092,"is_transit":false,"time":10,"station_name":"Citeras","distance":7293,"i_lat":-6.334892,"line":0,"transit":false}]]}