{"data":[[{"distance":0,"line":6,"time":0,"station_name":"Tenjo","is_transit":false,"station_id":"TEJ","transit":false,"i_lat":-6.327251,"i_long":106.460812},{"station_name":"Daru","station_id":"DAR","time":5,"is_transit":false,"i_lat":-6.338021,"line":0,"i_long":106.491338,"transit":false,"distance":3902},{"is_transit":false,"station_name":"Cilejit","line":0,"i_lat":-6.354349,"station_id":"CJT","time":6,"distance":2675,"i_long":106.508482,"transit":false},{"is_transit":false,"distance":7025,"i_long":106.568863,"line":6,"station_id":"PRP","i_lat":-6.3441410000000005,"station_name":"Parung Panjang","transit":false,"time":9},{"distance":5968,"is_transit":false,"time":8,"station_id":"CC","i_lat":-6.329547,"i_long":106.617853,"station_name":"Cicayur","transit":false,"line":0},{"time":4,"i_long":106.640411,"line":0,"distance":2519,"i_lat":-6.32484,"is_transit":false,"transit":false,"station_id":"CSK","station_name":"Cisauk"},{"time":4,"i_long":106.66566,"i_lat":-6.319871,"line":6,"is_transit":false,"transit":false,"distance":1784,"station_id":"SRP","station_name":"Serpong"},{"station_name":"Rawa Buntu","station_id":"RU","distance":2413,"transit":false,"i_long":106.675475,"time":4,"is_transit":false,"i_lat":-6.314823,"line":6},{"transit":false,"time":6,"i_long":106.712277,"station_id":"SDM","i_lat":-6.296963,"line":6,"distance":4566,"station_name":"Sudimara","is_transit":false},{"i_lat":-6.288927,"distance":1994,"i_long":106.728916,"line":6,"station_name":"Jurangmangu","time":4,"transit":false,"station_id":"JMU","is_transit":false},{"line":6,"is_transit":false,"time":3,"i_long":106.74273,"distance":2179,"transit":false,"i_lat":-6.276362,"station_id":"PDJ","station_name":"Pondokranji"},{"line":6,"distance":6218,"station_name":"Kebayoran","i_lat":-6.237242,"time":8,"is_transit":false,"station_id":"KBY","transit":false,"i_long":106.780334},{"station_name":"Palmerah","i_lat":-6.207404,"transit":false,"is_transit":false,"station_id":"PLM","time":7,"i_long":106.79689,"line":6,"distance":3737},{"station_id":"THB","distance":3191,"transit":true,"time":6,"line":1,"i_long":106.811091,"station_name":"Tanah Abang","i_lat":-6.185545,"is_transit":true},{"i_lat":-6.155215,"station_id":"DU","distance":3632,"line":1,"is_transit":true,"station_name":"Duri","transit":true,"time":8,"i_long":106.800832},{"line":0,"time":4,"transit":false,"distance":1230,"i_long":106.79867,"station_id":"AK","station_name":"Angke","i_lat":-6.144674,"is_transit":false},{"station_name":"Kampung Bandan","i_lat":-6.132549,"time":9,"transit":true,"i_long":106.826365,"distance":4102,"line":0,"is_transit":true,"station_id":"KPB"},{"transit":false,"station_id":"RJW","i_long":106.836569,"distance":1444,"line":11,"time":3,"is_transit":false,"i_lat":-6.14505,"station_name":"Rajawali"},{"i_long":106.839204,"distance":1901,"transit":false,"time":5,"station_name":"Kemayoran","station_id":"KMO","is_transit":false,"line":11,"i_lat":-6.161728},{"i_long":106.84368,"station_name":"Pasar Senen","station_id":"PSE","i_lat":-6.174784,"distance":1436,"transit":false,"is_transit":false,"line":11,"time":4}],[{"station_id":"TEJ","time":0,"station_name":"Tenjo","is_transit":false,"transit":false,"line":6,"distance":0,"i_long":106.460812,"i_lat":-6.327251},{"is_transit":false,"i_lat":-6.338021,"i_long":106.491338,"station_name":"Daru","line":0,"station_id":"DAR","distance":3902,"time":5,"transit":false},{"distance":2675,"i_long":106.508482,"is_transit":false,"station_id":"CJT","station_name":"Cilejit","transit":false,"time":6,"line":0,"i_lat":-6.354349},{"i_long":106.568863,"station_id":"PRP","distance":7025,"transit":false,"station_name":"Parung Panjang","is_transit":false,"time":9,"line":6,"i_lat":-6.3441410000000005},{"time":8,"distance":5968,"transit":false,"station_id":"CC","i_lat":-6.329547,"line":0,"i_long":106.617853,"station_name":"Cicayur","is_transit":false},{"time":4,"is_transit":false,"i_lat":-6.32484,"line":0,"station_name":"Cisauk","distance":2519,"station_id":"CSK","transit":false,"i_long":106.640411},{"is_transit":false,"time":4,"station_name":"Serpong","i_long":106.66566,"station_id":"SRP","distance":1784,"line":6,"transit":false,"i_lat":-6.319871},{"time":4,"i_lat":-6.314823,"is_transit":false,"station_id":"RU","station_name":"Rawa Buntu","i_long":106.675475,"distance":2413,"line":6,"transit":false},{"line":6,"distance":4566,"time":6,"is_transit":false,"transit":false,"i_lat":-6.296963,"i_long":106.712277,"station_id":"SDM","station_name":"Sudimara"},{"station_name":"Jurangmangu","is_transit":false,"line":6,"distance":1994,"station_id":"JMU","i_long":106.728916,"time":4,"i_lat":-6.288927,"transit":false},{"i_long":106.74273,"line":6,"i_lat":-6.276362,"station_id":"PDJ","is_transit":false,"distance":2179,"transit":false,"time":3,"station_name":"Pondokranji"},{"i_lat":-6.237242,"station_name":"Kebayoran","distance":6218,"is_transit":false,"time":8,"line":6,"i_long":106.780334,"transit":false,"station_id":"KBY"},{"i_long":106.79689,"station_name":"Palmerah","distance":3737,"station_id":"PLM","transit":false,"time":7,"line":6,"is_transit":false,"i_lat":-6.207404},{"i_long":106.811091,"line":1,"station_name":"Tanah Abang","is_transit":true,"time":6,"transit":true,"station_id":"THB","distance":3191,"i_lat":-6.185545},{"transit":false,"time":5,"line":1,"distance":2029,"station_name":"Karet","station_id":"KAT","i_lat":-6.20132,"is_transit":false,"i_long":106.816351},{"line":1,"distance":471,"is_transit":false,"station_name":"Sudirman Baru","transit":false,"time":1,"i_long":106.819881,"station_id":"SUDB","i_lat":-6.201433},{"line":1,"time":1,"station_id":"SUD","i_long":106.822649,"transit":false,"is_transit":false,"station_name":"Sudirman","distance":280,"i_lat":-6.202263},{"time":4,"i_long":106.84912,"i_lat":-6.209883,"station_id":"MRI","distance":3186,"transit":false,"is_transit":true,"station_name":"Manggarai","line":0},{"i_long":106.858896,"station_name":"Matraman","station_id":"MTR","line":1,"distance":1275,"is_transit":false,"i_lat":-6.212485,"time":2,"transit":false},{"is_transit":true,"time":8,"line":0,"distance":1377,"station_name":"Jatinegara","transit":true,"station_id":"JNG","i_lat":-6.215091,"i_long":106.86807400000001},{"distance":1236,"i_lat":-6.209188,"line":11,"station_name":"Pondok Jati","station_id":"POK","transit":false,"time":2,"i_long":106.861737,"is_transit":false},{"station_id":"KMT","time":2,"i_lat":-6.193792,"distance":1829,"transit":false,"i_long":106.855437,"line":11,"station_name":"Kramat","is_transit":false},{"is_transit":false,"station_name":"Gang Sentiong","line":11,"time":1,"transit":false,"distance":973,"i_lat":-6.185975,"i_long":106.850107,"station_id":"GST"},{"station_name":"Pasar Senen","i_lat":-6.174784,"line":11,"is_transit":false,"distance":1567,"time":8,"station_id":"PSE","transit":false,"i_long":106.84368}],[{"time":0,"station_name":"Tenjo","i_lat":-6.327251,"transit":false,"line":6,"distance":0,"i_long":106.460812,"station_id":"TEJ","is_transit":false},{"distance":3902,"time":5,"i_lat":-6.338021,"i_long":106.491338,"station_id":"DAR","transit":false,"is_transit":false,"station_name":"Daru","line":0},{"is_transit":false,"distance":2675,"i_long":106.508482,"station_id":"CJT","time":6,"i_lat":-6.354349,"transit":false,"line":0,"station_name":"Cilejit"},{"station_name":"Parung Panjang","transit":false,"station_id":"PRP","time":9,"distance":7025,"i_long":106.568863,"line":6,"is_transit":false,"i_lat":-6.3441410000000005},{"line":0,"distance":5968,"station_id":"CC","i_lat":-6.329547,"i_long":106.617853,"station_name":"Cicayur","transit":false,"time":8,"is_transit":false},{"transit":false,"line":0,"station_name":"Cisauk","is_transit":false,"distance":2519,"time":4,"station_id":"CSK","i_lat":-6.32484,"i_long":106.640411},{"transit":false,"time":4,"i_lat":-6.319871,"i_long":106.66566,"line":6,"is_transit":false,"station_id":"SRP","distance":1784,"station_name":"Serpong"},{"line":6,"is_transit":false,"transit":false,"distance":2413,"i_long":106.675475,"i_lat":-6.314823,"station_name":"Rawa Buntu","station_id":"RU","time":4},{"transit":false,"i_lat":-6.296963,"time":6,"station_id":"SDM","distance":4566,"station_name":"Sudimara","i_long":106.712277,"line":6,"is_transit":false},{"transit":false,"station_id":"JMU","is_transit":false,"distance":1994,"time":4,"i_lat":-6.288927,"i_long":106.728916,"station_name":"Jurangmangu","line":6},{"distance":2179,"i_lat":-6.276362,"station_name":"Pondokranji","i_long":106.74273,"transit":false,"line":6,"time":3,"station_id":"PDJ","is_transit":false},{"station_id":"KBY","time":8,"i_lat":-6.237242,"line":6,"distance":6218,"is_transit":false,"i_long":106.780334,"station_name":"Kebayoran","transit":false},{"is_transit":false,"line":6,"station_name":"Palmerah","transit":false,"station_id":"PLM","distance":3737,"i_long":106.79689,"time":7,"i_lat":-6.207404},{"line":1,"distance":3191,"is_transit":true,"station_id":"THB","transit":true,"station_name":"Tanah Abang","i_lat":-6.185545,"time":6,"i_long":106.811091},{"station_name":"Karet","i_lat":-6.20132,"distance":2029,"station_id":"KAT","is_transit":false,"transit":false,"time":5,"i_long":106.816351,"line":1},{"is_transit":false,"i_long":106.819881,"transit":false,"line":1,"station_id":"SUDB","distance":471,"i_lat":-6.201433,"station_name":"Sudirman Baru","time":1},{"transit":false,"line":1,"is_transit":false,"i_lat":-6.202263,"i_long":106.822649,"distance":280,"station_id":"SUD","time":1,"station_name":"Sudirman"},{"station_id":"MRI","time":4,"is_transit":true,"distance":3186,"station_name":"Manggarai","i_lat":-6.209883,"i_long":106.84912,"transit":true,"line":0},{"i_lat":-6.198556,"station_name":"Cikini","line":0,"transit":false,"time":4,"station_id":"CKI","distance":1590,"i_long":106.840169,"is_transit":false},{"is_transit":false,"time":3,"distance":1750,"station_name":"Gondangdia","line":2,"station_id":"GDD","transit":false,"i_lat":-6.186295,"i_long":106.832183},{"time":4,"is_transit":false,"i_long":106.828284,"station_name":"Juanda","i_lat":-6.166716,"distance":2015,"line":2,"transit":false,"station_id":"JUA"},{"station_name":"Sawah Besar","transit":false,"i_long":106.827103,"line":2,"station_id":"SW","is_transit":false,"i_lat":-6.160725,"distance":1149,"time":2},{"time":2,"line":2,"i_lat":-6.149769,"distance":906,"transit":false,"station_name":"Manggabesar","station_id":"MGB","is_transit":false,"i_long":106.82482},{"station_name":"Jayakarta","i_long":106.820901,"i_lat":-6.141205,"distance":1080,"time":2,"station_id":"JAY","is_transit":false,"transit":false,"line":7},{"is_transit":true,"i_lat":-6.137569,"station_name":"Jakarta Kota","i_long":106.812439,"transit":true,"station_id":"JAKK","line":0,"distance":1264,"time":4},{"station_name":"Kampung Bandan","i_long":106.826365,"time":3,"distance":1364,"is_transit":true,"station_id":"KPB","transit":true,"i_lat":-6.132549,"line":0},{"station_id":"RJW","station_name":"Rajawali","i_long":106.836569,"line":11,"is_transit":false,"i_lat":-6.14505,"distance":1444,"transit":false,"time":3},{"line":11,"distance":1901,"is_transit":false,"station_name":"Kemayoran","station_id":"KMO","transit":false,"i_lat":-6.161728,"time":5,"i_long":106.839204},{"line":11,"is_transit":false,"station_name":"Pasar Senen","distance":1436,"time":4,"transit":false,"i_lat":-6.174784,"i_long":106.84368,"station_id":"PSE"}],[{"is_transit":false,"transit":false,"time":0,"i_lat":-6.327251,"i_long":106.460812,"line":6,"station_name":"Tenjo","station_id":"TEJ","distance":0},{"time":5,"i_long":106.491338,"distance":3902,"is_transit":false,"station_id":"DAR","i_lat":-6.338021,"transit":false,"line":0,"station_name":"Daru"},{"station_id":"CJT","time":6,"i_long":106.508482,"transit":false,"line":0,"is_transit":false,"i_lat":-6.354349,"station_name":"Cilejit","distance":2675},{"station_id":"PRP","station_name":"Parung Panjang","i_lat":-6.3441410000000005,"line":6,"i_long":106.568863,"distance":7025,"time":9,"is_transit":false,"transit":false},{"time":8,"i_lat":-6.329547,"i_long":106.617853,"is_transit":false,"transit":false,"distance":5968,"line":0,"station_id":"CC","station_name":"Cicayur"},{"transit":false,"i_long":106.640411,"station_name":"Cisauk","station_id":"CSK","time":4,"i_lat":-6.32484,"line":0,"is_transit":false,"distance":2519},{"station_id":"SRP","distance":1784,"station_name":"Serpong","i_long":106.66566,"transit":false,"is_transit":false,"time":4,"i_lat":-6.319871,"line":6},{"i_lat":-6.314823,"i_long":106.675475,"station_id":"RU","is_transit":false,"station_name":"Rawa Buntu","time":4,"line":6,"distance":2413,"transit":false},{"is_transit":false,"time":6,"i_long":106.712277,"i_lat":-6.296963,"transit":false,"station_name":"Sudimara","station_id":"SDM","distance":4566,"line":6},{"time":4,"is_transit":false,"line":6,"i_lat":-6.288927,"i_long":106.728916,"distance":1994,"station_id":"JMU","transit":false,"station_name":"Jurangmangu"},{"line":6,"distance":2179,"station_name":"Pondokranji","station_id":"PDJ","is_transit":false,"transit":false,"time":3,"i_long":106.74273,"i_lat":-6.276362},{"station_id":"KBY","i_long":106.780334,"is_transit":false,"transit":false,"i_lat":-6.237242,"station_name":"Kebayoran","line":6,"distance":6218,"time":8},{"time":7,"i_lat":-6.207404,"i_long":106.79689,"is_transit":false,"transit":false,"distance":3737,"line":6,"station_name":"Palmerah","station_id":"PLM"},{"i_long":106.811091,"is_transit":true,"station_name":"Tanah Abang","station_id":"THB","i_lat":-6.185545,"distance":3191,"line":1,"transit":true,"time":6},{"i_long":106.800832,"line":1,"distance":3632,"is_transit":true,"time":8,"station_name":"Duri","i_lat":-6.155215,"station_id":"DU","transit":true},{"station_id":"AK","line":0,"station_name":"Angke","transit":false,"i_lat":-6.144674,"is_transit":false,"i_long":106.79867,"time":4,"distance":1230},{"is_transit":true,"distance":4102,"transit":false,"i_lat":-6.132549,"i_long":106.826365,"station_name":"Kampung Bandan","station_id":"KPB","time":9,"line":0},{"station_name":"Jakarta Kota","distance":1364,"i_long":106.812439,"time":3,"station_id":"JAKK","transit":true,"is_transit":true,"line":0,"i_lat":-6.137569},{"time":4,"i_lat":-6.141205,"transit":false,"line":7,"is_transit":false,"station_name":"Jayakarta","i_long":106.820901,"station_id":"JAY","distance":1264},{"line":2,"time":2,"i_lat":-6.149769,"is_transit":false,"distance":1080,"station_id":"MGB","station_name":"Manggabesar","i_long":106.82482,"transit":false},{"time":2,"distance":906,"line":2,"transit":false,"station_id":"SW","is_transit":false,"i_long":106.827103,"i_lat":-6.160725,"station_name":"Sawah Besar"},{"station_id":"JUA","station_name":"Juanda","i_lat":-6.166716,"is_transit":false,"time":2,"i_long":106.828284,"distance":1149,"line":2,"transit":false},{"distance":2015,"transit":false,"line":2,"station_name":"Gondangdia","station_id":"GDD","is_transit":false,"time":4,"i_long":106.832183,"i_lat":-6.186295},{"station_id":"CKI","transit":false,"time":3,"is_transit":false,"station_name":"Cikini","i_lat":-6.198556,"i_long":106.840169,"line":0,"distance":1750},{"i_long":106.84912,"transit":true,"station_id":"MRI","line":0,"i_lat":-6.209883,"time":4,"distance":1590,"is_transit":true,"station_name":"Manggarai"},{"i_long":106.858896,"transit":false,"station_id":"MTR","is_transit":false,"distance":1275,"station_name":"Matraman","time":2,"i_lat":-6.212485,"line":1},{"transit":true,"i_long":106.86807400000001,"station_id":"JNG","i_lat":-6.215091,"is_transit":true,"station_name":"Jatinegara","distance":1377,"time":8,"line":0},{"i_long":106.861737,"i_lat":-6.209188,"line":11,"is_transit":false,"time":2,"transit":false,"station_id":"POK","station_name":"Pondok Jati","distance":1236},{"distance":1829,"is_transit":false,"i_long":106.855437,"station_name":"Kramat","i_lat":-6.193792,"line":11,"transit":false,"time":2,"station_id":"KMT"},{"station_id":"GST","time":1,"i_long":106.850107,"station_name":"Gang Sentiong","transit":false,"distance":973,"line":11,"is_transit":false,"i_lat":-6.185975},{"i_lat":-6.174784,"i_long":106.84368,"line":11,"station_name":"Pasar Senen","transit":false,"time":8,"distance":1567,"station_id":"PSE","is_transit":false}]]}