{"data":[[{"time":0,"distance":0,"is_transit":false,"i_lat":-6.327251,"station_id":"TEJ","i_long":106.460812,"transit":false,"station_name":"Tenjo","line":6},{"is_transit":false,"time":5,"transit":false,"line":6,"distance":2974,"i_lat":-6.328533,"i_long":106.425991,"station_id":"TGS","station_name":"Tigaraksa"},{"is_transit":false,"station_name":"Cikoya","transit":false,"station_id":"CKY","time":3,"i_long":106.411216,"line":3,"distance":2651,"i_lat":-6.33561},{"transit":false,"distance":1853,"station_id":"MJ","is_transit":false,"i_lat":-6.332307,"line":6,"time":4,"i_long":106.394373,"station_name":"Maja"},{"time":10,"station_id":"CTR","station_name":"Citeras","transit":false,"is_transit":false,"i_long":106.332092,"distance":7293,"line":3,"i_lat":-6.334892}]]}