{"data":[[{"station_id":"TEJ","i_lat":-6.327251,"time":0,"line":6,"transit":false,"i_long":106.460812,"distance":0,"station_name":"Tenjo","is_transit":false},{"distance":3902,"station_name":"Daru","transit":false,"line":0,"station_id":"DAR","time":5,"is_transit":false,"i_lat":-6.338021,"i_long":106.491338},{"i_long":106.508482,"line":0,"station_name":"Cilejit","time":6,"is_transit":false,"i_lat":-6.354349,"transit":false,"distance":2675,"station_id":"CJT"},{"station_name":"Parung Panjang","transit":false,"line":6,"distance":7025,"station_id":"PRP","is_transit":false,"i_long":106.568863,"time":9,"i_lat":-6.3441410000000005},{"i_long":106.617853,"line":0,"transit":false,"is_transit":false,"station_name":"Cicayur","distance":5968,"station_id":"CC","time":8,"i_lat":-6.329547},{"line":0,"i_long":106.640411,"is_transit":false,"time":4,"distance":2519,"station_name":"Cisauk","transit":false,"station_id":"CSK","i_lat":-6.32484},{"i_lat":-6.319871,"transit":false,"station_name":"Serpong","i_long":106.66566,"distance":1784,"is_transit":false,"station_id":"SRP","line":6,"time":4},{"i_lat":-6.314823,"line":6,"transit":false,"station_name":"Rawa Buntu","i_long":106.675475,"time":4,"distance":2413,"is_transit":false,"station_id":"RU"},{"transit":false,"line":6,"station_name":"Sudimara","i_lat":-6.296963,"is_transit":false,"distance":4566,"station_id":"SDM","time":6,"i_long":106.712277},{"distance":1994,"transit":false,"i_long":106.728916,"i_lat":-6.288927,"is_transit":false,"station_id":"JMU","station_name":"Jurangmangu","time":4,"line":6},{"distance":2179,"station_id":"PDJ","time":3,"is_transit":false,"transit":false,"station_name":"Pondokranji","i_long":106.74273,"line":6,"i_lat":-6.276362},{"i_lat":-6.237242,"station_name":"Kebayoran","station_id":"KBY","i_long":106.780334,"is_transit":false,"time":8,"line":6,"transit":false,"distance":6218}]]}