{"data":[[{"station_id":"TEJ","is_transit":false,"station_name":"Tenjo","i_long":106.460812,"time":0,"distance":0,"line":6,"i_lat":-6.327251,"transit":false},{"line":0,"distance":3902,"transit":false,"station_id":"DAR","station_name":"Daru","i_lat":-6.338021,"i_long":106.491338,"is_transit":false,"time":5},{"transit":false,"is_transit":false,"line":3,"i_lat":-6.354349,"time":6,"station_id":"CJT","station_name":"Cilejit","distance":2675,"i_long":106.508482},{"line":6,"time":9,"station_id":"PRP","is_transit":false,"transit":false,"i_lat":-6.3441410000000005,"i_long":106.568863,"station_name":"Parung Panjang","distance":7025},{"line":3,"station_name":"Cicayur","i_long":106.617853,"station_id":"CC","is_transit":false,"distance":5968,"time":8,"transit":false,"i_lat":-6.329547},{"station_id":"CSK","time":4,"transit":false,"is_transit":false,"i_long":106.640411,"line":3,"station_name":"Cisauk","i_lat":-6.32484,"distance":2519},{"time":4,"station_id":"SRP","is_transit":false,"line":6,"station_name":"Serpong","i_long":106.66566,"i_lat":-6.319871,"transit":false,"distance":1784},{"time":4,"is_transit":false,"station_name":"Rawa Buntu","line":6,"i_lat":-6.314823,"distance":2413,"station_id":"RU","transit":false,"i_long":106.675475},{"is_transit":false,"transit":false,"station_id":"SDM","time":6,"distance":4566,"i_lat":-6.296963,"station_name":"Sudimara","i_long":106.712277,"line":6},{"transit":false,"is_transit":false,"station_name":"Jurangmangu","time":4,"distance":1994,"i_lat":-6.288927,"station_id":"JMU","i_long":106.728916,"line":6},{"station_id":"PDJ","i_long":106.74273,"time":3,"station_name":"Pondokranji","distance":2179,"i_lat":-6.276362,"line":6,"is_transit":false,"transit":false},{"i_lat":-6.237242,"station_id":"KBY","i_long":106.780334,"time":8,"is_transit":false,"transit":false,"station_name":"Kebayoran","line":6,"distance":6218},{"transit":false,"time":7,"line":6,"station_name":"Palmerah","is_transit":false,"station_id":"PLM","i_lat":-6.207404,"distance":3737,"i_long":106.79689},{"i_long":106.811091,"time":6,"line":1,"transit":true,"i_lat":-6.185545,"station_name":"Tanah Abang","distance":3191,"station_id":"THB","is_transit":true},{"station_name":"Duri","line":1,"transit":false,"i_lat":-6.155215,"station_id":"DU","i_long":106.800832,"time":8,"distance":3632,"is_transit":false},{"i_lat":-6.144674,"line":1,"station_name":"Angke","time":4,"distance":1230,"transit":false,"is_transit":false,"station_id":"AK","i_long":106.79867},{"i_lat":-6.132549,"line":4,"distance":4102,"station_id":"KPB","transit":true,"i_long":106.826365,"time":9,"is_transit":true,"station_name":"Kampung Bandan"},{"time":4,"station_name":"Ancol","distance":2185,"line":4,"station_id":"AC","is_transit":false,"i_long":106.84464,"transit":false,"i_lat":-6.128023},{"is_transit":false,"time":9,"i_lat":-6.1109480000000005,"station_name":"Tanjung Priuk","i_long":106.880089,"line":4,"transit":false,"station_id":"TPK","distance":4566}],[{"is_transit":false,"time":0,"station_id":"TEJ","distance":0,"transit":false,"i_long":106.460812,"line":6,"station_name":"Tenjo","i_lat":-6.327251},{"time":5,"line":0,"i_lat":-6.338021,"station_name":"Daru","transit":false,"i_long":106.491338,"station_id":"DAR","is_transit":false,"distance":3902},{"station_id":"CJT","distance":2675,"is_transit":false,"station_name":"Cilejit","transit":false,"i_lat":-6.354349,"i_long":106.508482,"line":3,"time":6},{"i_long":106.568863,"distance":7025,"time":9,"station_name":"Parung Panjang","i_lat":-6.3441410000000005,"station_id":"PRP","line":6,"transit":false,"is_transit":false},{"i_long":106.617853,"station_name":"Cicayur","transit":false,"is_transit":false,"distance":5968,"i_lat":-6.329547,"station_id":"CC","line":3,"time":8},{"station_name":"Cisauk","i_long":106.640411,"distance":2519,"line":3,"time":4,"i_lat":-6.32484,"station_id":"CSK","transit":false,"is_transit":false},{"is_transit":false,"line":6,"station_name":"Serpong","distance":1784,"time":4,"i_lat":-6.319871,"transit":false,"i_long":106.66566,"station_id":"SRP"},{"i_long":106.675475,"line":6,"distance":2413,"is_transit":false,"station_id":"RU","time":4,"i_lat":-6.314823,"transit":false,"station_name":"Rawa Buntu"},{"i_long":106.712277,"transit":false,"station_name":"Sudimara","time":6,"i_lat":-6.296963,"line":6,"station_id":"SDM","is_transit":false,"distance":4566},{"distance":1994,"transit":false,"time":4,"i_lat":-6.288927,"station_id":"JMU","i_long":106.728916,"line":6,"station_name":"Jurangmangu","is_transit":false},{"station_id":"PDJ","is_transit":false,"distance":2179,"i_long":106.74273,"line":6,"transit":false,"station_name":"Pondokranji","time":3,"i_lat":-6.276362},{"time":8,"i_lat":-6.237242,"station_id":"KBY","is_transit":false,"line":6,"distance":6218,"transit":false,"station_name":"Kebayoran","i_long":106.780334},{"line":6,"distance":3737,"transit":false,"i_long":106.79689,"station_id":"PLM","is_transit":false,"time":7,"i_lat":-6.207404,"station_name":"Palmerah"},{"is_transit":true,"time":6,"i_lat":-6.185545,"distance":3191,"i_long":106.811091,"station_name":"Tanah Abang","station_id":"THB","line":1,"transit":true},{"i_long":106.816351,"transit":false,"time":5,"station_name":"Karet","station_id":"KAT","distance":2029,"is_transit":false,"i_lat":-6.20132,"line":1},{"time":1,"line":1,"is_transit":false,"station_name":"Sudirman Baru","station_id":"SUDB","transit":false,"distance":471,"i_lat":-6.201433,"i_long":106.819881},{"distance":280,"line":1,"i_long":106.822649,"transit":false,"is_transit":false,"station_name":"Sudirman","station_id":"SUD","time":1,"i_lat":-6.202263},{"i_long":106.84912,"line":2,"transit":true,"is_transit":true,"station_id":"MRI","station_name":"Manggarai","time":4,"distance":3186,"i_lat":-6.209883},{"station_id":"CKI","i_long":106.840169,"transit":false,"time":4,"is_transit":false,"station_name":"Cikini","i_lat":-6.198556,"distance":1590,"line":2},{"time":3,"i_long":106.832183,"station_id":"GDD","is_transit":false,"transit":false,"distance":1750,"line":2,"station_name":"Gondangdia","i_lat":-6.186295},{"i_lat":-6.166716,"time":4,"station_name":"Juanda","distance":2015,"line":2,"station_id":"JUA","transit":false,"is_transit":false,"i_long":106.828284},{"station_id":"SW","is_transit":false,"time":2,"i_long":106.827103,"station_name":"Sawah Besar","transit":false,"i_lat":-6.160725,"line":2,"distance":1149},{"station_name":"Manggabesar","i_lat":-6.149769,"line":2,"station_id":"MGB","transit":false,"distance":906,"i_long":106.82482,"is_transit":false,"time":2},{"transit":false,"is_transit":false,"time":2,"i_long":106.820901,"distance":1080,"line":2,"i_lat":-6.141205,"station_id":"JAY","station_name":"Jayakarta"},{"time":4,"is_transit":true,"station_name":"Jakarta Kota","distance":1264,"i_long":106.812439,"i_lat":-6.137569,"line":2,"station_id":"JAKK","transit":true},{"line":4,"is_transit":true,"i_lat":-6.132549,"i_long":106.826365,"distance":1364,"station_id":"KPB","transit":true,"time":3,"station_name":"Kampung Bandan"},{"distance":2185,"i_lat":-6.128023,"station_id":"AC","transit":false,"is_transit":false,"i_long":106.84464,"time":4,"line":4,"station_name":"Ancol"},{"station_id":"TPK","time":9,"i_long":106.880089,"is_transit":false,"station_name":"Tanjung Priuk","distance":4566,"line":4,"i_lat":-6.1109480000000005,"transit":false}],[{"i_long":106.460812,"transit":false,"station_name":"Tenjo","station_id":"TEJ","time":0,"is_transit":false,"line":6,"distance":0,"i_lat":-6.327251},{"station_id":"DAR","transit":false,"is_transit":false,"i_lat":-6.338021,"i_long":106.491338,"line":0,"station_name":"Daru","time":5,"distance":3902},{"i_lat":-6.354349,"station_id":"CJT","i_long":106.508482,"is_transit":false,"distance":2675,"time":6,"station_name":"Cilejit","transit":false,"line":3},{"station_id":"PRP","station_name":"Parung Panjang","transit":false,"time":9,"distance":7025,"line":6,"i_long":106.568863,"is_transit":false,"i_lat":-6.3441410000000005},{"is_transit":false,"time":8,"line":3,"station_id":"CC","i_long":106.617853,"transit":false,"distance":5968,"station_name":"Cicayur","i_lat":-6.329547},{"i_lat":-6.32484,"i_long":106.640411,"transit":false,"station_name":"Cisauk","station_id":"CSK","is_transit":false,"time":4,"distance":2519,"line":3},{"station_name":"Serpong","i_lat":-6.319871,"i_long":106.66566,"time":4,"distance":1784,"is_transit":false,"line":6,"station_id":"SRP","transit":false},{"transit":false,"line":6,"is_transit":false,"i_long":106.675475,"station_id":"RU","station_name":"Rawa Buntu","distance":2413,"time":4,"i_lat":-6.314823},{"distance":4566,"time":6,"is_transit":false,"transit":false,"i_long":106.712277,"station_name":"Sudimara","station_id":"SDM","line":6,"i_lat":-6.296963},{"i_lat":-6.288927,"station_id":"JMU","is_transit":false,"time":4,"station_name":"Jurangmangu","transit":false,"distance":1994,"line":6,"i_long":106.728916},{"distance":2179,"i_long":106.74273,"station_id":"PDJ","time":3,"transit":false,"is_transit":false,"i_lat":-6.276362,"station_name":"Pondokranji","line":6},{"transit":false,"line":6,"station_name":"Kebayoran","station_id":"KBY","time":8,"is_transit":false,"distance":6218,"i_lat":-6.237242,"i_long":106.780334},{"station_id":"PLM","station_name":"Palmerah","distance":3737,"time":7,"is_transit":false,"line":6,"transit":false,"i_lat":-6.207404,"i_long":106.79689},{"distance":3191,"line":1,"transit":true,"is_transit":true,"i_lat":-6.185545,"station_id":"THB","time":6,"i_long":106.811091,"station_name":"Tanah Abang"},{"is_transit":false,"station_id":"KAT","distance":2029,"station_name":"Karet","i_lat":-6.20132,"i_long":106.816351,"line":1,"transit":false,"time":5},{"transit":false,"time":1,"distance":471,"station_id":"SUDB","station_name":"Sudirman Baru","is_transit":false,"line":1,"i_long":106.819881,"i_lat":-6.201433},{"distance":280,"station_id":"SUD","line":1,"station_name":"Sudirman","transit":false,"i_lat":-6.202263,"time":1,"i_long":106.822649,"is_transit":false},{"station_name":"Manggarai","time":4,"is_transit":false,"station_id":"MRI","i_lat":-6.209883,"i_long":106.84912,"distance":3186,"line":2,"transit":false},{"transit":false,"station_id":"MTR","line":1,"distance":1275,"station_name":"Matraman","i_lat":-6.212485,"is_transit":false,"i_long":106.858896,"time":2},{"distance":1377,"station_name":"Jatinegara","i_lat":-6.215091,"i_long":106.86807400000001,"line":1,"time":8,"transit":true,"station_id":"JNG","is_transit":true},{"time":2,"station_id":"POK","station_name":"Pondok Jati","is_transit":false,"distance":1236,"i_lat":-6.209188,"i_long":106.861737,"line":11,"transit":false},{"i_lat":-6.193792,"station_id":"KMT","time":2,"distance":1829,"line":11,"station_name":"Kramat","i_long":106.855437,"is_transit":false,"transit":false},{"transit":false,"distance":973,"station_id":"GST","time":1,"station_name":"Gang Sentiong","i_long":106.850107,"line":11,"i_lat":-6.185975,"is_transit":false},{"transit":false,"distance":1567,"i_lat":-6.174784,"station_id":"PSE","is_transit":false,"i_long":106.84368,"line":11,"time":8,"station_name":"Pasar Senen"},{"is_transit":false,"i_lat":-6.161728,"station_id":"KMO","transit":false,"time":4,"line":11,"distance":1436,"i_long":106.839204,"station_name":"Kemayoran"},{"distance":1901,"is_transit":false,"line":11,"time":5,"i_long":106.836569,"transit":false,"station_id":"RJW","station_name":"Rajawali","i_lat":-6.14505},{"station_id":"KPB","transit":true,"time":3,"i_lat":-6.132549,"station_name":"Kampung Bandan","distance":1444,"is_transit":true,"i_long":106.826365,"line":4},{"transit":false,"station_name":"Ancol","line":4,"is_transit":false,"time":4,"station_id":"AC","distance":2185,"i_lat":-6.128023,"i_long":106.84464},{"transit":false,"distance":4566,"station_id":"TPK","time":9,"station_name":"Tanjung Priuk","i_long":106.880089,"line":4,"i_lat":-6.1109480000000005,"is_transit":false}]]}