{"data":[[{"transit":false,"i_long":106.460812,"line":6,"station_id":"TEJ","time":0,"is_transit":false,"distance":0,"station_name":"Tenjo","i_lat":-6.327251},{"station_name":"Daru","is_transit":false,"i_lat":-6.338021,"transit":false,"i_long":106.491338,"line":0,"time":5,"distance":3902,"station_id":"DAR"},{"station_name":"Cilejit","is_transit":false,"time":6,"distance":2675,"station_id":"CJT","i_long":106.508482,"transit":false,"line":3,"i_lat":-6.354349},{"distance":7025,"time":9,"transit":false,"i_lat":-6.3441410000000005,"i_long":106.568863,"station_name":"Parung Panjang","line":6,"station_id":"PRP","is_transit":false},{"is_transit":false,"i_lat":-6.329547,"distance":5968,"station_name":"Cicayur","transit":false,"time":8,"i_long":106.617853,"line":3,"station_id":"CC"},{"station_name":"Cisauk","distance":2519,"line":3,"time":4,"transit":false,"is_transit":false,"i_lat":-6.32484,"station_id":"CSK","i_long":106.640411},{"i_long":106.66566,"transit":false,"is_transit":false,"station_name":"Serpong","i_lat":-6.319871,"time":4,"line":6,"station_id":"SRP","distance":1784},{"station_id":"RU","station_name":"Rawa Buntu","transit":false,"line":6,"distance":2413,"is_transit":false,"i_long":106.675475,"time":4,"i_lat":-6.314823},{"is_transit":false,"distance":4566,"i_lat":-6.296963,"i_long":106.712277,"time":6,"line":6,"station_name":"Sudimara","station_id":"SDM","transit":false},{"transit":false,"station_id":"JMU","station_name":"Jurangmangu","distance":1994,"i_lat":-6.288927,"line":6,"is_transit":false,"i_long":106.728916,"time":4},{"transit":false,"is_transit":false,"i_lat":-6.276362,"i_long":106.74273,"time":3,"station_id":"PDJ","distance":2179,"line":6,"station_name":"Pondokranji"},{"is_transit":false,"station_name":"Kebayoran","time":8,"distance":6218,"i_lat":-6.237242,"i_long":106.780334,"transit":false,"line":6,"station_id":"KBY"},{"is_transit":false,"distance":3737,"line":6,"time":7,"i_lat":-6.207404,"station_id":"PLM","station_name":"Palmerah","i_long":106.79689,"transit":false},{"i_lat":-6.185545,"distance":3191,"line":1,"station_id":"THB","i_long":106.811091,"station_name":"Tanah Abang","transit":true,"is_transit":true,"time":6},{"i_long":106.816351,"station_name":"Karet","line":1,"transit":false,"distance":2029,"time":5,"i_lat":-6.20132,"is_transit":false,"station_id":"KAT"},{"is_transit":false,"time":1,"line":1,"station_id":"SUDB","i_long":106.819881,"station_name":"Sudirman Baru","transit":false,"distance":471,"i_lat":-6.201433},{"i_long":106.822649,"line":1,"transit":false,"i_lat":-6.202263,"station_name":"Sudirman","is_transit":false,"station_id":"SUD","distance":280,"time":1},{"time":4,"station_name":"Manggarai","is_transit":false,"station_id":"MRI","distance":3186,"line":2,"transit":false,"i_long":106.84912,"i_lat":-6.209883},{"station_id":"MTR","line":1,"station_name":"Matraman","transit":false,"is_transit":false,"time":2,"i_long":106.858896,"distance":1275,"i_lat":-6.212485},{"transit":false,"is_transit":false,"distance":1377,"line":1,"station_id":"JNG","i_lat":-6.215091,"time":8,"i_long":106.86807400000001,"station_name":"Jatinegara"},{"line":1,"is_transit":false,"distance":3395,"time":3,"station_id":"KLD","i_lat":-6.2135,"i_long":106.899548,"transit":false,"station_name":"Klender"},{"station_name":"Buaran","station_id":"BUA","i_long":106.922662,"i_lat":-6.215568,"distance":3100,"time":2,"line":1,"transit":false,"is_transit":false},{"is_transit":false,"i_long":106.939679,"station_id":"KLDB","i_lat":-6.217455,"line":1,"distance":1305,"time":1,"transit":false,"station_name":"Klenderbaru"},{"distance":1385,"station_name":"Cakung","time":8,"is_transit":false,"station_id":"CUK","i_lat":-6.219053,"i_long":106.951283,"line":1,"transit":false},{"station_id":"KRI","time":3,"transit":false,"is_transit":false,"i_lat":-6.224515,"distance":3097,"i_long":106.977657,"line":1,"station_name":"Kranji"},{"is_transit":false,"time":4,"station_name":"Bekasi","distance":2520,"transit":false,"station_id":"BKS","i_long":106.997013,"line":1,"i_lat":-6.236616}],[{"line":6,"time":0,"station_name":"Tenjo","distance":0,"station_id":"TEJ","is_transit":false,"i_lat":-6.327251,"transit":false,"i_long":106.460812},{"distance":3902,"station_name":"Daru","transit":false,"i_lat":-6.338021,"time":5,"is_transit":false,"station_id":"DAR","i_long":106.491338,"line":0},{"is_transit":false,"distance":2675,"transit":false,"i_lat":-6.354349,"i_long":106.508482,"station_id":"CJT","station_name":"Cilejit","time":6,"line":3},{"transit":false,"is_transit":false,"line":6,"i_long":106.568863,"i_lat":-6.3441410000000005,"station_id":"PRP","time":9,"distance":7025,"station_name":"Parung Panjang"},{"time":8,"station_name":"Cicayur","station_id":"CC","i_lat":-6.329547,"line":3,"is_transit":false,"i_long":106.617853,"transit":false,"distance":5968},{"is_transit":false,"time":4,"distance":2519,"i_lat":-6.32484,"i_long":106.640411,"station_id":"CSK","station_name":"Cisauk","transit":false,"line":3},{"distance":1784,"time":4,"transit":false,"is_transit":false,"station_name":"Serpong","i_long":106.66566,"station_id":"SRP","i_lat":-6.319871,"line":6},{"station_id":"RU","line":6,"time":4,"i_long":106.675475,"i_lat":-6.314823,"distance":2413,"transit":false,"station_name":"Rawa Buntu","is_transit":false},{"time":6,"distance":4566,"is_transit":false,"transit":false,"station_id":"SDM","i_lat":-6.296963,"line":6,"station_name":"Sudimara","i_long":106.712277},{"distance":1994,"is_transit":false,"time":4,"line":6,"i_lat":-6.288927,"station_name":"Jurangmangu","i_long":106.728916,"transit":false,"station_id":"JMU"},{"time":3,"is_transit":false,"station_id":"PDJ","distance":2179,"i_long":106.74273,"line":6,"transit":false,"i_lat":-6.276362,"station_name":"Pondokranji"},{"time":8,"transit":false,"i_lat":-6.237242,"line":6,"i_long":106.780334,"station_name":"Kebayoran","distance":6218,"is_transit":false,"station_id":"KBY"},{"station_name":"Palmerah","line":6,"transit":false,"is_transit":false,"distance":3737,"i_lat":-6.207404,"time":7,"station_id":"PLM","i_long":106.79689},{"time":6,"distance":3191,"is_transit":true,"station_id":"THB","i_long":106.811091,"transit":true,"i_lat":-6.185545,"station_name":"Tanah Abang","line":1},{"distance":3632,"time":8,"is_transit":false,"i_long":106.800832,"station_name":"Duri","i_lat":-6.155215,"line":1,"station_id":"DU","transit":false},{"station_id":"AK","i_lat":-6.144674,"i_long":106.79867,"is_transit":false,"station_name":"Angke","distance":1230,"line":1,"transit":false,"time":4},{"i_long":106.826365,"station_id":"KPB","is_transit":true,"station_name":"Kampung Bandan","distance":4102,"time":9,"i_lat":-6.132549,"transit":true,"line":4},{"transit":false,"i_lat":-6.14505,"i_long":106.836569,"station_id":"RJW","line":11,"is_transit":false,"time":3,"station_name":"Rajawali","distance":1444},{"station_id":"KMO","line":11,"time":5,"is_transit":false,"i_long":106.839204,"distance":1901,"transit":false,"station_name":"Kemayoran","i_lat":-6.161728},{"is_transit":false,"station_id":"PSE","i_lat":-6.174784,"transit":false,"distance":1436,"time":4,"i_long":106.84368,"line":11,"station_name":"Pasar Senen"},{"station_name":"Gang Sentiong","is_transit":false,"transit":false,"line":11,"time":8,"i_lat":-6.185975,"station_id":"GST","distance":1567,"i_long":106.850107},{"station_id":"KMT","line":11,"is_transit":false,"distance":973,"i_lat":-6.193792,"time":1,"station_name":"Kramat","i_long":106.855437,"transit":false},{"time":2,"i_long":106.861737,"line":11,"i_lat":-6.209188,"station_name":"Pondok Jati","is_transit":false,"distance":1829,"transit":false,"station_id":"POK"},{"transit":true,"time":9,"station_name":"Jatinegara","is_transit":true,"distance":1236,"i_long":106.86807400000001,"line":1,"i_lat":-6.215091,"station_id":"JNG"},{"is_transit":false,"transit":false,"i_lat":-6.2135,"distance":3395,"station_name":"Klender","i_long":106.899548,"station_id":"KLD","line":1,"time":3},{"distance":3100,"i_long":106.922662,"time":2,"transit":false,"station_id":"BUA","i_lat":-6.215568,"line":1,"is_transit":false,"station_name":"Buaran"},{"station_id":"KLDB","station_name":"Klenderbaru","transit":false,"is_transit":false,"i_lat":-6.217455,"i_long":106.939679,"distance":1305,"line":1,"time":1},{"distance":1385,"i_long":106.951283,"line":1,"transit":false,"is_transit":false,"station_name":"Cakung","station_id":"CUK","i_lat":-6.219053,"time":8},{"i_lat":-6.224515,"transit":false,"is_transit":false,"time":3,"i_long":106.977657,"station_name":"Kranji","station_id":"KRI","distance":3097,"line":1},{"station_id":"BKS","i_lat":-6.236616,"station_name":"Bekasi","is_transit":false,"transit":false,"time":4,"i_long":106.997013,"distance":2520,"line":1}],[{"distance":0,"line":6,"i_lat":-6.327251,"transit":false,"station_name":"Tenjo","is_transit":false,"station_id":"TEJ","i_long":106.460812,"time":0},{"transit":false,"is_transit":false,"line":0,"time":5,"station_name":"Daru","station_id":"DAR","distance":3902,"i_lat":-6.338021,"i_long":106.491338},{"station_name":"Cilejit","line":3,"time":6,"i_lat":-6.354349,"is_transit":false,"distance":2675,"i_long":106.508482,"station_id":"CJT","transit":false},{"time":9,"transit":false,"distance":7025,"station_name":"Parung Panjang","i_long":106.568863,"line":6,"i_lat":-6.3441410000000005,"is_transit":false,"station_id":"PRP"},{"station_name":"Cicayur","distance":5968,"transit":false,"is_transit":false,"station_id":"CC","i_lat":-6.329547,"line":3,"time":8,"i_long":106.617853},{"line":3,"i_lat":-6.32484,"distance":2519,"is_transit":false,"i_long":106.640411,"transit":false,"time":4,"station_id":"CSK","station_name":"Cisauk"},{"station_name":"Serpong","transit":false,"is_transit":false,"station_id":"SRP","line":6,"distance":1784,"i_lat":-6.319871,"i_long":106.66566,"time":4},{"station_name":"Rawa Buntu","i_long":106.675475,"is_transit":false,"station_id":"RU","i_lat":-6.314823,"distance":2413,"transit":false,"time":4,"line":6},{"time":6,"i_lat":-6.296963,"i_long":106.712277,"line":6,"is_transit":false,"distance":4566,"transit":false,"station_id":"SDM","station_name":"Sudimara"},{"station_name":"Jurangmangu","is_transit":false,"transit":false,"distance":1994,"time":4,"station_id":"JMU","i_lat":-6.288927,"i_long":106.728916,"line":6},{"i_long":106.74273,"distance":2179,"is_transit":false,"line":6,"transit":false,"station_name":"Pondokranji","station_id":"PDJ","time":3,"i_lat":-6.276362},{"station_id":"KBY","distance":6218,"station_name":"Kebayoran","transit":false,"is_transit":false,"time":8,"i_lat":-6.237242,"i_long":106.780334,"line":6},{"transit":false,"distance":3737,"is_transit":false,"i_lat":-6.207404,"station_id":"PLM","time":7,"station_name":"Palmerah","line":6,"i_long":106.79689},{"station_name":"Tanah Abang","is_transit":true,"time":6,"i_lat":-6.185545,"line":1,"station_id":"THB","distance":3191,"transit":true,"i_long":106.811091},{"i_long":106.800832,"is_transit":false,"distance":3632,"i_lat":-6.155215,"transit":false,"line":1,"station_id":"DU","station_name":"Duri","time":8},{"time":4,"transit":false,"station_name":"Angke","i_lat":-6.144674,"station_id":"AK","i_long":106.79867,"line":1,"is_transit":false,"distance":1230},{"station_name":"Kampung Bandan","transit":true,"is_transit":true,"i_long":106.826365,"distance":4102,"time":9,"line":4,"station_id":"KPB","i_lat":-6.132549},{"i_lat":-6.137569,"i_long":106.812439,"station_id":"JAKK","distance":1364,"line":2,"station_name":"Jakarta Kota","time":3,"transit":true,"is_transit":true},{"line":2,"transit":false,"station_name":"Jayakarta","is_transit":false,"time":4,"station_id":"JAY","distance":1264,"i_long":106.820901,"i_lat":-6.141205},{"distance":1080,"station_name":"Manggabesar","i_long":106.82482,"line":2,"station_id":"MGB","i_lat":-6.149769,"time":2,"transit":false,"is_transit":false},{"station_name":"Sawah Besar","is_transit":false,"transit":false,"time":2,"i_lat":-6.160725,"i_long":106.827103,"distance":906,"station_id":"SW","line":2},{"is_transit":false,"transit":false,"distance":1149,"station_name":"Juanda","station_id":"JUA","i_lat":-6.166716,"i_long":106.828284,"line":2,"time":2},{"i_lat":-6.186295,"is_transit":false,"station_name":"Gondangdia","i_long":106.832183,"line":2,"time":4,"station_id":"GDD","transit":false,"distance":2015},{"station_id":"CKI","transit":false,"station_name":"Cikini","time":3,"distance":1750,"i_lat":-6.198556,"i_long":106.840169,"line":2,"is_transit":false},{"station_name":"Manggarai","i_lat":-6.209883,"i_long":106.84912,"distance":1590,"transit":true,"station_id":"MRI","line":2,"is_transit":true,"time":4},{"i_lat":-6.212485,"station_id":"MTR","i_long":106.858896,"time":2,"transit":false,"station_name":"Matraman","is_transit":false,"distance":1275,"line":1},{"time":8,"line":1,"station_name":"Jatinegara","station_id":"JNG","distance":1377,"is_transit":false,"i_lat":-6.215091,"i_long":106.86807400000001,"transit":false},{"distance":3395,"i_long":106.899548,"station_name":"Klender","time":3,"transit":false,"i_lat":-6.2135,"line":1,"is_transit":false,"station_id":"KLD"},{"station_name":"Buaran","distance":3100,"station_id":"BUA","time":2,"i_long":106.922662,"i_lat":-6.215568,"transit":false,"is_transit":false,"line":1},{"distance":1305,"is_transit":false,"time":1,"i_long":106.939679,"station_name":"Klenderbaru","i_lat":-6.217455,"transit":false,"line":1,"station_id":"KLDB"},{"line":1,"transit":false,"i_long":106.951283,"time":8,"station_id":"CUK","is_transit":false,"station_name":"Cakung","i_lat":-6.219053,"distance":1385},{"i_long":106.977657,"transit":false,"station_id":"KRI","i_lat":-6.224515,"distance":3097,"is_transit":false,"station_name":"Kranji","line":1,"time":3},{"i_long":106.997013,"line":1,"is_transit":false,"distance":2520,"i_lat":-6.236616,"time":4,"station_id":"BKS","transit":false,"station_name":"Bekasi"}],[{"station_name":"Tenjo","transit":false,"station_id":"TEJ","distance":0,"i_lat":-6.327251,"time":0,"line":6,"is_transit":false,"i_long":106.460812},{"station_name":"Daru","i_long":106.491338,"station_id":"DAR","transit":false,"is_transit":false,"line":0,"time":5,"i_lat":-6.338021,"distance":3902},{"station_id":"CJT","transit":false,"station_name":"Cilejit","distance":2675,"i_lat":-6.354349,"time":6,"i_long":106.508482,"line":3,"is_transit":false},{"station_id":"PRP","transit":false,"is_transit":false,"i_lat":-6.3441410000000005,"distance":7025,"station_name":"Parung Panjang","line":6,"time":9,"i_long":106.568863},{"distance":5968,"time":8,"is_transit":false,"i_lat":-6.329547,"line":3,"station_id":"CC","station_name":"Cicayur","i_long":106.617853,"transit":false},{"time":4,"i_lat":-6.32484,"transit":false,"i_long":106.640411,"station_id":"CSK","distance":2519,"line":3,"is_transit":false,"station_name":"Cisauk"},{"distance":1784,"line":6,"i_long":106.66566,"is_transit":false,"station_name":"Serpong","station_id":"SRP","time":4,"i_lat":-6.319871,"transit":false},{"i_long":106.675475,"line":6,"is_transit":false,"time":4,"distance":2413,"station_name":"Rawa Buntu","station_id":"RU","i_lat":-6.314823,"transit":false},{"station_name":"Sudimara","transit":false,"i_long":106.712277,"line":6,"station_id":"SDM","time":6,"distance":4566,"i_lat":-6.296963,"is_transit":false},{"distance":1994,"i_lat":-6.288927,"i_long":106.728916,"station_id":"JMU","line":6,"is_transit":false,"transit":false,"station_name":"Jurangmangu","time":4},{"line":6,"i_lat":-6.276362,"station_name":"Pondokranji","is_transit":false,"i_long":106.74273,"transit":false,"distance":2179,"time":3,"station_id":"PDJ"},{"transit":false,"distance":6218,"station_name":"Kebayoran","time":8,"i_lat":-6.237242,"station_id":"KBY","i_long":106.780334,"is_transit":false,"line":6},{"station_id":"PLM","i_lat":-6.207404,"i_long":106.79689,"line":6,"distance":3737,"station_name":"Palmerah","transit":false,"is_transit":false,"time":7},{"i_long":106.811091,"time":6,"station_id":"THB","station_name":"Tanah Abang","line":1,"is_transit":true,"distance":3191,"transit":true,"i_lat":-6.185545},{"i_long":106.816351,"station_name":"Karet","time":5,"station_id":"KAT","distance":2029,"i_lat":-6.20132,"transit":false,"line":1,"is_transit":false},{"station_name":"Sudirman Baru","transit":false,"i_lat":-6.201433,"i_long":106.819881,"time":1,"station_id":"SUDB","distance":471,"line":1,"is_transit":false},{"distance":280,"station_id":"SUD","time":1,"i_long":106.822649,"transit":false,"i_lat":-6.202263,"is_transit":false,"station_name":"Sudirman","line":1},{"distance":3186,"transit":true,"time":4,"i_lat":-6.209883,"station_id":"MRI","line":2,"station_name":"Manggarai","i_long":106.84912,"is_transit":true},{"station_name":"Cikini","is_transit":false,"distance":1590,"station_id":"CKI","i_lat":-6.198556,"line":2,"transit":false,"time":4,"i_long":106.840169},{"is_transit":false,"i_lat":-6.186295,"station_name":"Gondangdia","station_id":"GDD","line":2,"transit":false,"i_long":106.832183,"time":3,"distance":1750},{"line":2,"transit":false,"i_lat":-6.166716,"station_name":"Juanda","i_long":106.828284,"is_transit":false,"station_id":"JUA","distance":2015,"time":4},{"i_lat":-6.160725,"time":2,"i_long":106.827103,"distance":1149,"line":2,"transit":false,"station_name":"Sawah Besar","is_transit":false,"station_id":"SW"},{"i_long":106.82482,"transit":false,"i_lat":-6.149769,"time":2,"station_id":"MGB","station_name":"Manggabesar","distance":906,"is_transit":false,"line":2},{"station_id":"JAY","i_long":106.820901,"transit":false,"time":2,"line":2,"station_name":"Jayakarta","distance":1080,"is_transit":false,"i_lat":-6.141205},{"transit":true,"is_transit":true,"station_name":"Jakarta Kota","i_long":106.812439,"station_id":"JAKK","distance":1264,"i_lat":-6.137569,"time":4,"line":2},{"i_long":106.826365,"distance":1364,"is_transit":true,"time":3,"line":4,"i_lat":-6.132549,"station_id":"KPB","transit":true,"station_name":"Kampung Bandan"},{"transit":false,"station_name":"Rajawali","is_transit":false,"i_lat":-6.14505,"i_long":106.836569,"station_id":"RJW","time":3,"line":11,"distance":1444},{"is_transit":false,"line":11,"i_lat":-6.161728,"time":5,"station_name":"Kemayoran","distance":1901,"station_id":"KMO","i_long":106.839204,"transit":false},{"i_lat":-6.174784,"distance":1436,"transit":false,"is_transit":false,"time":4,"line":11,"station_id":"PSE","station_name":"Pasar Senen","i_long":106.84368},{"line":11,"is_transit":false,"time":8,"transit":false,"station_id":"GST","station_name":"Gang Sentiong","distance":1567,"i_lat":-6.185975,"i_long":106.850107},{"time":1,"line":11,"i_long":106.855437,"station_id":"KMT","transit":false,"station_name":"Kramat","i_lat":-6.193792,"is_transit":false,"distance":973},{"distance":1829,"line":11,"transit":false,"time":2,"i_lat":-6.209188,"i_long":106.861737,"station_name":"Pondok Jati","is_transit":false,"station_id":"POK"},{"station_id":"JNG","station_name":"Jatinegara","is_transit":true,"i_lat":-6.215091,"distance":1236,"time":9,"i_long":106.86807400000001,"transit":true,"line":1},{"time":3,"station_name":"Klender","i_lat":-6.2135,"i_long":106.899548,"is_transit":false,"station_id":"KLD","transit":false,"line":1,"distance":3395},{"i_long":106.922662,"station_id":"BUA","time":2,"i_lat":-6.215568,"transit":false,"station_name":"Buaran","line":1,"is_transit":false,"distance":3100},{"transit":false,"time":1,"i_lat":-6.217455,"i_long":106.939679,"line":1,"is_transit":false,"station_id":"KLDB","distance":1305,"station_name":"Klenderbaru"},{"is_transit":false,"time":8,"distance":1385,"i_long":106.951283,"transit":false,"station_name":"Cakung","station_id":"CUK","i_lat":-6.219053,"line":1},{"transit":false,"is_transit":false,"station_name":"Kranji","station_id":"KRI","i_lat":-6.224515,"line":1,"i_long":106.977657,"distance":3097,"time":3},{"station_id":"BKS","transit":false,"time":4,"station_name":"Bekasi","is_transit":false,"distance":2520,"i_long":106.997013,"line":1,"i_lat":-6.236616}]]}