{"data":[[{"i_long":106.460812,"transit":false,"is_transit":false,"distance":0,"i_lat":-6.327251,"station_id":"TEJ","time":0,"line":6,"station_name":"Tenjo"},{"time":5,"distance":3902,"i_lat":-6.338021,"line":0,"i_long":106.491338,"is_transit":false,"station_id":"DAR","transit":false,"station_name":"Daru"},{"i_long":106.508482,"line":0,"transit":false,"i_lat":-6.354349,"distance":2675,"is_transit":false,"time":6,"station_id":"CJT","station_name":"Cilejit"},{"i_long":106.568863,"distance":7025,"station_name":"Parung Panjang","is_transit":false,"station_id":"PRP","i_lat":-6.3441410000000005,"time":9,"line":6,"transit":false},{"i_lat":-6.329547,"time":8,"line":0,"distance":5968,"station_id":"CC","transit":false,"i_long":106.617853,"is_transit":false,"station_name":"Cicayur"},{"is_transit":false,"station_id":"CSK","transit":false,"time":4,"line":0,"i_lat":-6.32484,"i_long":106.640411,"station_name":"Cisauk","distance":2519},{"i_lat":-6.319871,"station_id":"SRP","line":6,"distance":1784,"station_name":"Serpong","i_long":106.66566,"time":4,"is_transit":false,"transit":false},{"i_lat":-6.314823,"is_transit":false,"station_id":"RU","station_name":"Rawa Buntu","i_long":106.675475,"transit":false,"time":4,"line":6,"distance":2413},{"line":6,"i_lat":-6.296963,"distance":4566,"time":6,"is_transit":false,"station_id":"SDM","station_name":"Sudimara","transit":false,"i_long":106.712277},{"is_transit":false,"station_name":"Jurangmangu","time":4,"i_long":106.728916,"transit":false,"i_lat":-6.288927,"station_id":"JMU","distance":1994,"line":6},{"time":3,"station_id":"PDJ","is_transit":false,"transit":false,"i_lat":-6.276362,"i_long":106.74273,"line":6,"distance":2179,"station_name":"Pondokranji"},{"i_lat":-6.237242,"transit":false,"distance":6218,"is_transit":false,"line":6,"station_id":"KBY","i_long":106.780334,"time":8,"station_name":"Kebayoran"},{"is_transit":false,"line":6,"time":7,"transit":false,"distance":3737,"station_name":"Palmerah","station_id":"PLM","i_lat":-6.207404,"i_long":106.79689},{"i_long":106.811091,"line":1,"i_lat":-6.185545,"time":6,"station_id":"THB","station_name":"Tanah Abang","distance":3191,"transit":true,"is_transit":true},{"station_name":"Karet","time":5,"transit":false,"station_id":"KAT","is_transit":false,"i_lat":-6.20132,"distance":2029,"line":1,"i_long":106.816351},{"transit":false,"i_lat":-6.201433,"i_long":106.819881,"distance":471,"station_name":"Sudirman Baru","is_transit":false,"time":1,"station_id":"SUDB","line":1},{"time":1,"line":1,"i_long":106.822649,"i_lat":-6.202263,"transit":false,"distance":280,"station_name":"Sudirman","station_id":"SUD","is_transit":false},{"distance":3186,"station_name":"Manggarai","station_id":"MRI","transit":false,"is_transit":true,"line":0,"time":4,"i_long":106.84912,"i_lat":-6.209883},{"time":2,"station_id":"MTR","i_long":106.858896,"distance":1275,"line":1,"transit":false,"i_lat":-6.212485,"is_transit":false,"station_name":"Matraman"},{"i_long":106.86807400000001,"line":0,"time":8,"is_transit":true,"distance":1377,"station_name":"Jatinegara","station_id":"JNG","transit":false,"i_lat":-6.215091},{"station_id":"KLD","line":1,"distance":3395,"i_lat":-6.2135,"transit":false,"time":3,"is_transit":false,"i_long":106.899548,"station_name":"Klender"}],[{"i_lat":-6.327251,"i_long":106.460812,"station_name":"Tenjo","station_id":"TEJ","transit":false,"distance":0,"time":0,"is_transit":false,"line":6},{"station_name":"Daru","transit":false,"i_lat":-6.338021,"i_long":106.491338,"station_id":"DAR","line":0,"distance":3902,"is_transit":false,"time":5},{"transit":false,"i_long":106.508482,"station_name":"Cilejit","time":6,"station_id":"CJT","i_lat":-6.354349,"line":0,"is_transit":false,"distance":2675},{"line":6,"station_id":"PRP","station_name":"Parung Panjang","time":9,"distance":7025,"i_lat":-6.3441410000000005,"transit":false,"i_long":106.568863,"is_transit":false},{"i_lat":-6.329547,"i_long":106.617853,"line":0,"is_transit":false,"transit":false,"time":8,"distance":5968,"station_id":"CC","station_name":"Cicayur"},{"i_lat":-6.32484,"transit":false,"is_transit":false,"time":4,"station_id":"CSK","station_name":"Cisauk","distance":2519,"i_long":106.640411,"line":0},{"distance":1784,"transit":false,"is_transit":false,"time":4,"station_id":"SRP","i_lat":-6.319871,"i_long":106.66566,"station_name":"Serpong","line":6},{"transit":false,"time":4,"distance":2413,"is_transit":false,"i_long":106.675475,"station_id":"RU","station_name":"Rawa Buntu","i_lat":-6.314823,"line":6},{"is_transit":false,"i_lat":-6.296963,"station_id":"SDM","time":6,"transit":false,"i_long":106.712277,"distance":4566,"station_name":"Sudimara","line":6},{"i_lat":-6.288927,"line":6,"time":4,"distance":1994,"is_transit":false,"i_long":106.728916,"station_id":"JMU","station_name":"Jurangmangu","transit":false},{"is_transit":false,"distance":2179,"station_id":"PDJ","time":3,"line":6,"station_name":"Pondokranji","i_lat":-6.276362,"transit":false,"i_long":106.74273},{"distance":6218,"station_id":"KBY","time":8,"station_name":"Kebayoran","i_lat":-6.237242,"i_long":106.780334,"line":6,"is_transit":false,"transit":false},{"transit":false,"station_name":"Palmerah","i_long":106.79689,"line":6,"i_lat":-6.207404,"distance":3737,"time":7,"is_transit":false,"station_id":"PLM"},{"i_long":106.811091,"transit":true,"is_transit":true,"i_lat":-6.185545,"station_name":"Tanah Abang","line":1,"distance":3191,"time":6,"station_id":"THB"},{"i_long":106.800832,"distance":3632,"i_lat":-6.155215,"station_id":"DU","line":1,"is_transit":true,"transit":true,"time":8,"station_name":"Duri"},{"station_id":"AK","time":4,"i_long":106.79867,"is_transit":false,"transit":false,"distance":1230,"line":0,"station_name":"Angke","i_lat":-6.144674},{"station_id":"KPB","station_name":"Kampung Bandan","time":9,"i_long":106.826365,"distance":4102,"i_lat":-6.132549,"transit":true,"line":0,"is_transit":true},{"station_id":"RJW","transit":false,"line":11,"station_name":"Rajawali","is_transit":false,"time":3,"distance":1444,"i_long":106.836569,"i_lat":-6.14505},{"station_id":"KMO","distance":1901,"transit":false,"i_long":106.839204,"time":5,"is_transit":false,"line":11,"station_name":"Kemayoran","i_lat":-6.161728},{"station_id":"PSE","i_long":106.84368,"i_lat":-6.174784,"line":11,"transit":false,"time":4,"station_name":"Pasar Senen","is_transit":false,"distance":1436},{"i_long":106.850107,"is_transit":false,"station_id":"GST","station_name":"Gang Sentiong","transit":false,"line":11,"distance":1567,"time":8,"i_lat":-6.185975},{"time":1,"line":11,"distance":973,"is_transit":false,"station_id":"KMT","transit":false,"station_name":"Kramat","i_long":106.855437,"i_lat":-6.193792},{"transit":false,"is_transit":false,"time":2,"distance":1829,"i_long":106.861737,"station_name":"Pondok Jati","i_lat":-6.209188,"line":11,"station_id":"POK"},{"distance":1236,"line":0,"transit":true,"time":9,"is_transit":true,"station_id":"JNG","i_long":106.86807400000001,"i_lat":-6.215091,"station_name":"Jatinegara"},{"station_id":"KLD","transit":false,"is_transit":false,"station_name":"Klender","time":3,"i_lat":-6.2135,"i_long":106.899548,"line":1,"distance":3395}],[{"station_id":"TEJ","i_long":106.460812,"distance":0,"i_lat":-6.327251,"is_transit":false,"station_name":"Tenjo","transit":false,"time":0,"line":6},{"station_id":"DAR","distance":3902,"i_lat":-6.338021,"station_name":"Daru","transit":false,"is_transit":false,"time":5,"line":0,"i_long":106.491338},{"station_id":"CJT","station_name":"Cilejit","time":6,"i_long":106.508482,"i_lat":-6.354349,"distance":2675,"transit":false,"line":0,"is_transit":false},{"distance":7025,"station_id":"PRP","i_lat":-6.3441410000000005,"station_name":"Parung Panjang","transit":false,"i_long":106.568863,"line":6,"time":9,"is_transit":false},{"station_name":"Cicayur","distance":5968,"time":8,"i_lat":-6.329547,"i_long":106.617853,"is_transit":false,"station_id":"CC","transit":false,"line":0},{"is_transit":false,"station_id":"CSK","station_name":"Cisauk","transit":false,"distance":2519,"i_lat":-6.32484,"line":0,"time":4,"i_long":106.640411},{"is_transit":false,"time":4,"station_id":"SRP","i_long":106.66566,"station_name":"Serpong","distance":1784,"line":6,"i_lat":-6.319871,"transit":false},{"station_id":"RU","is_transit":false,"distance":2413,"transit":false,"time":4,"i_long":106.675475,"i_lat":-6.314823,"line":6,"station_name":"Rawa Buntu"},{"distance":4566,"line":6,"station_id":"SDM","station_name":"Sudimara","is_transit":false,"transit":false,"time":6,"i_lat":-6.296963,"i_long":106.712277},{"i_lat":-6.288927,"is_transit":false,"station_id":"JMU","station_name":"Jurangmangu","transit":false,"time":4,"i_long":106.728916,"distance":1994,"line":6},{"line":6,"distance":2179,"time":3,"i_lat":-6.276362,"transit":false,"station_id":"PDJ","i_long":106.74273,"is_transit":false,"station_name":"Pondokranji"},{"i_long":106.780334,"distance":6218,"time":8,"i_lat":-6.237242,"transit":false,"station_id":"KBY","line":6,"station_name":"Kebayoran","is_transit":false},{"time":7,"station_name":"Palmerah","is_transit":false,"i_lat":-6.207404,"line":6,"i_long":106.79689,"station_id":"PLM","transit":false,"distance":3737},{"distance":3191,"time":6,"i_lat":-6.185545,"is_transit":true,"transit":true,"station_id":"THB","station_name":"Tanah Abang","line":1,"i_long":106.811091},{"is_transit":true,"i_lat":-6.155215,"transit":true,"i_long":106.800832,"distance":3632,"line":1,"time":8,"station_id":"DU","station_name":"Duri"},{"time":4,"is_transit":false,"station_id":"AK","i_lat":-6.144674,"line":0,"station_name":"Angke","transit":false,"distance":1230,"i_long":106.79867},{"station_id":"KPB","is_transit":true,"time":9,"i_long":106.826365,"line":0,"distance":4102,"i_lat":-6.132549,"transit":false,"station_name":"Kampung Bandan"},{"time":3,"i_lat":-6.137569,"station_id":"JAKK","station_name":"Jakarta Kota","i_long":106.812439,"line":0,"is_transit":true,"transit":true,"distance":1364},{"is_transit":false,"transit":false,"i_long":106.820901,"distance":1264,"i_lat":-6.141205,"station_id":"JAY","station_name":"Jayakarta","time":4,"line":7},{"station_id":"MGB","i_lat":-6.149769,"i_long":106.82482,"is_transit":false,"station_name":"Manggabesar","time":2,"transit":false,"distance":1080,"line":2},{"station_id":"SW","transit":false,"is_transit":false,"line":2,"station_name":"Sawah Besar","i_long":106.827103,"i_lat":-6.160725,"distance":906,"time":2},{"i_long":106.828284,"distance":1149,"line":2,"is_transit":false,"station_id":"JUA","time":2,"station_name":"Juanda","transit":false,"i_lat":-6.166716},{"transit":false,"is_transit":false,"i_lat":-6.186295,"line":2,"station_name":"Gondangdia","distance":2015,"time":4,"i_long":106.832183,"station_id":"GDD"},{"distance":1750,"is_transit":false,"station_name":"Cikini","line":0,"i_lat":-6.198556,"transit":false,"time":3,"station_id":"CKI","i_long":106.840169},{"line":0,"distance":1590,"i_lat":-6.209883,"station_id":"MRI","time":4,"is_transit":true,"station_name":"Manggarai","transit":true,"i_long":106.84912},{"is_transit":false,"station_id":"MTR","i_long":106.858896,"line":1,"distance":1275,"transit":false,"i_lat":-6.212485,"station_name":"Matraman","time":2},{"i_lat":-6.215091,"distance":1377,"i_long":106.86807400000001,"line":0,"station_name":"Jatinegara","station_id":"JNG","transit":false,"time":8,"is_transit":true},{"i_long":106.899548,"time":3,"distance":3395,"station_id":"KLD","station_name":"Klender","i_lat":-6.2135,"is_transit":false,"line":1,"transit":false}],[{"station_name":"Tenjo","line":6,"distance":0,"is_transit":false,"transit":false,"i_lat":-6.327251,"i_long":106.460812,"time":0,"station_id":"TEJ"},{"i_long":106.491338,"i_lat":-6.338021,"time":5,"distance":3902,"transit":false,"station_id":"DAR","is_transit":false,"station_name":"Daru","line":0},{"station_id":"CJT","station_name":"Cilejit","transit":false,"distance":2675,"time":6,"i_lat":-6.354349,"line":0,"is_transit":false,"i_long":106.508482},{"i_lat":-6.3441410000000005,"i_long":106.568863,"station_name":"Parung Panjang","distance":7025,"transit":false,"is_transit":false,"time":9,"station_id":"PRP","line":6},{"station_id":"CC","station_name":"Cicayur","distance":5968,"time":8,"i_long":106.617853,"transit":false,"line":0,"is_transit":false,"i_lat":-6.329547},{"station_id":"CSK","is_transit":false,"time":4,"station_name":"Cisauk","distance":2519,"i_long":106.640411,"transit":false,"i_lat":-6.32484,"line":0},{"distance":1784,"time":4,"line":6,"is_transit":false,"transit":false,"station_name":"Serpong","station_id":"SRP","i_lat":-6.319871,"i_long":106.66566},{"i_long":106.675475,"transit":false,"station_name":"Rawa Buntu","line":6,"is_transit":false,"i_lat":-6.314823,"station_id":"RU","distance":2413,"time":4},{"station_name":"Sudimara","station_id":"SDM","transit":false,"i_long":106.712277,"time":6,"line":6,"i_lat":-6.296963,"distance":4566,"is_transit":false},{"station_id":"JMU","is_transit":false,"distance":1994,"i_lat":-6.288927,"line":6,"station_name":"Jurangmangu","i_long":106.728916,"transit":false,"time":4},{"transit":false,"i_lat":-6.276362,"is_transit":false,"station_id":"PDJ","i_long":106.74273,"distance":2179,"time":3,"line":6,"station_name":"Pondokranji"},{"distance":6218,"time":8,"i_long":106.780334,"i_lat":-6.237242,"line":6,"station_id":"KBY","is_transit":false,"station_name":"Kebayoran","transit":false},{"distance":3737,"is_transit":false,"i_long":106.79689,"time":7,"station_id":"PLM","transit":false,"i_lat":-6.207404,"line":6,"station_name":"Palmerah"},{"distance":3191,"is_transit":true,"station_name":"Tanah Abang","time":6,"i_long":106.811091,"line":1,"i_lat":-6.185545,"transit":true,"station_id":"THB"},{"transit":false,"line":1,"station_name":"Karet","station_id":"KAT","time":5,"i_long":106.816351,"is_transit":false,"i_lat":-6.20132,"distance":2029},{"station_name":"Sudirman Baru","time":1,"i_lat":-6.201433,"station_id":"SUDB","i_long":106.819881,"is_transit":false,"transit":false,"distance":471,"line":1},{"i_long":106.822649,"transit":false,"station_name":"Sudirman","distance":280,"time":1,"line":1,"station_id":"SUD","is_transit":false,"i_lat":-6.202263},{"i_long":106.84912,"time":4,"station_id":"MRI","line":0,"station_name":"Manggarai","distance":3186,"is_transit":true,"transit":true,"i_lat":-6.209883},{"distance":1590,"station_id":"CKI","station_name":"Cikini","transit":false,"i_lat":-6.198556,"time":4,"i_long":106.840169,"is_transit":false,"line":0},{"transit":false,"time":3,"i_long":106.832183,"station_name":"Gondangdia","station_id":"GDD","distance":1750,"i_lat":-6.186295,"is_transit":false,"line":2},{"time":4,"is_transit":false,"i_lat":-6.166716,"i_long":106.828284,"station_id":"JUA","line":2,"distance":2015,"station_name":"Juanda","transit":false},{"station_id":"SW","station_name":"Sawah Besar","distance":1149,"line":2,"transit":false,"is_transit":false,"i_lat":-6.160725,"i_long":106.827103,"time":2},{"station_name":"Manggabesar","time":2,"is_transit":false,"i_lat":-6.149769,"line":2,"i_long":106.82482,"transit":false,"distance":906,"station_id":"MGB"},{"is_transit":false,"station_name":"Jayakarta","distance":1080,"station_id":"JAY","transit":false,"i_long":106.820901,"line":7,"i_lat":-6.141205,"time":2},{"time":4,"distance":1264,"station_id":"JAKK","is_transit":true,"station_name":"Jakarta Kota","i_lat":-6.137569,"i_long":106.812439,"line":0,"transit":true},{"i_long":106.826365,"is_transit":true,"station_id":"KPB","station_name":"Kampung Bandan","transit":true,"distance":1364,"i_lat":-6.132549,"time":3,"line":0},{"transit":false,"i_long":106.836569,"is_transit":false,"i_lat":-6.14505,"line":11,"station_id":"RJW","station_name":"Rajawali","distance":1444,"time":3},{"line":11,"is_transit":false,"station_name":"Kemayoran","i_lat":-6.161728,"time":5,"station_id":"KMO","distance":1901,"transit":false,"i_long":106.839204},{"is_transit":false,"i_long":106.84368,"station_name":"Pasar Senen","i_lat":-6.174784,"distance":1436,"station_id":"PSE","transit":false,"time":4,"line":11},{"i_lat":-6.185975,"transit":false,"distance":1567,"station_name":"Gang Sentiong","time":8,"i_long":106.850107,"line":11,"is_transit":false,"station_id":"GST"},{"i_lat":-6.193792,"station_name":"Kramat","is_transit":false,"i_long":106.855437,"line":11,"transit":false,"time":1,"station_id":"KMT","distance":973},{"station_name":"Pondok Jati","transit":false,"i_long":106.861737,"line":11,"time":2,"i_lat":-6.209188,"distance":1829,"station_id":"POK","is_transit":false},{"i_lat":-6.215091,"line":0,"station_id":"JNG","station_name":"Jatinegara","distance":1236,"i_long":106.86807400000001,"is_transit":true,"transit":true,"time":9},{"station_name":"Klender","distance":3395,"i_long":106.899548,"is_transit":false,"time":3,"station_id":"KLD","line":1,"transit":false,"i_lat":-6.2135}]]}