{"data":[[{"distance":0,"station_id":"TGS","station_name":"Tigaraksa","i_long":106.425991,"transit":false,"i_lat":-6.328533,"line":6,"time":0,"is_transit":false},{"i_lat":-6.327251,"distance":2974,"transit":false,"station_name":"Tenjo","station_id":"TEJ","i_long":106.460812,"line":6,"is_transit":false,"time":5},{"station_id":"DAR","station_name":"Daru","line":0,"i_lat":-6.338021,"distance":3902,"transit":false,"time":5,"i_long":106.491338,"is_transit":false},{"distance":2675,"i_long":106.508482,"i_lat":-6.354349,"station_id":"CJT","transit":false,"is_transit":false,"station_name":"Cilejit","time":6,"line":0},{"station_name":"Parung Panjang","time":9,"station_id":"PRP","distance":7025,"i_long":106.568863,"is_transit":false,"transit":false,"i_lat":-6.3441410000000005,"line":6},{"i_lat":-6.329547,"transit":false,"i_long":106.617853,"line":0,"time":8,"station_id":"CC","is_transit":false,"distance":5968,"station_name":"Cicayur"},{"is_transit":false,"transit":false,"station_id":"CSK","distance":2519,"i_lat":-6.32484,"line":0,"time":4,"i_long":106.640411,"station_name":"Cisauk"},{"is_transit":false,"i_long":106.66566,"line":6,"station_name":"Serpong","distance":1784,"station_id":"SRP","transit":false,"i_lat":-6.319871,"time":4},{"station_name":"Rawa Buntu","transit":false,"distance":2413,"i_long":106.675475,"is_transit":false,"station_id":"RU","time":4,"i_lat":-6.314823,"line":6},{"station_name":"Sudimara","transit":false,"distance":4566,"time":6,"is_transit":false,"station_id":"SDM","i_lat":-6.296963,"i_long":106.712277,"line":6},{"distance":1994,"i_long":106.728916,"station_id":"JMU","is_transit":false,"station_name":"Jurangmangu","i_lat":-6.288927,"transit":false,"line":6,"time":4},{"station_id":"PDJ","transit":false,"distance":2179,"station_name":"Pondokranji","i_long":106.74273,"is_transit":false,"time":3,"line":6,"i_lat":-6.276362},{"distance":6218,"time":8,"line":6,"transit":false,"station_id":"KBY","i_long":106.780334,"station_name":"Kebayoran","is_transit":false,"i_lat":-6.237242},{"line":6,"transit":false,"i_lat":-6.207404,"is_transit":false,"station_id":"PLM","station_name":"Palmerah","time":7,"distance":3737,"i_long":106.79689},{"i_lat":-6.185545,"i_long":106.811091,"line":1,"station_id":"THB","time":6,"distance":3191,"transit":true,"is_transit":true,"station_name":"Tanah Abang"},{"station_id":"KAT","i_long":106.816351,"station_name":"Karet","i_lat":-6.20132,"distance":2029,"transit":false,"time":5,"line":1,"is_transit":false},{"station_name":"Sudirman Baru","line":1,"i_lat":-6.201433,"is_transit":false,"i_long":106.819881,"distance":471,"station_id":"SUDB","transit":false,"time":1},{"distance":280,"station_name":"Sudirman","time":1,"transit":false,"is_transit":false,"station_id":"SUD","i_long":106.822649,"line":1,"i_lat":-6.202263},{"station_id":"MRI","i_lat":-6.209883,"line":0,"i_long":106.84912,"time":4,"is_transit":true,"station_name":"Manggarai","distance":3186,"transit":true},{"time":4,"distance":2610,"station_name":"Tebet","transit":false,"is_transit":false,"line":2,"i_long":106.857948,"station_id":"TEB","i_lat":-6.226659},{"time":2,"transit":false,"is_transit":false,"i_long":106.856607,"station_id":"CW","distance":1230,"i_lat":-6.242512,"line":0,"station_name":"Cawang"},{"time":3,"distance":1546,"is_transit":false,"station_id":"DRN","i_lat":-6.255332,"station_name":"Duren Kalibata","i_long":106.85449,"line":0,"transit":false},{"station_name":"Pasar Minggu Baru","is_transit":false,"i_long":106.851577,"line":2,"time":2,"distance":824,"station_id":"PSMB","transit":false,"i_lat":-6.263214},{"station_name":"Pasar Minggu","is_transit":false,"transit":false,"i_long":106.843999,"line":2,"distance":2380,"station_id":"PSM","time":2,"i_lat":-6.2842400000000005},{"time":4,"i_long":106.838896,"station_id":"TNT","transit":false,"station_name":"Tanjung Barat","distance":2820,"i_lat":-6.3080680000000005,"line":2,"is_transit":false},{"distance":2671,"station_id":"LNA","is_transit":false,"station_name":"Lenteng Agung","time":3,"i_lat":-6.330363,"i_long":106.832616,"line":2,"transit":false},{"distance":1029,"line":2,"is_transit":false,"transit":false,"time":2,"station_name":"Univ. Pancasila","station_id":"UP","i_long":106.834175,"i_lat":-6.339291},{"time":3,"line":2,"distance":2264,"transit":false,"station_name":"Univ. Indonesia","i_lat":-6.360749,"i_long":106.831474,"is_transit":false,"station_id":"UI"},{"station_id":"POC","line":2,"time":2,"transit":false,"i_lat":-6.369073,"distance":1109,"is_transit":false,"i_long":106.831114,"station_name":"Pondok Cina"}],[{"distance":0,"time":0,"station_id":"TGS","i_long":106.425991,"is_transit":false,"station_name":"Tigaraksa","i_lat":-6.328533,"line":6,"transit":false},{"station_id":"TEJ","station_name":"Tenjo","distance":2974,"time":5,"is_transit":false,"transit":false,"line":6,"i_lat":-6.327251,"i_long":106.460812},{"i_long":106.491338,"is_transit":false,"station_id":"DAR","distance":3902,"transit":false,"station_name":"Daru","line":0,"time":5,"i_lat":-6.338021},{"distance":2675,"station_name":"Cilejit","time":6,"station_id":"CJT","i_lat":-6.354349,"is_transit":false,"transit":false,"i_long":106.508482,"line":0},{"distance":7025,"station_name":"Parung Panjang","time":9,"transit":false,"station_id":"PRP","i_long":106.568863,"is_transit":false,"line":6,"i_lat":-6.3441410000000005},{"station_id":"CC","transit":false,"time":8,"i_long":106.617853,"i_lat":-6.329547,"station_name":"Cicayur","distance":5968,"is_transit":false,"line":0},{"station_id":"CSK","station_name":"Cisauk","i_long":106.640411,"time":4,"transit":false,"distance":2519,"i_lat":-6.32484,"is_transit":false,"line":0},{"time":4,"is_transit":false,"station_id":"SRP","transit":false,"line":6,"station_name":"Serpong","i_lat":-6.319871,"distance":1784,"i_long":106.66566},{"i_lat":-6.314823,"distance":2413,"station_name":"Rawa Buntu","time":4,"i_long":106.675475,"transit":false,"station_id":"RU","is_transit":false,"line":6},{"station_id":"SDM","distance":4566,"time":6,"i_long":106.712277,"transit":false,"station_name":"Sudimara","i_lat":-6.296963,"is_transit":false,"line":6},{"distance":1994,"station_id":"JMU","transit":false,"time":4,"is_transit":false,"station_name":"Jurangmangu","i_long":106.728916,"line":6,"i_lat":-6.288927},{"time":3,"i_long":106.74273,"is_transit":false,"station_id":"PDJ","distance":2179,"station_name":"Pondokranji","transit":false,"line":6,"i_lat":-6.276362},{"distance":6218,"i_lat":-6.237242,"is_transit":false,"station_name":"Kebayoran","station_id":"KBY","line":6,"i_long":106.780334,"transit":false,"time":8},{"is_transit":false,"transit":false,"line":6,"station_name":"Palmerah","i_lat":-6.207404,"i_long":106.79689,"station_id":"PLM","distance":3737,"time":7},{"time":6,"station_name":"Tanah Abang","is_transit":true,"distance":3191,"station_id":"THB","i_lat":-6.185545,"line":1,"i_long":106.811091,"transit":true},{"distance":3632,"station_id":"DU","line":1,"is_transit":true,"i_long":106.800832,"transit":true,"station_name":"Duri","time":8,"i_lat":-6.155215},{"transit":false,"line":0,"i_lat":-6.144674,"distance":1230,"i_long":106.79867,"station_id":"AK","time":4,"is_transit":false,"station_name":"Angke"},{"station_name":"Kampung Bandan","i_lat":-6.132549,"is_transit":true,"transit":false,"i_long":106.826365,"distance":4102,"line":0,"time":9,"station_id":"KPB"},{"time":3,"line":0,"station_name":"Jakarta Kota","i_lat":-6.137569,"is_transit":true,"transit":true,"i_long":106.812439,"distance":1364,"station_id":"JAKK"},{"station_name":"Jayakarta","i_long":106.820901,"transit":false,"time":4,"i_lat":-6.141205,"line":7,"station_id":"JAY","distance":1264,"is_transit":false},{"is_transit":false,"station_name":"Manggabesar","distance":1080,"station_id":"MGB","transit":false,"line":2,"i_lat":-6.149769,"time":2,"i_long":106.82482},{"distance":906,"is_transit":false,"station_id":"SW","time":2,"i_lat":-6.160725,"line":2,"station_name":"Sawah Besar","i_long":106.827103,"transit":false},{"time":2,"i_lat":-6.166716,"line":2,"is_transit":false,"i_long":106.828284,"station_id":"JUA","distance":1149,"station_name":"Juanda","transit":false},{"station_name":"Gondangdia","station_id":"GDD","distance":2015,"is_transit":false,"i_long":106.832183,"line":2,"time":4,"i_lat":-6.186295,"transit":false},{"i_long":106.840169,"i_lat":-6.198556,"distance":1750,"time":3,"is_transit":false,"station_name":"Cikini","station_id":"CKI","line":0,"transit":false},{"is_transit":true,"i_long":106.84912,"time":4,"transit":true,"station_name":"Manggarai","i_lat":-6.209883,"distance":1590,"line":0,"station_id":"MRI"},{"station_id":"TEB","station_name":"Tebet","time":4,"i_lat":-6.226659,"transit":false,"is_transit":false,"distance":2610,"i_long":106.857948,"line":2},{"i_long":106.856607,"time":2,"line":0,"station_name":"Cawang","distance":1230,"is_transit":false,"i_lat":-6.242512,"station_id":"CW","transit":false},{"i_lat":-6.255332,"station_id":"DRN","transit":false,"time":3,"station_name":"Duren Kalibata","line":0,"distance":1546,"i_long":106.85449,"is_transit":false},{"i_lat":-6.263214,"distance":824,"station_id":"PSMB","station_name":"Pasar Minggu Baru","is_transit":false,"time":2,"line":2,"transit":false,"i_long":106.851577},{"station_id":"PSM","is_transit":false,"distance":2380,"transit":false,"line":2,"station_name":"Pasar Minggu","i_long":106.843999,"time":2,"i_lat":-6.2842400000000005},{"transit":false,"time":4,"i_long":106.838896,"line":2,"distance":2820,"station_name":"Tanjung Barat","i_lat":-6.3080680000000005,"is_transit":false,"station_id":"TNT"},{"distance":2671,"i_lat":-6.330363,"is_transit":false,"i_long":106.832616,"time":3,"station_id":"LNA","transit":false,"line":2,"station_name":"Lenteng Agung"},{"station_id":"UP","is_transit":false,"time":2,"i_long":106.834175,"line":2,"station_name":"Univ. Pancasila","i_lat":-6.339291,"distance":1029,"transit":false},{"station_id":"UI","i_lat":-6.360749,"time":3,"station_name":"Univ. Indonesia","is_transit":false,"i_long":106.831474,"distance":2264,"transit":false,"line":2},{"i_long":106.831114,"station_name":"Pondok Cina","station_id":"POC","i_lat":-6.369073,"is_transit":false,"line":2,"distance":1109,"transit":false,"time":2}],[{"i_lat":-6.328533,"i_long":106.425991,"is_transit":false,"station_id":"TGS","station_name":"Tigaraksa","distance":0,"transit":false,"line":6,"time":0},{"i_long":106.460812,"line":6,"distance":2974,"station_id":"TEJ","time":5,"i_lat":-6.327251,"is_transit":false,"station_name":"Tenjo","transit":false},{"station_name":"Daru","transit":false,"distance":3902,"station_id":"DAR","i_lat":-6.338021,"is_transit":false,"i_long":106.491338,"line":0,"time":5},{"line":0,"transit":false,"i_long":106.508482,"station_id":"CJT","station_name":"Cilejit","distance":2675,"time":6,"i_lat":-6.354349,"is_transit":false},{"distance":7025,"transit":false,"is_transit":false,"time":9,"i_lat":-6.3441410000000005,"station_name":"Parung Panjang","station_id":"PRP","i_long":106.568863,"line":6},{"line":0,"station_name":"Cicayur","transit":false,"distance":5968,"i_lat":-6.329547,"is_transit":false,"station_id":"CC","time":8,"i_long":106.617853},{"distance":2519,"time":4,"is_transit":false,"line":0,"i_long":106.640411,"transit":false,"i_lat":-6.32484,"station_name":"Cisauk","station_id":"CSK"},{"time":4,"i_lat":-6.319871,"i_long":106.66566,"line":6,"is_transit":false,"distance":1784,"station_id":"SRP","transit":false,"station_name":"Serpong"},{"i_lat":-6.314823,"line":6,"transit":false,"i_long":106.675475,"is_transit":false,"station_id":"RU","time":4,"distance":2413,"station_name":"Rawa Buntu"},{"station_id":"SDM","distance":4566,"line":6,"i_lat":-6.296963,"time":6,"i_long":106.712277,"station_name":"Sudimara","is_transit":false,"transit":false},{"is_transit":false,"i_long":106.728916,"distance":1994,"station_name":"Jurangmangu","line":6,"transit":false,"station_id":"JMU","time":4,"i_lat":-6.288927},{"station_id":"PDJ","line":6,"i_lat":-6.276362,"distance":2179,"time":3,"i_long":106.74273,"transit":false,"station_name":"Pondokranji","is_transit":false},{"is_transit":false,"distance":6218,"i_long":106.780334,"i_lat":-6.237242,"line":6,"station_name":"Kebayoran","transit":false,"time":8,"station_id":"KBY"},{"transit":false,"line":6,"is_transit":false,"i_lat":-6.207404,"station_name":"Palmerah","i_long":106.79689,"time":7,"station_id":"PLM","distance":3737},{"time":6,"line":1,"station_name":"Tanah Abang","transit":true,"is_transit":true,"distance":3191,"i_lat":-6.185545,"i_long":106.811091,"station_id":"THB"},{"distance":3632,"is_transit":true,"station_name":"Duri","transit":true,"time":8,"station_id":"DU","i_lat":-6.155215,"i_long":106.800832,"line":1},{"station_name":"Angke","station_id":"AK","distance":1230,"is_transit":false,"i_long":106.79867,"time":4,"i_lat":-6.144674,"transit":false,"line":0},{"distance":4102,"i_lat":-6.132549,"transit":true,"station_id":"KPB","i_long":106.826365,"is_transit":true,"station_name":"Kampung Bandan","line":0,"time":9},{"i_long":106.836569,"i_lat":-6.14505,"line":11,"time":3,"distance":1444,"station_id":"RJW","station_name":"Rajawali","transit":false,"is_transit":false},{"distance":1901,"station_name":"Kemayoran","line":11,"is_transit":false,"i_long":106.839204,"station_id":"KMO","transit":false,"time":5,"i_lat":-6.161728},{"station_name":"Pasar Senen","i_lat":-6.174784,"is_transit":false,"distance":1436,"station_id":"PSE","time":4,"line":11,"i_long":106.84368,"transit":false},{"i_long":106.850107,"time":8,"station_id":"GST","i_lat":-6.185975,"distance":1567,"station_name":"Gang Sentiong","is_transit":false,"line":11,"transit":false},{"i_long":106.855437,"distance":973,"time":1,"transit":false,"line":11,"i_lat":-6.193792,"is_transit":false,"station_id":"KMT","station_name":"Kramat"},{"i_long":106.861737,"time":2,"distance":1829,"transit":false,"is_transit":false,"station_id":"POK","i_lat":-6.209188,"line":11,"station_name":"Pondok Jati"},{"i_long":106.86807400000001,"transit":true,"line":0,"distance":1236,"time":9,"station_name":"Jatinegara","is_transit":true,"station_id":"JNG","i_lat":-6.215091},{"station_name":"Matraman","is_transit":false,"transit":false,"time":2,"line":1,"i_lat":-6.212485,"distance":1377,"station_id":"MTR","i_long":106.858896},{"is_transit":true,"line":0,"station_id":"MRI","i_long":106.84912,"transit":true,"distance":1275,"station_name":"Manggarai","i_lat":-6.209883,"time":2},{"is_transit":false,"time":4,"i_lat":-6.226659,"station_name":"Tebet","transit":false,"distance":2610,"station_id":"TEB","i_long":106.857948,"line":2},{"distance":1230,"station_name":"Cawang","station_id":"CW","is_transit":false,"i_lat":-6.242512,"transit":false,"line":0,"time":2,"i_long":106.856607},{"i_long":106.85449,"line":0,"station_id":"DRN","distance":1546,"transit":false,"i_lat":-6.255332,"time":3,"station_name":"Duren Kalibata","is_transit":false},{"distance":824,"line":2,"i_lat":-6.263214,"station_name":"Pasar Minggu Baru","station_id":"PSMB","transit":false,"is_transit":false,"i_long":106.851577,"time":2},{"line":2,"i_long":106.843999,"i_lat":-6.2842400000000005,"station_id":"PSM","station_name":"Pasar Minggu","is_transit":false,"time":2,"distance":2380,"transit":false},{"transit":false,"i_lat":-6.3080680000000005,"time":4,"station_id":"TNT","distance":2820,"line":2,"is_transit":false,"station_name":"Tanjung Barat","i_long":106.838896},{"transit":false,"time":3,"i_long":106.832616,"is_transit":false,"station_id":"LNA","station_name":"Lenteng Agung","line":2,"i_lat":-6.330363,"distance":2671},{"is_transit":false,"time":2,"transit":false,"line":2,"i_lat":-6.339291,"station_name":"Univ. Pancasila","station_id":"UP","distance":1029,"i_long":106.834175},{"transit":false,"i_long":106.831474,"line":2,"station_id":"UI","is_transit":false,"i_lat":-6.360749,"station_name":"Univ. Indonesia","distance":2264,"time":3},{"distance":1109,"station_id":"POC","time":2,"i_long":106.831114,"station_name":"Pondok Cina","is_transit":false,"line":2,"i_lat":-6.369073,"transit":false}]]}