{"data":[[{"station_name":"Tigaraksa","is_transit":false,"station_id":"TGS","time":0,"i_long":106.425991,"distance":0,"transit":false,"i_lat":-6.328533,"line":6},{"i_lat":-6.327251,"is_transit":false,"i_long":106.460812,"time":5,"line":6,"station_name":"Tenjo","distance":2974,"transit":false,"station_id":"TEJ"},{"i_long":106.491338,"station_id":"DAR","station_name":"Daru","is_transit":false,"time":5,"distance":3902,"transit":false,"i_lat":-6.338021,"line":0},{"is_transit":false,"time":6,"i_lat":-6.354349,"station_id":"CJT","i_long":106.508482,"line":0,"distance":2675,"station_name":"Cilejit","transit":false},{"station_id":"PRP","transit":false,"distance":7025,"i_lat":-6.3441410000000005,"is_transit":false,"time":9,"station_name":"Parung Panjang","line":6,"i_long":106.568863},{"station_name":"Cicayur","station_id":"CC","time":8,"i_lat":-6.329547,"i_long":106.617853,"is_transit":false,"transit":false,"distance":5968,"line":0},{"i_long":106.640411,"distance":2519,"is_transit":false,"station_name":"Cisauk","i_lat":-6.32484,"time":4,"transit":false,"line":0,"station_id":"CSK"}]]}