{"data":[[{"station_name":"Tigaraksa","line":6,"time":0,"i_long":106.425991,"i_lat":-6.328533,"station_id":"TGS","distance":0,"is_transit":false,"transit":false},{"station_id":"TEJ","transit":false,"i_long":106.460812,"distance":2974,"time":5,"station_name":"Tenjo","i_lat":-6.327251,"line":6,"is_transit":false},{"station_name":"Daru","i_long":106.491338,"line":0,"time":5,"station_id":"DAR","is_transit":false,"distance":3902,"transit":false,"i_lat":-6.338021},{"distance":2675,"is_transit":false,"time":6,"i_lat":-6.354349,"station_id":"CJT","station_name":"Cilejit","transit":false,"i_long":106.508482,"line":3},{"distance":7025,"transit":false,"line":6,"i_lat":-6.3441410000000005,"station_name":"Parung Panjang","i_long":106.568863,"station_id":"PRP","is_transit":false,"time":9},{"line":3,"station_id":"CC","station_name":"Cicayur","i_lat":-6.329547,"i_long":106.617853,"distance":5968,"transit":false,"time":8,"is_transit":false},{"is_transit":false,"line":3,"distance":2519,"station_name":"Cisauk","i_lat":-6.32484,"transit":false,"i_long":106.640411,"time":4,"station_id":"CSK"},{"transit":false,"i_lat":-6.319871,"station_name":"Serpong","distance":1784,"is_transit":false,"line":6,"station_id":"SRP","i_long":106.66566,"time":4},{"line":6,"station_name":"Rawa Buntu","i_long":106.675475,"i_lat":-6.314823,"transit":false,"station_id":"RU","distance":2413,"time":4,"is_transit":false},{"transit":false,"time":6,"distance":4566,"station_name":"Sudimara","station_id":"SDM","i_lat":-6.296963,"is_transit":false,"i_long":106.712277,"line":6}]]}