{"data":[[{"time":0,"transit":false,"station_name":"Tigaraksa","i_long":106.425991,"line":6,"distance":0,"is_transit":false,"i_lat":-6.328533,"station_id":"TGS"},{"transit":false,"line":6,"is_transit":false,"station_id":"TEJ","i_lat":-6.327251,"time":5,"i_long":106.460812,"distance":2974,"station_name":"Tenjo"},{"distance":3902,"transit":false,"station_name":"Daru","line":0,"is_transit":false,"i_lat":-6.338021,"i_long":106.491338,"station_id":"DAR","time":5},{"i_lat":-6.354349,"i_long":106.508482,"line":3,"distance":2675,"time":6,"station_id":"CJT","station_name":"Cilejit","is_transit":false,"transit":false},{"station_id":"PRP","i_lat":-6.3441410000000005,"transit":false,"distance":7025,"line":6,"is_transit":false,"time":9,"i_long":106.568863,"station_name":"Parung Panjang"},{"is_transit":false,"time":8,"transit":false,"station_name":"Cicayur","i_lat":-6.329547,"i_long":106.617853,"station_id":"CC","line":3,"distance":5968},{"transit":false,"time":4,"station_name":"Cisauk","i_lat":-6.32484,"i_long":106.640411,"line":3,"is_transit":false,"station_id":"CSK","distance":2519},{"line":6,"i_lat":-6.319871,"i_long":106.66566,"distance":1784,"station_id":"SRP","station_name":"Serpong","time":4,"is_transit":false,"transit":false},{"time":4,"distance":2413,"is_transit":false,"transit":false,"station_name":"Rawa Buntu","i_lat":-6.314823,"i_long":106.675475,"line":6,"station_id":"RU"},{"station_name":"Sudimara","transit":false,"i_long":106.712277,"time":6,"is_transit":false,"distance":4566,"station_id":"SDM","i_lat":-6.296963,"line":6},{"i_long":106.728916,"is_transit":false,"station_id":"JMU","i_lat":-6.288927,"distance":1994,"transit":false,"station_name":"Jurangmangu","line":6,"time":4},{"line":6,"is_transit":false,"time":3,"station_id":"PDJ","transit":false,"i_long":106.74273,"i_lat":-6.276362,"distance":2179,"station_name":"Pondokranji"},{"station_name":"Kebayoran","i_long":106.780334,"is_transit":false,"distance":6218,"time":8,"station_id":"KBY","line":6,"transit":false,"i_lat":-6.237242},{"is_transit":false,"distance":3737,"time":7,"line":6,"station_name":"Palmerah","station_id":"PLM","transit":false,"i_lat":-6.207404,"i_long":106.79689},{"station_name":"Tanah Abang","distance":3191,"time":6,"station_id":"THB","is_transit":true,"transit":true,"line":1,"i_lat":-6.185545,"i_long":106.811091},{"station_name":"Karet","is_transit":false,"distance":2029,"transit":false,"time":5,"i_lat":-6.20132,"i_long":106.816351,"line":1,"station_id":"KAT"},{"station_name":"Sudirman Baru","is_transit":false,"i_long":106.819881,"distance":471,"time":1,"transit":false,"i_lat":-6.201433,"station_id":"SUDB","line":1},{"i_long":106.822649,"line":1,"transit":false,"distance":280,"i_lat":-6.202263,"station_name":"Sudirman","time":1,"is_transit":false,"station_id":"SUD"},{"line":2,"transit":false,"distance":3186,"time":4,"i_lat":-6.209883,"i_long":106.84912,"is_transit":false,"station_id":"MRI","station_name":"Manggarai"},{"station_id":"MTR","station_name":"Matraman","line":1,"i_long":106.858896,"is_transit":false,"time":2,"distance":1275,"transit":false,"i_lat":-6.212485}],[{"station_id":"TGS","station_name":"Tigaraksa","is_transit":false,"distance":0,"transit":false,"i_lat":-6.328533,"i_long":106.425991,"line":6,"time":0},{"station_id":"TEJ","distance":2974,"i_long":106.460812,"station_name":"Tenjo","line":6,"is_transit":false,"i_lat":-6.327251,"transit":false,"time":5},{"is_transit":false,"time":5,"distance":3902,"station_name":"Daru","line":0,"transit":false,"i_long":106.491338,"station_id":"DAR","i_lat":-6.338021},{"time":6,"transit":false,"distance":2675,"line":3,"station_id":"CJT","i_lat":-6.354349,"is_transit":false,"station_name":"Cilejit","i_long":106.508482},{"line":6,"time":9,"transit":false,"station_id":"PRP","i_lat":-6.3441410000000005,"is_transit":false,"distance":7025,"station_name":"Parung Panjang","i_long":106.568863},{"transit":false,"line":3,"distance":5968,"station_id":"CC","i_lat":-6.329547,"station_name":"Cicayur","time":8,"is_transit":false,"i_long":106.617853},{"time":4,"distance":2519,"station_id":"CSK","station_name":"Cisauk","i_lat":-6.32484,"is_transit":false,"transit":false,"line":3,"i_long":106.640411},{"distance":1784,"station_name":"Serpong","transit":false,"line":6,"is_transit":false,"station_id":"SRP","i_long":106.66566,"i_lat":-6.319871,"time":4},{"station_name":"Rawa Buntu","is_transit":false,"station_id":"RU","i_lat":-6.314823,"line":6,"distance":2413,"transit":false,"i_long":106.675475,"time":4},{"is_transit":false,"station_id":"SDM","transit":false,"time":6,"station_name":"Sudimara","i_long":106.712277,"line":6,"i_lat":-6.296963,"distance":4566},{"is_transit":false,"transit":false,"i_lat":-6.288927,"time":4,"i_long":106.728916,"line":6,"distance":1994,"station_name":"Jurangmangu","station_id":"JMU"},{"station_name":"Pondokranji","distance":2179,"is_transit":false,"time":3,"i_long":106.74273,"i_lat":-6.276362,"line":6,"station_id":"PDJ","transit":false},{"i_lat":-6.237242,"is_transit":false,"station_id":"KBY","station_name":"Kebayoran","i_long":106.780334,"transit":false,"line":6,"time":8,"distance":6218},{"transit":false,"station_name":"Palmerah","i_long":106.79689,"is_transit":false,"time":7,"station_id":"PLM","distance":3737,"i_lat":-6.207404,"line":6},{"station_name":"Tanah Abang","time":6,"transit":true,"line":1,"is_transit":true,"i_long":106.811091,"i_lat":-6.185545,"distance":3191,"station_id":"THB"},{"is_transit":false,"station_id":"DU","i_long":106.800832,"distance":3632,"time":8,"i_lat":-6.155215,"line":1,"station_name":"Duri","transit":false},{"line":1,"station_id":"AK","transit":false,"i_lat":-6.144674,"time":4,"is_transit":false,"distance":1230,"i_long":106.79867,"station_name":"Angke"},{"station_id":"KPB","transit":true,"time":9,"i_long":106.826365,"line":4,"distance":4102,"is_transit":true,"station_name":"Kampung Bandan","i_lat":-6.132549},{"is_transit":false,"station_name":"Rajawali","transit":false,"i_lat":-6.14505,"time":3,"distance":1444,"line":11,"station_id":"RJW","i_long":106.836569},{"line":11,"is_transit":false,"distance":1901,"time":5,"station_name":"Kemayoran","transit":false,"i_long":106.839204,"station_id":"KMO","i_lat":-6.161728},{"i_long":106.84368,"line":11,"distance":1436,"station_name":"Pasar Senen","transit":false,"i_lat":-6.174784,"is_transit":false,"time":4,"station_id":"PSE"},{"i_long":106.850107,"station_name":"Gang Sentiong","station_id":"GST","transit":false,"i_lat":-6.185975,"distance":1567,"is_transit":false,"time":8,"line":11},{"station_id":"KMT","time":1,"i_long":106.855437,"is_transit":false,"transit":false,"line":11,"distance":973,"station_name":"Kramat","i_lat":-6.193792},{"i_lat":-6.209188,"time":2,"line":11,"i_long":106.861737,"is_transit":false,"station_id":"POK","station_name":"Pondok Jati","distance":1829,"transit":false},{"is_transit":true,"distance":1236,"station_name":"Jatinegara","transit":true,"line":1,"time":9,"i_long":106.86807400000001,"station_id":"JNG","i_lat":-6.215091},{"i_long":106.858896,"station_name":"Matraman","distance":1377,"station_id":"MTR","line":1,"is_transit":false,"transit":false,"time":2,"i_lat":-6.212485}],[{"is_transit":false,"station_id":"TGS","station_name":"Tigaraksa","i_long":106.425991,"time":0,"distance":0,"transit":false,"line":6,"i_lat":-6.328533},{"transit":false,"is_transit":false,"station_id":"TEJ","time":5,"i_lat":-6.327251,"line":6,"station_name":"Tenjo","distance":2974,"i_long":106.460812},{"i_lat":-6.338021,"is_transit":false,"station_id":"DAR","station_name":"Daru","line":0,"time":5,"distance":3902,"transit":false,"i_long":106.491338},{"station_name":"Cilejit","time":6,"i_long":106.508482,"station_id":"CJT","line":3,"transit":false,"distance":2675,"i_lat":-6.354349,"is_transit":false},{"i_lat":-6.3441410000000005,"is_transit":false,"i_long":106.568863,"line":6,"station_id":"PRP","distance":7025,"transit":false,"time":9,"station_name":"Parung Panjang"},{"distance":5968,"i_long":106.617853,"is_transit":false,"station_name":"Cicayur","station_id":"CC","i_lat":-6.329547,"line":3,"transit":false,"time":8},{"transit":false,"i_long":106.640411,"station_name":"Cisauk","is_transit":false,"station_id":"CSK","distance":2519,"i_lat":-6.32484,"line":3,"time":4},{"transit":false,"distance":1784,"time":4,"line":6,"i_lat":-6.319871,"station_name":"Serpong","station_id":"SRP","i_long":106.66566,"is_transit":false},{"station_id":"RU","station_name":"Rawa Buntu","transit":false,"line":6,"i_long":106.675475,"i_lat":-6.314823,"is_transit":false,"time":4,"distance":2413},{"i_long":106.712277,"station_name":"Sudimara","transit":false,"line":6,"i_lat":-6.296963,"station_id":"SDM","distance":4566,"time":6,"is_transit":false},{"station_name":"Jurangmangu","station_id":"JMU","i_lat":-6.288927,"i_long":106.728916,"transit":false,"is_transit":false,"distance":1994,"time":4,"line":6},{"line":6,"time":3,"station_name":"Pondokranji","station_id":"PDJ","i_long":106.74273,"transit":false,"distance":2179,"is_transit":false,"i_lat":-6.276362},{"line":6,"station_id":"KBY","time":8,"distance":6218,"is_transit":false,"station_name":"Kebayoran","transit":false,"i_long":106.780334,"i_lat":-6.237242},{"line":6,"distance":3737,"station_id":"PLM","i_lat":-6.207404,"station_name":"Palmerah","transit":false,"time":7,"is_transit":false,"i_long":106.79689},{"line":1,"distance":3191,"station_id":"THB","is_transit":true,"transit":true,"time":6,"i_long":106.811091,"station_name":"Tanah Abang","i_lat":-6.185545},{"time":8,"station_id":"DU","i_long":106.800832,"line":1,"is_transit":false,"transit":false,"distance":3632,"station_name":"Duri","i_lat":-6.155215},{"time":4,"i_long":106.79867,"transit":false,"i_lat":-6.144674,"is_transit":false,"station_name":"Angke","station_id":"AK","line":1,"distance":1230},{"i_long":106.826365,"line":4,"transit":true,"time":9,"is_transit":true,"station_id":"KPB","i_lat":-6.132549,"station_name":"Kampung Bandan","distance":4102},{"station_name":"Jakarta Kota","i_long":106.812439,"i_lat":-6.137569,"time":3,"is_transit":true,"station_id":"JAKK","transit":true,"distance":1364,"line":2},{"station_name":"Jayakarta","i_lat":-6.141205,"i_long":106.820901,"line":2,"transit":false,"time":4,"is_transit":false,"distance":1264,"station_id":"JAY"},{"transit":false,"station_name":"Manggabesar","distance":1080,"is_transit":false,"i_lat":-6.149769,"line":2,"time":2,"station_id":"MGB","i_long":106.82482},{"line":2,"time":2,"is_transit":false,"transit":false,"station_id":"SW","i_lat":-6.160725,"distance":906,"i_long":106.827103,"station_name":"Sawah Besar"},{"distance":1149,"is_transit":false,"station_id":"JUA","i_lat":-6.166716,"line":2,"time":2,"i_long":106.828284,"station_name":"Juanda","transit":false},{"i_long":106.832183,"station_id":"GDD","is_transit":false,"station_name":"Gondangdia","i_lat":-6.186295,"line":2,"time":4,"distance":2015,"transit":false},{"is_transit":false,"time":3,"i_long":106.840169,"i_lat":-6.198556,"station_name":"Cikini","station_id":"CKI","transit":false,"distance":1750,"line":2},{"time":4,"station_name":"Manggarai","distance":1590,"i_lat":-6.209883,"transit":true,"line":2,"i_long":106.84912,"is_transit":true,"station_id":"MRI"},{"i_lat":-6.212485,"transit":false,"is_transit":false,"i_long":106.858896,"station_id":"MTR","line":1,"station_name":"Matraman","time":2,"distance":1275}],[{"i_lat":-6.328533,"i_long":106.425991,"station_name":"Tigaraksa","is_transit":false,"transit":false,"line":6,"station_id":"TGS","time":0,"distance":0},{"station_id":"TEJ","is_transit":false,"distance":2974,"time":5,"i_lat":-6.327251,"i_long":106.460812,"line":6,"station_name":"Tenjo","transit":false},{"line":0,"transit":false,"station_name":"Daru","is_transit":false,"i_lat":-6.338021,"station_id":"DAR","time":5,"i_long":106.491338,"distance":3902},{"time":6,"transit":false,"is_transit":false,"i_lat":-6.354349,"i_long":106.508482,"station_id":"CJT","line":3,"distance":2675,"station_name":"Cilejit"},{"is_transit":false,"station_name":"Parung Panjang","time":9,"transit":false,"station_id":"PRP","i_long":106.568863,"distance":7025,"i_lat":-6.3441410000000005,"line":6},{"line":3,"is_transit":false,"time":8,"station_name":"Cicayur","transit":false,"i_lat":-6.329547,"i_long":106.617853,"distance":5968,"station_id":"CC"},{"station_id":"CSK","transit":false,"i_lat":-6.32484,"line":3,"is_transit":false,"station_name":"Cisauk","distance":2519,"i_long":106.640411,"time":4},{"station_name":"Serpong","transit":false,"i_long":106.66566,"i_lat":-6.319871,"time":4,"station_id":"SRP","distance":1784,"is_transit":false,"line":6},{"distance":2413,"station_id":"RU","transit":false,"station_name":"Rawa Buntu","is_transit":false,"i_lat":-6.314823,"time":4,"i_long":106.675475,"line":6},{"line":6,"time":6,"distance":4566,"i_lat":-6.296963,"is_transit":false,"i_long":106.712277,"transit":false,"station_id":"SDM","station_name":"Sudimara"},{"transit":false,"distance":1994,"line":6,"station_name":"Jurangmangu","time":4,"i_lat":-6.288927,"i_long":106.728916,"station_id":"JMU","is_transit":false},{"time":3,"i_long":106.74273,"is_transit":false,"station_name":"Pondokranji","transit":false,"station_id":"PDJ","i_lat":-6.276362,"line":6,"distance":2179},{"i_long":106.780334,"station_id":"KBY","time":8,"transit":false,"i_lat":-6.237242,"is_transit":false,"line":6,"distance":6218,"station_name":"Kebayoran"},{"is_transit":false,"transit":false,"i_lat":-6.207404,"i_long":106.79689,"station_id":"PLM","station_name":"Palmerah","time":7,"distance":3737,"line":6},{"transit":true,"i_long":106.811091,"is_transit":true,"station_id":"THB","time":6,"i_lat":-6.185545,"line":1,"station_name":"Tanah Abang","distance":3191},{"i_lat":-6.20132,"transit":false,"station_name":"Karet","i_long":106.816351,"line":1,"station_id":"KAT","is_transit":false,"distance":2029,"time":5},{"i_lat":-6.201433,"i_long":106.819881,"is_transit":false,"distance":471,"station_name":"Sudirman Baru","transit":false,"line":1,"time":1,"station_id":"SUDB"},{"line":1,"time":1,"station_id":"SUD","transit":false,"station_name":"Sudirman","i_long":106.822649,"is_transit":false,"distance":280,"i_lat":-6.202263},{"line":2,"station_name":"Manggarai","i_lat":-6.209883,"i_long":106.84912,"distance":3186,"time":4,"transit":true,"is_transit":true,"station_id":"MRI"},{"station_name":"Cikini","i_long":106.840169,"time":4,"is_transit":false,"i_lat":-6.198556,"line":2,"distance":1590,"station_id":"CKI","transit":false},{"i_long":106.832183,"station_name":"Gondangdia","station_id":"GDD","line":2,"i_lat":-6.186295,"distance":1750,"time":3,"transit":false,"is_transit":false},{"transit":false,"i_long":106.828284,"distance":2015,"station_id":"JUA","i_lat":-6.166716,"is_transit":false,"time":4,"station_name":"Juanda","line":2},{"transit":false,"line":2,"station_id":"SW","station_name":"Sawah Besar","i_lat":-6.160725,"i_long":106.827103,"time":2,"distance":1149,"is_transit":false},{"time":2,"station_id":"MGB","is_transit":false,"i_lat":-6.149769,"i_long":106.82482,"station_name":"Manggabesar","line":2,"distance":906,"transit":false},{"line":2,"time":2,"i_lat":-6.141205,"station_name":"Jayakarta","i_long":106.820901,"is_transit":false,"station_id":"JAY","transit":false,"distance":1080},{"station_id":"JAKK","line":2,"is_transit":true,"i_lat":-6.137569,"distance":1264,"i_long":106.812439,"time":4,"transit":true,"station_name":"Jakarta Kota"},{"station_name":"Kampung Bandan","distance":1364,"line":4,"time":3,"is_transit":true,"station_id":"KPB","transit":true,"i_long":106.826365,"i_lat":-6.132549},{"distance":1444,"i_lat":-6.14505,"line":11,"transit":false,"time":3,"i_long":106.836569,"station_name":"Rajawali","is_transit":false,"station_id":"RJW"},{"station_id":"KMO","i_lat":-6.161728,"i_long":106.839204,"transit":false,"is_transit":false,"station_name":"Kemayoran","line":11,"time":5,"distance":1901},{"is_transit":false,"i_lat":-6.174784,"station_id":"PSE","i_long":106.84368,"station_name":"Pasar Senen","distance":1436,"line":11,"time":4,"transit":false},{"is_transit":false,"station_name":"Gang Sentiong","transit":false,"time":8,"i_long":106.850107,"distance":1567,"station_id":"GST","i_lat":-6.185975,"line":11},{"station_id":"KMT","transit":false,"i_lat":-6.193792,"line":11,"i_long":106.855437,"is_transit":false,"distance":973,"station_name":"Kramat","time":1},{"transit":false,"i_long":106.861737,"station_name":"Pondok Jati","station_id":"POK","line":11,"i_lat":-6.209188,"time":2,"distance":1829,"is_transit":false},{"i_lat":-6.215091,"line":1,"i_long":106.86807400000001,"station_name":"Jatinegara","time":9,"distance":1236,"is_transit":true,"station_id":"JNG","transit":true},{"transit":false,"i_lat":-6.212485,"station_id":"MTR","distance":1377,"line":1,"is_transit":false,"i_long":106.858896,"station_name":"Matraman","time":2}]]}