{"data":[[{"line":6,"is_transit":false,"time":0,"distance":0,"station_id":"TGS","station_name":"Tigaraksa","transit":false,"i_lat":-6.328533,"i_long":106.425991},{"time":5,"distance":2974,"transit":false,"i_lat":-6.327251,"station_id":"TEJ","is_transit":false,"i_long":106.460812,"line":6,"station_name":"Tenjo"},{"is_transit":false,"transit":false,"i_lat":-6.338021,"time":5,"line":0,"station_name":"Daru","station_id":"DAR","i_long":106.491338,"distance":3902},{"distance":2675,"i_long":106.508482,"time":6,"is_transit":false,"i_lat":-6.354349,"transit":false,"station_name":"Cilejit","line":3,"station_id":"CJT"},{"line":6,"is_transit":false,"station_id":"PRP","i_lat":-6.3441410000000005,"transit":false,"i_long":106.568863,"station_name":"Parung Panjang","time":9,"distance":7025},{"station_id":"CC","distance":5968,"is_transit":false,"i_long":106.617853,"line":3,"time":8,"station_name":"Cicayur","transit":false,"i_lat":-6.329547},{"station_name":"Cisauk","time":4,"i_long":106.640411,"transit":false,"distance":2519,"i_lat":-6.32484,"station_id":"CSK","line":3,"is_transit":false},{"station_name":"Serpong","distance":1784,"is_transit":false,"station_id":"SRP","line":6,"i_lat":-6.319871,"time":4,"i_long":106.66566,"transit":false},{"transit":false,"station_name":"Rawa Buntu","i_long":106.675475,"line":6,"distance":2413,"station_id":"RU","is_transit":false,"i_lat":-6.314823,"time":4},{"station_id":"SDM","distance":4566,"i_long":106.712277,"line":6,"transit":false,"station_name":"Sudimara","time":6,"i_lat":-6.296963,"is_transit":false},{"i_lat":-6.288927,"line":6,"is_transit":false,"distance":1994,"station_name":"Jurangmangu","station_id":"JMU","transit":false,"i_long":106.728916,"time":4},{"line":6,"i_lat":-6.276362,"distance":2179,"i_long":106.74273,"is_transit":false,"station_name":"Pondokranji","transit":false,"time":3,"station_id":"PDJ"},{"station_name":"Kebayoran","time":8,"i_long":106.780334,"line":6,"distance":6218,"transit":false,"station_id":"KBY","is_transit":false,"i_lat":-6.237242},{"time":7,"is_transit":false,"distance":3737,"station_name":"Palmerah","station_id":"PLM","transit":false,"i_long":106.79689,"line":6,"i_lat":-6.207404},{"time":6,"distance":3191,"station_id":"THB","transit":true,"station_name":"Tanah Abang","i_lat":-6.185545,"i_long":106.811091,"is_transit":true,"line":1},{"distance":3632,"i_lat":-6.155215,"line":1,"station_id":"DU","i_long":106.800832,"transit":true,"station_name":"Duri","is_transit":true,"time":8},{"distance":1700,"time":3,"is_transit":false,"station_name":"Grogol","i_long":106.788277,"station_id":"GGL","line":5,"i_lat":-6.162021,"transit":false},{"transit":false,"distance":2036,"time":2,"line":5,"station_name":"Pesing","station_id":"PSG","i_long":106.771379,"i_lat":-6.161433,"is_transit":false},{"i_lat":-6.1587309999999995,"i_long":106.756522,"line":5,"is_transit":false,"distance":1614,"station_name":"Taman Kota","transit":false,"station_id":"TKO","time":2},{"station_id":"BOI","line":5,"station_name":"Bojongindah","is_transit":false,"time":2,"transit":false,"distance":2334,"i_lat":-6.159876,"i_long":106.737035},{"station_id":"RW","is_transit":false,"line":5,"i_lat":-6.162758,"distance":1152,"station_name":"Rawa Buaya","time":4,"i_long":106.723064,"transit":false},{"time":3,"i_long":106.701612,"is_transit":false,"station_id":"KDS","station_name":"Kalideres","transit":false,"distance":2504,"i_lat":-6.166068,"line":5}],[{"station_name":"Tigaraksa","is_transit":false,"line":6,"station_id":"TGS","time":0,"transit":false,"i_lat":-6.328533,"distance":0,"i_long":106.425991},{"transit":false,"distance":2974,"time":5,"i_long":106.460812,"line":6,"station_id":"TEJ","station_name":"Tenjo","is_transit":false,"i_lat":-6.327251},{"transit":false,"station_id":"DAR","is_transit":false,"time":5,"distance":3902,"line":0,"i_lat":-6.338021,"station_name":"Daru","i_long":106.491338},{"station_name":"Cilejit","is_transit":false,"distance":2675,"i_long":106.508482,"i_lat":-6.354349,"line":3,"transit":false,"time":6,"station_id":"CJT"},{"i_lat":-6.3441410000000005,"time":9,"station_name":"Parung Panjang","is_transit":false,"station_id":"PRP","transit":false,"i_long":106.568863,"line":6,"distance":7025},{"time":8,"station_id":"CC","i_lat":-6.329547,"transit":false,"line":3,"station_name":"Cicayur","distance":5968,"is_transit":false,"i_long":106.617853},{"distance":2519,"is_transit":false,"i_long":106.640411,"transit":false,"station_name":"Cisauk","time":4,"station_id":"CSK","line":3,"i_lat":-6.32484},{"distance":1784,"time":4,"transit":false,"station_name":"Serpong","station_id":"SRP","line":6,"i_lat":-6.319871,"i_long":106.66566,"is_transit":false},{"i_long":106.675475,"transit":false,"time":4,"distance":2413,"line":6,"station_name":"Rawa Buntu","is_transit":false,"station_id":"RU","i_lat":-6.314823},{"transit":false,"is_transit":false,"distance":4566,"i_lat":-6.296963,"time":6,"i_long":106.712277,"line":6,"station_id":"SDM","station_name":"Sudimara"},{"i_long":106.728916,"station_id":"JMU","line":6,"station_name":"Jurangmangu","time":4,"is_transit":false,"transit":false,"i_lat":-6.288927,"distance":1994},{"station_id":"PDJ","i_lat":-6.276362,"is_transit":false,"time":3,"i_long":106.74273,"station_name":"Pondokranji","transit":false,"distance":2179,"line":6},{"transit":false,"station_id":"KBY","station_name":"Kebayoran","is_transit":false,"time":8,"distance":6218,"i_lat":-6.237242,"i_long":106.780334,"line":6},{"is_transit":false,"i_long":106.79689,"time":7,"distance":3737,"line":6,"station_name":"Palmerah","transit":false,"i_lat":-6.207404,"station_id":"PLM"},{"station_name":"Tanah Abang","is_transit":true,"distance":3191,"time":6,"i_long":106.811091,"line":1,"transit":true,"station_id":"THB","i_lat":-6.185545},{"i_lat":-6.20132,"line":1,"station_id":"KAT","time":5,"station_name":"Karet","distance":2029,"transit":false,"i_long":106.816351,"is_transit":false},{"i_long":106.819881,"is_transit":false,"station_id":"SUDB","station_name":"Sudirman Baru","distance":471,"transit":false,"i_lat":-6.201433,"time":1,"line":1},{"i_lat":-6.202263,"i_long":106.822649,"distance":280,"time":1,"is_transit":false,"station_name":"Sudirman","station_id":"SUD","line":1,"transit":false},{"is_transit":true,"transit":true,"distance":3186,"i_long":106.84912,"station_name":"Manggarai","station_id":"MRI","time":4,"i_lat":-6.209883,"line":2},{"i_lat":-6.198556,"is_transit":false,"station_name":"Cikini","distance":1590,"line":2,"i_long":106.840169,"transit":false,"station_id":"CKI","time":4},{"station_name":"Gondangdia","distance":1750,"station_id":"GDD","i_lat":-6.186295,"transit":false,"is_transit":false,"time":3,"line":2,"i_long":106.832183},{"transit":false,"is_transit":false,"time":4,"station_name":"Juanda","i_lat":-6.166716,"i_long":106.828284,"station_id":"JUA","distance":2015,"line":2},{"station_id":"SW","i_lat":-6.160725,"distance":1149,"i_long":106.827103,"is_transit":false,"line":2,"station_name":"Sawah Besar","transit":false,"time":2},{"time":2,"is_transit":false,"station_name":"Manggabesar","i_long":106.82482,"station_id":"MGB","distance":906,"transit":false,"i_lat":-6.149769,"line":2},{"line":2,"distance":1080,"is_transit":false,"transit":false,"time":2,"station_name":"Jayakarta","i_lat":-6.141205,"station_id":"JAY","i_long":106.820901},{"station_name":"Jakarta Kota","i_long":106.812439,"is_transit":true,"transit":true,"time":4,"i_lat":-6.137569,"distance":1264,"station_id":"JAKK","line":2},{"transit":true,"is_transit":true,"i_lat":-6.132549,"line":4,"station_name":"Kampung Bandan","i_long":106.826365,"station_id":"KPB","time":3,"distance":1364},{"station_name":"Angke","is_transit":false,"distance":4102,"time":9,"station_id":"AK","i_lat":-6.144674,"i_long":106.79867,"line":1,"transit":false},{"time":4,"station_name":"Duri","station_id":"DU","i_long":106.800832,"is_transit":true,"distance":1230,"i_lat":-6.155215,"line":1,"transit":true},{"station_id":"GGL","is_transit":false,"i_lat":-6.162021,"station_name":"Grogol","line":5,"time":3,"distance":1700,"i_long":106.788277,"transit":false},{"station_name":"Pesing","station_id":"PSG","i_lat":-6.161433,"transit":false,"time":2,"i_long":106.771379,"distance":2036,"line":5,"is_transit":false},{"station_id":"TKO","transit":false,"distance":1614,"i_lat":-6.1587309999999995,"line":5,"time":2,"i_long":106.756522,"is_transit":false,"station_name":"Taman Kota"},{"time":2,"i_long":106.737035,"distance":2334,"line":5,"station_id":"BOI","i_lat":-6.159876,"transit":false,"is_transit":false,"station_name":"Bojongindah"},{"line":5,"station_name":"Rawa Buaya","i_long":106.723064,"time":4,"i_lat":-6.162758,"transit":false,"station_id":"RW","is_transit":false,"distance":1152},{"i_long":106.701612,"station_id":"KDS","transit":false,"is_transit":false,"station_name":"Kalideres","distance":2504,"i_lat":-6.166068,"line":5,"time":3}],[{"line":6,"time":0,"i_lat":-6.328533,"transit":false,"distance":0,"i_long":106.425991,"is_transit":false,"station_name":"Tigaraksa","station_id":"TGS"},{"station_name":"Tenjo","distance":2974,"station_id":"TEJ","time":5,"line":6,"transit":false,"is_transit":false,"i_lat":-6.327251,"i_long":106.460812},{"distance":3902,"time":5,"transit":false,"station_id":"DAR","i_long":106.491338,"is_transit":false,"i_lat":-6.338021,"line":0,"station_name":"Daru"},{"is_transit":false,"station_name":"Cilejit","station_id":"CJT","transit":false,"i_lat":-6.354349,"i_long":106.508482,"time":6,"distance":2675,"line":3},{"i_long":106.568863,"transit":false,"distance":7025,"time":9,"is_transit":false,"line":6,"i_lat":-6.3441410000000005,"station_id":"PRP","station_name":"Parung Panjang"},{"i_long":106.617853,"station_id":"CC","time":8,"station_name":"Cicayur","line":3,"is_transit":false,"distance":5968,"i_lat":-6.329547,"transit":false},{"time":4,"station_name":"Cisauk","station_id":"CSK","distance":2519,"line":3,"transit":false,"i_lat":-6.32484,"i_long":106.640411,"is_transit":false},{"is_transit":false,"line":6,"station_id":"SRP","time":4,"i_lat":-6.319871,"transit":false,"i_long":106.66566,"distance":1784,"station_name":"Serpong"},{"station_id":"RU","distance":2413,"i_lat":-6.314823,"i_long":106.675475,"line":6,"transit":false,"station_name":"Rawa Buntu","time":4,"is_transit":false},{"i_long":106.712277,"is_transit":false,"transit":false,"station_name":"Sudimara","i_lat":-6.296963,"distance":4566,"station_id":"SDM","line":6,"time":6},{"is_transit":false,"i_long":106.728916,"line":6,"time":4,"station_name":"Jurangmangu","distance":1994,"transit":false,"station_id":"JMU","i_lat":-6.288927},{"time":3,"line":6,"is_transit":false,"station_name":"Pondokranji","i_lat":-6.276362,"i_long":106.74273,"distance":2179,"transit":false,"station_id":"PDJ"},{"i_long":106.780334,"distance":6218,"transit":false,"line":6,"station_name":"Kebayoran","station_id":"KBY","is_transit":false,"i_lat":-6.237242,"time":8},{"distance":3737,"line":6,"transit":false,"station_name":"Palmerah","i_lat":-6.207404,"i_long":106.79689,"time":7,"is_transit":false,"station_id":"PLM"},{"station_id":"THB","transit":true,"line":1,"i_long":106.811091,"distance":3191,"is_transit":true,"i_lat":-6.185545,"time":6,"station_name":"Tanah Abang"},{"station_id":"KAT","is_transit":false,"station_name":"Karet","distance":2029,"i_long":106.816351,"line":1,"transit":false,"time":5,"i_lat":-6.20132},{"transit":false,"is_transit":false,"time":1,"line":1,"station_name":"Sudirman Baru","distance":471,"i_lat":-6.201433,"station_id":"SUDB","i_long":106.819881},{"station_name":"Sudirman","station_id":"SUD","i_lat":-6.202263,"distance":280,"i_long":106.822649,"line":1,"transit":false,"is_transit":false,"time":1},{"is_transit":false,"i_lat":-6.209883,"transit":false,"time":4,"i_long":106.84912,"line":2,"station_name":"Manggarai","station_id":"MRI","distance":3186},{"time":2,"i_lat":-6.212485,"i_long":106.858896,"transit":false,"distance":1275,"line":1,"station_name":"Matraman","is_transit":false,"station_id":"MTR"},{"station_name":"Jatinegara","station_id":"JNG","i_lat":-6.215091,"is_transit":true,"transit":true,"distance":1377,"i_long":106.86807400000001,"line":1,"time":8},{"station_name":"Pondok Jati","station_id":"POK","line":11,"is_transit":false,"i_long":106.861737,"distance":1236,"time":2,"i_lat":-6.209188,"transit":false},{"station_name":"Kramat","time":2,"distance":1829,"station_id":"KMT","i_long":106.855437,"transit":false,"i_lat":-6.193792,"is_transit":false,"line":11},{"time":1,"transit":false,"station_name":"Gang Sentiong","is_transit":false,"i_lat":-6.185975,"line":11,"distance":973,"station_id":"GST","i_long":106.850107},{"distance":1567,"transit":false,"line":11,"time":8,"i_long":106.84368,"station_name":"Pasar Senen","station_id":"PSE","is_transit":false,"i_lat":-6.174784},{"i_lat":-6.161728,"line":11,"is_transit":false,"i_long":106.839204,"time":4,"transit":false,"station_id":"KMO","station_name":"Kemayoran","distance":1436},{"transit":false,"i_long":106.836569,"line":11,"is_transit":false,"distance":1901,"time":5,"i_lat":-6.14505,"station_name":"Rajawali","station_id":"RJW"},{"distance":1444,"time":3,"is_transit":true,"i_long":106.826365,"line":4,"transit":true,"station_id":"KPB","i_lat":-6.132549,"station_name":"Kampung Bandan"},{"distance":4102,"is_transit":false,"station_name":"Angke","time":9,"transit":false,"station_id":"AK","i_long":106.79867,"i_lat":-6.144674,"line":1},{"time":4,"line":1,"transit":true,"i_lat":-6.155215,"i_long":106.800832,"is_transit":true,"station_name":"Duri","station_id":"DU","distance":1230},{"time":3,"i_lat":-6.162021,"station_name":"Grogol","station_id":"GGL","distance":1700,"i_long":106.788277,"is_transit":false,"line":5,"transit":false},{"is_transit":false,"distance":2036,"i_long":106.771379,"line":5,"i_lat":-6.161433,"transit":false,"station_name":"Pesing","station_id":"PSG","time":2},{"i_lat":-6.1587309999999995,"distance":1614,"i_long":106.756522,"line":5,"transit":false,"time":2,"station_id":"TKO","station_name":"Taman Kota","is_transit":false},{"station_id":"BOI","is_transit":false,"station_name":"Bojongindah","time":2,"distance":2334,"transit":false,"i_lat":-6.159876,"i_long":106.737035,"line":5},{"line":5,"i_long":106.723064,"station_name":"Rawa Buaya","time":4,"station_id":"RW","distance":1152,"transit":false,"i_lat":-6.162758,"is_transit":false},{"line":5,"is_transit":false,"i_lat":-6.166068,"distance":2504,"transit":false,"time":3,"station_name":"Kalideres","station_id":"KDS","i_long":106.701612}]]}