{"data":[[{"distance":0,"i_long":106.425991,"station_id":"TGS","station_name":"Tigaraksa","time":0,"transit":false,"line":6,"is_transit":false,"i_lat":-6.328533},{"transit":false,"distance":2974,"i_lat":-6.327251,"is_transit":false,"i_long":106.460812,"station_id":"TEJ","line":6,"time":5,"station_name":"Tenjo"},{"i_lat":-6.338021,"distance":3902,"station_id":"DAR","line":0,"transit":false,"is_transit":false,"time":5,"station_name":"Daru","i_long":106.491338},{"line":0,"i_lat":-6.354349,"i_long":106.508482,"transit":false,"distance":2675,"station_name":"Cilejit","station_id":"CJT","is_transit":false,"time":6},{"station_name":"Parung Panjang","is_transit":false,"transit":false,"i_long":106.568863,"line":6,"distance":7025,"station_id":"PRP","time":9,"i_lat":-6.3441410000000005},{"distance":5968,"time":8,"transit":false,"line":0,"station_id":"CC","i_long":106.617853,"is_transit":false,"station_name":"Cicayur","i_lat":-6.329547},{"station_id":"CSK","transit":false,"distance":2519,"i_long":106.640411,"station_name":"Cisauk","is_transit":false,"i_lat":-6.32484,"time":4,"line":0},{"distance":1784,"i_long":106.66566,"line":6,"transit":false,"station_name":"Serpong","time":4,"i_lat":-6.319871,"station_id":"SRP","is_transit":false},{"station_name":"Rawa Buntu","i_lat":-6.314823,"is_transit":false,"i_long":106.675475,"transit":false,"distance":2413,"time":4,"station_id":"RU","line":6},{"station_name":"Sudimara","transit":false,"distance":4566,"i_long":106.712277,"station_id":"SDM","line":6,"is_transit":false,"time":6,"i_lat":-6.296963},{"station_id":"JMU","line":6,"time":4,"distance":1994,"station_name":"Jurangmangu","i_long":106.728916,"is_transit":false,"transit":false,"i_lat":-6.288927},{"i_lat":-6.276362,"distance":2179,"transit":false,"time":3,"is_transit":false,"i_long":106.74273,"station_id":"PDJ","line":6,"station_name":"Pondokranji"},{"is_transit":false,"i_lat":-6.237242,"line":6,"station_id":"KBY","station_name":"Kebayoran","time":8,"transit":false,"i_long":106.780334,"distance":6218},{"is_transit":false,"transit":false,"time":7,"station_id":"PLM","station_name":"Palmerah","distance":3737,"i_long":106.79689,"line":6,"i_lat":-6.207404},{"line":1,"is_transit":true,"station_name":"Tanah Abang","distance":3191,"transit":true,"i_long":106.811091,"station_id":"THB","i_lat":-6.185545,"time":6},{"time":8,"i_lat":-6.155215,"station_id":"DU","is_transit":true,"line":1,"station_name":"Duri","transit":true,"i_long":106.800832,"distance":3632},{"is_transit":false,"station_name":"Grogol","time":3,"distance":1700,"i_lat":-6.162021,"i_long":106.788277,"line":5,"transit":false,"station_id":"GGL"},{"i_long":106.771379,"station_name":"Pesing","time":2,"station_id":"PSG","i_lat":-6.161433,"transit":false,"is_transit":false,"line":5,"distance":2036},{"i_lat":-6.1587309999999995,"station_name":"Taman Kota","time":2,"is_transit":false,"distance":1614,"i_long":106.756522,"line":5,"station_id":"TKO","transit":false},{"distance":2334,"station_name":"Bojongindah","i_lat":-6.159876,"time":2,"transit":false,"i_long":106.737035,"line":0,"station_id":"BOI","is_transit":false},{"i_lat":-6.162758,"i_long":106.723064,"transit":false,"distance":1152,"is_transit":false,"station_name":"Rawa Buaya","station_id":"RW","time":4,"line":5},{"transit":false,"station_name":"Kalideres","distance":2504,"i_lat":-6.166068,"time":3,"is_transit":false,"line":5,"station_id":"KDS","i_long":106.701612}],[{"i_lat":-6.328533,"station_name":"Tigaraksa","line":6,"distance":0,"i_long":106.425991,"transit":false,"is_transit":false,"station_id":"TGS","time":0},{"i_lat":-6.327251,"line":6,"i_long":106.460812,"is_transit":false,"station_id":"TEJ","time":5,"transit":false,"station_name":"Tenjo","distance":2974},{"distance":3902,"i_lat":-6.338021,"station_name":"Daru","i_long":106.491338,"line":0,"station_id":"DAR","is_transit":false,"time":5,"transit":false},{"is_transit":false,"station_name":"Cilejit","i_long":106.508482,"transit":false,"i_lat":-6.354349,"distance":2675,"line":0,"time":6,"station_id":"CJT"},{"station_name":"Parung Panjang","distance":7025,"i_lat":-6.3441410000000005,"is_transit":false,"transit":false,"time":9,"station_id":"PRP","i_long":106.568863,"line":6},{"i_long":106.617853,"i_lat":-6.329547,"line":0,"is_transit":false,"station_id":"CC","time":8,"transit":false,"station_name":"Cicayur","distance":5968},{"i_lat":-6.32484,"station_name":"Cisauk","transit":false,"station_id":"CSK","i_long":106.640411,"distance":2519,"time":4,"is_transit":false,"line":0},{"station_name":"Serpong","transit":false,"station_id":"SRP","distance":1784,"i_long":106.66566,"line":6,"is_transit":false,"i_lat":-6.319871,"time":4},{"i_lat":-6.314823,"is_transit":false,"transit":false,"station_name":"Rawa Buntu","station_id":"RU","distance":2413,"line":6,"time":4,"i_long":106.675475},{"is_transit":false,"i_long":106.712277,"station_id":"SDM","distance":4566,"line":6,"time":6,"i_lat":-6.296963,"station_name":"Sudimara","transit":false},{"station_name":"Jurangmangu","transit":false,"i_long":106.728916,"station_id":"JMU","time":4,"i_lat":-6.288927,"line":6,"is_transit":false,"distance":1994},{"station_name":"Pondokranji","line":6,"is_transit":false,"distance":2179,"station_id":"PDJ","i_lat":-6.276362,"time":3,"transit":false,"i_long":106.74273},{"transit":false,"line":6,"time":8,"i_lat":-6.237242,"station_id":"KBY","station_name":"Kebayoran","distance":6218,"is_transit":false,"i_long":106.780334},{"time":7,"distance":3737,"station_name":"Palmerah","is_transit":false,"i_lat":-6.207404,"line":6,"transit":false,"i_long":106.79689,"station_id":"PLM"},{"transit":true,"station_name":"Tanah Abang","distance":3191,"i_lat":-6.185545,"time":6,"i_long":106.811091,"station_id":"THB","line":1,"is_transit":true},{"time":5,"line":1,"is_transit":false,"distance":2029,"i_lat":-6.20132,"transit":false,"i_long":106.816351,"station_name":"Karet","station_id":"KAT"},{"time":1,"transit":false,"i_lat":-6.201433,"i_long":106.819881,"station_name":"Sudirman Baru","distance":471,"line":1,"is_transit":false,"station_id":"SUDB"},{"is_transit":false,"i_long":106.822649,"line":1,"station_id":"SUD","station_name":"Sudirman","time":1,"transit":false,"distance":280,"i_lat":-6.202263},{"i_lat":-6.209883,"station_id":"MRI","is_transit":true,"transit":true,"i_long":106.84912,"line":0,"time":4,"station_name":"Manggarai","distance":3186},{"station_name":"Cikini","i_lat":-6.198556,"line":0,"station_id":"CKI","transit":false,"i_long":106.840169,"is_transit":false,"time":4,"distance":1590},{"i_lat":-6.186295,"line":2,"station_name":"Gondangdia","is_transit":false,"station_id":"GDD","transit":false,"time":3,"distance":1750,"i_long":106.832183},{"station_id":"JUA","is_transit":false,"time":4,"station_name":"Juanda","line":2,"distance":2015,"i_long":106.828284,"i_lat":-6.166716,"transit":false},{"is_transit":false,"time":2,"transit":false,"i_long":106.827103,"station_id":"SW","distance":1149,"station_name":"Sawah Besar","line":2,"i_lat":-6.160725},{"distance":906,"i_long":106.82482,"transit":false,"time":2,"is_transit":false,"station_id":"MGB","line":2,"i_lat":-6.149769,"station_name":"Manggabesar"},{"line":7,"is_transit":false,"station_id":"JAY","distance":1080,"time":2,"i_long":106.820901,"transit":false,"i_lat":-6.141205,"station_name":"Jayakarta"},{"is_transit":true,"distance":1264,"line":0,"i_lat":-6.137569,"time":4,"station_name":"Jakarta Kota","transit":true,"station_id":"JAKK","i_long":106.812439},{"i_lat":-6.132549,"i_long":106.826365,"line":0,"station_name":"Kampung Bandan","transit":false,"station_id":"KPB","time":3,"distance":1364,"is_transit":true},{"transit":false,"station_name":"Angke","distance":4102,"i_lat":-6.144674,"i_long":106.79867,"is_transit":false,"time":9,"line":0,"station_id":"AK"},{"is_transit":true,"distance":1230,"line":1,"time":4,"i_long":106.800832,"station_id":"DU","i_lat":-6.155215,"transit":true,"station_name":"Duri"},{"is_transit":false,"i_lat":-6.162021,"line":5,"station_name":"Grogol","transit":false,"distance":1700,"station_id":"GGL","time":3,"i_long":106.788277},{"i_long":106.771379,"station_id":"PSG","is_transit":false,"distance":2036,"line":5,"time":2,"i_lat":-6.161433,"transit":false,"station_name":"Pesing"},{"i_lat":-6.1587309999999995,"line":5,"transit":false,"distance":1614,"i_long":106.756522,"time":2,"station_id":"TKO","station_name":"Taman Kota","is_transit":false},{"station_id":"BOI","line":0,"transit":false,"time":2,"station_name":"Bojongindah","is_transit":false,"i_long":106.737035,"i_lat":-6.159876,"distance":2334},{"i_long":106.723064,"is_transit":false,"time":4,"i_lat":-6.162758,"transit":false,"line":5,"station_name":"Rawa Buaya","station_id":"RW","distance":1152},{"transit":false,"is_transit":false,"i_lat":-6.166068,"time":3,"i_long":106.701612,"line":5,"station_name":"Kalideres","distance":2504,"station_id":"KDS"}],[{"i_lat":-6.328533,"time":0,"transit":false,"line":6,"distance":0,"is_transit":false,"station_id":"TGS","station_name":"Tigaraksa","i_long":106.425991},{"station_id":"TEJ","station_name":"Tenjo","time":5,"i_lat":-6.327251,"i_long":106.460812,"is_transit":false,"transit":false,"line":6,"distance":2974},{"i_long":106.491338,"station_id":"DAR","line":0,"station_name":"Daru","i_lat":-6.338021,"transit":false,"distance":3902,"time":5,"is_transit":false},{"is_transit":false,"time":6,"transit":false,"distance":2675,"i_lat":-6.354349,"station_id":"CJT","line":0,"station_name":"Cilejit","i_long":106.508482},{"i_lat":-6.3441410000000005,"line":6,"station_id":"PRP","station_name":"Parung Panjang","is_transit":false,"time":9,"distance":7025,"transit":false,"i_long":106.568863},{"station_id":"CC","time":8,"station_name":"Cicayur","transit":false,"i_lat":-6.329547,"i_long":106.617853,"is_transit":false,"line":0,"distance":5968},{"distance":2519,"line":0,"station_id":"CSK","is_transit":false,"station_name":"Cisauk","transit":false,"i_long":106.640411,"time":4,"i_lat":-6.32484},{"station_name":"Serpong","station_id":"SRP","time":4,"transit":false,"distance":1784,"i_lat":-6.319871,"is_transit":false,"line":6,"i_long":106.66566},{"station_id":"RU","transit":false,"distance":2413,"i_lat":-6.314823,"station_name":"Rawa Buntu","i_long":106.675475,"line":6,"is_transit":false,"time":4},{"station_name":"Sudimara","i_lat":-6.296963,"time":6,"line":6,"station_id":"SDM","i_long":106.712277,"distance":4566,"is_transit":false,"transit":false},{"time":4,"i_lat":-6.288927,"station_id":"JMU","distance":1994,"line":6,"station_name":"Jurangmangu","is_transit":false,"transit":false,"i_long":106.728916},{"is_transit":false,"time":3,"i_lat":-6.276362,"station_id":"PDJ","transit":false,"i_long":106.74273,"station_name":"Pondokranji","distance":2179,"line":6},{"station_id":"KBY","distance":6218,"transit":false,"i_long":106.780334,"station_name":"Kebayoran","is_transit":false,"line":6,"time":8,"i_lat":-6.237242},{"time":7,"i_long":106.79689,"distance":3737,"i_lat":-6.207404,"station_name":"Palmerah","transit":false,"station_id":"PLM","is_transit":false,"line":6},{"i_long":106.811091,"station_id":"THB","transit":true,"station_name":"Tanah Abang","time":6,"distance":3191,"i_lat":-6.185545,"line":1,"is_transit":true},{"station_id":"KAT","station_name":"Karet","i_long":106.816351,"line":1,"distance":2029,"i_lat":-6.20132,"is_transit":false,"time":5,"transit":false},{"station_name":"Sudirman Baru","line":1,"i_long":106.819881,"i_lat":-6.201433,"is_transit":false,"time":1,"station_id":"SUDB","transit":false,"distance":471},{"station_name":"Sudirman","transit":false,"station_id":"SUD","line":1,"is_transit":false,"distance":280,"i_lat":-6.202263,"i_long":106.822649,"time":1},{"station_name":"Manggarai","i_lat":-6.209883,"line":0,"station_id":"MRI","transit":false,"is_transit":true,"time":4,"i_long":106.84912,"distance":3186},{"is_transit":false,"distance":1275,"station_name":"Matraman","i_lat":-6.212485,"i_long":106.858896,"transit":false,"station_id":"MTR","line":1,"time":2},{"transit":true,"is_transit":true,"distance":1377,"i_lat":-6.215091,"station_id":"JNG","i_long":106.86807400000001,"station_name":"Jatinegara","time":8,"line":0},{"i_lat":-6.209188,"transit":false,"station_name":"Pondok Jati","i_long":106.861737,"line":11,"is_transit":false,"time":2,"distance":1236,"station_id":"POK"},{"line":11,"distance":1829,"is_transit":false,"station_name":"Kramat","time":2,"station_id":"KMT","i_long":106.855437,"i_lat":-6.193792,"transit":false},{"i_long":106.850107,"line":11,"transit":false,"is_transit":false,"i_lat":-6.185975,"time":1,"station_name":"Gang Sentiong","distance":973,"station_id":"GST"},{"station_name":"Pasar Senen","is_transit":false,"line":11,"distance":1567,"station_id":"PSE","time":8,"i_lat":-6.174784,"i_long":106.84368,"transit":false},{"distance":1436,"i_lat":-6.161728,"station_name":"Kemayoran","is_transit":false,"line":11,"time":4,"i_long":106.839204,"transit":false,"station_id":"KMO"},{"line":11,"i_lat":-6.14505,"time":5,"station_id":"RJW","station_name":"Rajawali","is_transit":false,"transit":false,"distance":1901,"i_long":106.836569},{"is_transit":true,"transit":true,"distance":1444,"i_long":106.826365,"station_name":"Kampung Bandan","station_id":"KPB","line":0,"i_lat":-6.132549,"time":3},{"station_name":"Angke","i_long":106.79867,"time":9,"line":0,"transit":false,"distance":4102,"i_lat":-6.144674,"station_id":"AK","is_transit":false},{"i_lat":-6.155215,"i_long":106.800832,"transit":true,"time":4,"line":1,"station_name":"Duri","distance":1230,"is_transit":true,"station_id":"DU"},{"station_name":"Grogol","i_lat":-6.162021,"time":3,"distance":1700,"is_transit":false,"transit":false,"station_id":"GGL","line":5,"i_long":106.788277},{"i_long":106.771379,"distance":2036,"transit":false,"is_transit":false,"time":2,"line":5,"station_id":"PSG","station_name":"Pesing","i_lat":-6.161433},{"station_id":"TKO","is_transit":false,"transit":false,"time":2,"i_long":106.756522,"station_name":"Taman Kota","line":5,"distance":1614,"i_lat":-6.1587309999999995},{"distance":2334,"station_id":"BOI","is_transit":false,"line":0,"i_lat":-6.159876,"station_name":"Bojongindah","i_long":106.737035,"transit":false,"time":2},{"station_name":"Rawa Buaya","is_transit":false,"transit":false,"distance":1152,"station_id":"RW","i_lat":-6.162758,"time":4,"line":5,"i_long":106.723064},{"transit":false,"station_id":"KDS","distance":2504,"i_lat":-6.166068,"is_transit":false,"time":3,"station_name":"Kalideres","i_long":106.701612,"line":5}]]}