{"data":[[{"station_id":"TGS","is_transit":false,"distance":0,"line":6,"station_name":"Tigaraksa","transit":false,"time":0,"i_long":106.425991,"i_lat":-6.328533},{"is_transit":false,"transit":false,"line":6,"station_name":"Tenjo","distance":2974,"i_lat":-6.327251,"i_long":106.460812,"time":5,"station_id":"TEJ"},{"distance":3902,"station_name":"Daru","time":5,"is_transit":false,"i_lat":-6.338021,"line":0,"transit":false,"i_long":106.491338,"station_id":"DAR"},{"i_lat":-6.354349,"distance":2675,"i_long":106.508482,"transit":false,"station_id":"CJT","line":3,"station_name":"Cilejit","time":6,"is_transit":false},{"line":6,"i_long":106.568863,"distance":7025,"station_id":"PRP","station_name":"Parung Panjang","transit":false,"time":9,"is_transit":false,"i_lat":-6.3441410000000005},{"i_lat":-6.329547,"is_transit":false,"distance":5968,"time":8,"transit":false,"i_long":106.617853,"station_name":"Cicayur","line":3,"station_id":"CC"},{"station_name":"Cisauk","time":4,"is_transit":false,"transit":false,"i_long":106.640411,"line":3,"i_lat":-6.32484,"distance":2519,"station_id":"CSK"},{"i_long":106.66566,"transit":false,"is_transit":false,"i_lat":-6.319871,"time":4,"station_name":"Serpong","line":6,"distance":1784,"station_id":"SRP"},{"line":6,"time":4,"distance":2413,"is_transit":false,"i_long":106.675475,"i_lat":-6.314823,"transit":false,"station_name":"Rawa Buntu","station_id":"RU"},{"transit":false,"is_transit":false,"station_name":"Sudimara","time":6,"i_lat":-6.296963,"line":6,"distance":4566,"i_long":106.712277,"station_id":"SDM"},{"distance":1994,"i_long":106.728916,"is_transit":false,"line":6,"station_id":"JMU","transit":false,"station_name":"Jurangmangu","i_lat":-6.288927,"time":4},{"station_id":"PDJ","distance":2179,"time":3,"line":6,"i_long":106.74273,"station_name":"Pondokranji","transit":false,"is_transit":false,"i_lat":-6.276362},{"i_long":106.780334,"station_name":"Kebayoran","time":8,"is_transit":false,"transit":false,"i_lat":-6.237242,"station_id":"KBY","distance":6218,"line":6},{"time":7,"transit":false,"i_lat":-6.207404,"line":6,"station_id":"PLM","is_transit":false,"i_long":106.79689,"station_name":"Palmerah","distance":3737},{"i_lat":-6.185545,"line":1,"distance":3191,"time":6,"station_name":"Tanah Abang","transit":true,"is_transit":true,"i_long":106.811091,"station_id":"THB"},{"station_name":"Karet","i_lat":-6.20132,"time":5,"transit":false,"i_long":106.816351,"distance":2029,"station_id":"KAT","is_transit":false,"line":1},{"transit":false,"distance":471,"i_lat":-6.201433,"station_id":"SUDB","station_name":"Sudirman Baru","is_transit":false,"time":1,"i_long":106.819881,"line":1},{"i_long":106.822649,"line":1,"station_id":"SUD","distance":280,"i_lat":-6.202263,"is_transit":false,"station_name":"Sudirman","time":1,"transit":false},{"i_long":106.84912,"i_lat":-6.209883,"is_transit":false,"distance":3186,"transit":false,"station_id":"MRI","line":2,"station_name":"Manggarai","time":4},{"station_id":"MTR","i_long":106.858896,"transit":false,"i_lat":-6.212485,"distance":1275,"line":1,"time":2,"is_transit":false,"station_name":"Matraman"},{"distance":1377,"transit":false,"station_id":"JNG","line":1,"i_long":106.86807400000001,"is_transit":false,"i_lat":-6.215091,"station_name":"Jatinegara","time":8},{"transit":false,"i_lat":-6.2135,"station_name":"Klender","i_long":106.899548,"time":3,"station_id":"KLD","is_transit":false,"distance":3395,"line":1}],[{"station_name":"Tigaraksa","distance":0,"is_transit":false,"i_long":106.425991,"time":0,"station_id":"TGS","line":6,"i_lat":-6.328533,"transit":false},{"line":6,"station_name":"Tenjo","is_transit":false,"transit":false,"time":5,"i_lat":-6.327251,"distance":2974,"station_id":"TEJ","i_long":106.460812},{"distance":3902,"i_long":106.491338,"station_name":"Daru","i_lat":-6.338021,"line":0,"transit":false,"station_id":"DAR","is_transit":false,"time":5},{"station_id":"CJT","transit":false,"is_transit":false,"i_lat":-6.354349,"time":6,"distance":2675,"station_name":"Cilejit","line":3,"i_long":106.508482},{"station_id":"PRP","i_lat":-6.3441410000000005,"station_name":"Parung Panjang","i_long":106.568863,"line":6,"time":9,"is_transit":false,"transit":false,"distance":7025},{"is_transit":false,"transit":false,"time":8,"station_id":"CC","station_name":"Cicayur","i_long":106.617853,"i_lat":-6.329547,"line":3,"distance":5968},{"transit":false,"station_name":"Cisauk","i_lat":-6.32484,"distance":2519,"line":3,"time":4,"is_transit":false,"station_id":"CSK","i_long":106.640411},{"distance":1784,"i_lat":-6.319871,"transit":false,"station_name":"Serpong","i_long":106.66566,"time":4,"station_id":"SRP","line":6,"is_transit":false},{"time":4,"station_id":"RU","i_lat":-6.314823,"i_long":106.675475,"is_transit":false,"line":6,"distance":2413,"transit":false,"station_name":"Rawa Buntu"},{"time":6,"transit":false,"station_name":"Sudimara","i_lat":-6.296963,"is_transit":false,"i_long":106.712277,"station_id":"SDM","distance":4566,"line":6},{"is_transit":false,"station_name":"Jurangmangu","station_id":"JMU","time":4,"i_long":106.728916,"i_lat":-6.288927,"line":6,"distance":1994,"transit":false},{"transit":false,"distance":2179,"station_id":"PDJ","i_lat":-6.276362,"time":3,"station_name":"Pondokranji","is_transit":false,"line":6,"i_long":106.74273},{"distance":6218,"i_lat":-6.237242,"transit":false,"station_name":"Kebayoran","i_long":106.780334,"line":6,"is_transit":false,"station_id":"KBY","time":8},{"line":6,"station_name":"Palmerah","time":7,"is_transit":false,"station_id":"PLM","i_lat":-6.207404,"transit":false,"i_long":106.79689,"distance":3737},{"distance":3191,"station_id":"THB","i_long":106.811091,"station_name":"Tanah Abang","line":1,"i_lat":-6.185545,"transit":true,"time":6,"is_transit":true},{"i_long":106.800832,"station_name":"Duri","distance":3632,"is_transit":false,"time":8,"transit":false,"station_id":"DU","i_lat":-6.155215,"line":1},{"station_name":"Angke","is_transit":false,"distance":1230,"i_lat":-6.144674,"i_long":106.79867,"transit":false,"station_id":"AK","time":4,"line":1},{"is_transit":true,"distance":4102,"i_long":106.826365,"transit":true,"i_lat":-6.132549,"line":4,"station_id":"KPB","station_name":"Kampung Bandan","time":9},{"i_lat":-6.14505,"time":3,"station_id":"RJW","transit":false,"distance":1444,"line":11,"station_name":"Rajawali","i_long":106.836569,"is_transit":false},{"transit":false,"is_transit":false,"i_long":106.839204,"line":11,"station_name":"Kemayoran","i_lat":-6.161728,"distance":1901,"station_id":"KMO","time":5},{"transit":false,"station_id":"PSE","distance":1436,"is_transit":false,"i_lat":-6.174784,"i_long":106.84368,"station_name":"Pasar Senen","time":4,"line":11},{"line":11,"time":8,"is_transit":false,"i_lat":-6.185975,"i_long":106.850107,"transit":false,"station_id":"GST","station_name":"Gang Sentiong","distance":1567},{"is_transit":false,"i_lat":-6.193792,"line":11,"transit":false,"distance":973,"i_long":106.855437,"time":1,"station_id":"KMT","station_name":"Kramat"},{"i_lat":-6.209188,"i_long":106.861737,"transit":false,"station_id":"POK","is_transit":false,"time":2,"distance":1829,"line":11,"station_name":"Pondok Jati"},{"i_lat":-6.215091,"line":1,"station_id":"JNG","distance":1236,"i_long":106.86807400000001,"transit":true,"station_name":"Jatinegara","time":9,"is_transit":true},{"station_id":"KLD","i_lat":-6.2135,"transit":false,"time":3,"station_name":"Klender","line":1,"distance":3395,"is_transit":false,"i_long":106.899548}],[{"i_lat":-6.328533,"distance":0,"line":6,"is_transit":false,"station_name":"Tigaraksa","station_id":"TGS","transit":false,"time":0,"i_long":106.425991},{"distance":2974,"transit":false,"time":5,"line":6,"i_long":106.460812,"station_id":"TEJ","i_lat":-6.327251,"is_transit":false,"station_name":"Tenjo"},{"transit":false,"time":5,"i_long":106.491338,"station_name":"Daru","line":0,"station_id":"DAR","is_transit":false,"distance":3902,"i_lat":-6.338021},{"i_long":106.508482,"station_id":"CJT","transit":false,"i_lat":-6.354349,"line":3,"station_name":"Cilejit","time":6,"is_transit":false,"distance":2675},{"is_transit":false,"line":6,"distance":7025,"i_lat":-6.3441410000000005,"transit":false,"station_name":"Parung Panjang","station_id":"PRP","time":9,"i_long":106.568863},{"line":3,"station_name":"Cicayur","distance":5968,"i_long":106.617853,"is_transit":false,"time":8,"i_lat":-6.329547,"transit":false,"station_id":"CC"},{"distance":2519,"i_lat":-6.32484,"is_transit":false,"station_id":"CSK","station_name":"Cisauk","transit":false,"time":4,"line":3,"i_long":106.640411},{"i_long":106.66566,"is_transit":false,"i_lat":-6.319871,"distance":1784,"station_id":"SRP","time":4,"station_name":"Serpong","line":6,"transit":false},{"station_name":"Rawa Buntu","i_lat":-6.314823,"line":6,"transit":false,"station_id":"RU","time":4,"is_transit":false,"distance":2413,"i_long":106.675475},{"i_lat":-6.296963,"station_id":"SDM","line":6,"station_name":"Sudimara","distance":4566,"time":6,"i_long":106.712277,"is_transit":false,"transit":false},{"i_long":106.728916,"is_transit":false,"line":6,"station_id":"JMU","i_lat":-6.288927,"time":4,"transit":false,"distance":1994,"station_name":"Jurangmangu"},{"distance":2179,"station_id":"PDJ","line":6,"i_long":106.74273,"station_name":"Pondokranji","transit":false,"is_transit":false,"time":3,"i_lat":-6.276362},{"i_lat":-6.237242,"i_long":106.780334,"time":8,"distance":6218,"is_transit":false,"line":6,"station_name":"Kebayoran","transit":false,"station_id":"KBY"},{"time":7,"i_lat":-6.207404,"station_name":"Palmerah","station_id":"PLM","transit":false,"is_transit":false,"distance":3737,"i_long":106.79689,"line":6},{"i_lat":-6.185545,"line":1,"station_name":"Tanah Abang","station_id":"THB","transit":true,"is_transit":true,"distance":3191,"i_long":106.811091,"time":6},{"i_lat":-6.155215,"i_long":106.800832,"is_transit":false,"station_id":"DU","transit":false,"time":8,"distance":3632,"line":1,"station_name":"Duri"},{"line":1,"station_id":"AK","distance":1230,"i_lat":-6.144674,"station_name":"Angke","is_transit":false,"time":4,"transit":false,"i_long":106.79867},{"station_name":"Kampung Bandan","distance":4102,"time":9,"i_lat":-6.132549,"line":4,"transit":true,"station_id":"KPB","i_long":106.826365,"is_transit":true},{"distance":1364,"i_lat":-6.137569,"i_long":106.812439,"is_transit":true,"station_id":"JAKK","station_name":"Jakarta Kota","time":3,"transit":true,"line":2},{"distance":1264,"i_long":106.820901,"station_name":"Jayakarta","is_transit":false,"time":4,"line":2,"transit":false,"i_lat":-6.141205,"station_id":"JAY"},{"i_lat":-6.149769,"transit":false,"is_transit":false,"station_id":"MGB","i_long":106.82482,"line":2,"distance":1080,"station_name":"Manggabesar","time":2},{"i_lat":-6.160725,"transit":false,"time":2,"i_long":106.827103,"station_name":"Sawah Besar","station_id":"SW","line":2,"is_transit":false,"distance":906},{"station_name":"Juanda","distance":1149,"time":2,"i_long":106.828284,"transit":false,"i_lat":-6.166716,"station_id":"JUA","line":2,"is_transit":false},{"transit":false,"i_long":106.832183,"is_transit":false,"time":4,"station_name":"Gondangdia","station_id":"GDD","distance":2015,"line":2,"i_lat":-6.186295},{"i_long":106.840169,"distance":1750,"i_lat":-6.198556,"line":2,"transit":false,"time":3,"station_name":"Cikini","is_transit":false,"station_id":"CKI"},{"line":2,"time":4,"distance":1590,"station_name":"Manggarai","is_transit":true,"station_id":"MRI","i_long":106.84912,"transit":true,"i_lat":-6.209883},{"i_long":106.858896,"line":1,"station_id":"MTR","transit":false,"station_name":"Matraman","distance":1275,"time":2,"is_transit":false,"i_lat":-6.212485},{"station_name":"Jatinegara","line":1,"station_id":"JNG","transit":false,"distance":1377,"i_lat":-6.215091,"is_transit":false,"time":8,"i_long":106.86807400000001},{"station_name":"Klender","time":3,"station_id":"KLD","i_lat":-6.2135,"line":1,"transit":false,"is_transit":false,"i_long":106.899548,"distance":3395}],[{"line":6,"station_id":"TGS","i_lat":-6.328533,"i_long":106.425991,"time":0,"is_transit":false,"station_name":"Tigaraksa","distance":0,"transit":false},{"i_lat":-6.327251,"is_transit":false,"transit":false,"i_long":106.460812,"station_name":"Tenjo","line":6,"time":5,"distance":2974,"station_id":"TEJ"},{"time":5,"distance":3902,"i_long":106.491338,"is_transit":false,"station_id":"DAR","line":0,"transit":false,"i_lat":-6.338021,"station_name":"Daru"},{"is_transit":false,"station_name":"Cilejit","station_id":"CJT","transit":false,"i_long":106.508482,"distance":2675,"time":6,"line":3,"i_lat":-6.354349},{"station_id":"PRP","time":9,"line":6,"is_transit":false,"i_long":106.568863,"station_name":"Parung Panjang","distance":7025,"i_lat":-6.3441410000000005,"transit":false},{"transit":false,"distance":5968,"i_long":106.617853,"station_name":"Cicayur","station_id":"CC","line":3,"i_lat":-6.329547,"time":8,"is_transit":false},{"time":4,"i_long":106.640411,"transit":false,"station_id":"CSK","distance":2519,"is_transit":false,"i_lat":-6.32484,"station_name":"Cisauk","line":3},{"station_name":"Serpong","time":4,"distance":1784,"i_lat":-6.319871,"is_transit":false,"line":6,"transit":false,"station_id":"SRP","i_long":106.66566},{"distance":2413,"time":4,"is_transit":false,"i_long":106.675475,"station_id":"RU","station_name":"Rawa Buntu","i_lat":-6.314823,"transit":false,"line":6},{"station_id":"SDM","i_lat":-6.296963,"distance":4566,"i_long":106.712277,"transit":false,"is_transit":false,"time":6,"line":6,"station_name":"Sudimara"},{"is_transit":false,"transit":false,"station_id":"JMU","i_long":106.728916,"line":6,"distance":1994,"time":4,"station_name":"Jurangmangu","i_lat":-6.288927},{"is_transit":false,"time":3,"i_long":106.74273,"station_name":"Pondokranji","distance":2179,"i_lat":-6.276362,"transit":false,"station_id":"PDJ","line":6},{"station_name":"Kebayoran","station_id":"KBY","distance":6218,"i_lat":-6.237242,"time":8,"is_transit":false,"i_long":106.780334,"line":6,"transit":false},{"i_long":106.79689,"station_id":"PLM","is_transit":false,"station_name":"Palmerah","transit":false,"i_lat":-6.207404,"line":6,"time":7,"distance":3737},{"i_long":106.811091,"distance":3191,"transit":true,"is_transit":true,"i_lat":-6.185545,"time":6,"line":1,"station_name":"Tanah Abang","station_id":"THB"},{"transit":false,"station_id":"KAT","is_transit":false,"i_long":106.816351,"station_name":"Karet","line":1,"distance":2029,"i_lat":-6.20132,"time":5},{"transit":false,"station_id":"SUDB","i_lat":-6.201433,"time":1,"line":1,"i_long":106.819881,"is_transit":false,"distance":471,"station_name":"Sudirman Baru"},{"time":1,"line":1,"i_lat":-6.202263,"distance":280,"station_name":"Sudirman","is_transit":false,"station_id":"SUD","i_long":106.822649,"transit":false},{"station_name":"Manggarai","i_long":106.84912,"is_transit":true,"transit":true,"line":2,"time":4,"station_id":"MRI","i_lat":-6.209883,"distance":3186},{"i_long":106.840169,"i_lat":-6.198556,"time":4,"transit":false,"line":2,"is_transit":false,"station_id":"CKI","distance":1590,"station_name":"Cikini"},{"station_id":"GDD","distance":1750,"transit":false,"time":3,"line":2,"i_lat":-6.186295,"i_long":106.832183,"station_name":"Gondangdia","is_transit":false},{"i_long":106.828284,"transit":false,"station_id":"JUA","distance":2015,"is_transit":false,"station_name":"Juanda","time":4,"line":2,"i_lat":-6.166716},{"is_transit":false,"station_id":"SW","i_long":106.827103,"line":2,"transit":false,"time":2,"distance":1149,"i_lat":-6.160725,"station_name":"Sawah Besar"},{"i_lat":-6.149769,"i_long":106.82482,"transit":false,"station_id":"MGB","distance":906,"is_transit":false,"line":2,"station_name":"Manggabesar","time":2},{"transit":false,"i_lat":-6.141205,"line":2,"station_name":"Jayakarta","is_transit":false,"distance":1080,"time":2,"station_id":"JAY","i_long":106.820901},{"distance":1264,"station_name":"Jakarta Kota","is_transit":true,"transit":true,"station_id":"JAKK","time":4,"i_lat":-6.137569,"i_long":106.812439,"line":2},{"is_transit":true,"time":3,"i_lat":-6.132549,"station_id":"KPB","transit":true,"i_long":106.826365,"distance":1364,"line":4,"station_name":"Kampung Bandan"},{"i_lat":-6.14505,"time":3,"station_name":"Rajawali","distance":1444,"station_id":"RJW","is_transit":false,"i_long":106.836569,"transit":false,"line":11},{"line":11,"i_long":106.839204,"i_lat":-6.161728,"station_id":"KMO","transit":false,"distance":1901,"time":5,"station_name":"Kemayoran","is_transit":false},{"station_id":"PSE","time":4,"distance":1436,"i_lat":-6.174784,"transit":false,"is_transit":false,"line":11,"i_long":106.84368,"station_name":"Pasar Senen"},{"time":8,"i_lat":-6.185975,"station_name":"Gang Sentiong","line":11,"station_id":"GST","is_transit":false,"distance":1567,"transit":false,"i_long":106.850107},{"distance":973,"transit":false,"is_transit":false,"i_lat":-6.193792,"time":1,"i_long":106.855437,"line":11,"station_name":"Kramat","station_id":"KMT"},{"i_lat":-6.209188,"i_long":106.861737,"transit":false,"station_id":"POK","station_name":"Pondok Jati","is_transit":false,"time":2,"distance":1829,"line":11},{"transit":true,"station_name":"Jatinegara","distance":1236,"is_transit":true,"station_id":"JNG","line":1,"i_long":106.86807400000001,"time":9,"i_lat":-6.215091},{"is_transit":false,"transit":false,"time":3,"station_name":"Klender","distance":3395,"i_long":106.899548,"line":1,"station_id":"KLD","i_lat":-6.2135}]]}