{"data":[[{"station_name":"Tigaraksa","station_id":"TGS","transit":false,"is_transit":false,"time":0,"i_long":106.425991,"i_lat":-6.328533,"distance":0,"line":6},{"transit":false,"station_id":"TEJ","i_long":106.460812,"is_transit":false,"station_name":"Tenjo","time":5,"distance":2974,"line":6,"i_lat":-6.327251},{"distance":3902,"station_name":"Daru","i_long":106.491338,"line":0,"i_lat":-6.338021,"station_id":"DAR","transit":false,"is_transit":false,"time":5},{"time":6,"station_name":"Cilejit","is_transit":false,"i_lat":-6.354349,"i_long":106.508482,"line":3,"station_id":"CJT","transit":false,"distance":2675},{"i_lat":-6.3441410000000005,"station_name":"Parung Panjang","station_id":"PRP","i_long":106.568863,"line":6,"transit":false,"is_transit":false,"time":9,"distance":7025},{"time":8,"is_transit":false,"distance":5968,"i_long":106.617853,"station_name":"Cicayur","i_lat":-6.329547,"transit":false,"line":3,"station_id":"CC"},{"station_id":"CSK","line":3,"i_lat":-6.32484,"i_long":106.640411,"transit":false,"is_transit":false,"time":4,"distance":2519,"station_name":"Cisauk"},{"i_long":106.66566,"station_name":"Serpong","station_id":"SRP","transit":false,"time":4,"distance":1784,"i_lat":-6.319871,"line":6,"is_transit":false},{"time":4,"transit":false,"i_lat":-6.314823,"is_transit":false,"i_long":106.675475,"station_id":"RU","distance":2413,"station_name":"Rawa Buntu","line":6},{"station_id":"SDM","station_name":"Sudimara","transit":false,"distance":4566,"i_long":106.712277,"i_lat":-6.296963,"is_transit":false,"time":6,"line":6},{"station_id":"JMU","is_transit":false,"time":4,"i_lat":-6.288927,"distance":1994,"i_long":106.728916,"station_name":"Jurangmangu","line":6,"transit":false},{"line":6,"transit":false,"station_id":"PDJ","distance":2179,"is_transit":false,"time":3,"station_name":"Pondokranji","i_lat":-6.276362,"i_long":106.74273},{"is_transit":false,"distance":6218,"i_lat":-6.237242,"station_name":"Kebayoran","i_long":106.780334,"transit":false,"time":8,"line":6,"station_id":"KBY"},{"time":7,"transit":false,"station_id":"PLM","station_name":"Palmerah","i_long":106.79689,"distance":3737,"i_lat":-6.207404,"line":6,"is_transit":false},{"i_lat":-6.185545,"line":1,"station_name":"Tanah Abang","i_long":106.811091,"station_id":"THB","distance":3191,"is_transit":true,"transit":true,"time":6},{"distance":2029,"transit":false,"station_id":"KAT","i_lat":-6.20132,"time":5,"is_transit":false,"station_name":"Karet","i_long":106.816351,"line":1},{"station_id":"SUDB","distance":471,"transit":false,"i_long":106.819881,"i_lat":-6.201433,"time":1,"line":1,"station_name":"Sudirman Baru","is_transit":false},{"i_lat":-6.202263,"is_transit":false,"line":1,"distance":280,"time":1,"transit":false,"i_long":106.822649,"station_name":"Sudirman","station_id":"SUD"},{"station_name":"Manggarai","station_id":"MRI","is_transit":true,"transit":true,"distance":3186,"time":4,"line":2,"i_lat":-6.209883,"i_long":106.84912},{"is_transit":false,"distance":2610,"line":2,"transit":false,"i_lat":-6.226659,"station_id":"TEB","time":4,"i_long":106.857948,"station_name":"Tebet"},{"is_transit":false,"station_id":"CW","line":2,"time":2,"station_name":"Cawang","distance":1230,"transit":false,"i_long":106.856607,"i_lat":-6.242512},{"time":3,"line":2,"transit":false,"is_transit":false,"station_name":"Duren Kalibata","distance":1546,"i_long":106.85449,"station_id":"DRN","i_lat":-6.255332},{"distance":824,"station_name":"Pasar Minggu Baru","i_long":106.851577,"line":2,"station_id":"PSMB","time":2,"is_transit":false,"i_lat":-6.263214,"transit":false},{"station_name":"Pasar Minggu","station_id":"PSM","i_long":106.843999,"distance":2380,"transit":false,"time":2,"line":2,"is_transit":false,"i_lat":-6.2842400000000005},{"distance":2820,"station_id":"TNT","is_transit":false,"i_long":106.838896,"transit":false,"line":2,"i_lat":-6.3080680000000005,"station_name":"Tanjung Barat","time":4},{"i_lat":-6.330363,"line":2,"station_name":"Lenteng Agung","is_transit":false,"transit":false,"station_id":"LNA","time":3,"i_long":106.832616,"distance":2671},{"is_transit":false,"transit":false,"line":2,"station_id":"UP","station_name":"Univ. Pancasila","i_lat":-6.339291,"distance":1029,"time":2,"i_long":106.834175},{"is_transit":false,"transit":false,"i_long":106.831474,"station_id":"UI","i_lat":-6.360749,"line":2,"station_name":"Univ. Indonesia","time":3,"distance":2264},{"is_transit":false,"station_name":"Pondok Cina","i_lat":-6.369073,"line":2,"transit":false,"time":2,"distance":1109,"i_long":106.831114,"station_id":"POC"}],[{"line":6,"station_id":"TGS","time":0,"i_lat":-6.328533,"transit":false,"is_transit":false,"i_long":106.425991,"distance":0,"station_name":"Tigaraksa"},{"distance":2974,"line":6,"station_name":"Tenjo","is_transit":false,"i_long":106.460812,"time":5,"station_id":"TEJ","transit":false,"i_lat":-6.327251},{"i_lat":-6.338021,"i_long":106.491338,"transit":false,"station_id":"DAR","station_name":"Daru","distance":3902,"time":5,"line":0,"is_transit":false},{"i_lat":-6.354349,"is_transit":false,"line":3,"i_long":106.508482,"distance":2675,"station_id":"CJT","time":6,"station_name":"Cilejit","transit":false},{"i_long":106.568863,"distance":7025,"time":9,"transit":false,"station_name":"Parung Panjang","i_lat":-6.3441410000000005,"is_transit":false,"station_id":"PRP","line":6},{"transit":false,"i_long":106.617853,"station_name":"Cicayur","line":3,"station_id":"CC","distance":5968,"i_lat":-6.329547,"is_transit":false,"time":8},{"transit":false,"distance":2519,"time":4,"station_name":"Cisauk","i_lat":-6.32484,"i_long":106.640411,"is_transit":false,"station_id":"CSK","line":3},{"line":6,"distance":1784,"station_name":"Serpong","transit":false,"i_long":106.66566,"i_lat":-6.319871,"time":4,"is_transit":false,"station_id":"SRP"},{"line":6,"station_name":"Rawa Buntu","is_transit":false,"transit":false,"station_id":"RU","distance":2413,"i_lat":-6.314823,"i_long":106.675475,"time":4},{"line":6,"i_lat":-6.296963,"is_transit":false,"station_name":"Sudimara","time":6,"distance":4566,"transit":false,"station_id":"SDM","i_long":106.712277},{"time":4,"station_id":"JMU","distance":1994,"is_transit":false,"station_name":"Jurangmangu","line":6,"i_lat":-6.288927,"i_long":106.728916,"transit":false},{"transit":false,"time":3,"line":6,"is_transit":false,"distance":2179,"station_id":"PDJ","i_long":106.74273,"i_lat":-6.276362,"station_name":"Pondokranji"},{"transit":false,"station_name":"Kebayoran","is_transit":false,"station_id":"KBY","distance":6218,"time":8,"i_lat":-6.237242,"i_long":106.780334,"line":6},{"distance":3737,"line":6,"time":7,"station_id":"PLM","i_lat":-6.207404,"station_name":"Palmerah","transit":false,"i_long":106.79689,"is_transit":false},{"line":1,"i_long":106.811091,"time":6,"transit":true,"station_id":"THB","distance":3191,"i_lat":-6.185545,"is_transit":true,"station_name":"Tanah Abang"},{"is_transit":false,"time":8,"i_lat":-6.155215,"station_name":"Duri","line":1,"station_id":"DU","i_long":106.800832,"transit":false,"distance":3632},{"i_lat":-6.144674,"is_transit":false,"i_long":106.79867,"station_id":"AK","time":4,"station_name":"Angke","line":1,"distance":1230,"transit":false},{"station_name":"Kampung Bandan","i_lat":-6.132549,"transit":true,"distance":4102,"line":4,"is_transit":true,"i_long":106.826365,"station_id":"KPB","time":9},{"i_long":106.812439,"station_name":"Jakarta Kota","distance":1364,"transit":true,"is_transit":true,"i_lat":-6.137569,"station_id":"JAKK","time":3,"line":2},{"station_id":"JAY","is_transit":false,"distance":1264,"station_name":"Jayakarta","transit":false,"i_long":106.820901,"line":2,"i_lat":-6.141205,"time":4},{"station_name":"Manggabesar","i_lat":-6.149769,"i_long":106.82482,"time":2,"station_id":"MGB","transit":false,"distance":1080,"line":2,"is_transit":false},{"i_lat":-6.160725,"i_long":106.827103,"line":2,"distance":906,"time":2,"transit":false,"station_name":"Sawah Besar","is_transit":false,"station_id":"SW"},{"time":2,"is_transit":false,"distance":1149,"station_id":"JUA","i_lat":-6.166716,"i_long":106.828284,"line":2,"station_name":"Juanda","transit":false},{"distance":2015,"station_id":"GDD","time":4,"transit":false,"station_name":"Gondangdia","i_lat":-6.186295,"is_transit":false,"i_long":106.832183,"line":2},{"distance":1750,"time":3,"transit":false,"i_lat":-6.198556,"station_name":"Cikini","is_transit":false,"station_id":"CKI","line":2,"i_long":106.840169},{"line":2,"distance":1590,"transit":false,"station_name":"Manggarai","is_transit":false,"time":4,"station_id":"MRI","i_long":106.84912,"i_lat":-6.209883},{"line":2,"transit":false,"is_transit":false,"station_name":"Tebet","i_lat":-6.226659,"distance":2610,"i_long":106.857948,"station_id":"TEB","time":4},{"line":2,"time":2,"transit":false,"station_id":"CW","station_name":"Cawang","i_lat":-6.242512,"distance":1230,"is_transit":false,"i_long":106.856607},{"i_long":106.85449,"is_transit":false,"distance":1546,"time":3,"line":2,"i_lat":-6.255332,"station_id":"DRN","station_name":"Duren Kalibata","transit":false},{"transit":false,"i_lat":-6.263214,"distance":824,"is_transit":false,"station_name":"Pasar Minggu Baru","time":2,"line":2,"station_id":"PSMB","i_long":106.851577},{"station_id":"PSM","line":2,"distance":2380,"i_lat":-6.2842400000000005,"transit":false,"is_transit":false,"time":2,"i_long":106.843999,"station_name":"Pasar Minggu"},{"transit":false,"station_id":"TNT","distance":2820,"time":4,"i_lat":-6.3080680000000005,"station_name":"Tanjung Barat","line":2,"is_transit":false,"i_long":106.838896},{"i_lat":-6.330363,"i_long":106.832616,"is_transit":false,"line":2,"station_id":"LNA","distance":2671,"transit":false,"time":3,"station_name":"Lenteng Agung"},{"transit":false,"is_transit":false,"time":2,"i_lat":-6.339291,"i_long":106.834175,"distance":1029,"station_id":"UP","station_name":"Univ. Pancasila","line":2},{"line":2,"is_transit":false,"station_id":"UI","i_lat":-6.360749,"distance":2264,"time":3,"station_name":"Univ. Indonesia","transit":false,"i_long":106.831474},{"time":2,"i_long":106.831114,"is_transit":false,"station_id":"POC","transit":false,"station_name":"Pondok Cina","line":2,"distance":1109,"i_lat":-6.369073}],[{"is_transit":false,"i_lat":-6.328533,"distance":0,"transit":false,"station_id":"TGS","station_name":"Tigaraksa","line":6,"time":0,"i_long":106.425991},{"transit":false,"distance":2974,"is_transit":false,"i_long":106.460812,"time":5,"station_name":"Tenjo","station_id":"TEJ","line":6,"i_lat":-6.327251},{"i_long":106.491338,"is_transit":false,"line":0,"station_id":"DAR","i_lat":-6.338021,"distance":3902,"transit":false,"station_name":"Daru","time":5},{"i_long":106.508482,"transit":false,"station_id":"CJT","distance":2675,"station_name":"Cilejit","is_transit":false,"i_lat":-6.354349,"time":6,"line":3},{"distance":7025,"station_id":"PRP","time":9,"i_lat":-6.3441410000000005,"is_transit":false,"i_long":106.568863,"line":6,"transit":false,"station_name":"Parung Panjang"},{"distance":5968,"i_lat":-6.329547,"station_id":"CC","time":8,"i_long":106.617853,"transit":false,"line":3,"is_transit":false,"station_name":"Cicayur"},{"is_transit":false,"time":4,"i_lat":-6.32484,"line":3,"distance":2519,"station_id":"CSK","station_name":"Cisauk","i_long":106.640411,"transit":false},{"is_transit":false,"transit":false,"i_lat":-6.319871,"time":4,"station_name":"Serpong","line":6,"distance":1784,"station_id":"SRP","i_long":106.66566},{"distance":2413,"line":6,"i_long":106.675475,"station_id":"RU","station_name":"Rawa Buntu","i_lat":-6.314823,"transit":false,"is_transit":false,"time":4},{"is_transit":false,"line":6,"transit":false,"i_lat":-6.296963,"distance":4566,"i_long":106.712277,"time":6,"station_id":"SDM","station_name":"Sudimara"},{"line":6,"is_transit":false,"station_id":"JMU","time":4,"i_lat":-6.288927,"i_long":106.728916,"transit":false,"distance":1994,"station_name":"Jurangmangu"},{"line":6,"is_transit":false,"i_long":106.74273,"station_id":"PDJ","time":3,"transit":false,"distance":2179,"station_name":"Pondokranji","i_lat":-6.276362},{"i_long":106.780334,"line":6,"station_name":"Kebayoran","is_transit":false,"time":8,"transit":false,"station_id":"KBY","distance":6218,"i_lat":-6.237242},{"transit":false,"is_transit":false,"i_long":106.79689,"distance":3737,"station_name":"Palmerah","i_lat":-6.207404,"line":6,"station_id":"PLM","time":7},{"distance":3191,"station_id":"THB","time":6,"station_name":"Tanah Abang","line":1,"i_lat":-6.185545,"i_long":106.811091,"is_transit":true,"transit":true},{"distance":3632,"station_name":"Duri","i_long":106.800832,"i_lat":-6.155215,"time":8,"station_id":"DU","line":1,"transit":false,"is_transit":false},{"station_name":"Angke","transit":false,"i_long":106.79867,"line":1,"station_id":"AK","is_transit":false,"distance":1230,"i_lat":-6.144674,"time":4},{"i_lat":-6.132549,"line":4,"transit":true,"time":9,"station_name":"Kampung Bandan","i_long":106.826365,"is_transit":true,"station_id":"KPB","distance":4102},{"distance":1444,"i_long":106.836569,"is_transit":false,"station_id":"RJW","time":3,"station_name":"Rajawali","transit":false,"i_lat":-6.14505,"line":11},{"line":11,"station_id":"KMO","distance":1901,"transit":false,"is_transit":false,"time":5,"i_lat":-6.161728,"i_long":106.839204,"station_name":"Kemayoran"},{"is_transit":false,"time":4,"station_name":"Pasar Senen","station_id":"PSE","i_lat":-6.174784,"transit":false,"distance":1436,"i_long":106.84368,"line":11},{"i_long":106.850107,"is_transit":false,"transit":false,"line":11,"station_name":"Gang Sentiong","time":8,"i_lat":-6.185975,"station_id":"GST","distance":1567},{"time":1,"station_name":"Kramat","i_lat":-6.193792,"i_long":106.855437,"distance":973,"line":11,"is_transit":false,"transit":false,"station_id":"KMT"},{"i_lat":-6.209188,"transit":false,"distance":1829,"line":11,"is_transit":false,"time":2,"station_name":"Pondok Jati","station_id":"POK","i_long":106.861737},{"time":9,"station_id":"JNG","i_lat":-6.215091,"is_transit":true,"station_name":"Jatinegara","i_long":106.86807400000001,"distance":1236,"line":1,"transit":true},{"transit":false,"i_lat":-6.212485,"station_id":"MTR","line":1,"i_long":106.858896,"distance":1377,"is_transit":false,"time":2,"station_name":"Matraman"},{"transit":true,"distance":1275,"time":2,"is_transit":true,"i_lat":-6.209883,"line":2,"station_id":"MRI","station_name":"Manggarai","i_long":106.84912},{"line":2,"transit":false,"station_id":"TEB","time":4,"station_name":"Tebet","i_lat":-6.226659,"is_transit":false,"distance":2610,"i_long":106.857948},{"station_name":"Cawang","is_transit":false,"transit":false,"i_lat":-6.242512,"time":2,"station_id":"CW","distance":1230,"i_long":106.856607,"line":2},{"distance":1546,"transit":false,"is_transit":false,"station_name":"Duren Kalibata","i_lat":-6.255332,"time":3,"i_long":106.85449,"line":2,"station_id":"DRN"},{"time":2,"is_transit":false,"station_name":"Pasar Minggu Baru","station_id":"PSMB","transit":false,"i_lat":-6.263214,"line":2,"distance":824,"i_long":106.851577},{"station_id":"PSM","station_name":"Pasar Minggu","i_long":106.843999,"transit":false,"line":2,"time":2,"distance":2380,"i_lat":-6.2842400000000005,"is_transit":false},{"i_lat":-6.3080680000000005,"distance":2820,"i_long":106.838896,"time":4,"line":2,"station_id":"TNT","transit":false,"is_transit":false,"station_name":"Tanjung Barat"},{"station_id":"LNA","i_lat":-6.330363,"is_transit":false,"distance":2671,"time":3,"transit":false,"station_name":"Lenteng Agung","line":2,"i_long":106.832616},{"station_id":"UP","time":2,"station_name":"Univ. Pancasila","transit":false,"i_lat":-6.339291,"is_transit":false,"distance":1029,"i_long":106.834175,"line":2},{"i_long":106.831474,"station_id":"UI","is_transit":false,"time":3,"station_name":"Univ. Indonesia","transit":false,"i_lat":-6.360749,"distance":2264,"line":2},{"distance":1109,"i_lat":-6.369073,"line":2,"time":2,"transit":false,"station_id":"POC","i_long":106.831114,"is_transit":false,"station_name":"Pondok Cina"}]]}