{"data":[[{"i_lat":-6.328533,"i_long":106.425991,"is_transit":false,"distance":0,"time":0,"line":6,"station_id":"TGS","station_name":"Tigaraksa","transit":false},{"transit":false,"station_id":"TEJ","is_transit":false,"i_long":106.460812,"line":6,"distance":2974,"time":5,"i_lat":-6.327251,"station_name":"Tenjo"},{"station_name":"Daru","i_long":106.491338,"distance":3902,"transit":false,"station_id":"DAR","time":5,"i_lat":-6.338021,"line":0,"is_transit":false},{"transit":false,"is_transit":false,"i_long":106.508482,"distance":2675,"station_name":"Cilejit","station_id":"CJT","line":3,"i_lat":-6.354349,"time":6},{"station_name":"Parung Panjang","time":9,"is_transit":false,"transit":false,"i_lat":-6.3441410000000005,"distance":7025,"i_long":106.568863,"line":6,"station_id":"PRP"},{"i_long":106.617853,"transit":false,"station_name":"Cicayur","time":8,"station_id":"CC","is_transit":false,"line":3,"i_lat":-6.329547,"distance":5968},{"transit":false,"line":3,"station_name":"Cisauk","i_lat":-6.32484,"time":4,"distance":2519,"station_id":"CSK","is_transit":false,"i_long":106.640411},{"time":4,"distance":1784,"transit":false,"i_long":106.66566,"station_name":"Serpong","station_id":"SRP","i_lat":-6.319871,"line":6,"is_transit":false},{"distance":2413,"station_name":"Rawa Buntu","line":6,"is_transit":false,"i_lat":-6.314823,"i_long":106.675475,"station_id":"RU","time":4,"transit":false},{"i_lat":-6.296963,"is_transit":false,"time":6,"distance":4566,"i_long":106.712277,"transit":false,"station_name":"Sudimara","line":6,"station_id":"SDM"},{"distance":1994,"is_transit":false,"time":4,"transit":false,"station_name":"Jurangmangu","line":6,"i_long":106.728916,"station_id":"JMU","i_lat":-6.288927},{"line":6,"transit":false,"distance":2179,"i_lat":-6.276362,"is_transit":false,"station_name":"Pondokranji","i_long":106.74273,"station_id":"PDJ","time":3},{"i_lat":-6.237242,"transit":false,"distance":6218,"time":8,"station_id":"KBY","line":6,"station_name":"Kebayoran","i_long":106.780334,"is_transit":false},{"i_long":106.79689,"time":7,"distance":3737,"transit":false,"station_id":"PLM","is_transit":false,"i_lat":-6.207404,"station_name":"Palmerah","line":6},{"i_long":106.811091,"station_name":"Tanah Abang","transit":true,"line":1,"distance":3191,"i_lat":-6.185545,"station_id":"THB","time":6,"is_transit":true},{"transit":false,"distance":2029,"i_lat":-6.20132,"time":5,"station_name":"Karet","is_transit":false,"station_id":"KAT","i_long":106.816351,"line":1},{"transit":false,"distance":471,"is_transit":false,"station_id":"SUDB","line":1,"time":1,"station_name":"Sudirman Baru","i_lat":-6.201433,"i_long":106.819881},{"transit":false,"time":1,"is_transit":false,"line":1,"station_name":"Sudirman","i_lat":-6.202263,"i_long":106.822649,"distance":280,"station_id":"SUD"},{"i_long":106.84912,"station_id":"MRI","transit":false,"distance":3186,"time":4,"station_name":"Manggarai","is_transit":false,"i_lat":-6.209883,"line":2},{"i_lat":-6.212485,"station_name":"Matraman","is_transit":false,"transit":false,"line":1,"i_long":106.858896,"distance":1275,"time":2,"station_id":"MTR"},{"i_long":106.86807400000001,"is_transit":false,"transit":false,"i_lat":-6.215091,"distance":1377,"line":1,"station_name":"Jatinegara","station_id":"JNG","time":8},{"time":3,"transit":false,"i_lat":-6.2135,"i_long":106.899548,"line":1,"distance":3395,"station_id":"KLD","is_transit":false,"station_name":"Klender"},{"i_lat":-6.215568,"time":2,"distance":3100,"transit":false,"station_name":"Buaran","station_id":"BUA","is_transit":false,"i_long":106.922662,"line":1}],[{"i_lat":-6.328533,"line":6,"distance":0,"is_transit":false,"transit":false,"time":0,"station_name":"Tigaraksa","i_long":106.425991,"station_id":"TGS"},{"i_lat":-6.327251,"i_long":106.460812,"station_id":"TEJ","line":6,"time":5,"is_transit":false,"distance":2974,"transit":false,"station_name":"Tenjo"},{"transit":false,"line":0,"is_transit":false,"station_name":"Daru","time":5,"i_lat":-6.338021,"distance":3902,"i_long":106.491338,"station_id":"DAR"},{"i_lat":-6.354349,"is_transit":false,"i_long":106.508482,"station_name":"Cilejit","line":3,"station_id":"CJT","transit":false,"time":6,"distance":2675},{"station_name":"Parung Panjang","i_long":106.568863,"i_lat":-6.3441410000000005,"time":9,"station_id":"PRP","transit":false,"is_transit":false,"line":6,"distance":7025},{"is_transit":false,"station_id":"CC","station_name":"Cicayur","i_lat":-6.329547,"transit":false,"distance":5968,"line":3,"time":8,"i_long":106.617853},{"line":3,"transit":false,"station_id":"CSK","station_name":"Cisauk","i_long":106.640411,"distance":2519,"time":4,"is_transit":false,"i_lat":-6.32484},{"is_transit":false,"station_id":"SRP","distance":1784,"i_long":106.66566,"i_lat":-6.319871,"line":6,"transit":false,"station_name":"Serpong","time":4},{"station_name":"Rawa Buntu","station_id":"RU","time":4,"i_long":106.675475,"is_transit":false,"transit":false,"line":6,"i_lat":-6.314823,"distance":2413},{"distance":4566,"station_id":"SDM","i_lat":-6.296963,"i_long":106.712277,"is_transit":false,"station_name":"Sudimara","line":6,"transit":false,"time":6},{"transit":false,"distance":1994,"station_id":"JMU","time":4,"i_lat":-6.288927,"is_transit":false,"line":6,"station_name":"Jurangmangu","i_long":106.728916},{"i_long":106.74273,"time":3,"is_transit":false,"distance":2179,"i_lat":-6.276362,"station_name":"Pondokranji","station_id":"PDJ","line":6,"transit":false},{"i_lat":-6.237242,"is_transit":false,"line":6,"time":8,"station_name":"Kebayoran","distance":6218,"i_long":106.780334,"station_id":"KBY","transit":false},{"station_name":"Palmerah","i_lat":-6.207404,"distance":3737,"is_transit":false,"transit":false,"station_id":"PLM","i_long":106.79689,"time":7,"line":6},{"line":1,"is_transit":true,"station_name":"Tanah Abang","i_lat":-6.185545,"transit":true,"station_id":"THB","distance":3191,"i_long":106.811091,"time":6},{"distance":3632,"i_long":106.800832,"is_transit":false,"station_name":"Duri","line":1,"transit":false,"station_id":"DU","time":8,"i_lat":-6.155215},{"i_long":106.79867,"time":4,"station_name":"Angke","distance":1230,"i_lat":-6.144674,"line":1,"is_transit":false,"transit":false,"station_id":"AK"},{"time":9,"transit":true,"i_long":106.826365,"station_name":"Kampung Bandan","is_transit":true,"i_lat":-6.132549,"line":4,"distance":4102,"station_id":"KPB"},{"is_transit":false,"i_long":106.836569,"station_id":"RJW","time":3,"distance":1444,"transit":false,"station_name":"Rajawali","i_lat":-6.14505,"line":11},{"line":11,"i_long":106.839204,"station_id":"KMO","distance":1901,"i_lat":-6.161728,"station_name":"Kemayoran","transit":false,"time":5,"is_transit":false},{"time":4,"station_id":"PSE","transit":false,"distance":1436,"i_lat":-6.174784,"i_long":106.84368,"line":11,"station_name":"Pasar Senen","is_transit":false},{"time":8,"i_lat":-6.185975,"is_transit":false,"line":11,"station_name":"Gang Sentiong","station_id":"GST","distance":1567,"transit":false,"i_long":106.850107},{"transit":false,"station_id":"KMT","distance":973,"station_name":"Kramat","i_lat":-6.193792,"i_long":106.855437,"line":11,"time":1,"is_transit":false},{"station_name":"Pondok Jati","is_transit":false,"station_id":"POK","line":11,"i_long":106.861737,"i_lat":-6.209188,"distance":1829,"time":2,"transit":false},{"i_long":106.86807400000001,"distance":1236,"station_name":"Jatinegara","transit":true,"is_transit":true,"time":9,"station_id":"JNG","line":1,"i_lat":-6.215091},{"transit":false,"station_id":"KLD","line":1,"station_name":"Klender","distance":3395,"i_long":106.899548,"i_lat":-6.2135,"time":3,"is_transit":false},{"i_long":106.922662,"station_name":"Buaran","i_lat":-6.215568,"line":1,"station_id":"BUA","time":2,"distance":3100,"transit":false,"is_transit":false}],[{"transit":false,"i_long":106.425991,"i_lat":-6.328533,"station_name":"Tigaraksa","line":6,"distance":0,"time":0,"station_id":"TGS","is_transit":false},{"station_id":"TEJ","is_transit":false,"i_long":106.460812,"distance":2974,"transit":false,"i_lat":-6.327251,"line":6,"station_name":"Tenjo","time":5},{"station_name":"Daru","distance":3902,"i_long":106.491338,"transit":false,"time":5,"is_transit":false,"i_lat":-6.338021,"station_id":"DAR","line":0},{"transit":false,"line":3,"is_transit":false,"station_name":"Cilejit","station_id":"CJT","distance":2675,"i_lat":-6.354349,"time":6,"i_long":106.508482},{"time":9,"distance":7025,"i_long":106.568863,"station_name":"Parung Panjang","i_lat":-6.3441410000000005,"transit":false,"station_id":"PRP","is_transit":false,"line":6},{"time":8,"station_name":"Cicayur","i_lat":-6.329547,"is_transit":false,"station_id":"CC","transit":false,"i_long":106.617853,"line":3,"distance":5968},{"station_name":"Cisauk","distance":2519,"i_long":106.640411,"time":4,"station_id":"CSK","i_lat":-6.32484,"line":3,"transit":false,"is_transit":false},{"is_transit":false,"station_id":"SRP","time":4,"line":6,"i_long":106.66566,"transit":false,"station_name":"Serpong","i_lat":-6.319871,"distance":1784},{"station_name":"Rawa Buntu","line":6,"transit":false,"time":4,"station_id":"RU","is_transit":false,"distance":2413,"i_lat":-6.314823,"i_long":106.675475},{"i_lat":-6.296963,"time":6,"station_id":"SDM","transit":false,"distance":4566,"i_long":106.712277,"line":6,"station_name":"Sudimara","is_transit":false},{"i_long":106.728916,"time":4,"station_name":"Jurangmangu","i_lat":-6.288927,"station_id":"JMU","distance":1994,"is_transit":false,"line":6,"transit":false},{"line":6,"transit":false,"station_name":"Pondokranji","time":3,"is_transit":false,"distance":2179,"i_lat":-6.276362,"station_id":"PDJ","i_long":106.74273},{"i_long":106.780334,"is_transit":false,"i_lat":-6.237242,"line":6,"time":8,"distance":6218,"station_id":"KBY","station_name":"Kebayoran","transit":false},{"station_name":"Palmerah","is_transit":false,"time":7,"i_lat":-6.207404,"transit":false,"line":6,"i_long":106.79689,"station_id":"PLM","distance":3737},{"transit":true,"line":1,"time":6,"station_id":"THB","distance":3191,"station_name":"Tanah Abang","i_lat":-6.185545,"i_long":106.811091,"is_transit":true},{"transit":false,"distance":3632,"station_name":"Duri","line":1,"i_lat":-6.155215,"is_transit":false,"i_long":106.800832,"station_id":"DU","time":8},{"i_lat":-6.144674,"station_id":"AK","distance":1230,"i_long":106.79867,"station_name":"Angke","time":4,"transit":false,"line":1,"is_transit":false},{"station_id":"KPB","line":4,"transit":true,"is_transit":true,"distance":4102,"station_name":"Kampung Bandan","i_lat":-6.132549,"i_long":106.826365,"time":9},{"i_lat":-6.137569,"line":2,"station_id":"JAKK","distance":1364,"transit":true,"station_name":"Jakarta Kota","i_long":106.812439,"is_transit":true,"time":3},{"is_transit":false,"station_id":"JAY","time":4,"transit":false,"station_name":"Jayakarta","i_lat":-6.141205,"i_long":106.820901,"line":2,"distance":1264},{"i_long":106.82482,"station_name":"Manggabesar","line":2,"station_id":"MGB","i_lat":-6.149769,"time":2,"distance":1080,"transit":false,"is_transit":false},{"i_long":106.827103,"transit":false,"station_name":"Sawah Besar","line":2,"is_transit":false,"i_lat":-6.160725,"distance":906,"time":2,"station_id":"SW"},{"i_lat":-6.166716,"transit":false,"i_long":106.828284,"time":2,"station_id":"JUA","line":2,"distance":1149,"station_name":"Juanda","is_transit":false},{"time":4,"station_id":"GDD","distance":2015,"i_lat":-6.186295,"line":2,"station_name":"Gondangdia","i_long":106.832183,"transit":false,"is_transit":false},{"transit":false,"line":2,"i_long":106.840169,"time":3,"station_name":"Cikini","i_lat":-6.198556,"station_id":"CKI","is_transit":false,"distance":1750},{"transit":true,"line":2,"station_id":"MRI","i_lat":-6.209883,"time":4,"station_name":"Manggarai","i_long":106.84912,"is_transit":true,"distance":1590},{"station_id":"MTR","line":1,"transit":false,"is_transit":false,"distance":1275,"time":2,"i_lat":-6.212485,"i_long":106.858896,"station_name":"Matraman"},{"i_lat":-6.215091,"i_long":106.86807400000001,"transit":false,"station_id":"JNG","distance":1377,"line":1,"station_name":"Jatinegara","is_transit":false,"time":8},{"transit":false,"station_id":"KLD","i_long":106.899548,"i_lat":-6.2135,"station_name":"Klender","time":3,"distance":3395,"is_transit":false,"line":1},{"station_id":"BUA","distance":3100,"station_name":"Buaran","i_lat":-6.215568,"transit":false,"line":1,"time":2,"i_long":106.922662,"is_transit":false}],[{"station_name":"Tigaraksa","i_lat":-6.328533,"distance":0,"time":0,"transit":false,"station_id":"TGS","is_transit":false,"line":6,"i_long":106.425991},{"station_id":"TEJ","line":6,"transit":false,"i_lat":-6.327251,"time":5,"distance":2974,"station_name":"Tenjo","i_long":106.460812,"is_transit":false},{"line":0,"station_id":"DAR","station_name":"Daru","is_transit":false,"time":5,"transit":false,"i_lat":-6.338021,"i_long":106.491338,"distance":3902},{"time":6,"i_long":106.508482,"distance":2675,"line":3,"station_name":"Cilejit","is_transit":false,"i_lat":-6.354349,"transit":false,"station_id":"CJT"},{"station_id":"PRP","transit":false,"time":9,"station_name":"Parung Panjang","i_lat":-6.3441410000000005,"is_transit":false,"distance":7025,"i_long":106.568863,"line":6},{"distance":5968,"i_long":106.617853,"transit":false,"time":8,"station_id":"CC","line":3,"is_transit":false,"i_lat":-6.329547,"station_name":"Cicayur"},{"station_id":"CSK","i_lat":-6.32484,"distance":2519,"is_transit":false,"transit":false,"station_name":"Cisauk","i_long":106.640411,"time":4,"line":3},{"line":6,"station_name":"Serpong","time":4,"is_transit":false,"station_id":"SRP","i_lat":-6.319871,"transit":false,"distance":1784,"i_long":106.66566},{"distance":2413,"station_name":"Rawa Buntu","station_id":"RU","is_transit":false,"i_long":106.675475,"line":6,"time":4,"i_lat":-6.314823,"transit":false},{"station_id":"SDM","transit":false,"is_transit":false,"distance":4566,"station_name":"Sudimara","line":6,"i_long":106.712277,"i_lat":-6.296963,"time":6},{"i_lat":-6.288927,"distance":1994,"is_transit":false,"i_long":106.728916,"station_id":"JMU","station_name":"Jurangmangu","time":4,"transit":false,"line":6},{"is_transit":false,"time":3,"distance":2179,"i_lat":-6.276362,"line":6,"station_id":"PDJ","transit":false,"station_name":"Pondokranji","i_long":106.74273},{"line":6,"station_id":"KBY","transit":false,"i_lat":-6.237242,"i_long":106.780334,"distance":6218,"time":8,"is_transit":false,"station_name":"Kebayoran"},{"station_id":"PLM","distance":3737,"station_name":"Palmerah","i_long":106.79689,"line":6,"transit":false,"is_transit":false,"time":7,"i_lat":-6.207404},{"station_name":"Tanah Abang","i_long":106.811091,"line":1,"station_id":"THB","distance":3191,"is_transit":true,"time":6,"transit":true,"i_lat":-6.185545},{"i_lat":-6.20132,"distance":2029,"station_name":"Karet","is_transit":false,"station_id":"KAT","transit":false,"i_long":106.816351,"time":5,"line":1},{"time":1,"station_name":"Sudirman Baru","i_lat":-6.201433,"station_id":"SUDB","line":1,"is_transit":false,"transit":false,"i_long":106.819881,"distance":471},{"is_transit":false,"i_lat":-6.202263,"i_long":106.822649,"transit":false,"time":1,"distance":280,"station_id":"SUD","line":1,"station_name":"Sudirman"},{"i_long":106.84912,"transit":true,"station_name":"Manggarai","i_lat":-6.209883,"distance":3186,"line":2,"station_id":"MRI","time":4,"is_transit":true},{"i_long":106.840169,"distance":1590,"i_lat":-6.198556,"station_id":"CKI","transit":false,"line":2,"station_name":"Cikini","is_transit":false,"time":4},{"line":2,"station_name":"Gondangdia","station_id":"GDD","distance":1750,"time":3,"is_transit":false,"i_long":106.832183,"i_lat":-6.186295,"transit":false},{"i_long":106.828284,"station_name":"Juanda","time":4,"i_lat":-6.166716,"transit":false,"station_id":"JUA","is_transit":false,"distance":2015,"line":2},{"station_name":"Sawah Besar","distance":1149,"transit":false,"i_lat":-6.160725,"i_long":106.827103,"line":2,"station_id":"SW","time":2,"is_transit":false},{"line":2,"station_name":"Manggabesar","station_id":"MGB","time":2,"distance":906,"transit":false,"i_long":106.82482,"is_transit":false,"i_lat":-6.149769},{"i_long":106.820901,"station_id":"JAY","line":2,"is_transit":false,"time":2,"distance":1080,"station_name":"Jayakarta","i_lat":-6.141205,"transit":false},{"transit":true,"station_id":"JAKK","time":4,"station_name":"Jakarta Kota","i_long":106.812439,"i_lat":-6.137569,"distance":1264,"is_transit":true,"line":2},{"i_lat":-6.132549,"transit":true,"is_transit":true,"time":3,"distance":1364,"station_name":"Kampung Bandan","i_long":106.826365,"line":4,"station_id":"KPB"},{"i_long":106.836569,"time":3,"is_transit":false,"station_name":"Rajawali","line":11,"station_id":"RJW","distance":1444,"transit":false,"i_lat":-6.14505},{"transit":false,"is_transit":false,"i_lat":-6.161728,"distance":1901,"time":5,"line":11,"station_name":"Kemayoran","station_id":"KMO","i_long":106.839204},{"transit":false,"i_lat":-6.174784,"is_transit":false,"i_long":106.84368,"time":4,"line":11,"distance":1436,"station_id":"PSE","station_name":"Pasar Senen"},{"i_lat":-6.185975,"transit":false,"i_long":106.850107,"time":8,"distance":1567,"line":11,"is_transit":false,"station_id":"GST","station_name":"Gang Sentiong"},{"distance":973,"station_id":"KMT","i_long":106.855437,"transit":false,"line":11,"time":1,"i_lat":-6.193792,"station_name":"Kramat","is_transit":false},{"station_id":"POK","transit":false,"is_transit":false,"line":11,"station_name":"Pondok Jati","time":2,"i_long":106.861737,"distance":1829,"i_lat":-6.209188},{"line":1,"distance":1236,"station_name":"Jatinegara","transit":true,"i_long":106.86807400000001,"i_lat":-6.215091,"is_transit":true,"time":9,"station_id":"JNG"},{"is_transit":false,"i_lat":-6.2135,"station_name":"Klender","i_long":106.899548,"distance":3395,"transit":false,"line":1,"time":3,"station_id":"KLD"},{"i_lat":-6.215568,"time":2,"is_transit":false,"line":1,"i_long":106.922662,"transit":false,"station_name":"Buaran","station_id":"BUA","distance":3100}]]}