{"data":[[{"station_id":"TGS","time":0,"distance":0,"station_name":"Tigaraksa","transit":false,"i_lat":-6.328533,"is_transit":false,"i_long":106.425991,"line":6},{"distance":2974,"station_name":"Tenjo","time":5,"line":6,"i_long":106.460812,"station_id":"TEJ","transit":false,"i_lat":-6.327251,"is_transit":false},{"time":5,"i_long":106.491338,"station_id":"DAR","is_transit":false,"line":0,"distance":3902,"station_name":"Daru","i_lat":-6.338021,"transit":false},{"station_id":"CJT","transit":false,"i_lat":-6.354349,"i_long":106.508482,"line":3,"station_name":"Cilejit","distance":2675,"time":6,"is_transit":false},{"station_name":"Parung Panjang","station_id":"PRP","time":9,"line":6,"i_lat":-6.3441410000000005,"i_long":106.568863,"is_transit":false,"distance":7025,"transit":false},{"line":3,"i_lat":-6.329547,"station_id":"CC","station_name":"Cicayur","distance":5968,"is_transit":false,"transit":false,"i_long":106.617853,"time":8},{"station_id":"CSK","time":4,"is_transit":false,"distance":2519,"i_long":106.640411,"transit":false,"i_lat":-6.32484,"line":3,"station_name":"Cisauk"},{"station_name":"Serpong","is_transit":false,"station_id":"SRP","transit":false,"distance":1784,"i_lat":-6.319871,"line":6,"i_long":106.66566,"time":4},{"distance":2413,"station_name":"Rawa Buntu","is_transit":false,"transit":false,"i_lat":-6.314823,"station_id":"RU","time":4,"i_long":106.675475,"line":6},{"distance":4566,"time":6,"i_lat":-6.296963,"line":6,"transit":false,"i_long":106.712277,"station_id":"SDM","is_transit":false,"station_name":"Sudimara"},{"distance":1994,"station_id":"JMU","time":4,"is_transit":false,"station_name":"Jurangmangu","i_long":106.728916,"i_lat":-6.288927,"transit":false,"line":6},{"time":3,"station_name":"Pondokranji","distance":2179,"is_transit":false,"i_lat":-6.276362,"transit":false,"line":6,"i_long":106.74273,"station_id":"PDJ"},{"time":8,"is_transit":false,"station_id":"KBY","station_name":"Kebayoran","distance":6218,"transit":false,"line":6,"i_lat":-6.237242,"i_long":106.780334},{"distance":3737,"transit":false,"is_transit":false,"line":6,"time":7,"station_id":"PLM","i_lat":-6.207404,"station_name":"Palmerah","i_long":106.79689},{"station_id":"THB","is_transit":true,"i_lat":-6.185545,"time":6,"distance":3191,"transit":true,"station_name":"Tanah Abang","line":1,"i_long":106.811091},{"line":1,"transit":false,"station_name":"Karet","i_long":106.816351,"station_id":"KAT","is_transit":false,"i_lat":-6.20132,"time":5,"distance":2029},{"station_id":"SUDB","transit":false,"line":1,"distance":471,"station_name":"Sudirman Baru","is_transit":false,"i_lat":-6.201433,"i_long":106.819881,"time":1},{"station_name":"Sudirman","i_long":106.822649,"transit":false,"station_id":"SUD","line":1,"distance":280,"i_lat":-6.202263,"is_transit":false,"time":1},{"distance":3186,"is_transit":false,"i_lat":-6.209883,"station_id":"MRI","i_long":106.84912,"station_name":"Manggarai","line":2,"time":4,"transit":false}],[{"line":6,"time":0,"i_long":106.425991,"distance":0,"station_name":"Tigaraksa","transit":false,"is_transit":false,"station_id":"TGS","i_lat":-6.328533},{"is_transit":false,"station_id":"TEJ","transit":false,"i_lat":-6.327251,"distance":2974,"line":6,"time":5,"station_name":"Tenjo","i_long":106.460812},{"station_name":"Daru","time":5,"i_long":106.491338,"line":0,"is_transit":false,"station_id":"DAR","i_lat":-6.338021,"distance":3902,"transit":false},{"time":6,"line":3,"distance":2675,"i_lat":-6.354349,"transit":false,"station_name":"Cilejit","station_id":"CJT","i_long":106.508482,"is_transit":false},{"i_long":106.568863,"station_name":"Parung Panjang","distance":7025,"time":9,"line":6,"i_lat":-6.3441410000000005,"is_transit":false,"transit":false,"station_id":"PRP"},{"station_name":"Cicayur","time":8,"line":3,"is_transit":false,"transit":false,"distance":5968,"i_long":106.617853,"i_lat":-6.329547,"station_id":"CC"},{"i_long":106.640411,"i_lat":-6.32484,"distance":2519,"station_id":"CSK","is_transit":false,"transit":false,"line":3,"time":4,"station_name":"Cisauk"},{"time":4,"i_long":106.66566,"distance":1784,"is_transit":false,"i_lat":-6.319871,"transit":false,"station_id":"SRP","line":6,"station_name":"Serpong"},{"i_long":106.675475,"line":6,"time":4,"distance":2413,"station_name":"Rawa Buntu","is_transit":false,"station_id":"RU","i_lat":-6.314823,"transit":false},{"transit":false,"i_long":106.712277,"station_id":"SDM","is_transit":false,"time":6,"distance":4566,"i_lat":-6.296963,"station_name":"Sudimara","line":6},{"time":4,"distance":1994,"i_lat":-6.288927,"station_id":"JMU","i_long":106.728916,"is_transit":false,"transit":false,"station_name":"Jurangmangu","line":6},{"is_transit":false,"i_lat":-6.276362,"i_long":106.74273,"distance":2179,"station_name":"Pondokranji","time":3,"station_id":"PDJ","line":6,"transit":false},{"i_long":106.780334,"is_transit":false,"transit":false,"station_id":"KBY","i_lat":-6.237242,"distance":6218,"line":6,"time":8,"station_name":"Kebayoran"},{"transit":false,"i_lat":-6.207404,"distance":3737,"line":6,"station_name":"Palmerah","station_id":"PLM","i_long":106.79689,"is_transit":false,"time":7},{"time":6,"is_transit":true,"i_lat":-6.185545,"line":1,"transit":true,"distance":3191,"station_name":"Tanah Abang","station_id":"THB","i_long":106.811091},{"transit":false,"distance":3632,"station_name":"Duri","station_id":"DU","i_long":106.800832,"is_transit":false,"line":1,"i_lat":-6.155215,"time":8},{"i_long":106.79867,"i_lat":-6.144674,"time":4,"station_name":"Angke","transit":false,"is_transit":false,"line":1,"distance":1230,"station_id":"AK"},{"transit":true,"i_long":106.826365,"station_name":"Kampung Bandan","station_id":"KPB","i_lat":-6.132549,"is_transit":true,"distance":4102,"line":4,"time":9},{"transit":true,"is_transit":true,"i_long":106.812439,"station_name":"Jakarta Kota","station_id":"JAKK","time":3,"distance":1364,"line":2,"i_lat":-6.137569},{"station_id":"JAY","i_long":106.820901,"distance":1264,"transit":false,"station_name":"Jayakarta","line":2,"is_transit":false,"time":4,"i_lat":-6.141205},{"station_id":"MGB","distance":1080,"line":2,"time":2,"i_long":106.82482,"is_transit":false,"station_name":"Manggabesar","i_lat":-6.149769,"transit":false},{"i_lat":-6.160725,"i_long":106.827103,"station_id":"SW","is_transit":false,"transit":false,"station_name":"Sawah Besar","line":2,"time":2,"distance":906},{"line":2,"i_lat":-6.166716,"i_long":106.828284,"transit":false,"time":2,"station_id":"JUA","is_transit":false,"station_name":"Juanda","distance":1149},{"line":2,"station_name":"Gondangdia","station_id":"GDD","transit":false,"distance":2015,"i_lat":-6.186295,"is_transit":false,"i_long":106.832183,"time":4},{"distance":1750,"i_lat":-6.198556,"transit":false,"station_name":"Cikini","is_transit":false,"time":3,"i_long":106.840169,"line":2,"station_id":"CKI"},{"distance":1590,"i_lat":-6.209883,"i_long":106.84912,"time":4,"transit":false,"station_id":"MRI","station_name":"Manggarai","line":2,"is_transit":false}],[{"distance":0,"transit":false,"station_name":"Tigaraksa","is_transit":false,"i_long":106.425991,"time":0,"line":6,"i_lat":-6.328533,"station_id":"TGS"},{"transit":false,"distance":2974,"time":5,"is_transit":false,"i_lat":-6.327251,"line":6,"i_long":106.460812,"station_id":"TEJ","station_name":"Tenjo"},{"transit":false,"station_id":"DAR","station_name":"Daru","time":5,"is_transit":false,"i_lat":-6.338021,"line":0,"distance":3902,"i_long":106.491338},{"station_id":"CJT","distance":2675,"station_name":"Cilejit","transit":false,"is_transit":false,"i_long":106.508482,"i_lat":-6.354349,"line":3,"time":6},{"transit":false,"station_id":"PRP","is_transit":false,"station_name":"Parung Panjang","distance":7025,"time":9,"i_long":106.568863,"line":6,"i_lat":-6.3441410000000005},{"is_transit":false,"time":8,"i_lat":-6.329547,"line":3,"i_long":106.617853,"station_id":"CC","distance":5968,"station_name":"Cicayur","transit":false},{"i_lat":-6.32484,"distance":2519,"is_transit":false,"time":4,"i_long":106.640411,"station_id":"CSK","transit":false,"line":3,"station_name":"Cisauk"},{"line":6,"transit":false,"is_transit":false,"i_lat":-6.319871,"i_long":106.66566,"distance":1784,"station_id":"SRP","station_name":"Serpong","time":4},{"i_long":106.675475,"station_id":"RU","station_name":"Rawa Buntu","transit":false,"line":6,"is_transit":false,"time":4,"i_lat":-6.314823,"distance":2413},{"time":6,"distance":4566,"station_name":"Sudimara","is_transit":false,"i_long":106.712277,"transit":false,"station_id":"SDM","i_lat":-6.296963,"line":6},{"distance":1994,"line":6,"time":4,"i_lat":-6.288927,"transit":false,"is_transit":false,"station_name":"Jurangmangu","i_long":106.728916,"station_id":"JMU"},{"station_id":"PDJ","distance":2179,"i_long":106.74273,"line":6,"transit":false,"station_name":"Pondokranji","is_transit":false,"i_lat":-6.276362,"time":3},{"is_transit":false,"i_lat":-6.237242,"distance":6218,"transit":false,"line":6,"station_name":"Kebayoran","i_long":106.780334,"station_id":"KBY","time":8},{"line":6,"distance":3737,"station_name":"Palmerah","transit":false,"i_long":106.79689,"i_lat":-6.207404,"is_transit":false,"time":7,"station_id":"PLM"},{"is_transit":true,"i_lat":-6.185545,"station_name":"Tanah Abang","i_long":106.811091,"distance":3191,"transit":true,"line":1,"time":6,"station_id":"THB"},{"i_lat":-6.155215,"time":8,"is_transit":false,"line":1,"i_long":106.800832,"transit":false,"station_name":"Duri","station_id":"DU","distance":3632},{"line":1,"station_id":"AK","transit":false,"i_long":106.79867,"is_transit":false,"distance":1230,"station_name":"Angke","i_lat":-6.144674,"time":4},{"is_transit":true,"station_name":"Kampung Bandan","i_lat":-6.132549,"station_id":"KPB","time":9,"i_long":106.826365,"line":4,"transit":true,"distance":4102},{"line":11,"i_long":106.836569,"time":3,"station_name":"Rajawali","transit":false,"distance":1444,"is_transit":false,"i_lat":-6.14505,"station_id":"RJW"},{"i_long":106.839204,"station_name":"Kemayoran","time":5,"i_lat":-6.161728,"station_id":"KMO","transit":false,"line":11,"is_transit":false,"distance":1901},{"is_transit":false,"transit":false,"station_id":"PSE","time":4,"station_name":"Pasar Senen","i_lat":-6.174784,"distance":1436,"line":11,"i_long":106.84368},{"time":8,"i_long":106.850107,"station_name":"Gang Sentiong","i_lat":-6.185975,"is_transit":false,"transit":false,"line":11,"station_id":"GST","distance":1567},{"line":11,"transit":false,"i_lat":-6.193792,"station_name":"Kramat","station_id":"KMT","distance":973,"is_transit":false,"i_long":106.855437,"time":1},{"is_transit":false,"distance":1829,"station_name":"Pondok Jati","line":11,"time":2,"station_id":"POK","i_lat":-6.209188,"transit":false,"i_long":106.861737},{"time":9,"transit":true,"station_name":"Jatinegara","distance":1236,"station_id":"JNG","i_lat":-6.215091,"line":1,"is_transit":true,"i_long":106.86807400000001},{"station_id":"MTR","distance":1377,"line":1,"station_name":"Matraman","time":2,"i_long":106.858896,"transit":false,"is_transit":false,"i_lat":-6.212485},{"i_lat":-6.209883,"line":2,"is_transit":false,"station_name":"Manggarai","station_id":"MRI","transit":false,"distance":1275,"i_long":106.84912,"time":2}]]}