{"data":[[{"i_long":106.425991,"transit":false,"time":0,"station_id":"TGS","i_lat":-6.328533,"distance":0,"station_name":"Tigaraksa","is_transit":false,"line":6},{"station_id":"TEJ","line":6,"station_name":"Tenjo","is_transit":false,"transit":false,"time":5,"i_lat":-6.327251,"distance":2974,"i_long":106.460812},{"i_lat":-6.338021,"station_name":"Daru","distance":3902,"transit":false,"line":0,"is_transit":false,"station_id":"DAR","time":5,"i_long":106.491338},{"transit":false,"i_long":106.508482,"distance":2675,"station_id":"CJT","line":0,"is_transit":false,"i_lat":-6.354349,"station_name":"Cilejit","time":6},{"transit":false,"station_id":"PRP","station_name":"Parung Panjang","distance":7025,"time":9,"is_transit":false,"i_long":106.568863,"line":6,"i_lat":-6.3441410000000005},{"time":8,"is_transit":false,"distance":5968,"station_name":"Cicayur","transit":false,"station_id":"CC","line":0,"i_lat":-6.329547,"i_long":106.617853},{"is_transit":false,"transit":false,"line":0,"station_id":"CSK","distance":2519,"i_lat":-6.32484,"i_long":106.640411,"time":4,"station_name":"Cisauk"},{"line":6,"time":4,"station_name":"Serpong","distance":1784,"transit":false,"i_long":106.66566,"is_transit":false,"station_id":"SRP","i_lat":-6.319871},{"transit":false,"line":6,"i_lat":-6.314823,"time":4,"station_id":"RU","distance":2413,"i_long":106.675475,"station_name":"Rawa Buntu","is_transit":false},{"distance":4566,"i_long":106.712277,"is_transit":false,"station_id":"SDM","transit":false,"time":6,"station_name":"Sudimara","i_lat":-6.296963,"line":6},{"time":4,"i_long":106.728916,"transit":false,"i_lat":-6.288927,"distance":1994,"station_name":"Jurangmangu","station_id":"JMU","is_transit":false,"line":6},{"time":3,"station_id":"PDJ","i_long":106.74273,"station_name":"Pondokranji","transit":false,"line":6,"distance":2179,"is_transit":false,"i_lat":-6.276362},{"i_lat":-6.237242,"distance":6218,"is_transit":false,"station_name":"Kebayoran","station_id":"KBY","line":6,"i_long":106.780334,"time":8,"transit":false},{"transit":false,"line":6,"station_name":"Palmerah","distance":3737,"station_id":"PLM","i_long":106.79689,"time":7,"is_transit":false,"i_lat":-6.207404},{"is_transit":true,"transit":true,"i_long":106.811091,"station_id":"THB","i_lat":-6.185545,"distance":3191,"line":1,"time":6,"station_name":"Tanah Abang"},{"line":1,"transit":false,"i_lat":-6.20132,"is_transit":false,"distance":2029,"time":5,"station_name":"Karet","station_id":"KAT","i_long":106.816351},{"time":1,"station_name":"Sudirman Baru","distance":471,"transit":false,"i_lat":-6.201433,"line":1,"station_id":"SUDB","i_long":106.819881,"is_transit":false},{"distance":280,"transit":false,"station_name":"Sudirman","i_long":106.822649,"time":1,"line":1,"i_lat":-6.202263,"station_id":"SUD","is_transit":false},{"distance":3186,"station_id":"MRI","i_long":106.84912,"line":0,"i_lat":-6.209883,"is_transit":true,"transit":true,"time":4,"station_name":"Manggarai"},{"line":2,"station_id":"TEB","distance":2610,"i_long":106.857948,"transit":false,"i_lat":-6.226659,"station_name":"Tebet","is_transit":false,"time":4},{"i_lat":-6.242512,"transit":false,"distance":1230,"time":2,"i_long":106.856607,"station_name":"Cawang","station_id":"CW","is_transit":false,"line":0},{"transit":false,"i_lat":-6.255332,"distance":1546,"station_name":"Duren Kalibata","station_id":"DRN","time":3,"is_transit":false,"i_long":106.85449,"line":0},{"transit":false,"station_id":"PSMB","i_long":106.851577,"i_lat":-6.263214,"is_transit":false,"time":2,"line":2,"distance":824,"station_name":"Pasar Minggu Baru"},{"time":2,"distance":2380,"station_id":"PSM","station_name":"Pasar Minggu","transit":false,"i_lat":-6.2842400000000005,"i_long":106.843999,"is_transit":false,"line":2},{"line":2,"is_transit":false,"i_long":106.838896,"station_id":"TNT","i_lat":-6.3080680000000005,"transit":false,"station_name":"Tanjung Barat","time":4,"distance":2820}],[{"i_long":106.425991,"distance":0,"time":0,"station_id":"TGS","transit":false,"station_name":"Tigaraksa","line":6,"i_lat":-6.328533,"is_transit":false},{"line":6,"time":5,"i_lat":-6.327251,"i_long":106.460812,"station_name":"Tenjo","transit":false,"is_transit":false,"station_id":"TEJ","distance":2974},{"is_transit":false,"distance":3902,"transit":false,"line":0,"station_id":"DAR","station_name":"Daru","i_long":106.491338,"i_lat":-6.338021,"time":5},{"i_long":106.508482,"line":0,"time":6,"distance":2675,"is_transit":false,"transit":false,"i_lat":-6.354349,"station_name":"Cilejit","station_id":"CJT"},{"is_transit":false,"transit":false,"i_lat":-6.3441410000000005,"distance":7025,"station_name":"Parung Panjang","i_long":106.568863,"time":9,"station_id":"PRP","line":6},{"station_name":"Cicayur","time":8,"i_long":106.617853,"station_id":"CC","line":0,"i_lat":-6.329547,"distance":5968,"transit":false,"is_transit":false},{"transit":false,"i_long":106.640411,"station_id":"CSK","is_transit":false,"i_lat":-6.32484,"line":0,"distance":2519,"time":4,"station_name":"Cisauk"},{"i_long":106.66566,"is_transit":false,"i_lat":-6.319871,"station_id":"SRP","time":4,"transit":false,"line":6,"distance":1784,"station_name":"Serpong"},{"distance":2413,"time":4,"station_id":"RU","i_lat":-6.314823,"transit":false,"i_long":106.675475,"is_transit":false,"line":6,"station_name":"Rawa Buntu"},{"i_lat":-6.296963,"i_long":106.712277,"transit":false,"station_id":"SDM","line":6,"time":6,"is_transit":false,"distance":4566,"station_name":"Sudimara"},{"is_transit":false,"i_long":106.728916,"i_lat":-6.288927,"station_name":"Jurangmangu","time":4,"transit":false,"distance":1994,"line":6,"station_id":"JMU"},{"i_long":106.74273,"line":6,"station_id":"PDJ","station_name":"Pondokranji","i_lat":-6.276362,"transit":false,"distance":2179,"is_transit":false,"time":3},{"i_long":106.780334,"transit":false,"distance":6218,"i_lat":-6.237242,"station_name":"Kebayoran","is_transit":false,"time":8,"line":6,"station_id":"KBY"},{"station_name":"Palmerah","line":6,"transit":false,"distance":3737,"i_long":106.79689,"time":7,"i_lat":-6.207404,"is_transit":false,"station_id":"PLM"},{"transit":true,"is_transit":true,"i_lat":-6.185545,"station_id":"THB","station_name":"Tanah Abang","distance":3191,"i_long":106.811091,"line":1,"time":6},{"station_id":"DU","i_lat":-6.155215,"transit":true,"i_long":106.800832,"distance":3632,"station_name":"Duri","is_transit":true,"time":8,"line":1},{"time":4,"station_name":"Angke","is_transit":false,"transit":false,"distance":1230,"station_id":"AK","i_long":106.79867,"line":0,"i_lat":-6.144674},{"i_lat":-6.132549,"i_long":106.826365,"line":0,"transit":false,"station_name":"Kampung Bandan","is_transit":true,"time":9,"distance":4102,"station_id":"KPB"},{"distance":1364,"transit":true,"station_id":"JAKK","station_name":"Jakarta Kota","i_long":106.812439,"i_lat":-6.137569,"time":3,"line":0,"is_transit":true},{"distance":1264,"time":4,"station_id":"JAY","transit":false,"is_transit":false,"station_name":"Jayakarta","i_lat":-6.141205,"i_long":106.820901,"line":7},{"station_id":"MGB","line":2,"time":2,"is_transit":false,"distance":1080,"station_name":"Manggabesar","transit":false,"i_long":106.82482,"i_lat":-6.149769},{"station_id":"SW","distance":906,"line":2,"i_long":106.827103,"transit":false,"station_name":"Sawah Besar","is_transit":false,"time":2,"i_lat":-6.160725},{"i_long":106.828284,"distance":1149,"transit":false,"is_transit":false,"time":2,"station_name":"Juanda","i_lat":-6.166716,"station_id":"JUA","line":2},{"is_transit":false,"station_name":"Gondangdia","station_id":"GDD","time":4,"i_long":106.832183,"line":2,"transit":false,"distance":2015,"i_lat":-6.186295},{"station_name":"Cikini","station_id":"CKI","i_lat":-6.198556,"distance":1750,"line":0,"is_transit":false,"i_long":106.840169,"time":3,"transit":false},{"time":4,"i_lat":-6.209883,"transit":true,"distance":1590,"is_transit":true,"station_id":"MRI","line":0,"i_long":106.84912,"station_name":"Manggarai"},{"transit":false,"distance":2610,"station_name":"Tebet","time":4,"station_id":"TEB","line":2,"i_lat":-6.226659,"is_transit":false,"i_long":106.857948},{"distance":1230,"is_transit":false,"time":2,"station_name":"Cawang","station_id":"CW","line":0,"i_long":106.856607,"transit":false,"i_lat":-6.242512},{"transit":false,"is_transit":false,"distance":1546,"i_long":106.85449,"line":0,"time":3,"station_name":"Duren Kalibata","i_lat":-6.255332,"station_id":"DRN"},{"station_id":"PSMB","i_long":106.851577,"is_transit":false,"time":2,"station_name":"Pasar Minggu Baru","transit":false,"i_lat":-6.263214,"distance":824,"line":2},{"station_id":"PSM","is_transit":false,"i_lat":-6.2842400000000005,"i_long":106.843999,"time":2,"station_name":"Pasar Minggu","transit":false,"line":2,"distance":2380},{"distance":2820,"line":2,"i_long":106.838896,"station_name":"Tanjung Barat","transit":false,"is_transit":false,"time":4,"station_id":"TNT","i_lat":-6.3080680000000005}],[{"distance":0,"line":6,"i_long":106.425991,"i_lat":-6.328533,"station_name":"Tigaraksa","time":0,"is_transit":false,"transit":false,"station_id":"TGS"},{"i_long":106.460812,"i_lat":-6.327251,"transit":false,"time":5,"station_name":"Tenjo","line":6,"is_transit":false,"distance":2974,"station_id":"TEJ"},{"distance":3902,"time":5,"transit":false,"is_transit":false,"station_id":"DAR","station_name":"Daru","i_lat":-6.338021,"i_long":106.491338,"line":0},{"station_id":"CJT","i_long":106.508482,"is_transit":false,"distance":2675,"station_name":"Cilejit","transit":false,"time":6,"i_lat":-6.354349,"line":0},{"i_long":106.568863,"transit":false,"is_transit":false,"distance":7025,"station_name":"Parung Panjang","station_id":"PRP","time":9,"line":6,"i_lat":-6.3441410000000005},{"is_transit":false,"distance":5968,"time":8,"i_long":106.617853,"line":0,"transit":false,"station_name":"Cicayur","i_lat":-6.329547,"station_id":"CC"},{"distance":2519,"transit":false,"station_id":"CSK","is_transit":false,"i_long":106.640411,"time":4,"i_lat":-6.32484,"station_name":"Cisauk","line":0},{"line":6,"i_long":106.66566,"station_name":"Serpong","transit":false,"i_lat":-6.319871,"is_transit":false,"station_id":"SRP","time":4,"distance":1784},{"is_transit":false,"station_name":"Rawa Buntu","distance":2413,"station_id":"RU","time":4,"i_lat":-6.314823,"transit":false,"i_long":106.675475,"line":6},{"is_transit":false,"i_long":106.712277,"line":6,"station_id":"SDM","i_lat":-6.296963,"time":6,"station_name":"Sudimara","transit":false,"distance":4566},{"is_transit":false,"distance":1994,"station_name":"Jurangmangu","transit":false,"station_id":"JMU","i_long":106.728916,"line":6,"i_lat":-6.288927,"time":4},{"i_long":106.74273,"distance":2179,"station_name":"Pondokranji","line":6,"time":3,"station_id":"PDJ","is_transit":false,"i_lat":-6.276362,"transit":false},{"distance":6218,"station_name":"Kebayoran","time":8,"is_transit":false,"transit":false,"station_id":"KBY","i_long":106.780334,"line":6,"i_lat":-6.237242},{"is_transit":false,"i_long":106.79689,"distance":3737,"time":7,"station_id":"PLM","transit":false,"line":6,"i_lat":-6.207404,"station_name":"Palmerah"},{"station_id":"THB","distance":3191,"i_lat":-6.185545,"is_transit":true,"station_name":"Tanah Abang","time":6,"transit":true,"i_long":106.811091,"line":1},{"time":8,"distance":3632,"is_transit":true,"transit":true,"line":1,"i_lat":-6.155215,"station_name":"Duri","i_long":106.800832,"station_id":"DU"},{"distance":1230,"transit":false,"time":4,"station_id":"AK","i_long":106.79867,"is_transit":false,"station_name":"Angke","i_lat":-6.144674,"line":0},{"station_id":"KPB","i_lat":-6.132549,"line":0,"transit":true,"is_transit":true,"time":9,"distance":4102,"station_name":"Kampung Bandan","i_long":106.826365},{"i_long":106.836569,"is_transit":false,"time":3,"transit":false,"i_lat":-6.14505,"station_name":"Rajawali","line":11,"distance":1444,"station_id":"RJW"},{"station_id":"KMO","transit":false,"is_transit":false,"time":5,"distance":1901,"station_name":"Kemayoran","line":11,"i_lat":-6.161728,"i_long":106.839204},{"i_long":106.84368,"station_id":"PSE","time":4,"station_name":"Pasar Senen","distance":1436,"line":11,"i_lat":-6.174784,"transit":false,"is_transit":false},{"is_transit":false,"time":8,"i_long":106.850107,"transit":false,"i_lat":-6.185975,"distance":1567,"station_name":"Gang Sentiong","line":11,"station_id":"GST"},{"i_lat":-6.193792,"distance":973,"i_long":106.855437,"time":1,"transit":false,"line":11,"is_transit":false,"station_name":"Kramat","station_id":"KMT"},{"station_id":"POK","i_lat":-6.209188,"time":2,"line":11,"is_transit":false,"station_name":"Pondok Jati","transit":false,"i_long":106.861737,"distance":1829},{"line":0,"distance":1236,"transit":true,"station_id":"JNG","is_transit":true,"time":9,"station_name":"Jatinegara","i_long":106.86807400000001,"i_lat":-6.215091},{"i_lat":-6.212485,"is_transit":false,"distance":1377,"i_long":106.858896,"station_name":"Matraman","time":2,"transit":false,"station_id":"MTR","line":1},{"distance":1275,"time":2,"station_id":"MRI","transit":true,"is_transit":true,"line":0,"station_name":"Manggarai","i_lat":-6.209883,"i_long":106.84912},{"i_long":106.857948,"distance":2610,"i_lat":-6.226659,"is_transit":false,"station_id":"TEB","time":4,"line":2,"transit":false,"station_name":"Tebet"},{"line":0,"i_lat":-6.242512,"time":2,"distance":1230,"station_name":"Cawang","is_transit":false,"transit":false,"station_id":"CW","i_long":106.856607},{"i_long":106.85449,"station_id":"DRN","transit":false,"i_lat":-6.255332,"is_transit":false,"distance":1546,"time":3,"station_name":"Duren Kalibata","line":0},{"line":2,"time":2,"transit":false,"distance":824,"i_lat":-6.263214,"station_name":"Pasar Minggu Baru","is_transit":false,"station_id":"PSMB","i_long":106.851577},{"line":2,"is_transit":false,"time":2,"station_name":"Pasar Minggu","transit":false,"i_lat":-6.2842400000000005,"station_id":"PSM","distance":2380,"i_long":106.843999},{"station_id":"TNT","time":4,"distance":2820,"is_transit":false,"transit":false,"line":2,"station_name":"Tanjung Barat","i_lat":-6.3080680000000005,"i_long":106.838896}]]}