{"data":[[{"transit":false,"i_long":106.425991,"station_name":"Tigaraksa","i_lat":-6.328533,"line":6,"distance":0,"station_id":"TGS","is_transit":false,"time":0},{"station_id":"TEJ","i_lat":-6.327251,"is_transit":false,"i_long":106.460812,"transit":false,"distance":2974,"line":6,"station_name":"Tenjo","time":5},{"time":5,"i_long":106.491338,"distance":3902,"i_lat":-6.338021,"line":0,"transit":false,"station_name":"Daru","is_transit":false,"station_id":"DAR"},{"line":3,"station_id":"CJT","is_transit":false,"transit":false,"time":6,"station_name":"Cilejit","distance":2675,"i_lat":-6.354349,"i_long":106.508482},{"line":6,"distance":7025,"transit":false,"station_id":"PRP","station_name":"Parung Panjang","is_transit":false,"time":9,"i_lat":-6.3441410000000005,"i_long":106.568863},{"station_id":"CC","line":3,"i_long":106.617853,"time":8,"i_lat":-6.329547,"is_transit":false,"distance":5968,"transit":false,"station_name":"Cicayur"},{"is_transit":false,"distance":2519,"i_lat":-6.32484,"i_long":106.640411,"line":3,"time":4,"transit":false,"station_id":"CSK","station_name":"Cisauk"},{"transit":false,"station_name":"Serpong","time":4,"distance":1784,"is_transit":false,"i_long":106.66566,"i_lat":-6.319871,"line":6,"station_id":"SRP"},{"is_transit":false,"i_long":106.675475,"line":6,"distance":2413,"transit":false,"time":4,"i_lat":-6.314823,"station_name":"Rawa Buntu","station_id":"RU"},{"station_name":"Sudimara","time":6,"station_id":"SDM","transit":false,"line":6,"distance":4566,"is_transit":false,"i_lat":-6.296963,"i_long":106.712277},{"is_transit":false,"station_id":"JMU","i_lat":-6.288927,"i_long":106.728916,"line":6,"time":4,"station_name":"Jurangmangu","transit":false,"distance":1994},{"time":3,"transit":false,"station_name":"Pondokranji","distance":2179,"line":6,"is_transit":false,"i_long":106.74273,"i_lat":-6.276362,"station_id":"PDJ"},{"i_lat":-6.237242,"is_transit":false,"i_long":106.780334,"distance":6218,"line":6,"time":8,"station_name":"Kebayoran","transit":false,"station_id":"KBY"},{"is_transit":false,"line":6,"station_id":"PLM","i_long":106.79689,"transit":false,"station_name":"Palmerah","distance":3737,"i_lat":-6.207404,"time":7},{"line":1,"transit":true,"is_transit":true,"station_name":"Tanah Abang","station_id":"THB","i_long":106.811091,"i_lat":-6.185545,"distance":3191,"time":6},{"transit":false,"is_transit":false,"i_long":106.816351,"line":1,"station_id":"KAT","station_name":"Karet","time":5,"distance":2029,"i_lat":-6.20132},{"station_id":"SUDB","is_transit":false,"time":1,"distance":471,"station_name":"Sudirman Baru","transit":false,"i_lat":-6.201433,"i_long":106.819881,"line":1},{"i_long":106.822649,"line":1,"transit":false,"station_name":"Sudirman","i_lat":-6.202263,"is_transit":false,"time":1,"station_id":"SUD","distance":280},{"is_transit":false,"transit":false,"time":4,"line":2,"i_long":106.84912,"station_id":"MRI","i_lat":-6.209883,"station_name":"Manggarai","distance":3186},{"i_long":106.858896,"time":2,"station_name":"Matraman","is_transit":false,"i_lat":-6.212485,"distance":1275,"line":1,"transit":false,"station_id":"MTR"},{"line":1,"is_transit":false,"i_long":106.86807400000001,"time":8,"station_id":"JNG","transit":false,"distance":1377,"i_lat":-6.215091,"station_name":"Jatinegara"},{"distance":3395,"time":3,"transit":false,"i_long":106.899548,"station_id":"KLD","line":1,"station_name":"Klender","i_lat":-6.2135,"is_transit":false}],[{"is_transit":false,"station_name":"Tigaraksa","i_lat":-6.328533,"transit":false,"time":0,"line":6,"distance":0,"station_id":"TGS","i_long":106.425991},{"distance":2974,"i_long":106.460812,"station_name":"Tenjo","is_transit":false,"line":6,"time":5,"i_lat":-6.327251,"transit":false,"station_id":"TEJ"},{"transit":false,"station_name":"Daru","time":5,"is_transit":false,"line":0,"station_id":"DAR","distance":3902,"i_lat":-6.338021,"i_long":106.491338},{"time":6,"transit":false,"station_name":"Cilejit","station_id":"CJT","is_transit":false,"i_long":106.508482,"line":3,"i_lat":-6.354349,"distance":2675},{"line":6,"distance":7025,"station_id":"PRP","station_name":"Parung Panjang","transit":false,"time":9,"i_lat":-6.3441410000000005,"is_transit":false,"i_long":106.568863},{"line":3,"transit":false,"is_transit":false,"distance":5968,"i_long":106.617853,"station_id":"CC","i_lat":-6.329547,"station_name":"Cicayur","time":8},{"station_name":"Cisauk","is_transit":false,"i_long":106.640411,"transit":false,"i_lat":-6.32484,"time":4,"distance":2519,"line":3,"station_id":"CSK"},{"distance":1784,"station_id":"SRP","line":6,"time":4,"i_long":106.66566,"transit":false,"is_transit":false,"i_lat":-6.319871,"station_name":"Serpong"},{"station_name":"Rawa Buntu","station_id":"RU","is_transit":false,"time":4,"i_lat":-6.314823,"line":6,"i_long":106.675475,"transit":false,"distance":2413},{"station_name":"Sudimara","station_id":"SDM","is_transit":false,"time":6,"line":6,"distance":4566,"transit":false,"i_long":106.712277,"i_lat":-6.296963},{"station_id":"JMU","station_name":"Jurangmangu","i_long":106.728916,"transit":false,"is_transit":false,"distance":1994,"time":4,"i_lat":-6.288927,"line":6},{"station_id":"PDJ","is_transit":false,"line":6,"time":3,"i_long":106.74273,"distance":2179,"transit":false,"station_name":"Pondokranji","i_lat":-6.276362},{"i_lat":-6.237242,"is_transit":false,"i_long":106.780334,"time":8,"station_id":"KBY","distance":6218,"line":6,"station_name":"Kebayoran","transit":false},{"time":7,"i_long":106.79689,"station_name":"Palmerah","i_lat":-6.207404,"station_id":"PLM","line":6,"distance":3737,"is_transit":false,"transit":false},{"station_id":"THB","i_lat":-6.185545,"transit":true,"line":1,"is_transit":true,"distance":3191,"i_long":106.811091,"station_name":"Tanah Abang","time":6},{"is_transit":false,"distance":3632,"time":8,"line":1,"i_long":106.800832,"station_name":"Duri","transit":false,"station_id":"DU","i_lat":-6.155215},{"station_name":"Angke","is_transit":false,"i_long":106.79867,"distance":1230,"line":1,"time":4,"station_id":"AK","i_lat":-6.144674,"transit":false},{"time":9,"transit":true,"is_transit":true,"station_id":"KPB","distance":4102,"line":4,"i_lat":-6.132549,"station_name":"Kampung Bandan","i_long":106.826365},{"i_lat":-6.14505,"line":11,"is_transit":false,"i_long":106.836569,"transit":false,"station_id":"RJW","station_name":"Rajawali","time":3,"distance":1444},{"i_long":106.839204,"station_name":"Kemayoran","station_id":"KMO","i_lat":-6.161728,"is_transit":false,"distance":1901,"transit":false,"line":11,"time":5},{"station_name":"Pasar Senen","distance":1436,"transit":false,"station_id":"PSE","line":11,"is_transit":false,"i_long":106.84368,"time":4,"i_lat":-6.174784},{"i_lat":-6.185975,"station_name":"Gang Sentiong","is_transit":false,"line":11,"station_id":"GST","i_long":106.850107,"time":8,"transit":false,"distance":1567},{"station_id":"KMT","is_transit":false,"transit":false,"time":1,"i_long":106.855437,"line":11,"station_name":"Kramat","distance":973,"i_lat":-6.193792},{"line":11,"distance":1829,"is_transit":false,"transit":false,"station_id":"POK","station_name":"Pondok Jati","time":2,"i_long":106.861737,"i_lat":-6.209188},{"transit":true,"station_id":"JNG","i_long":106.86807400000001,"distance":1236,"station_name":"Jatinegara","is_transit":true,"line":1,"time":9,"i_lat":-6.215091},{"station_name":"Klender","station_id":"KLD","is_transit":false,"i_long":106.899548,"line":1,"time":3,"distance":3395,"i_lat":-6.2135,"transit":false}],[{"distance":0,"i_lat":-6.328533,"is_transit":false,"station_id":"TGS","time":0,"transit":false,"i_long":106.425991,"line":6,"station_name":"Tigaraksa"},{"is_transit":false,"time":5,"station_name":"Tenjo","distance":2974,"i_long":106.460812,"station_id":"TEJ","transit":false,"i_lat":-6.327251,"line":6},{"time":5,"station_name":"Daru","i_long":106.491338,"line":0,"transit":false,"station_id":"DAR","distance":3902,"is_transit":false,"i_lat":-6.338021},{"transit":false,"station_name":"Cilejit","distance":2675,"i_lat":-6.354349,"station_id":"CJT","time":6,"line":3,"i_long":106.508482,"is_transit":false},{"i_lat":-6.3441410000000005,"line":6,"transit":false,"station_name":"Parung Panjang","station_id":"PRP","distance":7025,"i_long":106.568863,"is_transit":false,"time":9},{"station_id":"CC","time":8,"i_long":106.617853,"transit":false,"station_name":"Cicayur","distance":5968,"line":3,"i_lat":-6.329547,"is_transit":false},{"station_name":"Cisauk","transit":false,"time":4,"station_id":"CSK","is_transit":false,"distance":2519,"i_lat":-6.32484,"i_long":106.640411,"line":3},{"distance":1784,"i_lat":-6.319871,"station_id":"SRP","transit":false,"time":4,"is_transit":false,"line":6,"i_long":106.66566,"station_name":"Serpong"},{"line":6,"time":4,"i_lat":-6.314823,"is_transit":false,"transit":false,"station_name":"Rawa Buntu","distance":2413,"i_long":106.675475,"station_id":"RU"},{"station_id":"SDM","is_transit":false,"distance":4566,"i_long":106.712277,"station_name":"Sudimara","line":6,"transit":false,"time":6,"i_lat":-6.296963},{"i_long":106.728916,"transit":false,"station_name":"Jurangmangu","station_id":"JMU","is_transit":false,"distance":1994,"time":4,"i_lat":-6.288927,"line":6},{"transit":false,"time":3,"is_transit":false,"line":6,"distance":2179,"station_id":"PDJ","i_lat":-6.276362,"station_name":"Pondokranji","i_long":106.74273},{"is_transit":false,"station_id":"KBY","distance":6218,"station_name":"Kebayoran","i_lat":-6.237242,"time":8,"line":6,"i_long":106.780334,"transit":false},{"distance":3737,"line":6,"i_lat":-6.207404,"i_long":106.79689,"transit":false,"is_transit":false,"station_name":"Palmerah","station_id":"PLM","time":7},{"line":1,"distance":3191,"i_long":106.811091,"transit":true,"station_id":"THB","time":6,"i_lat":-6.185545,"is_transit":true,"station_name":"Tanah Abang"},{"time":8,"distance":3632,"i_lat":-6.155215,"i_long":106.800832,"line":1,"station_id":"DU","is_transit":false,"transit":false,"station_name":"Duri"},{"i_lat":-6.144674,"is_transit":false,"i_long":106.79867,"transit":false,"station_id":"AK","line":1,"station_name":"Angke","time":4,"distance":1230},{"i_long":106.826365,"is_transit":true,"transit":true,"station_name":"Kampung Bandan","i_lat":-6.132549,"distance":4102,"station_id":"KPB","line":4,"time":9},{"is_transit":true,"i_long":106.812439,"line":2,"time":3,"station_name":"Jakarta Kota","distance":1364,"transit":true,"station_id":"JAKK","i_lat":-6.137569},{"time":4,"line":2,"is_transit":false,"station_name":"Jayakarta","i_lat":-6.141205,"i_long":106.820901,"distance":1264,"transit":false,"station_id":"JAY"},{"i_long":106.82482,"distance":1080,"transit":false,"line":2,"station_name":"Manggabesar","station_id":"MGB","is_transit":false,"i_lat":-6.149769,"time":2},{"distance":906,"line":2,"transit":false,"station_name":"Sawah Besar","i_lat":-6.160725,"i_long":106.827103,"time":2,"is_transit":false,"station_id":"SW"},{"station_id":"JUA","transit":false,"line":2,"i_long":106.828284,"distance":1149,"is_transit":false,"i_lat":-6.166716,"time":2,"station_name":"Juanda"},{"station_id":"GDD","is_transit":false,"station_name":"Gondangdia","distance":2015,"i_long":106.832183,"line":2,"transit":false,"time":4,"i_lat":-6.186295},{"transit":false,"is_transit":false,"time":3,"line":2,"station_name":"Cikini","distance":1750,"i_lat":-6.198556,"station_id":"CKI","i_long":106.840169},{"station_name":"Manggarai","station_id":"MRI","i_lat":-6.209883,"distance":1590,"i_long":106.84912,"line":2,"transit":true,"is_transit":true,"time":4},{"is_transit":false,"i_lat":-6.212485,"transit":false,"time":2,"i_long":106.858896,"line":1,"station_name":"Matraman","station_id":"MTR","distance":1275},{"time":8,"i_lat":-6.215091,"i_long":106.86807400000001,"transit":false,"distance":1377,"line":1,"station_name":"Jatinegara","is_transit":false,"station_id":"JNG"},{"station_name":"Klender","station_id":"KLD","i_lat":-6.2135,"is_transit":false,"transit":false,"distance":3395,"i_long":106.899548,"line":1,"time":3}],[{"station_name":"Tigaraksa","station_id":"TGS","line":6,"is_transit":false,"i_long":106.425991,"distance":0,"time":0,"i_lat":-6.328533,"transit":false},{"station_name":"Tenjo","time":5,"distance":2974,"station_id":"TEJ","i_long":106.460812,"transit":false,"i_lat":-6.327251,"is_transit":false,"line":6},{"time":5,"transit":false,"station_name":"Daru","is_transit":false,"i_lat":-6.338021,"line":0,"distance":3902,"station_id":"DAR","i_long":106.491338},{"distance":2675,"transit":false,"line":3,"time":6,"i_long":106.508482,"station_name":"Cilejit","station_id":"CJT","is_transit":false,"i_lat":-6.354349},{"i_lat":-6.3441410000000005,"line":6,"is_transit":false,"i_long":106.568863,"time":9,"transit":false,"station_id":"PRP","station_name":"Parung Panjang","distance":7025},{"transit":false,"i_long":106.617853,"line":3,"is_transit":false,"distance":5968,"time":8,"i_lat":-6.329547,"station_name":"Cicayur","station_id":"CC"},{"distance":2519,"time":4,"is_transit":false,"i_long":106.640411,"line":3,"transit":false,"station_id":"CSK","i_lat":-6.32484,"station_name":"Cisauk"},{"distance":1784,"is_transit":false,"station_name":"Serpong","time":4,"transit":false,"station_id":"SRP","i_long":106.66566,"i_lat":-6.319871,"line":6},{"time":4,"line":6,"transit":false,"i_lat":-6.314823,"i_long":106.675475,"is_transit":false,"station_name":"Rawa Buntu","station_id":"RU","distance":2413},{"time":6,"i_lat":-6.296963,"station_name":"Sudimara","station_id":"SDM","distance":4566,"i_long":106.712277,"is_transit":false,"line":6,"transit":false},{"is_transit":false,"distance":1994,"i_long":106.728916,"line":6,"i_lat":-6.288927,"transit":false,"station_name":"Jurangmangu","station_id":"JMU","time":4},{"i_lat":-6.276362,"distance":2179,"i_long":106.74273,"line":6,"transit":false,"time":3,"station_id":"PDJ","station_name":"Pondokranji","is_transit":false},{"transit":false,"distance":6218,"time":8,"is_transit":false,"line":6,"station_name":"Kebayoran","i_lat":-6.237242,"i_long":106.780334,"station_id":"KBY"},{"time":7,"station_name":"Palmerah","distance":3737,"i_lat":-6.207404,"i_long":106.79689,"is_transit":false,"station_id":"PLM","line":6,"transit":false},{"i_long":106.811091,"line":1,"distance":3191,"transit":true,"station_name":"Tanah Abang","time":6,"is_transit":true,"i_lat":-6.185545,"station_id":"THB"},{"station_id":"KAT","distance":2029,"is_transit":false,"line":1,"time":5,"i_long":106.816351,"transit":false,"station_name":"Karet","i_lat":-6.20132},{"is_transit":false,"time":1,"line":1,"i_long":106.819881,"station_id":"SUDB","i_lat":-6.201433,"distance":471,"transit":false,"station_name":"Sudirman Baru"},{"time":1,"is_transit":false,"i_lat":-6.202263,"line":1,"i_long":106.822649,"station_id":"SUD","transit":false,"distance":280,"station_name":"Sudirman"},{"i_long":106.84912,"station_id":"MRI","is_transit":true,"distance":3186,"line":2,"station_name":"Manggarai","transit":true,"i_lat":-6.209883,"time":4},{"transit":false,"distance":1590,"station_name":"Cikini","i_lat":-6.198556,"i_long":106.840169,"line":2,"is_transit":false,"station_id":"CKI","time":4},{"is_transit":false,"distance":1750,"i_long":106.832183,"transit":false,"station_id":"GDD","station_name":"Gondangdia","i_lat":-6.186295,"line":2,"time":3},{"distance":2015,"i_long":106.828284,"station_id":"JUA","is_transit":false,"i_lat":-6.166716,"time":4,"transit":false,"line":2,"station_name":"Juanda"},{"station_name":"Sawah Besar","transit":false,"i_long":106.827103,"station_id":"SW","i_lat":-6.160725,"distance":1149,"line":2,"is_transit":false,"time":2},{"line":2,"transit":false,"station_name":"Manggabesar","i_lat":-6.149769,"station_id":"MGB","time":2,"is_transit":false,"distance":906,"i_long":106.82482},{"time":2,"i_long":106.820901,"station_name":"Jayakarta","transit":false,"distance":1080,"i_lat":-6.141205,"is_transit":false,"line":2,"station_id":"JAY"},{"i_lat":-6.137569,"transit":true,"station_id":"JAKK","is_transit":true,"time":4,"line":2,"station_name":"Jakarta Kota","i_long":106.812439,"distance":1264},{"time":3,"line":4,"transit":true,"i_lat":-6.132549,"station_name":"Kampung Bandan","i_long":106.826365,"distance":1364,"station_id":"KPB","is_transit":true},{"station_id":"RJW","station_name":"Rajawali","distance":1444,"is_transit":false,"i_lat":-6.14505,"i_long":106.836569,"time":3,"transit":false,"line":11},{"distance":1901,"station_name":"Kemayoran","line":11,"transit":false,"i_long":106.839204,"is_transit":false,"time":5,"station_id":"KMO","i_lat":-6.161728},{"station_name":"Pasar Senen","line":11,"time":4,"transit":false,"i_lat":-6.174784,"distance":1436,"i_long":106.84368,"station_id":"PSE","is_transit":false},{"i_long":106.850107,"i_lat":-6.185975,"station_id":"GST","line":11,"transit":false,"time":8,"station_name":"Gang Sentiong","distance":1567,"is_transit":false},{"distance":973,"is_transit":false,"transit":false,"time":1,"i_lat":-6.193792,"i_long":106.855437,"station_name":"Kramat","station_id":"KMT","line":11},{"station_id":"POK","line":11,"transit":false,"distance":1829,"i_lat":-6.209188,"is_transit":false,"time":2,"station_name":"Pondok Jati","i_long":106.861737},{"transit":true,"is_transit":true,"i_long":106.86807400000001,"line":1,"i_lat":-6.215091,"station_id":"JNG","time":9,"distance":1236,"station_name":"Jatinegara"},{"is_transit":false,"transit":false,"line":1,"station_name":"Klender","distance":3395,"i_lat":-6.2135,"station_id":"KLD","time":3,"i_long":106.899548}]]}