{"data":[[{"station_name":"Tigaraksa","i_long":106.425991,"station_id":"TGS","transit":false,"is_transit":false,"line":6,"distance":0,"i_lat":-6.328533,"time":0},{"time":5,"distance":2974,"i_long":106.460812,"transit":false,"line":6,"i_lat":-6.327251,"station_name":"Tenjo","is_transit":false,"station_id":"TEJ"},{"transit":false,"is_transit":false,"time":5,"station_id":"DAR","station_name":"Daru","distance":3902,"i_lat":-6.338021,"i_long":106.491338,"line":0},{"station_id":"CJT","is_transit":false,"distance":2675,"i_lat":-6.354349,"time":6,"line":0,"station_name":"Cilejit","i_long":106.508482,"transit":false},{"i_long":106.568863,"station_name":"Parung Panjang","distance":7025,"transit":false,"time":9,"is_transit":false,"station_id":"PRP","line":6,"i_lat":-6.3441410000000005},{"time":8,"distance":5968,"i_lat":-6.329547,"i_long":106.617853,"line":0,"transit":false,"station_id":"CC","is_transit":false,"station_name":"Cicayur"},{"time":4,"station_id":"CSK","station_name":"Cisauk","i_long":106.640411,"distance":2519,"line":0,"transit":false,"is_transit":false,"i_lat":-6.32484},{"time":4,"station_id":"SRP","station_name":"Serpong","transit":false,"is_transit":false,"i_lat":-6.319871,"i_long":106.66566,"distance":1784,"line":6},{"distance":2413,"is_transit":false,"i_long":106.675475,"transit":false,"line":6,"time":4,"station_id":"RU","i_lat":-6.314823,"station_name":"Rawa Buntu"},{"i_long":106.712277,"time":6,"is_transit":false,"transit":false,"station_id":"SDM","i_lat":-6.296963,"line":6,"station_name":"Sudimara","distance":4566}]]}