{"data":[[{"is_transit":false,"i_lat":-6.328533,"line":6,"time":0,"distance":0,"transit":false,"i_long":106.425991,"station_id":"TGS","station_name":"Tigaraksa"},{"distance":2974,"time":5,"station_name":"Tenjo","transit":false,"station_id":"TEJ","i_lat":-6.327251,"is_transit":false,"line":6,"i_long":106.460812},{"line":0,"station_name":"Daru","i_lat":-6.338021,"i_long":106.491338,"time":5,"distance":3902,"station_id":"DAR","is_transit":false,"transit":false},{"station_id":"CJT","time":6,"line":3,"i_lat":-6.354349,"station_name":"Cilejit","is_transit":false,"distance":2675,"transit":false,"i_long":106.508482},{"i_long":106.568863,"distance":7025,"i_lat":-6.3441410000000005,"line":6,"station_id":"PRP","time":9,"transit":false,"station_name":"Parung Panjang","is_transit":false},{"i_lat":-6.329547,"time":8,"station_id":"CC","distance":5968,"transit":false,"i_long":106.617853,"station_name":"Cicayur","is_transit":false,"line":3},{"distance":2519,"time":4,"station_name":"Cisauk","transit":false,"i_lat":-6.32484,"i_long":106.640411,"line":3,"station_id":"CSK","is_transit":false},{"distance":1784,"is_transit":false,"line":6,"time":4,"station_name":"Serpong","i_lat":-6.319871,"station_id":"SRP","transit":false,"i_long":106.66566},{"i_lat":-6.314823,"distance":2413,"time":4,"station_name":"Rawa Buntu","i_long":106.675475,"transit":false,"station_id":"RU","is_transit":false,"line":6},{"distance":4566,"time":6,"station_id":"SDM","is_transit":false,"i_lat":-6.296963,"station_name":"Sudimara","transit":false,"line":6,"i_long":106.712277},{"i_lat":-6.288927,"line":6,"station_name":"Jurangmangu","i_long":106.728916,"time":4,"transit":false,"distance":1994,"station_id":"JMU","is_transit":false},{"is_transit":false,"transit":false,"i_lat":-6.276362,"line":6,"i_long":106.74273,"distance":2179,"station_id":"PDJ","station_name":"Pondokranji","time":3},{"station_id":"KBY","distance":6218,"station_name":"Kebayoran","transit":false,"i_lat":-6.237242,"i_long":106.780334,"time":8,"is_transit":false,"line":6},{"i_lat":-6.207404,"line":6,"distance":3737,"station_name":"Palmerah","i_long":106.79689,"transit":false,"station_id":"PLM","time":7,"is_transit":false},{"i_lat":-6.185545,"distance":3191,"transit":true,"line":1,"is_transit":true,"time":6,"station_name":"Tanah Abang","i_long":106.811091,"station_id":"THB"},{"i_lat":-6.155215,"station_id":"DU","time":8,"is_transit":false,"line":1,"transit":false,"i_long":106.800832,"distance":3632,"station_name":"Duri"},{"i_lat":-6.144674,"i_long":106.79867,"station_id":"AK","transit":false,"time":4,"distance":1230,"line":1,"station_name":"Angke","is_transit":false},{"station_id":"KPB","i_lat":-6.132549,"line":4,"is_transit":true,"time":9,"transit":true,"i_long":106.826365,"distance":4102,"station_name":"Kampung Bandan"},{"station_id":"AC","transit":false,"i_lat":-6.128023,"distance":2185,"station_name":"Ancol","i_long":106.84464,"line":4,"is_transit":false,"time":4},{"time":9,"is_transit":false,"line":4,"distance":4566,"station_id":"TPK","transit":false,"station_name":"Tanjung Priuk","i_lat":-6.1109480000000005,"i_long":106.880089}],[{"station_id":"TGS","i_lat":-6.328533,"transit":false,"i_long":106.425991,"time":0,"line":6,"distance":0,"is_transit":false,"station_name":"Tigaraksa"},{"station_name":"Tenjo","station_id":"TEJ","i_long":106.460812,"is_transit":false,"transit":false,"distance":2974,"i_lat":-6.327251,"line":6,"time":5},{"distance":3902,"time":5,"transit":false,"station_name":"Daru","line":0,"i_long":106.491338,"is_transit":false,"station_id":"DAR","i_lat":-6.338021},{"station_name":"Cilejit","i_lat":-6.354349,"line":3,"station_id":"CJT","distance":2675,"transit":false,"time":6,"is_transit":false,"i_long":106.508482},{"line":6,"time":9,"distance":7025,"is_transit":false,"i_lat":-6.3441410000000005,"transit":false,"i_long":106.568863,"station_name":"Parung Panjang","station_id":"PRP"},{"line":3,"is_transit":false,"distance":5968,"time":8,"i_long":106.617853,"station_id":"CC","station_name":"Cicayur","i_lat":-6.329547,"transit":false},{"i_long":106.640411,"distance":2519,"time":4,"station_name":"Cisauk","station_id":"CSK","transit":false,"i_lat":-6.32484,"line":3,"is_transit":false},{"distance":1784,"i_long":106.66566,"transit":false,"station_id":"SRP","is_transit":false,"time":4,"station_name":"Serpong","i_lat":-6.319871,"line":6},{"i_lat":-6.314823,"time":4,"distance":2413,"is_transit":false,"transit":false,"station_name":"Rawa Buntu","station_id":"RU","line":6,"i_long":106.675475},{"time":6,"distance":4566,"station_name":"Sudimara","i_long":106.712277,"transit":false,"i_lat":-6.296963,"station_id":"SDM","is_transit":false,"line":6},{"is_transit":false,"time":4,"station_id":"JMU","i_long":106.728916,"transit":false,"i_lat":-6.288927,"distance":1994,"line":6,"station_name":"Jurangmangu"},{"transit":false,"station_id":"PDJ","is_transit":false,"i_long":106.74273,"distance":2179,"i_lat":-6.276362,"time":3,"line":6,"station_name":"Pondokranji"},{"station_name":"Kebayoran","is_transit":false,"time":8,"station_id":"KBY","i_long":106.780334,"transit":false,"i_lat":-6.237242,"distance":6218,"line":6},{"transit":false,"is_transit":false,"i_lat":-6.207404,"time":7,"distance":3737,"station_name":"Palmerah","line":6,"i_long":106.79689,"station_id":"PLM"},{"distance":3191,"is_transit":true,"station_name":"Tanah Abang","transit":true,"line":1,"time":6,"station_id":"THB","i_lat":-6.185545,"i_long":106.811091},{"line":1,"distance":2029,"is_transit":false,"i_lat":-6.20132,"time":5,"transit":false,"station_name":"Karet","station_id":"KAT","i_long":106.816351},{"i_lat":-6.201433,"station_id":"SUDB","is_transit":false,"time":1,"distance":471,"station_name":"Sudirman Baru","i_long":106.819881,"transit":false,"line":1},{"transit":false,"distance":280,"line":1,"station_name":"Sudirman","station_id":"SUD","is_transit":false,"i_long":106.822649,"i_lat":-6.202263,"time":1},{"i_long":106.84912,"transit":true,"time":4,"line":2,"station_name":"Manggarai","station_id":"MRI","i_lat":-6.209883,"distance":3186,"is_transit":true},{"station_name":"Cikini","is_transit":false,"transit":false,"station_id":"CKI","i_lat":-6.198556,"time":4,"distance":1590,"i_long":106.840169,"line":2},{"is_transit":false,"distance":1750,"time":3,"station_id":"GDD","i_lat":-6.186295,"line":2,"i_long":106.832183,"station_name":"Gondangdia","transit":false},{"station_name":"Juanda","station_id":"JUA","transit":false,"i_lat":-6.166716,"is_transit":false,"time":4,"line":2,"distance":2015,"i_long":106.828284},{"station_id":"SW","station_name":"Sawah Besar","transit":false,"i_long":106.827103,"time":2,"is_transit":false,"distance":1149,"i_lat":-6.160725,"line":2},{"station_id":"MGB","time":2,"is_transit":false,"distance":906,"transit":false,"i_lat":-6.149769,"line":2,"station_name":"Manggabesar","i_long":106.82482},{"station_id":"JAY","transit":false,"time":2,"is_transit":false,"distance":1080,"line":2,"i_lat":-6.141205,"i_long":106.820901,"station_name":"Jayakarta"},{"transit":true,"time":4,"station_name":"Jakarta Kota","is_transit":true,"distance":1264,"i_lat":-6.137569,"i_long":106.812439,"station_id":"JAKK","line":2},{"is_transit":true,"line":4,"i_long":106.826365,"i_lat":-6.132549,"station_id":"KPB","distance":1364,"time":3,"station_name":"Kampung Bandan","transit":true},{"i_lat":-6.128023,"i_long":106.84464,"station_name":"Ancol","station_id":"AC","line":4,"is_transit":false,"transit":false,"distance":2185,"time":4},{"transit":false,"distance":4566,"line":4,"is_transit":false,"station_name":"Tanjung Priuk","i_lat":-6.1109480000000005,"station_id":"TPK","time":9,"i_long":106.880089}],[{"station_name":"Tigaraksa","station_id":"TGS","time":0,"i_long":106.425991,"line":6,"is_transit":false,"distance":0,"transit":false,"i_lat":-6.328533},{"station_name":"Tenjo","station_id":"TEJ","is_transit":false,"distance":2974,"i_lat":-6.327251,"time":5,"line":6,"i_long":106.460812,"transit":false},{"line":0,"station_id":"DAR","is_transit":false,"distance":3902,"time":5,"i_long":106.491338,"transit":false,"i_lat":-6.338021,"station_name":"Daru"},{"i_lat":-6.354349,"station_name":"Cilejit","station_id":"CJT","i_long":106.508482,"time":6,"is_transit":false,"line":3,"distance":2675,"transit":false},{"is_transit":false,"i_lat":-6.3441410000000005,"line":6,"distance":7025,"time":9,"i_long":106.568863,"station_name":"Parung Panjang","transit":false,"station_id":"PRP"},{"distance":5968,"transit":false,"i_lat":-6.329547,"i_long":106.617853,"line":3,"is_transit":false,"station_name":"Cicayur","time":8,"station_id":"CC"},{"time":4,"i_lat":-6.32484,"distance":2519,"line":3,"is_transit":false,"transit":false,"i_long":106.640411,"station_name":"Cisauk","station_id":"CSK"},{"i_lat":-6.319871,"i_long":106.66566,"station_name":"Serpong","is_transit":false,"transit":false,"distance":1784,"line":6,"time":4,"station_id":"SRP"},{"transit":false,"line":6,"station_id":"RU","station_name":"Rawa Buntu","is_transit":false,"time":4,"i_long":106.675475,"distance":2413,"i_lat":-6.314823},{"line":6,"distance":4566,"i_lat":-6.296963,"i_long":106.712277,"time":6,"transit":false,"station_name":"Sudimara","station_id":"SDM","is_transit":false},{"station_id":"JMU","line":6,"i_long":106.728916,"is_transit":false,"time":4,"i_lat":-6.288927,"distance":1994,"transit":false,"station_name":"Jurangmangu"},{"i_lat":-6.276362,"time":3,"line":6,"is_transit":false,"i_long":106.74273,"distance":2179,"transit":false,"station_name":"Pondokranji","station_id":"PDJ"},{"station_name":"Kebayoran","i_lat":-6.237242,"is_transit":false,"time":8,"distance":6218,"station_id":"KBY","line":6,"transit":false,"i_long":106.780334},{"station_name":"Palmerah","station_id":"PLM","is_transit":false,"transit":false,"time":7,"distance":3737,"i_lat":-6.207404,"i_long":106.79689,"line":6},{"is_transit":true,"line":1,"station_name":"Tanah Abang","i_lat":-6.185545,"distance":3191,"transit":true,"i_long":106.811091,"station_id":"THB","time":6},{"distance":2029,"station_name":"Karet","transit":false,"line":1,"i_long":106.816351,"i_lat":-6.20132,"station_id":"KAT","time":5,"is_transit":false},{"i_long":106.819881,"station_id":"SUDB","line":1,"time":1,"i_lat":-6.201433,"transit":false,"distance":471,"station_name":"Sudirman Baru","is_transit":false},{"i_long":106.822649,"station_name":"Sudirman","time":1,"distance":280,"station_id":"SUD","is_transit":false,"i_lat":-6.202263,"transit":false,"line":1},{"transit":false,"distance":3186,"time":4,"is_transit":false,"i_lat":-6.209883,"line":2,"i_long":106.84912,"station_name":"Manggarai","station_id":"MRI"},{"distance":1275,"i_long":106.858896,"station_name":"Matraman","i_lat":-6.212485,"station_id":"MTR","is_transit":false,"transit":false,"time":2,"line":1},{"transit":true,"station_name":"Jatinegara","time":8,"station_id":"JNG","i_lat":-6.215091,"line":1,"is_transit":true,"distance":1377,"i_long":106.86807400000001},{"distance":1236,"line":11,"station_name":"Pondok Jati","is_transit":false,"i_lat":-6.209188,"transit":false,"i_long":106.861737,"station_id":"POK","time":2},{"i_lat":-6.193792,"station_name":"Kramat","is_transit":false,"distance":1829,"i_long":106.855437,"line":11,"transit":false,"station_id":"KMT","time":2},{"distance":973,"i_lat":-6.185975,"time":1,"station_id":"GST","i_long":106.850107,"transit":false,"station_name":"Gang Sentiong","line":11,"is_transit":false},{"time":8,"station_name":"Pasar Senen","transit":false,"station_id":"PSE","is_transit":false,"i_lat":-6.174784,"line":11,"distance":1567,"i_long":106.84368},{"line":11,"distance":1436,"time":4,"station_name":"Kemayoran","station_id":"KMO","is_transit":false,"i_lat":-6.161728,"transit":false,"i_long":106.839204},{"station_id":"RJW","distance":1901,"transit":false,"i_long":106.836569,"is_transit":false,"station_name":"Rajawali","time":5,"i_lat":-6.14505,"line":11},{"i_lat":-6.132549,"time":3,"i_long":106.826365,"transit":true,"line":4,"distance":1444,"station_name":"Kampung Bandan","station_id":"KPB","is_transit":true},{"time":4,"transit":false,"is_transit":false,"distance":2185,"i_long":106.84464,"station_name":"Ancol","line":4,"station_id":"AC","i_lat":-6.128023},{"i_lat":-6.1109480000000005,"transit":false,"line":4,"time":9,"station_name":"Tanjung Priuk","is_transit":false,"station_id":"TPK","distance":4566,"i_long":106.880089}]]}