{"data":[[{"is_transit":false,"time":0,"i_lat":-6.328533,"i_long":106.425991,"station_id":"TGS","transit":false,"line":6,"distance":0,"station_name":"Tigaraksa"},{"station_name":"Tenjo","transit":false,"i_lat":-6.327251,"is_transit":false,"line":6,"station_id":"TEJ","i_long":106.460812,"distance":2974,"time":5},{"time":5,"station_id":"DAR","transit":false,"is_transit":false,"i_lat":-6.338021,"i_long":106.491338,"distance":3902,"line":0,"station_name":"Daru"},{"i_lat":-6.354349,"transit":false,"station_id":"CJT","i_long":106.508482,"time":6,"station_name":"Cilejit","distance":2675,"is_transit":false,"line":3},{"distance":7025,"transit":false,"line":6,"time":9,"station_id":"PRP","station_name":"Parung Panjang","is_transit":false,"i_long":106.568863,"i_lat":-6.3441410000000005},{"distance":5968,"station_name":"Cicayur","time":8,"station_id":"CC","i_lat":-6.329547,"line":3,"is_transit":false,"transit":false,"i_long":106.617853},{"i_lat":-6.32484,"transit":false,"i_long":106.640411,"line":3,"time":4,"distance":2519,"station_name":"Cisauk","station_id":"CSK","is_transit":false}]]}