{"data":[[{"distance":0,"time":0,"line":6,"transit":false,"i_long":106.425991,"station_name":"Tigaraksa","i_lat":-6.328533,"is_transit":false,"station_id":"TGS"},{"station_name":"Tenjo","distance":2974,"i_lat":-6.327251,"time":5,"i_long":106.460812,"transit":false,"is_transit":false,"line":6,"station_id":"TEJ"},{"i_long":106.491338,"transit":false,"distance":3902,"line":0,"station_name":"Daru","time":5,"station_id":"DAR","i_lat":-6.338021,"is_transit":false},{"line":3,"i_lat":-6.354349,"distance":2675,"is_transit":false,"station_id":"CJT","transit":false,"i_long":106.508482,"station_name":"Cilejit","time":6},{"distance":7025,"transit":false,"station_id":"PRP","station_name":"Parung Panjang","time":9,"i_lat":-6.3441410000000005,"line":6,"is_transit":false,"i_long":106.568863},{"distance":5968,"time":8,"station_name":"Cicayur","i_lat":-6.329547,"is_transit":false,"line":3,"i_long":106.617853,"transit":false,"station_id":"CC"},{"line":3,"time":4,"transit":false,"distance":2519,"i_lat":-6.32484,"station_name":"Cisauk","i_long":106.640411,"is_transit":false,"station_id":"CSK"},{"transit":false,"station_name":"Serpong","distance":1784,"i_lat":-6.319871,"station_id":"SRP","line":6,"time":4,"i_long":106.66566,"is_transit":false},{"station_id":"RU","i_long":106.675475,"time":4,"station_name":"Rawa Buntu","is_transit":false,"transit":false,"distance":2413,"i_lat":-6.314823,"line":6},{"transit":false,"station_name":"Sudimara","i_lat":-6.296963,"time":6,"distance":4566,"station_id":"SDM","i_long":106.712277,"line":6,"is_transit":false},{"time":4,"station_id":"JMU","is_transit":false,"transit":false,"station_name":"Jurangmangu","i_long":106.728916,"line":6,"distance":1994,"i_lat":-6.288927},{"is_transit":false,"station_id":"PDJ","distance":2179,"transit":false,"station_name":"Pondokranji","i_long":106.74273,"time":3,"i_lat":-6.276362,"line":6},{"distance":6218,"transit":false,"station_name":"Kebayoran","time":8,"station_id":"KBY","is_transit":false,"line":6,"i_lat":-6.237242,"i_long":106.780334},{"station_name":"Palmerah","station_id":"PLM","is_transit":false,"time":7,"transit":false,"i_long":106.79689,"distance":3737,"i_lat":-6.207404,"line":6},{"time":6,"station_name":"Tanah Abang","station_id":"THB","i_lat":-6.185545,"transit":true,"distance":3191,"line":1,"i_long":106.811091,"is_transit":true},{"i_lat":-6.20132,"distance":2029,"line":1,"is_transit":false,"station_id":"KAT","i_long":106.816351,"transit":false,"station_name":"Karet","time":5},{"i_lat":-6.201433,"is_transit":false,"line":1,"transit":false,"station_name":"Sudirman Baru","i_long":106.819881,"distance":471,"time":1,"station_id":"SUDB"},{"line":1,"is_transit":false,"station_name":"Sudirman","time":1,"transit":false,"station_id":"SUD","distance":280,"i_long":106.822649,"i_lat":-6.202263},{"station_name":"Manggarai","i_long":106.84912,"is_transit":true,"transit":true,"time":4,"i_lat":-6.209883,"station_id":"MRI","line":2,"distance":3186},{"transit":false,"is_transit":false,"station_id":"TEB","i_long":106.857948,"distance":2610,"i_lat":-6.226659,"line":2,"station_name":"Tebet","time":4},{"i_long":106.856607,"line":2,"station_name":"Cawang","station_id":"CW","is_transit":false,"i_lat":-6.242512,"distance":1230,"transit":false,"time":2},{"station_name":"Duren Kalibata","is_transit":false,"station_id":"DRN","line":2,"time":3,"transit":false,"i_lat":-6.255332,"i_long":106.85449,"distance":1546},{"is_transit":false,"i_lat":-6.263214,"line":2,"station_id":"PSMB","time":2,"i_long":106.851577,"distance":824,"station_name":"Pasar Minggu Baru","transit":false},{"time":2,"transit":false,"i_long":106.843999,"station_id":"PSM","is_transit":false,"distance":2380,"line":2,"station_name":"Pasar Minggu","i_lat":-6.2842400000000005},{"station_id":"TNT","station_name":"Tanjung Barat","is_transit":false,"time":4,"distance":2820,"i_lat":-6.3080680000000005,"transit":false,"i_long":106.838896,"line":2},{"i_lat":-6.330363,"transit":false,"is_transit":false,"station_id":"LNA","time":3,"distance":2671,"line":2,"station_name":"Lenteng Agung","i_long":106.832616},{"i_long":106.834175,"time":2,"station_id":"UP","transit":false,"line":2,"distance":1029,"is_transit":false,"i_lat":-6.339291,"station_name":"Univ. Pancasila"},{"transit":false,"time":3,"distance":2264,"i_long":106.831474,"line":2,"station_name":"Univ. Indonesia","i_lat":-6.360749,"station_id":"UI","is_transit":false},{"time":2,"distance":1109,"i_long":106.831114,"transit":false,"station_name":"Pondok Cina","line":2,"i_lat":-6.369073,"station_id":"POC","is_transit":false},{"is_transit":false,"transit":false,"distance":2727,"i_long":106.819451,"time":4,"station_name":"Depokbaru","i_lat":-6.391065,"line":2,"station_id":"DPB"},{"transit":false,"is_transit":false,"i_long":106.816926,"line":2,"distance":1584,"time":3,"station_name":"Depok","i_lat":-6.405256,"station_id":"DP"},{"i_long":106.800298,"line":2,"transit":false,"time":6,"distance":5084,"i_lat":-6.448811,"is_transit":false,"station_id":"CTA","station_name":"Citayam"},{"is_transit":false,"line":2,"i_long":106.792719,"distance":5197,"station_id":"BJD","time":5,"transit":false,"station_name":"Bojonggede","i_lat":-6.493243},{"station_name":"Cilebut","distance":4331,"line":2,"is_transit":false,"i_lat":-6.530544,"transit":false,"station_id":"CLT","time":5,"i_long":106.800016},{"distance":7514,"station_id":"BOO","line":2,"is_transit":false,"i_lat":-6.594596,"station_name":"Bogor","transit":false,"time":9,"i_long":106.790574}],[{"is_transit":false,"transit":false,"station_name":"Tigaraksa","time":0,"distance":0,"i_lat":-6.328533,"i_long":106.425991,"line":6,"station_id":"TGS"},{"i_lat":-6.327251,"transit":false,"i_long":106.460812,"time":5,"distance":2974,"station_name":"Tenjo","line":6,"station_id":"TEJ","is_transit":false},{"transit":false,"station_id":"DAR","i_long":106.491338,"line":0,"is_transit":false,"time":5,"i_lat":-6.338021,"station_name":"Daru","distance":3902},{"transit":false,"i_lat":-6.354349,"line":3,"station_id":"CJT","time":6,"is_transit":false,"station_name":"Cilejit","i_long":106.508482,"distance":2675},{"i_long":106.568863,"station_name":"Parung Panjang","transit":false,"time":9,"is_transit":false,"station_id":"PRP","i_lat":-6.3441410000000005,"line":6,"distance":7025},{"station_name":"Cicayur","time":8,"i_long":106.617853,"station_id":"CC","distance":5968,"is_transit":false,"i_lat":-6.329547,"line":3,"transit":false},{"line":3,"transit":false,"distance":2519,"station_id":"CSK","station_name":"Cisauk","i_long":106.640411,"is_transit":false,"i_lat":-6.32484,"time":4},{"station_name":"Serpong","is_transit":false,"time":4,"distance":1784,"i_long":106.66566,"transit":false,"station_id":"SRP","line":6,"i_lat":-6.319871},{"is_transit":false,"station_name":"Rawa Buntu","transit":false,"station_id":"RU","line":6,"distance":2413,"i_lat":-6.314823,"time":4,"i_long":106.675475},{"is_transit":false,"line":6,"transit":false,"i_long":106.712277,"station_name":"Sudimara","station_id":"SDM","distance":4566,"time":6,"i_lat":-6.296963},{"distance":1994,"station_id":"JMU","line":6,"transit":false,"station_name":"Jurangmangu","time":4,"is_transit":false,"i_lat":-6.288927,"i_long":106.728916},{"is_transit":false,"station_id":"PDJ","distance":2179,"time":3,"transit":false,"station_name":"Pondokranji","i_lat":-6.276362,"i_long":106.74273,"line":6},{"station_id":"KBY","distance":6218,"i_lat":-6.237242,"is_transit":false,"station_name":"Kebayoran","time":8,"i_long":106.780334,"line":6,"transit":false},{"i_long":106.79689,"distance":3737,"i_lat":-6.207404,"station_id":"PLM","time":7,"line":6,"is_transit":false,"station_name":"Palmerah","transit":false},{"distance":3191,"station_id":"THB","station_name":"Tanah Abang","i_long":106.811091,"line":1,"transit":true,"i_lat":-6.185545,"time":6,"is_transit":true},{"i_lat":-6.155215,"station_name":"Duri","transit":false,"is_transit":false,"station_id":"DU","line":1,"i_long":106.800832,"distance":3632,"time":8},{"line":1,"station_id":"AK","i_lat":-6.144674,"is_transit":false,"time":4,"station_name":"Angke","i_long":106.79867,"distance":1230,"transit":false},{"time":9,"distance":4102,"i_long":106.826365,"i_lat":-6.132549,"transit":true,"station_name":"Kampung Bandan","station_id":"KPB","is_transit":true,"line":4},{"time":3,"transit":true,"is_transit":true,"station_name":"Jakarta Kota","distance":1364,"i_lat":-6.137569,"station_id":"JAKK","line":2,"i_long":106.812439},{"station_id":"JAY","distance":1264,"line":2,"i_lat":-6.141205,"is_transit":false,"time":4,"i_long":106.820901,"transit":false,"station_name":"Jayakarta"},{"line":2,"is_transit":false,"transit":false,"i_long":106.82482,"station_id":"MGB","distance":1080,"i_lat":-6.149769,"station_name":"Manggabesar","time":2},{"distance":906,"i_long":106.827103,"time":2,"transit":false,"is_transit":false,"i_lat":-6.160725,"station_name":"Sawah Besar","station_id":"SW","line":2},{"i_lat":-6.166716,"line":2,"time":2,"i_long":106.828284,"is_transit":false,"distance":1149,"station_name":"Juanda","transit":false,"station_id":"JUA"},{"transit":false,"station_name":"Gondangdia","i_lat":-6.186295,"time":4,"is_transit":false,"station_id":"GDD","line":2,"distance":2015,"i_long":106.832183},{"transit":false,"station_name":"Cikini","station_id":"CKI","distance":1750,"line":2,"i_long":106.840169,"time":3,"i_lat":-6.198556,"is_transit":false},{"line":2,"station_id":"MRI","is_transit":false,"i_lat":-6.209883,"time":4,"distance":1590,"station_name":"Manggarai","i_long":106.84912,"transit":false},{"i_long":106.857948,"station_name":"Tebet","distance":2610,"time":4,"line":2,"is_transit":false,"transit":false,"i_lat":-6.226659,"station_id":"TEB"},{"transit":false,"distance":1230,"i_long":106.856607,"is_transit":false,"station_id":"CW","time":2,"i_lat":-6.242512,"station_name":"Cawang","line":2},{"i_long":106.85449,"time":3,"i_lat":-6.255332,"station_id":"DRN","transit":false,"distance":1546,"is_transit":false,"station_name":"Duren Kalibata","line":2},{"line":2,"transit":false,"is_transit":false,"station_name":"Pasar Minggu Baru","distance":824,"i_long":106.851577,"time":2,"i_lat":-6.263214,"station_id":"PSMB"},{"transit":false,"is_transit":false,"i_long":106.843999,"distance":2380,"time":2,"line":2,"station_name":"Pasar Minggu","i_lat":-6.2842400000000005,"station_id":"PSM"},{"i_lat":-6.3080680000000005,"time":4,"transit":false,"i_long":106.838896,"station_id":"TNT","is_transit":false,"station_name":"Tanjung Barat","line":2,"distance":2820},{"i_lat":-6.330363,"i_long":106.832616,"is_transit":false,"time":3,"station_id":"LNA","transit":false,"line":2,"distance":2671,"station_name":"Lenteng Agung"},{"station_name":"Univ. Pancasila","time":2,"i_long":106.834175,"transit":false,"distance":1029,"i_lat":-6.339291,"station_id":"UP","is_transit":false,"line":2},{"transit":false,"station_id":"UI","time":3,"i_long":106.831474,"i_lat":-6.360749,"is_transit":false,"line":2,"distance":2264,"station_name":"Univ. Indonesia"},{"line":2,"i_long":106.831114,"transit":false,"time":2,"i_lat":-6.369073,"station_name":"Pondok Cina","is_transit":false,"station_id":"POC","distance":1109},{"i_long":106.819451,"time":4,"station_id":"DPB","i_lat":-6.391065,"line":2,"station_name":"Depokbaru","distance":2727,"transit":false,"is_transit":false},{"is_transit":false,"distance":1584,"i_lat":-6.405256,"time":3,"station_id":"DP","station_name":"Depok","i_long":106.816926,"line":2,"transit":false},{"transit":false,"time":6,"station_id":"CTA","line":2,"i_long":106.800298,"is_transit":false,"distance":5084,"i_lat":-6.448811,"station_name":"Citayam"},{"i_lat":-6.493243,"station_name":"Bojonggede","transit":false,"time":5,"i_long":106.792719,"station_id":"BJD","line":2,"is_transit":false,"distance":5197},{"station_id":"CLT","is_transit":false,"station_name":"Cilebut","transit":false,"line":2,"distance":4331,"i_lat":-6.530544,"time":5,"i_long":106.800016},{"i_long":106.790574,"station_id":"BOO","line":2,"distance":7514,"station_name":"Bogor","i_lat":-6.594596,"transit":false,"is_transit":false,"time":9}],[{"i_lat":-6.328533,"is_transit":false,"distance":0,"transit":false,"station_id":"TGS","time":0,"station_name":"Tigaraksa","line":6,"i_long":106.425991},{"i_long":106.460812,"time":5,"is_transit":false,"station_name":"Tenjo","transit":false,"station_id":"TEJ","distance":2974,"line":6,"i_lat":-6.327251},{"i_long":106.491338,"station_name":"Daru","station_id":"DAR","time":5,"line":0,"transit":false,"distance":3902,"i_lat":-6.338021,"is_transit":false},{"distance":2675,"line":3,"station_id":"CJT","transit":false,"time":6,"i_lat":-6.354349,"i_long":106.508482,"station_name":"Cilejit","is_transit":false},{"distance":7025,"station_name":"Parung Panjang","line":6,"time":9,"is_transit":false,"i_long":106.568863,"i_lat":-6.3441410000000005,"station_id":"PRP","transit":false},{"i_long":106.617853,"line":3,"station_name":"Cicayur","is_transit":false,"transit":false,"distance":5968,"station_id":"CC","time":8,"i_lat":-6.329547},{"transit":false,"station_name":"Cisauk","distance":2519,"is_transit":false,"time":4,"i_lat":-6.32484,"line":3,"station_id":"CSK","i_long":106.640411},{"is_transit":false,"station_id":"SRP","line":6,"station_name":"Serpong","i_long":106.66566,"time":4,"transit":false,"distance":1784,"i_lat":-6.319871},{"station_name":"Rawa Buntu","time":4,"transit":false,"distance":2413,"i_lat":-6.314823,"station_id":"RU","is_transit":false,"i_long":106.675475,"line":6},{"time":6,"distance":4566,"i_lat":-6.296963,"i_long":106.712277,"line":6,"station_id":"SDM","is_transit":false,"transit":false,"station_name":"Sudimara"},{"i_lat":-6.288927,"line":6,"transit":false,"station_id":"JMU","distance":1994,"time":4,"i_long":106.728916,"station_name":"Jurangmangu","is_transit":false},{"line":6,"i_long":106.74273,"station_name":"Pondokranji","station_id":"PDJ","is_transit":false,"distance":2179,"i_lat":-6.276362,"transit":false,"time":3},{"time":8,"transit":false,"station_name":"Kebayoran","station_id":"KBY","distance":6218,"i_long":106.780334,"line":6,"is_transit":false,"i_lat":-6.237242},{"time":7,"station_name":"Palmerah","i_lat":-6.207404,"i_long":106.79689,"line":6,"transit":false,"distance":3737,"station_id":"PLM","is_transit":false},{"time":6,"station_id":"THB","i_lat":-6.185545,"is_transit":true,"i_long":106.811091,"line":1,"transit":true,"station_name":"Tanah Abang","distance":3191},{"line":1,"i_lat":-6.155215,"is_transit":false,"station_id":"DU","transit":false,"station_name":"Duri","time":8,"distance":3632,"i_long":106.800832},{"station_name":"Angke","distance":1230,"station_id":"AK","time":4,"i_long":106.79867,"transit":false,"i_lat":-6.144674,"line":1,"is_transit":false},{"transit":true,"station_id":"KPB","distance":4102,"line":4,"time":9,"station_name":"Kampung Bandan","is_transit":true,"i_lat":-6.132549,"i_long":106.826365},{"is_transit":false,"station_name":"Rajawali","transit":false,"time":3,"distance":1444,"line":11,"station_id":"RJW","i_lat":-6.14505,"i_long":106.836569},{"transit":false,"i_long":106.839204,"time":5,"is_transit":false,"line":11,"distance":1901,"i_lat":-6.161728,"station_name":"Kemayoran","station_id":"KMO"},{"station_name":"Pasar Senen","line":11,"distance":1436,"i_long":106.84368,"station_id":"PSE","transit":false,"is_transit":false,"time":4,"i_lat":-6.174784},{"distance":1567,"line":11,"i_long":106.850107,"station_name":"Gang Sentiong","i_lat":-6.185975,"transit":false,"time":8,"is_transit":false,"station_id":"GST"},{"station_name":"Kramat","i_long":106.855437,"transit":false,"time":1,"i_lat":-6.193792,"station_id":"KMT","distance":973,"is_transit":false,"line":11},{"transit":false,"i_lat":-6.209188,"is_transit":false,"i_long":106.861737,"station_name":"Pondok Jati","station_id":"POK","distance":1829,"line":11,"time":2},{"time":9,"station_id":"JNG","is_transit":true,"transit":true,"station_name":"Jatinegara","i_lat":-6.215091,"distance":1236,"i_long":106.86807400000001,"line":1},{"line":1,"i_lat":-6.212485,"transit":false,"station_name":"Matraman","i_long":106.858896,"is_transit":false,"time":2,"station_id":"MTR","distance":1377},{"is_transit":true,"station_id":"MRI","time":2,"distance":1275,"line":2,"i_lat":-6.209883,"i_long":106.84912,"transit":true,"station_name":"Manggarai"},{"station_name":"Tebet","line":2,"i_long":106.857948,"distance":2610,"is_transit":false,"station_id":"TEB","time":4,"i_lat":-6.226659,"transit":false},{"time":2,"is_transit":false,"station_name":"Cawang","transit":false,"station_id":"CW","i_long":106.856607,"distance":1230,"line":2,"i_lat":-6.242512},{"i_lat":-6.255332,"time":3,"line":2,"is_transit":false,"i_long":106.85449,"transit":false,"distance":1546,"station_name":"Duren Kalibata","station_id":"DRN"},{"time":2,"distance":824,"station_id":"PSMB","is_transit":false,"station_name":"Pasar Minggu Baru","i_long":106.851577,"line":2,"transit":false,"i_lat":-6.263214},{"distance":2380,"time":2,"line":2,"i_lat":-6.2842400000000005,"i_long":106.843999,"station_name":"Pasar Minggu","station_id":"PSM","transit":false,"is_transit":false},{"line":2,"station_name":"Tanjung Barat","is_transit":false,"transit":false,"station_id":"TNT","distance":2820,"time":4,"i_long":106.838896,"i_lat":-6.3080680000000005},{"time":3,"transit":false,"i_long":106.832616,"station_name":"Lenteng Agung","line":2,"is_transit":false,"i_lat":-6.330363,"station_id":"LNA","distance":2671},{"station_name":"Univ. Pancasila","is_transit":false,"station_id":"UP","time":2,"line":2,"i_long":106.834175,"transit":false,"i_lat":-6.339291,"distance":1029},{"is_transit":false,"i_lat":-6.360749,"transit":false,"line":2,"station_id":"UI","time":3,"station_name":"Univ. Indonesia","distance":2264,"i_long":106.831474},{"is_transit":false,"station_id":"POC","station_name":"Pondok Cina","i_lat":-6.369073,"line":2,"distance":1109,"transit":false,"i_long":106.831114,"time":2},{"distance":2727,"i_lat":-6.391065,"is_transit":false,"station_id":"DPB","transit":false,"i_long":106.819451,"line":2,"station_name":"Depokbaru","time":4},{"transit":false,"i_long":106.816926,"i_lat":-6.405256,"station_id":"DP","station_name":"Depok","is_transit":false,"distance":1584,"time":3,"line":2},{"time":6,"i_long":106.800298,"station_id":"CTA","distance":5084,"i_lat":-6.448811,"line":2,"station_name":"Citayam","transit":false,"is_transit":false},{"transit":false,"station_id":"BJD","i_lat":-6.493243,"distance":5197,"time":5,"station_name":"Bojonggede","is_transit":false,"line":2,"i_long":106.792719},{"i_long":106.800016,"line":2,"transit":false,"is_transit":false,"time":5,"station_id":"CLT","station_name":"Cilebut","i_lat":-6.530544,"distance":4331},{"i_lat":-6.594596,"i_long":106.790574,"distance":7514,"transit":false,"time":9,"station_id":"BOO","line":2,"is_transit":false,"station_name":"Bogor"}]]}