{"data":[[{"i_lat":-6.328533,"distance":0,"station_name":"Tigaraksa","is_transit":false,"station_id":"TGS","transit":false,"i_long":106.425991,"time":0,"line":6},{"time":5,"station_name":"Tenjo","i_lat":-6.327251,"station_id":"TEJ","line":6,"is_transit":false,"transit":false,"i_long":106.460812,"distance":2974},{"transit":false,"station_name":"Daru","station_id":"DAR","i_long":106.491338,"line":0,"i_lat":-6.338021,"distance":3902,"time":5,"is_transit":false},{"transit":false,"station_name":"Cilejit","distance":2675,"is_transit":false,"line":3,"station_id":"CJT","i_lat":-6.354349,"time":6,"i_long":106.508482},{"time":9,"i_lat":-6.3441410000000005,"station_name":"Parung Panjang","is_transit":false,"transit":false,"i_long":106.568863,"station_id":"PRP","distance":7025,"line":6},{"transit":false,"station_name":"Cicayur","i_long":106.617853,"line":3,"distance":5968,"station_id":"CC","is_transit":false,"time":8,"i_lat":-6.329547},{"is_transit":false,"i_long":106.640411,"line":3,"i_lat":-6.32484,"transit":false,"station_name":"Cisauk","time":4,"distance":2519,"station_id":"CSK"},{"i_lat":-6.319871,"line":6,"time":4,"station_id":"SRP","distance":1784,"station_name":"Serpong","is_transit":false,"transit":false,"i_long":106.66566},{"station_name":"Rawa Buntu","i_long":106.675475,"station_id":"RU","time":4,"is_transit":false,"transit":false,"line":6,"distance":2413,"i_lat":-6.314823},{"station_id":"SDM","transit":false,"line":6,"i_long":106.712277,"distance":4566,"i_lat":-6.296963,"time":6,"is_transit":false,"station_name":"Sudimara"},{"distance":1994,"station_name":"Jurangmangu","line":6,"station_id":"JMU","i_long":106.728916,"i_lat":-6.288927,"transit":false,"is_transit":false,"time":4},{"station_id":"PDJ","i_long":106.74273,"station_name":"Pondokranji","line":6,"transit":false,"i_lat":-6.276362,"time":3,"distance":2179,"is_transit":false},{"transit":false,"line":6,"distance":6218,"station_name":"Kebayoran","time":8,"i_lat":-6.237242,"station_id":"KBY","is_transit":false,"i_long":106.780334},{"i_lat":-6.207404,"station_name":"Palmerah","is_transit":false,"time":7,"transit":false,"line":6,"station_id":"PLM","i_long":106.79689,"distance":3737},{"station_name":"Tanah Abang","i_long":106.811091,"is_transit":true,"line":1,"station_id":"THB","transit":true,"distance":3191,"i_lat":-6.185545,"time":6},{"is_transit":false,"station_name":"Karet","line":1,"i_long":106.816351,"station_id":"KAT","distance":2029,"time":5,"i_lat":-6.20132,"transit":false},{"distance":471,"transit":false,"is_transit":false,"line":1,"i_lat":-6.201433,"i_long":106.819881,"station_id":"SUDB","time":1,"station_name":"Sudirman Baru"},{"is_transit":false,"transit":false,"i_long":106.822649,"station_id":"SUD","i_lat":-6.202263,"time":1,"distance":280,"station_name":"Sudirman","line":1},{"is_transit":true,"transit":true,"time":4,"distance":3186,"station_id":"MRI","station_name":"Manggarai","i_lat":-6.209883,"line":2,"i_long":106.84912},{"line":2,"i_lat":-6.226659,"i_long":106.857948,"distance":2610,"transit":false,"is_transit":false,"station_id":"TEB","station_name":"Tebet","time":4},{"line":2,"station_name":"Cawang","i_lat":-6.242512,"is_transit":false,"distance":1230,"time":2,"transit":false,"station_id":"CW","i_long":106.856607},{"is_transit":false,"i_lat":-6.255332,"time":3,"i_long":106.85449,"line":2,"transit":false,"station_name":"Duren Kalibata","station_id":"DRN","distance":1546},{"i_long":106.851577,"line":2,"is_transit":false,"i_lat":-6.263214,"distance":824,"time":2,"station_name":"Pasar Minggu Baru","transit":false,"station_id":"PSMB"},{"station_name":"Pasar Minggu","station_id":"PSM","transit":false,"time":2,"i_lat":-6.2842400000000005,"i_long":106.843999,"line":2,"distance":2380,"is_transit":false},{"time":4,"i_lat":-6.3080680000000005,"transit":false,"distance":2820,"line":2,"is_transit":false,"station_name":"Tanjung Barat","i_long":106.838896,"station_id":"TNT"}],[{"time":0,"is_transit":false,"line":6,"distance":0,"i_lat":-6.328533,"transit":false,"station_id":"TGS","i_long":106.425991,"station_name":"Tigaraksa"},{"station_id":"TEJ","i_lat":-6.327251,"distance":2974,"i_long":106.460812,"transit":false,"time":5,"is_transit":false,"station_name":"Tenjo","line":6},{"is_transit":false,"time":5,"station_name":"Daru","transit":false,"station_id":"DAR","distance":3902,"i_lat":-6.338021,"i_long":106.491338,"line":0},{"is_transit":false,"station_id":"CJT","time":6,"distance":2675,"i_lat":-6.354349,"station_name":"Cilejit","line":3,"transit":false,"i_long":106.508482},{"i_lat":-6.3441410000000005,"station_name":"Parung Panjang","is_transit":false,"station_id":"PRP","line":6,"time":9,"i_long":106.568863,"distance":7025,"transit":false},{"is_transit":false,"i_lat":-6.329547,"i_long":106.617853,"station_name":"Cicayur","time":8,"distance":5968,"station_id":"CC","line":3,"transit":false},{"station_name":"Cisauk","i_long":106.640411,"line":3,"time":4,"transit":false,"station_id":"CSK","i_lat":-6.32484,"distance":2519,"is_transit":false},{"distance":1784,"transit":false,"time":4,"is_transit":false,"station_id":"SRP","i_lat":-6.319871,"line":6,"i_long":106.66566,"station_name":"Serpong"},{"time":4,"station_name":"Rawa Buntu","station_id":"RU","i_lat":-6.314823,"i_long":106.675475,"transit":false,"distance":2413,"is_transit":false,"line":6},{"distance":4566,"i_lat":-6.296963,"line":6,"is_transit":false,"i_long":106.712277,"time":6,"station_name":"Sudimara","station_id":"SDM","transit":false},{"distance":1994,"time":4,"i_lat":-6.288927,"i_long":106.728916,"transit":false,"station_name":"Jurangmangu","is_transit":false,"station_id":"JMU","line":6},{"line":6,"station_name":"Pondokranji","i_lat":-6.276362,"time":3,"is_transit":false,"distance":2179,"station_id":"PDJ","transit":false,"i_long":106.74273},{"i_long":106.780334,"is_transit":false,"time":8,"line":6,"station_id":"KBY","i_lat":-6.237242,"transit":false,"station_name":"Kebayoran","distance":6218},{"distance":3737,"transit":false,"time":7,"is_transit":false,"station_name":"Palmerah","station_id":"PLM","i_lat":-6.207404,"i_long":106.79689,"line":6},{"time":6,"transit":true,"station_name":"Tanah Abang","station_id":"THB","i_long":106.811091,"distance":3191,"i_lat":-6.185545,"is_transit":true,"line":1},{"transit":false,"time":8,"station_id":"DU","is_transit":false,"i_lat":-6.155215,"line":1,"distance":3632,"i_long":106.800832,"station_name":"Duri"},{"time":4,"station_name":"Angke","i_long":106.79867,"transit":false,"is_transit":false,"station_id":"AK","i_lat":-6.144674,"distance":1230,"line":1},{"is_transit":true,"transit":true,"distance":4102,"station_name":"Kampung Bandan","station_id":"KPB","i_lat":-6.132549,"i_long":106.826365,"line":4,"time":9},{"line":2,"distance":1364,"i_lat":-6.137569,"time":3,"is_transit":true,"station_id":"JAKK","i_long":106.812439,"station_name":"Jakarta Kota","transit":true},{"i_lat":-6.141205,"station_id":"JAY","transit":false,"i_long":106.820901,"time":4,"line":2,"distance":1264,"is_transit":false,"station_name":"Jayakarta"},{"distance":1080,"time":2,"is_transit":false,"station_id":"MGB","i_lat":-6.149769,"transit":false,"line":2,"station_name":"Manggabesar","i_long":106.82482},{"distance":906,"station_name":"Sawah Besar","time":2,"station_id":"SW","line":2,"i_long":106.827103,"i_lat":-6.160725,"transit":false,"is_transit":false},{"time":2,"i_long":106.828284,"is_transit":false,"transit":false,"station_name":"Juanda","station_id":"JUA","i_lat":-6.166716,"line":2,"distance":1149},{"distance":2015,"time":4,"is_transit":false,"transit":false,"station_name":"Gondangdia","station_id":"GDD","i_lat":-6.186295,"line":2,"i_long":106.832183},{"transit":false,"station_id":"CKI","is_transit":false,"line":2,"time":3,"station_name":"Cikini","i_lat":-6.198556,"i_long":106.840169,"distance":1750},{"i_long":106.84912,"line":2,"time":4,"transit":false,"station_id":"MRI","is_transit":false,"i_lat":-6.209883,"station_name":"Manggarai","distance":1590},{"station_id":"TEB","i_long":106.857948,"time":4,"is_transit":false,"transit":false,"i_lat":-6.226659,"station_name":"Tebet","line":2,"distance":2610},{"distance":1230,"station_id":"CW","station_name":"Cawang","is_transit":false,"time":2,"transit":false,"line":2,"i_lat":-6.242512,"i_long":106.856607},{"distance":1546,"is_transit":false,"transit":false,"station_id":"DRN","time":3,"i_lat":-6.255332,"line":2,"i_long":106.85449,"station_name":"Duren Kalibata"},{"i_lat":-6.263214,"is_transit":false,"transit":false,"station_name":"Pasar Minggu Baru","station_id":"PSMB","distance":824,"time":2,"i_long":106.851577,"line":2},{"is_transit":false,"time":2,"i_long":106.843999,"station_id":"PSM","line":2,"transit":false,"station_name":"Pasar Minggu","distance":2380,"i_lat":-6.2842400000000005},{"transit":false,"distance":2820,"station_id":"TNT","i_lat":-6.3080680000000005,"line":2,"time":4,"station_name":"Tanjung Barat","i_long":106.838896,"is_transit":false}],[{"i_lat":-6.328533,"line":6,"distance":0,"i_long":106.425991,"station_id":"TGS","time":0,"transit":false,"station_name":"Tigaraksa","is_transit":false},{"time":5,"station_id":"TEJ","station_name":"Tenjo","is_transit":false,"i_long":106.460812,"i_lat":-6.327251,"line":6,"distance":2974,"transit":false},{"transit":false,"time":5,"i_long":106.491338,"is_transit":false,"station_name":"Daru","station_id":"DAR","i_lat":-6.338021,"distance":3902,"line":0},{"station_name":"Cilejit","station_id":"CJT","i_long":106.508482,"line":3,"distance":2675,"time":6,"i_lat":-6.354349,"is_transit":false,"transit":false},{"transit":false,"is_transit":false,"i_long":106.568863,"time":9,"line":6,"station_name":"Parung Panjang","i_lat":-6.3441410000000005,"station_id":"PRP","distance":7025},{"station_id":"CC","i_lat":-6.329547,"is_transit":false,"distance":5968,"time":8,"transit":false,"line":3,"station_name":"Cicayur","i_long":106.617853},{"station_name":"Cisauk","distance":2519,"is_transit":false,"transit":false,"station_id":"CSK","i_lat":-6.32484,"i_long":106.640411,"time":4,"line":3},{"line":6,"is_transit":false,"transit":false,"station_id":"SRP","distance":1784,"i_lat":-6.319871,"station_name":"Serpong","i_long":106.66566,"time":4},{"is_transit":false,"station_id":"RU","line":6,"time":4,"distance":2413,"i_long":106.675475,"transit":false,"station_name":"Rawa Buntu","i_lat":-6.314823},{"station_id":"SDM","i_long":106.712277,"i_lat":-6.296963,"line":6,"is_transit":false,"time":6,"distance":4566,"transit":false,"station_name":"Sudimara"},{"station_id":"JMU","transit":false,"i_long":106.728916,"distance":1994,"line":6,"is_transit":false,"station_name":"Jurangmangu","i_lat":-6.288927,"time":4},{"distance":2179,"time":3,"line":6,"i_long":106.74273,"transit":false,"i_lat":-6.276362,"station_id":"PDJ","is_transit":false,"station_name":"Pondokranji"},{"line":6,"is_transit":false,"station_name":"Kebayoran","time":8,"station_id":"KBY","i_lat":-6.237242,"i_long":106.780334,"transit":false,"distance":6218},{"station_name":"Palmerah","is_transit":false,"station_id":"PLM","i_long":106.79689,"line":6,"time":7,"distance":3737,"i_lat":-6.207404,"transit":false},{"station_id":"THB","distance":3191,"time":6,"station_name":"Tanah Abang","line":1,"is_transit":true,"i_lat":-6.185545,"transit":true,"i_long":106.811091},{"i_lat":-6.155215,"transit":false,"time":8,"station_id":"DU","line":1,"is_transit":false,"i_long":106.800832,"station_name":"Duri","distance":3632},{"station_id":"AK","i_long":106.79867,"is_transit":false,"distance":1230,"time":4,"i_lat":-6.144674,"line":1,"station_name":"Angke","transit":false},{"is_transit":true,"line":4,"station_id":"KPB","station_name":"Kampung Bandan","time":9,"i_long":106.826365,"distance":4102,"i_lat":-6.132549,"transit":true},{"distance":1444,"transit":false,"i_long":106.836569,"time":3,"is_transit":false,"station_name":"Rajawali","line":11,"station_id":"RJW","i_lat":-6.14505},{"station_name":"Kemayoran","line":11,"time":5,"transit":false,"is_transit":false,"station_id":"KMO","i_lat":-6.161728,"i_long":106.839204,"distance":1901},{"time":4,"i_lat":-6.174784,"transit":false,"line":11,"i_long":106.84368,"is_transit":false,"distance":1436,"station_name":"Pasar Senen","station_id":"PSE"},{"i_lat":-6.185975,"i_long":106.850107,"time":8,"line":11,"station_id":"GST","station_name":"Gang Sentiong","transit":false,"is_transit":false,"distance":1567},{"transit":false,"station_id":"KMT","i_long":106.855437,"line":11,"station_name":"Kramat","is_transit":false,"distance":973,"i_lat":-6.193792,"time":1},{"time":2,"i_lat":-6.209188,"line":11,"distance":1829,"transit":false,"station_name":"Pondok Jati","i_long":106.861737,"is_transit":false,"station_id":"POK"},{"distance":1236,"transit":true,"is_transit":true,"station_name":"Jatinegara","time":9,"station_id":"JNG","line":1,"i_lat":-6.215091,"i_long":106.86807400000001},{"is_transit":false,"distance":1377,"line":1,"station_name":"Matraman","time":2,"station_id":"MTR","i_long":106.858896,"transit":false,"i_lat":-6.212485},{"i_long":106.84912,"distance":1275,"i_lat":-6.209883,"line":2,"station_id":"MRI","station_name":"Manggarai","is_transit":true,"transit":true,"time":2},{"station_name":"Tebet","transit":false,"is_transit":false,"line":2,"i_lat":-6.226659,"distance":2610,"time":4,"station_id":"TEB","i_long":106.857948},{"is_transit":false,"transit":false,"distance":1230,"station_id":"CW","station_name":"Cawang","time":2,"i_long":106.856607,"line":2,"i_lat":-6.242512},{"time":3,"station_name":"Duren Kalibata","i_lat":-6.255332,"line":2,"distance":1546,"i_long":106.85449,"is_transit":false,"station_id":"DRN","transit":false},{"i_lat":-6.263214,"is_transit":false,"line":2,"transit":false,"station_name":"Pasar Minggu Baru","i_long":106.851577,"time":2,"distance":824,"station_id":"PSMB"},{"i_long":106.843999,"line":2,"is_transit":false,"station_id":"PSM","i_lat":-6.2842400000000005,"time":2,"station_name":"Pasar Minggu","transit":false,"distance":2380},{"i_lat":-6.3080680000000005,"station_id":"TNT","is_transit":false,"distance":2820,"i_long":106.838896,"line":2,"transit":false,"time":4,"station_name":"Tanjung Barat"}]]}