{"data":[[{"station_name":"Tigaraksa","time":0,"i_long":106.425991,"is_transit":false,"transit":false,"station_id":"TGS","distance":0,"i_lat":-6.328533,"line":6},{"i_long":106.460812,"is_transit":false,"transit":false,"distance":2974,"i_lat":-6.327251,"line":6,"station_id":"TEJ","station_name":"Tenjo","time":5},{"station_id":"DAR","line":0,"station_name":"Daru","i_long":106.491338,"is_transit":false,"distance":3902,"time":5,"i_lat":-6.338021,"transit":false},{"distance":2675,"line":0,"station_name":"Cilejit","station_id":"CJT","transit":false,"time":6,"i_lat":-6.354349,"is_transit":false,"i_long":106.508482},{"transit":false,"is_transit":false,"i_long":106.568863,"time":9,"station_id":"PRP","i_lat":-6.3441410000000005,"line":6,"distance":7025,"station_name":"Parung Panjang"},{"station_id":"CC","transit":false,"time":8,"i_lat":-6.329547,"station_name":"Cicayur","is_transit":false,"distance":5968,"i_long":106.617853,"line":0},{"transit":false,"line":0,"distance":2519,"i_lat":-6.32484,"is_transit":false,"time":4,"i_long":106.640411,"station_id":"CSK","station_name":"Cisauk"},{"distance":1784,"transit":false,"station_name":"Serpong","is_transit":false,"i_lat":-6.319871,"station_id":"SRP","line":6,"time":4,"i_long":106.66566},{"i_lat":-6.314823,"is_transit":false,"station_id":"RU","time":4,"i_long":106.675475,"distance":2413,"transit":false,"line":6,"station_name":"Rawa Buntu"},{"distance":4566,"i_lat":-6.296963,"line":6,"station_id":"SDM","transit":false,"time":6,"i_long":106.712277,"is_transit":false,"station_name":"Sudimara"},{"i_lat":-6.288927,"line":6,"station_name":"Jurangmangu","station_id":"JMU","time":4,"is_transit":false,"transit":false,"i_long":106.728916,"distance":1994},{"station_name":"Pondokranji","distance":2179,"is_transit":false,"transit":false,"time":3,"i_long":106.74273,"station_id":"PDJ","line":6,"i_lat":-6.276362},{"time":8,"i_long":106.780334,"line":6,"station_name":"Kebayoran","station_id":"KBY","transit":false,"distance":6218,"is_transit":false,"i_lat":-6.237242},{"station_name":"Palmerah","is_transit":false,"station_id":"PLM","i_lat":-6.207404,"i_long":106.79689,"distance":3737,"time":7,"line":6,"transit":false},{"time":6,"is_transit":true,"transit":true,"distance":3191,"i_lat":-6.185545,"line":1,"station_id":"THB","station_name":"Tanah Abang","i_long":106.811091},{"is_transit":false,"time":5,"i_long":106.816351,"station_id":"KAT","transit":false,"line":1,"distance":2029,"station_name":"Karet","i_lat":-6.20132},{"i_lat":-6.201433,"i_long":106.819881,"distance":471,"line":1,"transit":false,"station_id":"SUDB","time":1,"is_transit":false,"station_name":"Sudirman Baru"},{"is_transit":false,"transit":false,"i_long":106.822649,"station_id":"SUD","station_name":"Sudirman","time":1,"line":1,"i_lat":-6.202263,"distance":280},{"time":4,"is_transit":true,"i_long":106.84912,"station_name":"Manggarai","distance":3186,"station_id":"MRI","transit":false,"i_lat":-6.209883,"line":0}],[{"transit":false,"line":6,"is_transit":false,"distance":0,"station_id":"TGS","i_long":106.425991,"station_name":"Tigaraksa","time":0,"i_lat":-6.328533},{"is_transit":false,"distance":2974,"station_name":"Tenjo","i_long":106.460812,"line":6,"time":5,"i_lat":-6.327251,"station_id":"TEJ","transit":false},{"distance":3902,"i_lat":-6.338021,"i_long":106.491338,"is_transit":false,"station_id":"DAR","time":5,"transit":false,"station_name":"Daru","line":0},{"distance":2675,"station_id":"CJT","i_long":106.508482,"time":6,"line":0,"is_transit":false,"i_lat":-6.354349,"station_name":"Cilejit","transit":false},{"distance":7025,"station_id":"PRP","station_name":"Parung Panjang","time":9,"i_lat":-6.3441410000000005,"line":6,"i_long":106.568863,"is_transit":false,"transit":false},{"i_long":106.617853,"distance":5968,"station_id":"CC","station_name":"Cicayur","i_lat":-6.329547,"line":0,"time":8,"is_transit":false,"transit":false},{"time":4,"transit":false,"i_lat":-6.32484,"i_long":106.640411,"line":0,"is_transit":false,"station_id":"CSK","station_name":"Cisauk","distance":2519},{"is_transit":false,"station_id":"SRP","i_lat":-6.319871,"transit":false,"station_name":"Serpong","i_long":106.66566,"distance":1784,"line":6,"time":4},{"time":4,"station_id":"RU","is_transit":false,"distance":2413,"station_name":"Rawa Buntu","i_lat":-6.314823,"i_long":106.675475,"line":6,"transit":false},{"station_name":"Sudimara","i_lat":-6.296963,"i_long":106.712277,"is_transit":false,"time":6,"line":6,"transit":false,"distance":4566,"station_id":"SDM"},{"station_name":"Jurangmangu","line":6,"distance":1994,"is_transit":false,"transit":false,"time":4,"i_lat":-6.288927,"i_long":106.728916,"station_id":"JMU"},{"station_id":"PDJ","transit":false,"is_transit":false,"i_lat":-6.276362,"i_long":106.74273,"time":3,"station_name":"Pondokranji","line":6,"distance":2179},{"distance":6218,"is_transit":false,"transit":false,"i_lat":-6.237242,"line":6,"station_id":"KBY","time":8,"i_long":106.780334,"station_name":"Kebayoran"},{"i_lat":-6.207404,"station_name":"Palmerah","is_transit":false,"line":6,"transit":false,"distance":3737,"i_long":106.79689,"time":7,"station_id":"PLM"},{"line":1,"station_name":"Tanah Abang","is_transit":true,"transit":true,"distance":3191,"i_long":106.811091,"station_id":"THB","time":6,"i_lat":-6.185545},{"line":1,"station_name":"Duri","transit":true,"time":8,"i_long":106.800832,"station_id":"DU","distance":3632,"is_transit":true,"i_lat":-6.155215},{"i_long":106.79867,"is_transit":false,"station_id":"AK","station_name":"Angke","time":4,"distance":1230,"i_lat":-6.144674,"transit":false,"line":0},{"transit":false,"time":9,"station_name":"Kampung Bandan","i_lat":-6.132549,"line":0,"distance":4102,"i_long":106.826365,"station_id":"KPB","is_transit":true},{"distance":1364,"station_name":"Jakarta Kota","line":0,"is_transit":true,"transit":true,"i_lat":-6.137569,"station_id":"JAKK","i_long":106.812439,"time":3},{"transit":false,"time":4,"station_id":"JAY","distance":1264,"i_long":106.820901,"line":7,"station_name":"Jayakarta","is_transit":false,"i_lat":-6.141205},{"i_lat":-6.149769,"transit":false,"station_id":"MGB","time":2,"distance":1080,"i_long":106.82482,"line":2,"station_name":"Manggabesar","is_transit":false},{"station_id":"SW","time":2,"i_long":106.827103,"transit":false,"i_lat":-6.160725,"line":2,"station_name":"Sawah Besar","is_transit":false,"distance":906},{"station_id":"JUA","is_transit":false,"i_long":106.828284,"transit":false,"distance":1149,"line":2,"station_name":"Juanda","time":2,"i_lat":-6.166716},{"is_transit":false,"i_lat":-6.186295,"distance":2015,"station_name":"Gondangdia","line":2,"i_long":106.832183,"time":4,"transit":false,"station_id":"GDD"},{"station_id":"CKI","is_transit":false,"i_lat":-6.198556,"station_name":"Cikini","distance":1750,"transit":false,"i_long":106.840169,"line":0,"time":3},{"is_transit":true,"distance":1590,"line":0,"station_name":"Manggarai","transit":false,"time":4,"i_long":106.84912,"i_lat":-6.209883,"station_id":"MRI"}],[{"time":0,"i_lat":-6.328533,"distance":0,"i_long":106.425991,"station_name":"Tigaraksa","station_id":"TGS","is_transit":false,"line":6,"transit":false},{"i_long":106.460812,"line":6,"distance":2974,"station_id":"TEJ","station_name":"Tenjo","transit":false,"time":5,"i_lat":-6.327251,"is_transit":false},{"is_transit":false,"station_name":"Daru","distance":3902,"transit":false,"time":5,"i_lat":-6.338021,"station_id":"DAR","i_long":106.491338,"line":0},{"transit":false,"distance":2675,"station_name":"Cilejit","line":0,"is_transit":false,"i_lat":-6.354349,"time":6,"station_id":"CJT","i_long":106.508482},{"line":6,"distance":7025,"station_id":"PRP","i_long":106.568863,"station_name":"Parung Panjang","i_lat":-6.3441410000000005,"is_transit":false,"transit":false,"time":9},{"transit":false,"line":0,"is_transit":false,"time":8,"station_id":"CC","i_lat":-6.329547,"i_long":106.617853,"station_name":"Cicayur","distance":5968},{"time":4,"line":0,"distance":2519,"i_lat":-6.32484,"i_long":106.640411,"station_id":"CSK","is_transit":false,"station_name":"Cisauk","transit":false},{"is_transit":false,"line":6,"i_lat":-6.319871,"i_long":106.66566,"station_id":"SRP","distance":1784,"station_name":"Serpong","transit":false,"time":4},{"station_id":"RU","transit":false,"is_transit":false,"time":4,"i_lat":-6.314823,"i_long":106.675475,"station_name":"Rawa Buntu","line":6,"distance":2413},{"transit":false,"i_lat":-6.296963,"line":6,"station_name":"Sudimara","station_id":"SDM","time":6,"i_long":106.712277,"is_transit":false,"distance":4566},{"time":4,"transit":false,"is_transit":false,"i_lat":-6.288927,"distance":1994,"station_id":"JMU","station_name":"Jurangmangu","i_long":106.728916,"line":6},{"line":6,"time":3,"distance":2179,"transit":false,"i_long":106.74273,"station_id":"PDJ","station_name":"Pondokranji","i_lat":-6.276362,"is_transit":false},{"transit":false,"distance":6218,"station_name":"Kebayoran","line":6,"station_id":"KBY","i_lat":-6.237242,"i_long":106.780334,"is_transit":false,"time":8},{"station_id":"PLM","i_lat":-6.207404,"station_name":"Palmerah","time":7,"is_transit":false,"line":6,"transit":false,"i_long":106.79689,"distance":3737},{"station_name":"Tanah Abang","line":1,"transit":true,"distance":3191,"i_long":106.811091,"is_transit":true,"i_lat":-6.185545,"station_id":"THB","time":6},{"transit":true,"i_lat":-6.155215,"distance":3632,"station_id":"DU","station_name":"Duri","time":8,"i_long":106.800832,"line":1,"is_transit":true},{"is_transit":false,"station_id":"AK","i_long":106.79867,"line":0,"transit":false,"distance":1230,"i_lat":-6.144674,"station_name":"Angke","time":4},{"line":0,"is_transit":true,"station_name":"Kampung Bandan","station_id":"KPB","distance":4102,"i_lat":-6.132549,"transit":true,"time":9,"i_long":106.826365},{"station_id":"RJW","i_lat":-6.14505,"i_long":106.836569,"is_transit":false,"distance":1444,"station_name":"Rajawali","transit":false,"time":3,"line":11},{"time":5,"line":11,"station_id":"KMO","transit":false,"distance":1901,"i_long":106.839204,"is_transit":false,"station_name":"Kemayoran","i_lat":-6.161728},{"i_long":106.84368,"is_transit":false,"time":4,"distance":1436,"i_lat":-6.174784,"station_id":"PSE","station_name":"Pasar Senen","transit":false,"line":11},{"is_transit":false,"time":8,"i_lat":-6.185975,"station_name":"Gang Sentiong","i_long":106.850107,"distance":1567,"line":11,"transit":false,"station_id":"GST"},{"distance":973,"transit":false,"is_transit":false,"i_long":106.855437,"line":11,"station_id":"KMT","i_lat":-6.193792,"time":1,"station_name":"Kramat"},{"station_name":"Pondok Jati","transit":false,"distance":1829,"i_long":106.861737,"time":2,"line":11,"i_lat":-6.209188,"is_transit":false,"station_id":"POK"},{"station_name":"Jatinegara","distance":1236,"transit":true,"is_transit":true,"station_id":"JNG","i_long":106.86807400000001,"line":0,"i_lat":-6.215091,"time":9},{"i_long":106.858896,"distance":1377,"time":2,"line":1,"transit":false,"is_transit":false,"station_id":"MTR","station_name":"Matraman","i_lat":-6.212485},{"station_id":"MRI","transit":false,"is_transit":true,"i_long":106.84912,"distance":1275,"station_name":"Manggarai","line":0,"i_lat":-6.209883,"time":2}]]}