{"data":[[{"station_id":"TGS","is_transit":false,"distance":0,"i_long":106.425991,"line":6,"transit":false,"station_name":"Tigaraksa","time":0,"i_lat":-6.328533},{"time":5,"i_lat":-6.327251,"station_id":"TEJ","is_transit":false,"line":6,"distance":2974,"transit":false,"station_name":"Tenjo","i_long":106.460812},{"line":0,"distance":3902,"transit":false,"i_long":106.491338,"time":5,"station_id":"DAR","is_transit":false,"i_lat":-6.338021,"station_name":"Daru"},{"is_transit":false,"time":6,"i_lat":-6.354349,"distance":2675,"i_long":106.508482,"station_name":"Cilejit","station_id":"CJT","line":3,"transit":false},{"i_long":106.568863,"transit":false,"distance":7025,"time":9,"station_id":"PRP","station_name":"Parung Panjang","is_transit":false,"i_lat":-6.3441410000000005,"line":6},{"time":8,"line":3,"is_transit":false,"station_name":"Cicayur","distance":5968,"station_id":"CC","transit":false,"i_lat":-6.329547,"i_long":106.617853},{"distance":2519,"line":3,"i_long":106.640411,"transit":false,"is_transit":false,"station_name":"Cisauk","station_id":"CSK","time":4,"i_lat":-6.32484},{"i_lat":-6.319871,"distance":1784,"i_long":106.66566,"transit":false,"station_id":"SRP","line":6,"time":4,"station_name":"Serpong","is_transit":false},{"i_long":106.675475,"station_id":"RU","time":4,"i_lat":-6.314823,"transit":false,"station_name":"Rawa Buntu","line":6,"distance":2413,"is_transit":false},{"station_id":"SDM","i_long":106.712277,"distance":4566,"station_name":"Sudimara","line":6,"time":6,"is_transit":false,"transit":false,"i_lat":-6.296963},{"i_long":106.728916,"i_lat":-6.288927,"transit":false,"time":4,"station_id":"JMU","distance":1994,"is_transit":false,"station_name":"Jurangmangu","line":6},{"transit":false,"distance":2179,"station_id":"PDJ","i_lat":-6.276362,"time":3,"is_transit":false,"i_long":106.74273,"line":6,"station_name":"Pondokranji"},{"station_id":"KBY","station_name":"Kebayoran","is_transit":false,"distance":6218,"transit":false,"time":8,"i_lat":-6.237242,"i_long":106.780334,"line":6},{"line":6,"station_id":"PLM","transit":false,"i_lat":-6.207404,"distance":3737,"station_name":"Palmerah","is_transit":false,"i_long":106.79689,"time":7},{"i_lat":-6.185545,"line":1,"time":6,"transit":true,"station_name":"Tanah Abang","distance":3191,"station_id":"THB","i_long":106.811091,"is_transit":true},{"distance":2029,"station_name":"Karet","i_long":106.816351,"transit":false,"station_id":"KAT","line":1,"time":5,"is_transit":false,"i_lat":-6.20132},{"is_transit":false,"line":1,"station_id":"SUDB","transit":false,"i_long":106.819881,"station_name":"Sudirman Baru","time":1,"i_lat":-6.201433,"distance":471},{"is_transit":false,"time":1,"i_long":106.822649,"i_lat":-6.202263,"station_name":"Sudirman","line":1,"transit":false,"station_id":"SUD","distance":280},{"i_lat":-6.209883,"time":4,"transit":true,"station_name":"Manggarai","line":2,"distance":3186,"i_long":106.84912,"station_id":"MRI","is_transit":true},{"i_long":106.857948,"transit":false,"station_name":"Tebet","is_transit":false,"station_id":"TEB","time":4,"i_lat":-6.226659,"line":2,"distance":2610},{"station_id":"CW","station_name":"Cawang","is_transit":false,"i_long":106.856607,"line":2,"i_lat":-6.242512,"time":2,"transit":false,"distance":1230},{"line":2,"station_name":"Duren Kalibata","station_id":"DRN","is_transit":false,"time":3,"transit":false,"i_lat":-6.255332,"i_long":106.85449,"distance":1546},{"line":2,"time":2,"station_id":"PSMB","transit":false,"is_transit":false,"distance":824,"i_long":106.851577,"station_name":"Pasar Minggu Baru","i_lat":-6.263214},{"time":2,"station_name":"Pasar Minggu","is_transit":false,"line":2,"station_id":"PSM","distance":2380,"i_lat":-6.2842400000000005,"i_long":106.843999,"transit":false},{"distance":2820,"i_lat":-6.3080680000000005,"i_long":106.838896,"station_name":"Tanjung Barat","is_transit":false,"time":4,"line":2,"transit":false,"station_id":"TNT"},{"station_name":"Lenteng Agung","distance":2671,"i_lat":-6.330363,"transit":false,"station_id":"LNA","is_transit":false,"time":3,"i_long":106.832616,"line":2},{"i_lat":-6.339291,"i_long":106.834175,"is_transit":false,"time":2,"station_id":"UP","station_name":"Univ. Pancasila","transit":false,"distance":1029,"line":2},{"station_id":"UI","i_lat":-6.360749,"transit":false,"i_long":106.831474,"station_name":"Univ. Indonesia","time":3,"distance":2264,"line":2,"is_transit":false},{"time":2,"is_transit":false,"transit":false,"station_name":"Pondok Cina","i_lat":-6.369073,"i_long":106.831114,"station_id":"POC","line":2,"distance":1109},{"transit":false,"i_lat":-6.391065,"i_long":106.819451,"time":4,"station_name":"Depokbaru","distance":2727,"is_transit":false,"line":2,"station_id":"DPB"},{"distance":1584,"i_lat":-6.405256,"time":3,"transit":false,"station_id":"DP","i_long":106.816926,"station_name":"Depok","is_transit":false,"line":2},{"station_name":"Citayam","station_id":"CTA","transit":false,"time":6,"distance":5084,"i_lat":-6.448811,"i_long":106.800298,"is_transit":false,"line":2}],[{"time":0,"station_name":"Tigaraksa","is_transit":false,"distance":0,"i_lat":-6.328533,"station_id":"TGS","i_long":106.425991,"transit":false,"line":6},{"station_id":"TEJ","time":5,"is_transit":false,"transit":false,"line":6,"distance":2974,"station_name":"Tenjo","i_lat":-6.327251,"i_long":106.460812},{"i_long":106.491338,"station_id":"DAR","time":5,"transit":false,"is_transit":false,"distance":3902,"station_name":"Daru","line":0,"i_lat":-6.338021},{"station_name":"Cilejit","time":6,"station_id":"CJT","distance":2675,"transit":false,"is_transit":false,"i_long":106.508482,"line":3,"i_lat":-6.354349},{"transit":false,"station_id":"PRP","time":9,"is_transit":false,"line":6,"distance":7025,"i_lat":-6.3441410000000005,"station_name":"Parung Panjang","i_long":106.568863},{"line":3,"is_transit":false,"station_name":"Cicayur","time":8,"i_lat":-6.329547,"i_long":106.617853,"distance":5968,"transit":false,"station_id":"CC"},{"i_lat":-6.32484,"distance":2519,"is_transit":false,"line":3,"station_name":"Cisauk","time":4,"station_id":"CSK","transit":false,"i_long":106.640411},{"transit":false,"time":4,"i_lat":-6.319871,"station_id":"SRP","i_long":106.66566,"station_name":"Serpong","line":6,"is_transit":false,"distance":1784},{"line":6,"i_long":106.675475,"distance":2413,"is_transit":false,"station_id":"RU","i_lat":-6.314823,"time":4,"transit":false,"station_name":"Rawa Buntu"},{"time":6,"distance":4566,"station_name":"Sudimara","is_transit":false,"i_lat":-6.296963,"transit":false,"station_id":"SDM","line":6,"i_long":106.712277},{"line":6,"station_name":"Jurangmangu","transit":false,"station_id":"JMU","i_long":106.728916,"is_transit":false,"distance":1994,"time":4,"i_lat":-6.288927},{"transit":false,"time":3,"station_name":"Pondokranji","i_lat":-6.276362,"distance":2179,"i_long":106.74273,"line":6,"station_id":"PDJ","is_transit":false},{"station_name":"Kebayoran","i_long":106.780334,"transit":false,"is_transit":false,"distance":6218,"time":8,"station_id":"KBY","i_lat":-6.237242,"line":6},{"time":7,"station_id":"PLM","line":6,"i_long":106.79689,"station_name":"Palmerah","distance":3737,"is_transit":false,"transit":false,"i_lat":-6.207404},{"station_id":"THB","line":1,"time":6,"station_name":"Tanah Abang","distance":3191,"is_transit":true,"i_lat":-6.185545,"i_long":106.811091,"transit":true},{"is_transit":false,"station_name":"Duri","i_lat":-6.155215,"line":1,"distance":3632,"i_long":106.800832,"transit":false,"station_id":"DU","time":8},{"i_long":106.79867,"station_name":"Angke","transit":false,"station_id":"AK","distance":1230,"line":1,"is_transit":false,"i_lat":-6.144674,"time":4},{"is_transit":true,"line":4,"station_id":"KPB","transit":true,"station_name":"Kampung Bandan","distance":4102,"i_long":106.826365,"i_lat":-6.132549,"time":9},{"is_transit":true,"line":2,"time":3,"distance":1364,"i_lat":-6.137569,"transit":true,"station_name":"Jakarta Kota","station_id":"JAKK","i_long":106.812439},{"distance":1264,"station_name":"Jayakarta","is_transit":false,"i_lat":-6.141205,"i_long":106.820901,"station_id":"JAY","line":2,"time":4,"transit":false},{"line":2,"i_long":106.82482,"time":2,"transit":false,"distance":1080,"i_lat":-6.149769,"is_transit":false,"station_id":"MGB","station_name":"Manggabesar"},{"time":2,"station_id":"SW","is_transit":false,"distance":906,"i_lat":-6.160725,"i_long":106.827103,"station_name":"Sawah Besar","line":2,"transit":false},{"distance":1149,"i_long":106.828284,"i_lat":-6.166716,"transit":false,"station_id":"JUA","time":2,"is_transit":false,"line":2,"station_name":"Juanda"},{"transit":false,"time":4,"station_id":"GDD","i_lat":-6.186295,"i_long":106.832183,"is_transit":false,"line":2,"distance":2015,"station_name":"Gondangdia"},{"time":3,"transit":false,"i_long":106.840169,"station_id":"CKI","distance":1750,"i_lat":-6.198556,"station_name":"Cikini","is_transit":false,"line":2},{"i_lat":-6.209883,"line":2,"transit":false,"station_id":"MRI","i_long":106.84912,"time":4,"station_name":"Manggarai","distance":1590,"is_transit":false},{"station_name":"Tebet","is_transit":false,"i_long":106.857948,"distance":2610,"time":4,"station_id":"TEB","i_lat":-6.226659,"line":2,"transit":false},{"time":2,"transit":false,"is_transit":false,"i_long":106.856607,"distance":1230,"station_id":"CW","i_lat":-6.242512,"station_name":"Cawang","line":2},{"station_id":"DRN","transit":false,"distance":1546,"is_transit":false,"station_name":"Duren Kalibata","i_long":106.85449,"line":2,"i_lat":-6.255332,"time":3},{"station_name":"Pasar Minggu Baru","time":2,"is_transit":false,"transit":false,"i_lat":-6.263214,"distance":824,"station_id":"PSMB","i_long":106.851577,"line":2},{"i_lat":-6.2842400000000005,"station_name":"Pasar Minggu","i_long":106.843999,"station_id":"PSM","time":2,"line":2,"transit":false,"is_transit":false,"distance":2380},{"is_transit":false,"time":4,"distance":2820,"i_long":106.838896,"transit":false,"line":2,"i_lat":-6.3080680000000005,"station_id":"TNT","station_name":"Tanjung Barat"},{"is_transit":false,"distance":2671,"station_name":"Lenteng Agung","station_id":"LNA","i_lat":-6.330363,"line":2,"time":3,"transit":false,"i_long":106.832616},{"transit":false,"time":2,"distance":1029,"is_transit":false,"i_long":106.834175,"station_name":"Univ. Pancasila","station_id":"UP","i_lat":-6.339291,"line":2},{"transit":false,"is_transit":false,"distance":2264,"line":2,"time":3,"i_lat":-6.360749,"station_id":"UI","station_name":"Univ. Indonesia","i_long":106.831474},{"distance":1109,"is_transit":false,"i_long":106.831114,"station_name":"Pondok Cina","transit":false,"time":2,"line":2,"station_id":"POC","i_lat":-6.369073},{"i_long":106.819451,"time":4,"station_id":"DPB","i_lat":-6.391065,"transit":false,"is_transit":false,"line":2,"station_name":"Depokbaru","distance":2727},{"i_long":106.816926,"distance":1584,"is_transit":false,"time":3,"i_lat":-6.405256,"transit":false,"station_id":"DP","line":2,"station_name":"Depok"},{"i_long":106.800298,"line":2,"station_id":"CTA","transit":false,"time":6,"station_name":"Citayam","i_lat":-6.448811,"is_transit":false,"distance":5084}],[{"time":0,"i_lat":-6.328533,"station_id":"TGS","i_long":106.425991,"transit":false,"distance":0,"station_name":"Tigaraksa","is_transit":false,"line":6},{"i_long":106.460812,"line":6,"is_transit":false,"station_name":"Tenjo","distance":2974,"transit":false,"i_lat":-6.327251,"time":5,"station_id":"TEJ"},{"transit":false,"station_id":"DAR","distance":3902,"station_name":"Daru","i_long":106.491338,"is_transit":false,"i_lat":-6.338021,"time":5,"line":0},{"distance":2675,"station_id":"CJT","i_lat":-6.354349,"time":6,"is_transit":false,"i_long":106.508482,"line":3,"station_name":"Cilejit","transit":false},{"i_long":106.568863,"i_lat":-6.3441410000000005,"line":6,"is_transit":false,"distance":7025,"transit":false,"station_name":"Parung Panjang","time":9,"station_id":"PRP"},{"is_transit":false,"i_long":106.617853,"time":8,"station_name":"Cicayur","line":3,"i_lat":-6.329547,"transit":false,"station_id":"CC","distance":5968},{"transit":false,"station_name":"Cisauk","line":3,"station_id":"CSK","time":4,"distance":2519,"i_lat":-6.32484,"i_long":106.640411,"is_transit":false},{"distance":1784,"i_lat":-6.319871,"i_long":106.66566,"line":6,"station_id":"SRP","station_name":"Serpong","transit":false,"time":4,"is_transit":false},{"i_lat":-6.314823,"station_id":"RU","line":6,"time":4,"transit":false,"is_transit":false,"distance":2413,"station_name":"Rawa Buntu","i_long":106.675475},{"station_id":"SDM","transit":false,"station_name":"Sudimara","is_transit":false,"distance":4566,"time":6,"line":6,"i_long":106.712277,"i_lat":-6.296963},{"transit":false,"time":4,"is_transit":false,"station_id":"JMU","distance":1994,"i_lat":-6.288927,"line":6,"station_name":"Jurangmangu","i_long":106.728916},{"distance":2179,"line":6,"i_long":106.74273,"is_transit":false,"station_id":"PDJ","transit":false,"time":3,"i_lat":-6.276362,"station_name":"Pondokranji"},{"transit":false,"is_transit":false,"station_id":"KBY","time":8,"station_name":"Kebayoran","distance":6218,"i_lat":-6.237242,"i_long":106.780334,"line":6},{"station_id":"PLM","station_name":"Palmerah","i_long":106.79689,"time":7,"transit":false,"is_transit":false,"line":6,"i_lat":-6.207404,"distance":3737},{"i_long":106.811091,"line":1,"station_id":"THB","transit":true,"i_lat":-6.185545,"distance":3191,"time":6,"is_transit":true,"station_name":"Tanah Abang"},{"transit":false,"station_id":"DU","distance":3632,"is_transit":false,"i_long":106.800832,"line":1,"i_lat":-6.155215,"station_name":"Duri","time":8},{"transit":false,"i_long":106.79867,"station_name":"Angke","time":4,"is_transit":false,"line":1,"station_id":"AK","i_lat":-6.144674,"distance":1230},{"time":9,"transit":true,"line":4,"station_name":"Kampung Bandan","is_transit":true,"i_long":106.826365,"station_id":"KPB","i_lat":-6.132549,"distance":4102},{"transit":false,"is_transit":false,"line":11,"station_id":"RJW","station_name":"Rajawali","i_lat":-6.14505,"distance":1444,"time":3,"i_long":106.836569},{"distance":1901,"i_lat":-6.161728,"line":11,"i_long":106.839204,"transit":false,"time":5,"is_transit":false,"station_id":"KMO","station_name":"Kemayoran"},{"i_long":106.84368,"line":11,"transit":false,"distance":1436,"station_id":"PSE","is_transit":false,"i_lat":-6.174784,"time":4,"station_name":"Pasar Senen"},{"i_long":106.850107,"transit":false,"station_name":"Gang Sentiong","distance":1567,"line":11,"time":8,"station_id":"GST","is_transit":false,"i_lat":-6.185975},{"i_lat":-6.193792,"time":1,"distance":973,"station_name":"Kramat","is_transit":false,"station_id":"KMT","i_long":106.855437,"transit":false,"line":11},{"i_lat":-6.209188,"line":11,"is_transit":false,"station_id":"POK","transit":false,"station_name":"Pondok Jati","time":2,"distance":1829,"i_long":106.861737},{"station_name":"Jatinegara","distance":1236,"i_long":106.86807400000001,"time":9,"transit":true,"i_lat":-6.215091,"station_id":"JNG","line":1,"is_transit":true},{"transit":false,"station_name":"Matraman","is_transit":false,"distance":1377,"line":1,"time":2,"station_id":"MTR","i_lat":-6.212485,"i_long":106.858896},{"station_id":"MRI","line":2,"i_long":106.84912,"distance":1275,"is_transit":true,"time":2,"transit":true,"station_name":"Manggarai","i_lat":-6.209883},{"transit":false,"i_lat":-6.226659,"line":2,"time":4,"station_id":"TEB","station_name":"Tebet","distance":2610,"is_transit":false,"i_long":106.857948},{"i_lat":-6.242512,"station_name":"Cawang","time":2,"i_long":106.856607,"line":2,"transit":false,"station_id":"CW","distance":1230,"is_transit":false},{"line":2,"station_id":"DRN","distance":1546,"is_transit":false,"time":3,"transit":false,"i_lat":-6.255332,"station_name":"Duren Kalibata","i_long":106.85449},{"i_long":106.851577,"i_lat":-6.263214,"time":2,"transit":false,"station_name":"Pasar Minggu Baru","distance":824,"is_transit":false,"station_id":"PSMB","line":2},{"transit":false,"time":2,"is_transit":false,"distance":2380,"i_long":106.843999,"line":2,"station_name":"Pasar Minggu","i_lat":-6.2842400000000005,"station_id":"PSM"},{"station_id":"TNT","i_lat":-6.3080680000000005,"i_long":106.838896,"distance":2820,"transit":false,"station_name":"Tanjung Barat","time":4,"is_transit":false,"line":2},{"is_transit":false,"i_long":106.832616,"distance":2671,"station_name":"Lenteng Agung","line":2,"station_id":"LNA","i_lat":-6.330363,"time":3,"transit":false},{"distance":1029,"is_transit":false,"station_id":"UP","i_lat":-6.339291,"i_long":106.834175,"line":2,"transit":false,"station_name":"Univ. Pancasila","time":2},{"transit":false,"station_id":"UI","station_name":"Univ. Indonesia","distance":2264,"i_lat":-6.360749,"is_transit":false,"i_long":106.831474,"time":3,"line":2},{"station_name":"Pondok Cina","line":2,"i_lat":-6.369073,"transit":false,"is_transit":false,"station_id":"POC","distance":1109,"i_long":106.831114,"time":2},{"i_long":106.819451,"time":4,"station_name":"Depokbaru","line":2,"transit":false,"distance":2727,"is_transit":false,"i_lat":-6.391065,"station_id":"DPB"},{"i_lat":-6.405256,"transit":false,"line":2,"station_name":"Depok","station_id":"DP","distance":1584,"i_long":106.816926,"is_transit":false,"time":3},{"line":2,"station_name":"Citayam","distance":5084,"time":6,"is_transit":false,"i_lat":-6.448811,"transit":false,"i_long":106.800298,"station_id":"CTA"}]]}