{"data":[[{"line":6,"transit":false,"i_long":106.425991,"station_name":"Tigaraksa","is_transit":false,"station_id":"TGS","distance":0,"i_lat":-6.328533,"time":0},{"i_long":106.460812,"time":5,"distance":2974,"station_name":"Tenjo","line":6,"is_transit":false,"transit":false,"i_lat":-6.327251,"station_id":"TEJ"},{"i_long":106.491338,"line":0,"transit":false,"time":5,"station_id":"DAR","station_name":"Daru","is_transit":false,"distance":3902,"i_lat":-6.338021},{"time":6,"i_lat":-6.354349,"station_id":"CJT","i_long":106.508482,"is_transit":false,"line":3,"station_name":"Cilejit","transit":false,"distance":2675},{"is_transit":false,"distance":7025,"station_name":"Parung Panjang","station_id":"PRP","i_lat":-6.3441410000000005,"line":6,"transit":false,"i_long":106.568863,"time":9},{"time":8,"station_name":"Cicayur","line":3,"i_lat":-6.329547,"i_long":106.617853,"is_transit":false,"transit":false,"station_id":"CC","distance":5968},{"i_long":106.640411,"line":3,"is_transit":false,"transit":false,"time":4,"station_id":"CSK","i_lat":-6.32484,"station_name":"Cisauk","distance":2519},{"i_long":106.66566,"station_name":"Serpong","transit":false,"is_transit":false,"station_id":"SRP","line":6,"i_lat":-6.319871,"distance":1784,"time":4},{"time":4,"line":6,"transit":false,"i_lat":-6.314823,"is_transit":false,"station_id":"RU","station_name":"Rawa Buntu","i_long":106.675475,"distance":2413},{"station_name":"Sudimara","time":6,"is_transit":false,"distance":4566,"station_id":"SDM","i_long":106.712277,"line":6,"transit":false,"i_lat":-6.296963}]]}