{"data":[[{"time":0,"transit":false,"distance":0,"station_name":"Tigaraksa","line":6,"station_id":"TGS","is_transit":false,"i_lat":-6.328533,"i_long":106.425991},{"distance":2974,"station_name":"Tenjo","is_transit":false,"time":5,"i_lat":-6.327251,"line":6,"i_long":106.460812,"transit":false,"station_id":"TEJ"},{"time":5,"is_transit":false,"i_lat":-6.338021,"i_long":106.491338,"transit":false,"line":0,"station_name":"Daru","station_id":"DAR","distance":3902},{"distance":2675,"station_id":"CJT","i_long":106.508482,"station_name":"Cilejit","line":0,"is_transit":false,"i_lat":-6.354349,"transit":false,"time":6},{"station_id":"PRP","time":9,"station_name":"Parung Panjang","is_transit":false,"i_lat":-6.3441410000000005,"line":6,"i_long":106.568863,"distance":7025,"transit":false},{"i_lat":-6.329547,"line":0,"transit":false,"is_transit":false,"station_id":"CC","station_name":"Cicayur","time":8,"distance":5968,"i_long":106.617853},{"is_transit":false,"i_lat":-6.32484,"distance":2519,"station_id":"CSK","time":4,"line":0,"i_long":106.640411,"transit":false,"station_name":"Cisauk"},{"i_long":106.66566,"i_lat":-6.319871,"distance":1784,"line":6,"time":4,"transit":false,"station_name":"Serpong","station_id":"SRP","is_transit":false},{"station_name":"Rawa Buntu","distance":2413,"line":6,"time":4,"i_lat":-6.314823,"is_transit":false,"station_id":"RU","transit":false,"i_long":106.675475},{"time":6,"line":6,"is_transit":false,"i_lat":-6.296963,"transit":false,"station_name":"Sudimara","station_id":"SDM","i_long":106.712277,"distance":4566},{"transit":false,"station_name":"Jurangmangu","time":4,"i_lat":-6.288927,"station_id":"JMU","i_long":106.728916,"line":6,"distance":1994,"is_transit":false},{"distance":2179,"station_id":"PDJ","station_name":"Pondokranji","line":6,"transit":false,"i_lat":-6.276362,"time":3,"is_transit":false,"i_long":106.74273},{"is_transit":false,"station_id":"KBY","i_lat":-6.237242,"station_name":"Kebayoran","distance":6218,"line":6,"transit":false,"time":8,"i_long":106.780334},{"is_transit":false,"transit":false,"i_long":106.79689,"time":7,"station_name":"Palmerah","line":6,"station_id":"PLM","i_lat":-6.207404,"distance":3737},{"station_id":"THB","i_long":106.811091,"is_transit":true,"station_name":"Tanah Abang","line":1,"transit":true,"time":6,"i_lat":-6.185545,"distance":3191},{"station_id":"DU","i_long":106.800832,"station_name":"Duri","time":8,"distance":3632,"transit":true,"line":1,"is_transit":true,"i_lat":-6.155215},{"time":3,"transit":false,"distance":1700,"station_id":"GGL","station_name":"Grogol","is_transit":false,"i_lat":-6.162021,"i_long":106.788277,"line":5},{"line":5,"transit":false,"distance":2036,"station_name":"Pesing","i_long":106.771379,"station_id":"PSG","i_lat":-6.161433,"time":2,"is_transit":false},{"distance":1614,"transit":false,"is_transit":false,"station_id":"TKO","time":2,"line":5,"i_long":106.756522,"i_lat":-6.1587309999999995,"station_name":"Taman Kota"},{"is_transit":false,"i_lat":-6.159876,"i_long":106.737035,"line":0,"transit":false,"station_name":"Bojongindah","time":2,"station_id":"BOI","distance":2334},{"distance":1152,"line":5,"station_name":"Rawa Buaya","station_id":"RW","is_transit":false,"i_long":106.723064,"i_lat":-6.162758,"transit":false,"time":4},{"station_id":"KDS","line":5,"time":3,"is_transit":false,"i_lat":-6.166068,"i_long":106.701612,"distance":2504,"station_name":"Kalideres","transit":false},{"i_lat":-6.169933,"line":5,"i_long":106.679458,"transit":false,"time":3,"station_id":"PI","station_name":"Poris","is_transit":false,"distance":2548},{"station_name":"Batuceper","transit":false,"distance":1834,"station_id":"BPR","i_lat":-6.171811,"line":0,"is_transit":false,"time":3,"i_long":106.665036},{"transit":false,"time":3,"distance":2028,"line":5,"station_id":"TTI","i_lat":-6.17331,"station_name":"Tanah Tinggi","is_transit":false,"i_long":106.64657}],[{"transit":false,"i_long":106.425991,"station_id":"TGS","i_lat":-6.328533,"station_name":"Tigaraksa","distance":0,"is_transit":false,"time":0,"line":6},{"i_long":106.460812,"station_name":"Tenjo","time":5,"i_lat":-6.327251,"line":6,"distance":2974,"transit":false,"station_id":"TEJ","is_transit":false},{"transit":false,"time":5,"i_long":106.491338,"line":0,"is_transit":false,"i_lat":-6.338021,"station_name":"Daru","station_id":"DAR","distance":3902},{"transit":false,"line":0,"station_id":"CJT","station_name":"Cilejit","time":6,"i_long":106.508482,"i_lat":-6.354349,"distance":2675,"is_transit":false},{"i_lat":-6.3441410000000005,"line":6,"station_id":"PRP","transit":false,"station_name":"Parung Panjang","distance":7025,"is_transit":false,"time":9,"i_long":106.568863},{"station_id":"CC","i_lat":-6.329547,"i_long":106.617853,"transit":false,"distance":5968,"station_name":"Cicayur","is_transit":false,"time":8,"line":0},{"is_transit":false,"station_id":"CSK","time":4,"i_lat":-6.32484,"station_name":"Cisauk","distance":2519,"line":0,"i_long":106.640411,"transit":false},{"line":6,"i_long":106.66566,"time":4,"transit":false,"is_transit":false,"station_name":"Serpong","distance":1784,"station_id":"SRP","i_lat":-6.319871},{"i_lat":-6.314823,"i_long":106.675475,"line":6,"distance":2413,"transit":false,"station_name":"Rawa Buntu","is_transit":false,"time":4,"station_id":"RU"},{"i_lat":-6.296963,"distance":4566,"station_id":"SDM","i_long":106.712277,"is_transit":false,"time":6,"transit":false,"station_name":"Sudimara","line":6},{"i_lat":-6.288927,"is_transit":false,"time":4,"i_long":106.728916,"transit":false,"distance":1994,"station_name":"Jurangmangu","line":6,"station_id":"JMU"},{"line":6,"i_lat":-6.276362,"station_name":"Pondokranji","is_transit":false,"time":3,"station_id":"PDJ","transit":false,"i_long":106.74273,"distance":2179},{"i_lat":-6.237242,"station_name":"Kebayoran","line":6,"transit":false,"is_transit":false,"i_long":106.780334,"station_id":"KBY","distance":6218,"time":8},{"distance":3737,"station_id":"PLM","station_name":"Palmerah","transit":false,"i_lat":-6.207404,"i_long":106.79689,"time":7,"line":6,"is_transit":false},{"i_lat":-6.185545,"transit":true,"station_name":"Tanah Abang","i_long":106.811091,"is_transit":true,"time":6,"station_id":"THB","distance":3191,"line":1},{"line":1,"distance":2029,"i_lat":-6.20132,"station_id":"KAT","time":5,"station_name":"Karet","transit":false,"is_transit":false,"i_long":106.816351},{"is_transit":false,"distance":471,"time":1,"i_long":106.819881,"station_id":"SUDB","transit":false,"i_lat":-6.201433,"line":1,"station_name":"Sudirman Baru"},{"is_transit":false,"time":1,"station_name":"Sudirman","transit":false,"i_lat":-6.202263,"line":1,"distance":280,"station_id":"SUD","i_long":106.822649},{"time":4,"i_lat":-6.209883,"line":0,"station_name":"Manggarai","i_long":106.84912,"distance":3186,"station_id":"MRI","is_transit":true,"transit":true},{"distance":1590,"transit":false,"station_id":"CKI","time":4,"i_long":106.840169,"station_name":"Cikini","line":0,"is_transit":false,"i_lat":-6.198556},{"is_transit":false,"distance":1750,"line":2,"station_id":"GDD","transit":false,"i_lat":-6.186295,"station_name":"Gondangdia","time":3,"i_long":106.832183},{"i_lat":-6.166716,"distance":2015,"is_transit":false,"transit":false,"time":4,"station_id":"JUA","i_long":106.828284,"station_name":"Juanda","line":2},{"is_transit":false,"i_long":106.827103,"station_name":"Sawah Besar","station_id":"SW","time":2,"i_lat":-6.160725,"line":2,"distance":1149,"transit":false},{"is_transit":false,"distance":906,"time":2,"transit":false,"line":2,"i_long":106.82482,"station_id":"MGB","station_name":"Manggabesar","i_lat":-6.149769},{"is_transit":false,"i_lat":-6.141205,"time":2,"transit":false,"station_id":"JAY","i_long":106.820901,"station_name":"Jayakarta","line":7,"distance":1080},{"line":0,"time":4,"station_name":"Jakarta Kota","distance":1264,"station_id":"JAKK","is_transit":true,"i_long":106.812439,"transit":true,"i_lat":-6.137569},{"time":3,"line":0,"i_lat":-6.132549,"transit":false,"is_transit":true,"station_name":"Kampung Bandan","distance":1364,"i_long":106.826365,"station_id":"KPB"},{"i_long":106.79867,"i_lat":-6.144674,"station_name":"Angke","line":0,"distance":4102,"transit":false,"is_transit":false,"time":9,"station_id":"AK"},{"station_id":"DU","i_lat":-6.155215,"i_long":106.800832,"line":1,"distance":1230,"is_transit":true,"station_name":"Duri","time":4,"transit":true},{"i_long":106.788277,"time":3,"distance":1700,"i_lat":-6.162021,"transit":false,"line":5,"is_transit":false,"station_name":"Grogol","station_id":"GGL"},{"transit":false,"station_id":"PSG","time":2,"station_name":"Pesing","distance":2036,"i_lat":-6.161433,"i_long":106.771379,"line":5,"is_transit":false},{"distance":1614,"i_lat":-6.1587309999999995,"station_id":"TKO","i_long":106.756522,"line":5,"station_name":"Taman Kota","transit":false,"is_transit":false,"time":2},{"station_id":"BOI","i_lat":-6.159876,"i_long":106.737035,"time":2,"distance":2334,"line":0,"station_name":"Bojongindah","is_transit":false,"transit":false},{"time":4,"is_transit":false,"transit":false,"i_lat":-6.162758,"station_id":"RW","station_name":"Rawa Buaya","i_long":106.723064,"distance":1152,"line":5},{"i_long":106.701612,"station_name":"Kalideres","transit":false,"i_lat":-6.166068,"time":3,"distance":2504,"is_transit":false,"line":5,"station_id":"KDS"},{"is_transit":false,"line":5,"transit":false,"station_name":"Poris","station_id":"PI","time":3,"i_lat":-6.169933,"i_long":106.679458,"distance":2548},{"transit":false,"is_transit":false,"line":0,"distance":1834,"i_long":106.665036,"station_name":"Batuceper","station_id":"BPR","time":3,"i_lat":-6.171811},{"distance":2028,"line":5,"i_long":106.64657,"time":3,"station_name":"Tanah Tinggi","station_id":"TTI","is_transit":false,"i_lat":-6.17331,"transit":false}],[{"is_transit":false,"station_name":"Tigaraksa","transit":false,"i_lat":-6.328533,"i_long":106.425991,"distance":0,"time":0,"station_id":"TGS","line":6},{"station_id":"TEJ","time":5,"i_lat":-6.327251,"distance":2974,"line":6,"is_transit":false,"i_long":106.460812,"transit":false,"station_name":"Tenjo"},{"distance":3902,"line":0,"station_name":"Daru","is_transit":false,"time":5,"i_lat":-6.338021,"transit":false,"station_id":"DAR","i_long":106.491338},{"station_name":"Cilejit","i_long":106.508482,"line":0,"is_transit":false,"distance":2675,"station_id":"CJT","i_lat":-6.354349,"transit":false,"time":6},{"distance":7025,"station_name":"Parung Panjang","i_lat":-6.3441410000000005,"station_id":"PRP","is_transit":false,"transit":false,"time":9,"line":6,"i_long":106.568863},{"station_id":"CC","i_long":106.617853,"distance":5968,"time":8,"is_transit":false,"i_lat":-6.329547,"line":0,"station_name":"Cicayur","transit":false},{"is_transit":false,"i_lat":-6.32484,"distance":2519,"transit":false,"i_long":106.640411,"station_name":"Cisauk","time":4,"line":0,"station_id":"CSK"},{"i_long":106.66566,"distance":1784,"time":4,"i_lat":-6.319871,"is_transit":false,"line":6,"station_name":"Serpong","station_id":"SRP","transit":false},{"i_long":106.675475,"transit":false,"station_name":"Rawa Buntu","station_id":"RU","is_transit":false,"line":6,"distance":2413,"i_lat":-6.314823,"time":4},{"station_id":"SDM","distance":4566,"transit":false,"time":6,"line":6,"i_long":106.712277,"i_lat":-6.296963,"is_transit":false,"station_name":"Sudimara"},{"time":4,"i_lat":-6.288927,"distance":1994,"is_transit":false,"line":6,"i_long":106.728916,"station_name":"Jurangmangu","transit":false,"station_id":"JMU"},{"time":3,"is_transit":false,"i_lat":-6.276362,"station_name":"Pondokranji","i_long":106.74273,"station_id":"PDJ","transit":false,"distance":2179,"line":6},{"station_name":"Kebayoran","station_id":"KBY","time":8,"is_transit":false,"transit":false,"i_long":106.780334,"distance":6218,"line":6,"i_lat":-6.237242},{"i_lat":-6.207404,"distance":3737,"is_transit":false,"time":7,"line":6,"i_long":106.79689,"station_name":"Palmerah","station_id":"PLM","transit":false},{"distance":3191,"transit":true,"station_name":"Tanah Abang","station_id":"THB","line":1,"i_lat":-6.185545,"i_long":106.811091,"is_transit":true,"time":6},{"i_lat":-6.20132,"line":1,"distance":2029,"i_long":106.816351,"transit":false,"station_name":"Karet","station_id":"KAT","is_transit":false,"time":5},{"station_id":"SUDB","station_name":"Sudirman Baru","i_long":106.819881,"distance":471,"transit":false,"is_transit":false,"i_lat":-6.201433,"line":1,"time":1},{"line":1,"distance":280,"transit":false,"time":1,"station_id":"SUD","station_name":"Sudirman","i_long":106.822649,"i_lat":-6.202263,"is_transit":false},{"station_name":"Manggarai","i_long":106.84912,"i_lat":-6.209883,"line":0,"is_transit":true,"transit":false,"station_id":"MRI","time":4,"distance":3186},{"station_name":"Matraman","transit":false,"line":1,"i_long":106.858896,"station_id":"MTR","distance":1275,"i_lat":-6.212485,"is_transit":false,"time":2},{"is_transit":true,"station_id":"JNG","i_lat":-6.215091,"transit":true,"distance":1377,"station_name":"Jatinegara","time":8,"line":0,"i_long":106.86807400000001},{"is_transit":false,"station_id":"POK","i_lat":-6.209188,"station_name":"Pondok Jati","i_long":106.861737,"line":11,"time":2,"distance":1236,"transit":false},{"i_lat":-6.193792,"is_transit":false,"i_long":106.855437,"distance":1829,"station_id":"KMT","transit":false,"station_name":"Kramat","time":2,"line":11},{"transit":false,"is_transit":false,"i_lat":-6.185975,"time":1,"distance":973,"i_long":106.850107,"line":11,"station_id":"GST","station_name":"Gang Sentiong"},{"transit":false,"distance":1567,"station_id":"PSE","is_transit":false,"i_lat":-6.174784,"line":11,"station_name":"Pasar Senen","time":8,"i_long":106.84368},{"station_id":"KMO","distance":1436,"transit":false,"i_lat":-6.161728,"is_transit":false,"i_long":106.839204,"time":4,"line":11,"station_name":"Kemayoran"},{"line":11,"i_lat":-6.14505,"i_long":106.836569,"transit":false,"station_name":"Rajawali","is_transit":false,"station_id":"RJW","time":5,"distance":1901},{"station_id":"KPB","is_transit":true,"i_long":106.826365,"i_lat":-6.132549,"time":3,"line":0,"transit":true,"distance":1444,"station_name":"Kampung Bandan"},{"distance":4102,"i_lat":-6.144674,"i_long":106.79867,"time":9,"line":0,"station_name":"Angke","transit":false,"station_id":"AK","is_transit":false},{"distance":1230,"is_transit":true,"i_long":106.800832,"i_lat":-6.155215,"transit":true,"station_name":"Duri","station_id":"DU","time":4,"line":1},{"line":5,"i_long":106.788277,"distance":1700,"station_name":"Grogol","transit":false,"i_lat":-6.162021,"station_id":"GGL","is_transit":false,"time":3},{"station_id":"PSG","i_long":106.771379,"time":2,"distance":2036,"station_name":"Pesing","line":5,"i_lat":-6.161433,"transit":false,"is_transit":false},{"i_lat":-6.1587309999999995,"i_long":106.756522,"transit":false,"station_name":"Taman Kota","line":5,"time":2,"station_id":"TKO","distance":1614,"is_transit":false},{"line":0,"time":2,"station_id":"BOI","station_name":"Bojongindah","i_lat":-6.159876,"i_long":106.737035,"is_transit":false,"transit":false,"distance":2334},{"line":5,"station_name":"Rawa Buaya","time":4,"transit":false,"i_lat":-6.162758,"distance":1152,"i_long":106.723064,"station_id":"RW","is_transit":false},{"transit":false,"station_id":"KDS","distance":2504,"is_transit":false,"station_name":"Kalideres","i_long":106.701612,"i_lat":-6.166068,"line":5,"time":3},{"distance":2548,"time":3,"line":5,"is_transit":false,"station_name":"Poris","station_id":"PI","i_long":106.679458,"i_lat":-6.169933,"transit":false},{"is_transit":false,"time":3,"i_lat":-6.171811,"line":0,"distance":1834,"transit":false,"station_id":"BPR","i_long":106.665036,"station_name":"Batuceper"},{"line":5,"is_transit":false,"time":3,"station_name":"Tanah Tinggi","distance":2028,"station_id":"TTI","i_lat":-6.17331,"transit":false,"i_long":106.64657}]]}