{"data":[[{"transit":false,"i_long":106.425991,"is_transit":false,"distance":0,"i_lat":-6.328533,"station_name":"Tigaraksa","station_id":"TGS","line":6,"time":0},{"i_lat":-6.327251,"station_id":"TEJ","i_long":106.460812,"time":5,"line":6,"transit":false,"is_transit":false,"distance":2974,"station_name":"Tenjo"},{"line":0,"time":5,"station_id":"DAR","station_name":"Daru","i_lat":-6.338021,"is_transit":false,"distance":3902,"i_long":106.491338,"transit":false},{"time":6,"line":0,"station_id":"CJT","station_name":"Cilejit","i_lat":-6.354349,"distance":2675,"is_transit":false,"i_long":106.508482,"transit":false},{"station_id":"PRP","i_lat":-6.3441410000000005,"is_transit":false,"transit":false,"line":6,"station_name":"Parung Panjang","time":9,"distance":7025,"i_long":106.568863},{"time":8,"station_name":"Cicayur","transit":false,"station_id":"CC","i_lat":-6.329547,"i_long":106.617853,"is_transit":false,"distance":5968,"line":0},{"distance":2519,"i_lat":-6.32484,"time":4,"station_name":"Cisauk","transit":false,"i_long":106.640411,"line":0,"station_id":"CSK","is_transit":false},{"transit":false,"i_lat":-6.319871,"line":6,"is_transit":false,"distance":1784,"time":4,"i_long":106.66566,"station_name":"Serpong","station_id":"SRP"},{"line":6,"station_id":"RU","i_long":106.675475,"is_transit":false,"i_lat":-6.314823,"station_name":"Rawa Buntu","distance":2413,"transit":false,"time":4},{"i_long":106.712277,"transit":false,"line":6,"station_id":"SDM","station_name":"Sudimara","distance":4566,"is_transit":false,"time":6,"i_lat":-6.296963},{"i_long":106.728916,"time":4,"transit":false,"station_name":"Jurangmangu","i_lat":-6.288927,"distance":1994,"line":6,"is_transit":false,"station_id":"JMU"},{"i_lat":-6.276362,"i_long":106.74273,"line":6,"distance":2179,"time":3,"station_id":"PDJ","transit":false,"is_transit":false,"station_name":"Pondokranji"},{"is_transit":false,"line":6,"station_name":"Kebayoran","i_lat":-6.237242,"transit":false,"i_long":106.780334,"station_id":"KBY","distance":6218,"time":8},{"is_transit":false,"i_long":106.79689,"distance":3737,"station_id":"PLM","station_name":"Palmerah","transit":false,"i_lat":-6.207404,"time":7,"line":6},{"i_long":106.811091,"line":1,"transit":true,"is_transit":true,"station_id":"THB","distance":3191,"i_lat":-6.185545,"time":6,"station_name":"Tanah Abang"},{"is_transit":false,"distance":2029,"transit":false,"i_long":106.816351,"time":5,"line":1,"station_id":"KAT","i_lat":-6.20132,"station_name":"Karet"},{"i_long":106.819881,"station_name":"Sudirman Baru","station_id":"SUDB","transit":false,"i_lat":-6.201433,"distance":471,"line":1,"is_transit":false,"time":1},{"station_name":"Sudirman","time":1,"i_lat":-6.202263,"transit":false,"distance":280,"station_id":"SUD","i_long":106.822649,"is_transit":false,"line":1},{"transit":false,"i_lat":-6.209883,"is_transit":true,"line":0,"distance":3186,"station_name":"Manggarai","i_long":106.84912,"time":4,"station_id":"MRI"},{"distance":1275,"is_transit":false,"station_id":"MTR","station_name":"Matraman","transit":false,"line":1,"time":2,"i_long":106.858896,"i_lat":-6.212485},{"line":0,"station_name":"Jatinegara","i_long":106.86807400000001,"distance":1377,"time":8,"is_transit":true,"transit":false,"station_id":"JNG","i_lat":-6.215091},{"is_transit":false,"i_long":106.899548,"i_lat":-6.2135,"station_id":"KLD","station_name":"Klender","time":3,"distance":3395,"line":1,"transit":false},{"distance":3100,"line":0,"i_lat":-6.215568,"i_long":106.922662,"station_id":"BUA","time":2,"station_name":"Buaran","is_transit":false,"transit":false}],[{"station_name":"Tigaraksa","i_long":106.425991,"station_id":"TGS","is_transit":false,"i_lat":-6.328533,"distance":0,"line":6,"transit":false,"time":0},{"i_long":106.460812,"station_name":"Tenjo","line":6,"is_transit":false,"i_lat":-6.327251,"station_id":"TEJ","time":5,"transit":false,"distance":2974},{"distance":3902,"station_id":"DAR","time":5,"i_long":106.491338,"i_lat":-6.338021,"is_transit":false,"station_name":"Daru","transit":false,"line":0},{"is_transit":false,"time":6,"station_id":"CJT","line":0,"distance":2675,"i_lat":-6.354349,"i_long":106.508482,"transit":false,"station_name":"Cilejit"},{"is_transit":false,"time":9,"i_long":106.568863,"station_id":"PRP","i_lat":-6.3441410000000005,"station_name":"Parung Panjang","line":6,"transit":false,"distance":7025},{"i_lat":-6.329547,"i_long":106.617853,"line":0,"is_transit":false,"transit":false,"time":8,"distance":5968,"station_id":"CC","station_name":"Cicayur"},{"is_transit":false,"transit":false,"time":4,"station_id":"CSK","station_name":"Cisauk","distance":2519,"line":0,"i_lat":-6.32484,"i_long":106.640411},{"time":4,"transit":false,"i_lat":-6.319871,"station_id":"SRP","station_name":"Serpong","i_long":106.66566,"is_transit":false,"line":6,"distance":1784},{"station_name":"Rawa Buntu","i_lat":-6.314823,"i_long":106.675475,"distance":2413,"is_transit":false,"transit":false,"time":4,"station_id":"RU","line":6},{"time":6,"station_id":"SDM","line":6,"i_long":106.712277,"is_transit":false,"station_name":"Sudimara","transit":false,"distance":4566,"i_lat":-6.296963},{"distance":1994,"transit":false,"i_lat":-6.288927,"is_transit":false,"line":6,"time":4,"station_name":"Jurangmangu","station_id":"JMU","i_long":106.728916},{"is_transit":false,"distance":2179,"station_id":"PDJ","i_lat":-6.276362,"i_long":106.74273,"line":6,"time":3,"transit":false,"station_name":"Pondokranji"},{"station_name":"Kebayoran","line":6,"distance":6218,"time":8,"station_id":"KBY","i_long":106.780334,"transit":false,"is_transit":false,"i_lat":-6.237242},{"i_lat":-6.207404,"station_id":"PLM","distance":3737,"station_name":"Palmerah","line":6,"i_long":106.79689,"time":7,"is_transit":false,"transit":false},{"i_long":106.811091,"i_lat":-6.185545,"station_id":"THB","transit":true,"is_transit":true,"distance":3191,"time":6,"station_name":"Tanah Abang","line":1},{"is_transit":true,"station_id":"DU","transit":true,"line":1,"station_name":"Duri","distance":3632,"i_lat":-6.155215,"time":8,"i_long":106.800832},{"time":4,"distance":1230,"i_lat":-6.144674,"line":0,"i_long":106.79867,"transit":false,"station_id":"AK","station_name":"Angke","is_transit":false},{"distance":4102,"i_long":106.826365,"line":0,"transit":true,"station_id":"KPB","i_lat":-6.132549,"is_transit":true,"station_name":"Kampung Bandan","time":9},{"i_long":106.836569,"time":3,"transit":false,"i_lat":-6.14505,"distance":1444,"station_id":"RJW","station_name":"Rajawali","is_transit":false,"line":11},{"time":5,"distance":1901,"station_id":"KMO","station_name":"Kemayoran","i_long":106.839204,"line":11,"transit":false,"is_transit":false,"i_lat":-6.161728},{"station_id":"PSE","i_long":106.84368,"is_transit":false,"transit":false,"time":4,"distance":1436,"i_lat":-6.174784,"station_name":"Pasar Senen","line":11},{"distance":1567,"i_lat":-6.185975,"station_id":"GST","time":8,"station_name":"Gang Sentiong","is_transit":false,"transit":false,"i_long":106.850107,"line":11},{"station_name":"Kramat","station_id":"KMT","distance":973,"transit":false,"i_lat":-6.193792,"time":1,"line":11,"is_transit":false,"i_long":106.855437},{"station_id":"POK","station_name":"Pondok Jati","distance":1829,"time":2,"i_long":106.861737,"is_transit":false,"line":11,"transit":false,"i_lat":-6.209188},{"station_id":"JNG","is_transit":true,"distance":1236,"time":9,"station_name":"Jatinegara","transit":true,"i_long":106.86807400000001,"line":0,"i_lat":-6.215091},{"i_lat":-6.2135,"i_long":106.899548,"station_id":"KLD","is_transit":false,"time":3,"line":1,"distance":3395,"station_name":"Klender","transit":false},{"transit":false,"is_transit":false,"time":2,"i_long":106.922662,"station_name":"Buaran","distance":3100,"line":0,"i_lat":-6.215568,"station_id":"BUA"}],[{"time":0,"i_lat":-6.328533,"i_long":106.425991,"is_transit":false,"line":6,"distance":0,"transit":false,"station_id":"TGS","station_name":"Tigaraksa"},{"distance":2974,"station_name":"Tenjo","is_transit":false,"time":5,"i_long":106.460812,"station_id":"TEJ","line":6,"transit":false,"i_lat":-6.327251},{"i_long":106.491338,"is_transit":false,"station_id":"DAR","time":5,"distance":3902,"station_name":"Daru","transit":false,"i_lat":-6.338021,"line":0},{"line":0,"station_name":"Cilejit","station_id":"CJT","transit":false,"distance":2675,"i_lat":-6.354349,"is_transit":false,"time":6,"i_long":106.508482},{"i_lat":-6.3441410000000005,"i_long":106.568863,"station_id":"PRP","is_transit":false,"distance":7025,"transit":false,"time":9,"station_name":"Parung Panjang","line":6},{"i_lat":-6.329547,"time":8,"station_id":"CC","station_name":"Cicayur","is_transit":false,"line":0,"distance":5968,"transit":false,"i_long":106.617853},{"station_id":"CSK","i_lat":-6.32484,"station_name":"Cisauk","distance":2519,"is_transit":false,"i_long":106.640411,"transit":false,"time":4,"line":0},{"station_id":"SRP","time":4,"distance":1784,"transit":false,"is_transit":false,"i_long":106.66566,"i_lat":-6.319871,"station_name":"Serpong","line":6},{"is_transit":false,"transit":false,"line":6,"time":4,"distance":2413,"i_lat":-6.314823,"station_id":"RU","i_long":106.675475,"station_name":"Rawa Buntu"},{"line":6,"time":6,"i_long":106.712277,"transit":false,"distance":4566,"station_name":"Sudimara","is_transit":false,"station_id":"SDM","i_lat":-6.296963},{"is_transit":false,"transit":false,"station_name":"Jurangmangu","time":4,"i_lat":-6.288927,"station_id":"JMU","i_long":106.728916,"distance":1994,"line":6},{"station_name":"Pondokranji","transit":false,"i_lat":-6.276362,"distance":2179,"station_id":"PDJ","time":3,"is_transit":false,"line":6,"i_long":106.74273},{"station_id":"KBY","i_long":106.780334,"is_transit":false,"station_name":"Kebayoran","distance":6218,"time":8,"line":6,"transit":false,"i_lat":-6.237242},{"line":6,"transit":false,"time":7,"station_id":"PLM","distance":3737,"i_long":106.79689,"is_transit":false,"station_name":"Palmerah","i_lat":-6.207404},{"time":6,"i_long":106.811091,"transit":true,"is_transit":true,"distance":3191,"station_id":"THB","station_name":"Tanah Abang","i_lat":-6.185545,"line":1},{"station_id":"DU","is_transit":true,"distance":3632,"station_name":"Duri","transit":true,"line":1,"time":8,"i_long":106.800832,"i_lat":-6.155215},{"line":0,"transit":false,"i_lat":-6.144674,"time":4,"is_transit":false,"distance":1230,"i_long":106.79867,"station_name":"Angke","station_id":"AK"},{"time":9,"i_long":106.826365,"station_name":"Kampung Bandan","distance":4102,"transit":false,"i_lat":-6.132549,"is_transit":true,"station_id":"KPB","line":0},{"i_long":106.812439,"station_id":"JAKK","is_transit":true,"transit":true,"time":3,"distance":1364,"line":0,"station_name":"Jakarta Kota","i_lat":-6.137569},{"transit":false,"station_name":"Jayakarta","i_lat":-6.141205,"i_long":106.820901,"distance":1264,"is_transit":false,"station_id":"JAY","time":4,"line":7},{"distance":1080,"line":2,"i_lat":-6.149769,"is_transit":false,"transit":false,"time":2,"station_id":"MGB","station_name":"Manggabesar","i_long":106.82482},{"is_transit":false,"time":2,"station_id":"SW","transit":false,"distance":906,"station_name":"Sawah Besar","line":2,"i_lat":-6.160725,"i_long":106.827103},{"station_id":"JUA","time":2,"line":2,"distance":1149,"i_long":106.828284,"transit":false,"i_lat":-6.166716,"station_name":"Juanda","is_transit":false},{"station_id":"GDD","distance":2015,"line":2,"i_lat":-6.186295,"time":4,"i_long":106.832183,"transit":false,"is_transit":false,"station_name":"Gondangdia"},{"is_transit":false,"station_id":"CKI","time":3,"transit":false,"i_lat":-6.198556,"i_long":106.840169,"distance":1750,"station_name":"Cikini","line":0},{"time":4,"i_lat":-6.209883,"line":0,"station_id":"MRI","i_long":106.84912,"transit":true,"is_transit":true,"station_name":"Manggarai","distance":1590},{"i_long":106.858896,"is_transit":false,"line":1,"station_id":"MTR","transit":false,"distance":1275,"i_lat":-6.212485,"station_name":"Matraman","time":2},{"time":8,"i_lat":-6.215091,"transit":false,"line":0,"distance":1377,"i_long":106.86807400000001,"station_name":"Jatinegara","station_id":"JNG","is_transit":true},{"time":3,"transit":false,"distance":3395,"i_lat":-6.2135,"is_transit":false,"i_long":106.899548,"station_name":"Klender","station_id":"KLD","line":1},{"transit":false,"distance":3100,"i_long":106.922662,"i_lat":-6.215568,"line":0,"is_transit":false,"time":2,"station_name":"Buaran","station_id":"BUA"}],[{"station_id":"TGS","i_long":106.425991,"transit":false,"station_name":"Tigaraksa","i_lat":-6.328533,"is_transit":false,"distance":0,"time":0,"line":6},{"station_name":"Tenjo","transit":false,"distance":2974,"line":6,"is_transit":false,"station_id":"TEJ","i_lat":-6.327251,"time":5,"i_long":106.460812},{"is_transit":false,"i_lat":-6.338021,"station_name":"Daru","time":5,"i_long":106.491338,"line":0,"transit":false,"distance":3902,"station_id":"DAR"},{"is_transit":false,"station_name":"Cilejit","transit":false,"i_long":106.508482,"distance":2675,"time":6,"station_id":"CJT","line":0,"i_lat":-6.354349},{"i_lat":-6.3441410000000005,"is_transit":false,"distance":7025,"line":6,"station_id":"PRP","transit":false,"time":9,"i_long":106.568863,"station_name":"Parung Panjang"},{"time":8,"i_lat":-6.329547,"is_transit":false,"transit":false,"station_name":"Cicayur","i_long":106.617853,"line":0,"station_id":"CC","distance":5968},{"i_long":106.640411,"line":0,"is_transit":false,"transit":false,"distance":2519,"i_lat":-6.32484,"time":4,"station_id":"CSK","station_name":"Cisauk"},{"distance":1784,"transit":false,"time":4,"i_lat":-6.319871,"line":6,"station_name":"Serpong","is_transit":false,"i_long":106.66566,"station_id":"SRP"},{"i_long":106.675475,"i_lat":-6.314823,"line":6,"station_name":"Rawa Buntu","transit":false,"station_id":"RU","distance":2413,"time":4,"is_transit":false},{"station_name":"Sudimara","distance":4566,"line":6,"transit":false,"i_long":106.712277,"i_lat":-6.296963,"is_transit":false,"time":6,"station_id":"SDM"},{"time":4,"i_lat":-6.288927,"transit":false,"distance":1994,"station_id":"JMU","line":6,"i_long":106.728916,"is_transit":false,"station_name":"Jurangmangu"},{"is_transit":false,"distance":2179,"station_id":"PDJ","time":3,"station_name":"Pondokranji","transit":false,"i_lat":-6.276362,"i_long":106.74273,"line":6},{"transit":false,"i_long":106.780334,"distance":6218,"is_transit":false,"time":8,"i_lat":-6.237242,"line":6,"station_name":"Kebayoran","station_id":"KBY"},{"time":7,"distance":3737,"i_long":106.79689,"is_transit":false,"station_id":"PLM","station_name":"Palmerah","i_lat":-6.207404,"transit":false,"line":6},{"time":6,"i_lat":-6.185545,"station_id":"THB","i_long":106.811091,"transit":true,"station_name":"Tanah Abang","is_transit":true,"distance":3191,"line":1},{"station_id":"KAT","time":5,"line":1,"i_lat":-6.20132,"station_name":"Karet","i_long":106.816351,"is_transit":false,"transit":false,"distance":2029},{"is_transit":false,"station_name":"Sudirman Baru","station_id":"SUDB","time":1,"i_long":106.819881,"line":1,"distance":471,"transit":false,"i_lat":-6.201433},{"station_id":"SUD","distance":280,"station_name":"Sudirman","time":1,"transit":false,"i_long":106.822649,"is_transit":false,"i_lat":-6.202263,"line":1},{"is_transit":true,"distance":3186,"station_name":"Manggarai","i_lat":-6.209883,"i_long":106.84912,"line":0,"time":4,"station_id":"MRI","transit":true},{"is_transit":false,"line":0,"i_lat":-6.198556,"station_name":"Cikini","distance":1590,"i_long":106.840169,"transit":false,"station_id":"CKI","time":4},{"station_id":"GDD","station_name":"Gondangdia","distance":1750,"time":3,"i_lat":-6.186295,"is_transit":false,"line":2,"i_long":106.832183,"transit":false},{"time":4,"station_name":"Juanda","is_transit":false,"transit":false,"i_long":106.828284,"station_id":"JUA","i_lat":-6.166716,"line":2,"distance":2015},{"station_id":"SW","transit":false,"is_transit":false,"i_lat":-6.160725,"distance":1149,"i_long":106.827103,"line":2,"time":2,"station_name":"Sawah Besar"},{"line":2,"station_id":"MGB","i_long":106.82482,"station_name":"Manggabesar","transit":false,"is_transit":false,"distance":906,"i_lat":-6.149769,"time":2},{"i_long":106.820901,"distance":1080,"transit":false,"station_name":"Jayakarta","is_transit":false,"line":7,"time":2,"i_lat":-6.141205,"station_id":"JAY"},{"i_long":106.812439,"line":0,"distance":1264,"station_name":"Jakarta Kota","is_transit":true,"station_id":"JAKK","transit":true,"time":4,"i_lat":-6.137569},{"station_name":"Kampung Bandan","is_transit":true,"i_long":106.826365,"time":3,"distance":1364,"station_id":"KPB","transit":true,"i_lat":-6.132549,"line":0},{"transit":false,"is_transit":false,"time":3,"line":11,"distance":1444,"i_lat":-6.14505,"i_long":106.836569,"station_id":"RJW","station_name":"Rajawali"},{"distance":1901,"station_name":"Kemayoran","transit":false,"line":11,"i_long":106.839204,"is_transit":false,"i_lat":-6.161728,"time":5,"station_id":"KMO"},{"distance":1436,"station_id":"PSE","is_transit":false,"i_long":106.84368,"i_lat":-6.174784,"line":11,"station_name":"Pasar Senen","transit":false,"time":4},{"distance":1567,"station_name":"Gang Sentiong","transit":false,"i_long":106.850107,"station_id":"GST","i_lat":-6.185975,"is_transit":false,"time":8,"line":11},{"time":1,"is_transit":false,"station_id":"KMT","i_long":106.855437,"station_name":"Kramat","distance":973,"transit":false,"i_lat":-6.193792,"line":11},{"distance":1829,"time":2,"is_transit":false,"transit":false,"i_long":106.861737,"line":11,"i_lat":-6.209188,"station_id":"POK","station_name":"Pondok Jati"},{"is_transit":true,"distance":1236,"time":9,"line":0,"station_name":"Jatinegara","transit":true,"i_lat":-6.215091,"station_id":"JNG","i_long":106.86807400000001},{"transit":false,"i_lat":-6.2135,"line":1,"is_transit":false,"station_id":"KLD","i_long":106.899548,"time":3,"distance":3395,"station_name":"Klender"},{"transit":false,"is_transit":false,"station_id":"BUA","time":2,"station_name":"Buaran","i_lat":-6.215568,"line":0,"distance":3100,"i_long":106.922662}]]}