{"data":[[{"station_id":"TGS","time":0,"distance":0,"transit":false,"i_lat":-6.328533,"station_name":"Tigaraksa","is_transit":false,"line":6,"i_long":106.425991},{"is_transit":false,"transit":false,"time":5,"station_id":"TEJ","station_name":"Tenjo","i_long":106.460812,"i_lat":-6.327251,"line":6,"distance":2974},{"station_id":"DAR","i_lat":-6.338021,"distance":3902,"transit":false,"line":0,"station_name":"Daru","is_transit":false,"i_long":106.491338,"time":5},{"station_name":"Cilejit","line":3,"distance":2675,"station_id":"CJT","i_lat":-6.354349,"transit":false,"time":6,"i_long":106.508482,"is_transit":false},{"i_long":106.568863,"time":9,"distance":7025,"line":6,"station_id":"PRP","station_name":"Parung Panjang","is_transit":false,"transit":false,"i_lat":-6.3441410000000005},{"transit":false,"is_transit":false,"i_lat":-6.329547,"line":3,"time":8,"station_name":"Cicayur","i_long":106.617853,"distance":5968,"station_id":"CC"},{"station_id":"CSK","i_lat":-6.32484,"distance":2519,"i_long":106.640411,"station_name":"Cisauk","line":3,"time":4,"transit":false,"is_transit":false},{"transit":false,"i_lat":-6.319871,"line":6,"station_name":"Serpong","distance":1784,"is_transit":false,"time":4,"station_id":"SRP","i_long":106.66566},{"transit":false,"station_id":"RU","line":6,"distance":2413,"i_long":106.675475,"i_lat":-6.314823,"time":4,"station_name":"Rawa Buntu","is_transit":false},{"transit":false,"i_long":106.712277,"line":6,"distance":4566,"i_lat":-6.296963,"time":6,"station_id":"SDM","station_name":"Sudimara","is_transit":false},{"time":4,"transit":false,"i_lat":-6.288927,"station_name":"Jurangmangu","station_id":"JMU","is_transit":false,"line":6,"i_long":106.728916,"distance":1994},{"is_transit":false,"transit":false,"i_long":106.74273,"time":3,"station_id":"PDJ","i_lat":-6.276362,"distance":2179,"line":6,"station_name":"Pondokranji"},{"is_transit":false,"transit":false,"i_lat":-6.237242,"station_name":"Kebayoran","line":6,"i_long":106.780334,"time":8,"distance":6218,"station_id":"KBY"},{"transit":false,"station_name":"Palmerah","i_lat":-6.207404,"distance":3737,"is_transit":false,"time":7,"i_long":106.79689,"station_id":"PLM","line":6},{"transit":true,"station_name":"Tanah Abang","i_lat":-6.185545,"is_transit":true,"distance":3191,"time":6,"station_id":"THB","line":1,"i_long":106.811091},{"time":5,"i_lat":-6.20132,"line":1,"is_transit":false,"distance":2029,"transit":false,"station_id":"KAT","i_long":106.816351,"station_name":"Karet"},{"i_long":106.819881,"station_name":"Sudirman Baru","i_lat":-6.201433,"line":1,"transit":false,"is_transit":false,"time":1,"station_id":"SUDB","distance":471},{"is_transit":false,"station_id":"SUD","i_lat":-6.202263,"line":1,"distance":280,"station_name":"Sudirman","transit":false,"i_long":106.822649,"time":1},{"transit":true,"line":2,"is_transit":true,"station_name":"Manggarai","i_long":106.84912,"time":4,"i_lat":-6.209883,"station_id":"MRI","distance":3186},{"station_id":"TEB","i_lat":-6.226659,"line":2,"is_transit":false,"transit":false,"time":4,"i_long":106.857948,"distance":2610,"station_name":"Tebet"},{"station_name":"Cawang","transit":false,"time":2,"station_id":"CW","i_lat":-6.242512,"distance":1230,"is_transit":false,"i_long":106.856607,"line":2},{"i_long":106.85449,"i_lat":-6.255332,"is_transit":false,"time":3,"line":2,"station_name":"Duren Kalibata","distance":1546,"station_id":"DRN","transit":false},{"station_name":"Pasar Minggu Baru","i_lat":-6.263214,"distance":824,"line":2,"is_transit":false,"i_long":106.851577,"station_id":"PSMB","time":2,"transit":false},{"is_transit":false,"station_id":"PSM","line":2,"station_name":"Pasar Minggu","i_lat":-6.2842400000000005,"i_long":106.843999,"time":2,"transit":false,"distance":2380},{"station_name":"Tanjung Barat","i_lat":-6.3080680000000005,"station_id":"TNT","is_transit":false,"i_long":106.838896,"distance":2820,"transit":false,"time":4,"line":2},{"distance":2671,"time":3,"transit":false,"i_lat":-6.330363,"is_transit":false,"i_long":106.832616,"station_name":"Lenteng Agung","station_id":"LNA","line":2},{"is_transit":false,"station_id":"UP","i_lat":-6.339291,"line":2,"transit":false,"time":2,"station_name":"Univ. Pancasila","i_long":106.834175,"distance":1029},{"station_id":"UI","transit":false,"distance":2264,"i_lat":-6.360749,"line":2,"is_transit":false,"station_name":"Univ. Indonesia","time":3,"i_long":106.831474},{"i_long":106.831114,"station_name":"Pondok Cina","i_lat":-6.369073,"transit":false,"distance":1109,"is_transit":false,"station_id":"POC","line":2,"time":2},{"is_transit":false,"i_long":106.819451,"i_lat":-6.391065,"transit":false,"time":4,"distance":2727,"station_name":"Depokbaru","line":2,"station_id":"DPB"},{"transit":false,"is_transit":false,"station_id":"DP","station_name":"Depok","i_long":106.816926,"time":3,"line":2,"distance":1584,"i_lat":-6.405256},{"line":2,"is_transit":false,"time":6,"i_long":106.800298,"i_lat":-6.448811,"distance":5084,"transit":false,"station_name":"Citayam","station_id":"CTA"},{"i_long":106.792719,"i_lat":-6.493243,"distance":5197,"line":2,"station_id":"BJD","station_name":"Bojonggede","time":5,"transit":false,"is_transit":false},{"line":2,"distance":4331,"station_id":"CLT","station_name":"Cilebut","time":5,"is_transit":false,"transit":false,"i_long":106.800016,"i_lat":-6.530544},{"i_long":106.790574,"station_id":"BOO","transit":false,"station_name":"Bogor","distance":7514,"is_transit":false,"i_lat":-6.594596,"time":9,"line":2}],[{"transit":false,"distance":0,"is_transit":false,"time":0,"i_long":106.425991,"station_id":"TGS","station_name":"Tigaraksa","i_lat":-6.328533,"line":6},{"transit":false,"line":6,"distance":2974,"i_long":106.460812,"time":5,"i_lat":-6.327251,"station_name":"Tenjo","is_transit":false,"station_id":"TEJ"},{"line":0,"time":5,"station_name":"Daru","distance":3902,"station_id":"DAR","is_transit":false,"i_lat":-6.338021,"i_long":106.491338,"transit":false},{"i_long":106.508482,"station_id":"CJT","i_lat":-6.354349,"time":6,"is_transit":false,"transit":false,"distance":2675,"station_name":"Cilejit","line":3},{"is_transit":false,"distance":7025,"i_long":106.568863,"line":6,"station_name":"Parung Panjang","station_id":"PRP","i_lat":-6.3441410000000005,"transit":false,"time":9},{"is_transit":false,"i_lat":-6.329547,"time":8,"i_long":106.617853,"line":3,"station_name":"Cicayur","transit":false,"station_id":"CC","distance":5968},{"distance":2519,"time":4,"is_transit":false,"i_long":106.640411,"station_name":"Cisauk","line":3,"station_id":"CSK","transit":false,"i_lat":-6.32484},{"station_id":"SRP","i_long":106.66566,"station_name":"Serpong","line":6,"distance":1784,"time":4,"is_transit":false,"i_lat":-6.319871,"transit":false},{"distance":2413,"station_id":"RU","is_transit":false,"station_name":"Rawa Buntu","i_long":106.675475,"line":6,"transit":false,"i_lat":-6.314823,"time":4},{"i_long":106.712277,"line":6,"distance":4566,"station_name":"Sudimara","time":6,"station_id":"SDM","is_transit":false,"transit":false,"i_lat":-6.296963},{"time":4,"is_transit":false,"distance":1994,"line":6,"transit":false,"i_lat":-6.288927,"station_id":"JMU","station_name":"Jurangmangu","i_long":106.728916},{"i_long":106.74273,"time":3,"is_transit":false,"i_lat":-6.276362,"station_name":"Pondokranji","station_id":"PDJ","distance":2179,"transit":false,"line":6},{"station_name":"Kebayoran","line":6,"i_long":106.780334,"i_lat":-6.237242,"distance":6218,"is_transit":false,"transit":false,"station_id":"KBY","time":8},{"transit":false,"i_long":106.79689,"line":6,"i_lat":-6.207404,"distance":3737,"station_name":"Palmerah","station_id":"PLM","time":7,"is_transit":false},{"distance":3191,"is_transit":true,"time":6,"station_name":"Tanah Abang","i_lat":-6.185545,"station_id":"THB","line":1,"i_long":106.811091,"transit":true},{"distance":3632,"station_id":"DU","i_lat":-6.155215,"line":1,"is_transit":false,"i_long":106.800832,"time":8,"station_name":"Duri","transit":false},{"line":1,"time":4,"station_name":"Angke","transit":false,"distance":1230,"is_transit":false,"i_lat":-6.144674,"i_long":106.79867,"station_id":"AK"},{"i_long":106.826365,"time":9,"station_name":"Kampung Bandan","i_lat":-6.132549,"distance":4102,"transit":true,"station_id":"KPB","is_transit":true,"line":4},{"transit":true,"time":3,"line":2,"distance":1364,"station_id":"JAKK","i_long":106.812439,"station_name":"Jakarta Kota","i_lat":-6.137569,"is_transit":true},{"is_transit":false,"station_name":"Jayakarta","i_long":106.820901,"line":2,"distance":1264,"time":4,"station_id":"JAY","i_lat":-6.141205,"transit":false},{"distance":1080,"transit":false,"i_lat":-6.149769,"station_id":"MGB","i_long":106.82482,"line":2,"time":2,"is_transit":false,"station_name":"Manggabesar"},{"line":2,"station_name":"Sawah Besar","time":2,"station_id":"SW","transit":false,"is_transit":false,"i_lat":-6.160725,"i_long":106.827103,"distance":906},{"transit":false,"station_name":"Juanda","i_lat":-6.166716,"time":2,"is_transit":false,"distance":1149,"line":2,"i_long":106.828284,"station_id":"JUA"},{"distance":2015,"is_transit":false,"station_name":"Gondangdia","station_id":"GDD","i_lat":-6.186295,"line":2,"i_long":106.832183,"time":4,"transit":false},{"i_lat":-6.198556,"time":3,"transit":false,"is_transit":false,"station_id":"CKI","line":2,"i_long":106.840169,"distance":1750,"station_name":"Cikini"},{"distance":1590,"station_name":"Manggarai","transit":false,"station_id":"MRI","is_transit":false,"i_lat":-6.209883,"line":2,"i_long":106.84912,"time":4},{"station_name":"Tebet","time":4,"line":2,"i_lat":-6.226659,"distance":2610,"is_transit":false,"station_id":"TEB","transit":false,"i_long":106.857948},{"station_id":"CW","line":2,"station_name":"Cawang","is_transit":false,"distance":1230,"transit":false,"i_lat":-6.242512,"i_long":106.856607,"time":2},{"station_name":"Duren Kalibata","transit":false,"distance":1546,"time":3,"station_id":"DRN","i_lat":-6.255332,"line":2,"is_transit":false,"i_long":106.85449},{"i_lat":-6.263214,"transit":false,"station_name":"Pasar Minggu Baru","is_transit":false,"time":2,"distance":824,"i_long":106.851577,"station_id":"PSMB","line":2},{"is_transit":false,"transit":false,"i_lat":-6.2842400000000005,"i_long":106.843999,"distance":2380,"station_name":"Pasar Minggu","line":2,"station_id":"PSM","time":2},{"time":4,"i_lat":-6.3080680000000005,"line":2,"transit":false,"station_id":"TNT","is_transit":false,"station_name":"Tanjung Barat","i_long":106.838896,"distance":2820},{"time":3,"distance":2671,"station_id":"LNA","i_long":106.832616,"is_transit":false,"line":2,"transit":false,"station_name":"Lenteng Agung","i_lat":-6.330363},{"i_long":106.834175,"distance":1029,"station_id":"UP","is_transit":false,"transit":false,"i_lat":-6.339291,"station_name":"Univ. Pancasila","line":2,"time":2},{"is_transit":false,"transit":false,"i_lat":-6.360749,"i_long":106.831474,"line":2,"distance":2264,"time":3,"station_name":"Univ. Indonesia","station_id":"UI"},{"transit":false,"i_long":106.831114,"station_id":"POC","is_transit":false,"distance":1109,"time":2,"i_lat":-6.369073,"line":2,"station_name":"Pondok Cina"},{"time":4,"is_transit":false,"i_lat":-6.391065,"transit":false,"line":2,"distance":2727,"station_id":"DPB","station_name":"Depokbaru","i_long":106.819451},{"line":2,"transit":false,"station_name":"Depok","station_id":"DP","i_lat":-6.405256,"distance":1584,"i_long":106.816926,"is_transit":false,"time":3},{"station_name":"Citayam","time":6,"i_long":106.800298,"i_lat":-6.448811,"station_id":"CTA","distance":5084,"line":2,"is_transit":false,"transit":false},{"station_id":"BJD","i_lat":-6.493243,"i_long":106.792719,"distance":5197,"time":5,"transit":false,"is_transit":false,"line":2,"station_name":"Bojonggede"},{"transit":false,"station_id":"CLT","distance":4331,"i_long":106.800016,"is_transit":false,"i_lat":-6.530544,"line":2,"station_name":"Cilebut","time":5},{"station_id":"BOO","is_transit":false,"i_lat":-6.594596,"station_name":"Bogor","distance":7514,"i_long":106.790574,"time":9,"transit":false,"line":2}],[{"is_transit":false,"i_long":106.425991,"i_lat":-6.328533,"line":6,"distance":0,"time":0,"station_id":"TGS","station_name":"Tigaraksa","transit":false},{"i_lat":-6.327251,"station_id":"TEJ","station_name":"Tenjo","transit":false,"is_transit":false,"distance":2974,"time":5,"i_long":106.460812,"line":6},{"distance":3902,"station_name":"Daru","station_id":"DAR","transit":false,"i_lat":-6.338021,"i_long":106.491338,"time":5,"is_transit":false,"line":0},{"i_long":106.508482,"line":3,"is_transit":false,"station_name":"Cilejit","transit":false,"time":6,"distance":2675,"station_id":"CJT","i_lat":-6.354349},{"station_name":"Parung Panjang","i_long":106.568863,"distance":7025,"station_id":"PRP","line":6,"time":9,"is_transit":false,"transit":false,"i_lat":-6.3441410000000005},{"station_id":"CC","i_long":106.617853,"station_name":"Cicayur","line":3,"distance":5968,"is_transit":false,"i_lat":-6.329547,"transit":false,"time":8},{"time":4,"distance":2519,"station_id":"CSK","i_long":106.640411,"is_transit":false,"station_name":"Cisauk","i_lat":-6.32484,"line":3,"transit":false},{"transit":false,"i_lat":-6.319871,"time":4,"line":6,"is_transit":false,"i_long":106.66566,"station_id":"SRP","station_name":"Serpong","distance":1784},{"distance":2413,"station_name":"Rawa Buntu","i_lat":-6.314823,"time":4,"line":6,"transit":false,"is_transit":false,"station_id":"RU","i_long":106.675475},{"is_transit":false,"station_id":"SDM","transit":false,"line":6,"i_lat":-6.296963,"time":6,"station_name":"Sudimara","i_long":106.712277,"distance":4566},{"i_long":106.728916,"line":6,"is_transit":false,"station_id":"JMU","station_name":"Jurangmangu","time":4,"distance":1994,"transit":false,"i_lat":-6.288927},{"i_long":106.74273,"time":3,"distance":2179,"station_name":"Pondokranji","is_transit":false,"transit":false,"i_lat":-6.276362,"station_id":"PDJ","line":6},{"i_long":106.780334,"time":8,"station_name":"Kebayoran","i_lat":-6.237242,"transit":false,"distance":6218,"station_id":"KBY","is_transit":false,"line":6},{"distance":3737,"station_name":"Palmerah","transit":false,"time":7,"station_id":"PLM","is_transit":false,"i_long":106.79689,"line":6,"i_lat":-6.207404},{"i_long":106.811091,"line":1,"time":6,"station_name":"Tanah Abang","is_transit":true,"transit":true,"distance":3191,"station_id":"THB","i_lat":-6.185545},{"station_name":"Duri","distance":3632,"station_id":"DU","i_lat":-6.155215,"transit":false,"time":8,"line":1,"i_long":106.800832,"is_transit":false},{"i_long":106.79867,"distance":1230,"transit":false,"station_name":"Angke","time":4,"station_id":"AK","line":1,"is_transit":false,"i_lat":-6.144674},{"time":9,"station_name":"Kampung Bandan","transit":true,"distance":4102,"station_id":"KPB","i_lat":-6.132549,"i_long":106.826365,"line":4,"is_transit":true},{"station_name":"Rajawali","distance":1444,"time":3,"line":11,"is_transit":false,"i_lat":-6.14505,"i_long":106.836569,"station_id":"RJW","transit":false},{"i_long":106.839204,"line":11,"station_name":"Kemayoran","transit":false,"is_transit":false,"time":5,"distance":1901,"station_id":"KMO","i_lat":-6.161728},{"transit":false,"is_transit":false,"i_lat":-6.174784,"i_long":106.84368,"distance":1436,"station_id":"PSE","time":4,"line":11,"station_name":"Pasar Senen"},{"transit":false,"is_transit":false,"distance":1567,"station_name":"Gang Sentiong","time":8,"i_lat":-6.185975,"i_long":106.850107,"station_id":"GST","line":11},{"i_lat":-6.193792,"distance":973,"transit":false,"station_name":"Kramat","time":1,"i_long":106.855437,"is_transit":false,"station_id":"KMT","line":11},{"station_name":"Pondok Jati","distance":1829,"transit":false,"is_transit":false,"station_id":"POK","i_lat":-6.209188,"i_long":106.861737,"line":11,"time":2},{"transit":true,"station_id":"JNG","line":1,"is_transit":true,"i_lat":-6.215091,"distance":1236,"station_name":"Jatinegara","i_long":106.86807400000001,"time":9},{"i_long":106.858896,"transit":false,"i_lat":-6.212485,"time":2,"distance":1377,"station_id":"MTR","line":1,"is_transit":false,"station_name":"Matraman"},{"i_long":106.84912,"transit":true,"station_id":"MRI","i_lat":-6.209883,"time":2,"distance":1275,"is_transit":true,"station_name":"Manggarai","line":2},{"line":2,"i_lat":-6.226659,"station_id":"TEB","is_transit":false,"time":4,"station_name":"Tebet","distance":2610,"i_long":106.857948,"transit":false},{"transit":false,"station_name":"Cawang","distance":1230,"is_transit":false,"station_id":"CW","i_lat":-6.242512,"i_long":106.856607,"line":2,"time":2},{"distance":1546,"i_lat":-6.255332,"station_name":"Duren Kalibata","transit":false,"is_transit":false,"line":2,"station_id":"DRN","i_long":106.85449,"time":3},{"i_long":106.851577,"time":2,"i_lat":-6.263214,"is_transit":false,"distance":824,"station_name":"Pasar Minggu Baru","station_id":"PSMB","line":2,"transit":false},{"distance":2380,"time":2,"i_long":106.843999,"station_id":"PSM","is_transit":false,"station_name":"Pasar Minggu","line":2,"i_lat":-6.2842400000000005,"transit":false},{"station_name":"Tanjung Barat","transit":false,"i_long":106.838896,"is_transit":false,"time":4,"i_lat":-6.3080680000000005,"distance":2820,"station_id":"TNT","line":2},{"time":3,"station_id":"LNA","transit":false,"i_lat":-6.330363,"station_name":"Lenteng Agung","is_transit":false,"i_long":106.832616,"distance":2671,"line":2},{"is_transit":false,"station_name":"Univ. Pancasila","time":2,"transit":false,"i_lat":-6.339291,"station_id":"UP","line":2,"distance":1029,"i_long":106.834175},{"i_long":106.831474,"station_id":"UI","time":3,"line":2,"station_name":"Univ. Indonesia","transit":false,"distance":2264,"is_transit":false,"i_lat":-6.360749},{"time":2,"station_name":"Pondok Cina","i_lat":-6.369073,"transit":false,"i_long":106.831114,"line":2,"station_id":"POC","is_transit":false,"distance":1109},{"time":4,"distance":2727,"line":2,"station_name":"Depokbaru","is_transit":false,"station_id":"DPB","i_lat":-6.391065,"i_long":106.819451,"transit":false},{"distance":1584,"station_name":"Depok","is_transit":false,"transit":false,"time":3,"i_lat":-6.405256,"station_id":"DP","i_long":106.816926,"line":2},{"time":6,"transit":false,"line":2,"distance":5084,"station_id":"CTA","is_transit":false,"station_name":"Citayam","i_lat":-6.448811,"i_long":106.800298},{"station_id":"BJD","i_lat":-6.493243,"line":2,"is_transit":false,"distance":5197,"station_name":"Bojonggede","transit":false,"i_long":106.792719,"time":5},{"line":2,"station_name":"Cilebut","distance":4331,"time":5,"is_transit":false,"transit":false,"i_lat":-6.530544,"i_long":106.800016,"station_id":"CLT"},{"i_lat":-6.594596,"station_name":"Bogor","is_transit":false,"i_long":106.790574,"time":9,"station_id":"BOO","line":2,"transit":false,"distance":7514}]]}