{"data":[[{"i_lat":-6.328533,"transit":false,"is_transit":false,"i_long":106.425991,"line":6,"distance":0,"time":0,"station_id":"TGS","station_name":"Tigaraksa"},{"is_transit":false,"transit":false,"i_lat":-6.327251,"station_id":"TEJ","distance":2974,"i_long":106.460812,"line":6,"station_name":"Tenjo","time":5},{"distance":3902,"transit":false,"station_id":"DAR","time":5,"is_transit":false,"station_name":"Daru","i_lat":-6.338021,"i_long":106.491338,"line":0},{"transit":false,"i_lat":-6.354349,"is_transit":false,"station_name":"Cilejit","station_id":"CJT","i_long":106.508482,"line":3,"time":6,"distance":2675},{"distance":7025,"i_lat":-6.3441410000000005,"is_transit":false,"transit":false,"time":9,"station_name":"Parung Panjang","line":6,"i_long":106.568863,"station_id":"PRP"},{"line":3,"distance":5968,"transit":false,"time":8,"station_name":"Cicayur","is_transit":false,"station_id":"CC","i_lat":-6.329547,"i_long":106.617853},{"i_lat":-6.32484,"station_id":"CSK","is_transit":false,"distance":2519,"i_long":106.640411,"transit":false,"line":3,"time":4,"station_name":"Cisauk"},{"i_lat":-6.319871,"is_transit":false,"station_name":"Serpong","time":4,"i_long":106.66566,"station_id":"SRP","distance":1784,"transit":false,"line":6},{"distance":2413,"time":4,"station_id":"RU","i_long":106.675475,"is_transit":false,"transit":false,"line":6,"i_lat":-6.314823,"station_name":"Rawa Buntu"},{"i_long":106.712277,"station_name":"Sudimara","time":6,"is_transit":false,"station_id":"SDM","i_lat":-6.296963,"line":6,"distance":4566,"transit":false},{"line":6,"time":4,"transit":false,"distance":1994,"station_name":"Jurangmangu","station_id":"JMU","i_lat":-6.288927,"is_transit":false,"i_long":106.728916},{"line":6,"time":3,"station_name":"Pondokranji","is_transit":false,"transit":false,"i_lat":-6.276362,"i_long":106.74273,"distance":2179,"station_id":"PDJ"},{"distance":6218,"time":8,"i_long":106.780334,"transit":false,"line":6,"station_id":"KBY","station_name":"Kebayoran","is_transit":false,"i_lat":-6.237242},{"station_name":"Palmerah","time":7,"distance":3737,"is_transit":false,"transit":false,"i_lat":-6.207404,"line":6,"station_id":"PLM","i_long":106.79689},{"station_name":"Tanah Abang","i_long":106.811091,"transit":true,"i_lat":-6.185545,"is_transit":true,"distance":3191,"time":6,"line":1,"station_id":"THB"},{"i_lat":-6.20132,"is_transit":false,"line":1,"time":5,"transit":false,"i_long":106.816351,"station_id":"KAT","distance":2029,"station_name":"Karet"},{"station_name":"Sudirman Baru","is_transit":false,"station_id":"SUDB","time":1,"i_long":106.819881,"transit":false,"line":1,"i_lat":-6.201433,"distance":471},{"time":1,"transit":false,"is_transit":false,"station_id":"SUD","i_lat":-6.202263,"i_long":106.822649,"line":1,"distance":280,"station_name":"Sudirman"},{"distance":3186,"line":2,"is_transit":true,"station_id":"MRI","station_name":"Manggarai","time":4,"i_lat":-6.209883,"i_long":106.84912,"transit":true},{"is_transit":false,"i_lat":-6.226659,"transit":false,"time":4,"distance":2610,"station_name":"Tebet","i_long":106.857948,"station_id":"TEB","line":2},{"distance":1230,"i_long":106.856607,"station_id":"CW","transit":false,"station_name":"Cawang","is_transit":false,"line":2,"i_lat":-6.242512,"time":2},{"station_id":"DRN","distance":1546,"i_long":106.85449,"line":2,"i_lat":-6.255332,"time":3,"transit":false,"station_name":"Duren Kalibata","is_transit":false},{"i_long":106.851577,"is_transit":false,"i_lat":-6.263214,"transit":false,"station_name":"Pasar Minggu Baru","distance":824,"time":2,"station_id":"PSMB","line":2},{"i_lat":-6.2842400000000005,"distance":2380,"is_transit":false,"i_long":106.843999,"transit":false,"station_id":"PSM","line":2,"station_name":"Pasar Minggu","time":2},{"station_id":"TNT","distance":2820,"station_name":"Tanjung Barat","transit":false,"time":4,"i_lat":-6.3080680000000005,"i_long":106.838896,"is_transit":false,"line":2},{"station_id":"LNA","time":3,"i_lat":-6.330363,"station_name":"Lenteng Agung","transit":false,"is_transit":false,"distance":2671,"i_long":106.832616,"line":2},{"is_transit":false,"transit":false,"distance":1029,"station_id":"UP","i_lat":-6.339291,"time":2,"station_name":"Univ. Pancasila","i_long":106.834175,"line":2},{"line":2,"i_long":106.831474,"is_transit":false,"distance":2264,"station_name":"Univ. Indonesia","time":3,"transit":false,"station_id":"UI","i_lat":-6.360749},{"is_transit":false,"line":2,"transit":false,"i_lat":-6.369073,"time":2,"i_long":106.831114,"station_id":"POC","station_name":"Pondok Cina","distance":1109},{"is_transit":false,"time":4,"station_name":"Depokbaru","transit":false,"station_id":"DPB","i_lat":-6.391065,"distance":2727,"line":2,"i_long":106.819451},{"i_lat":-6.405256,"transit":false,"station_name":"Depok","is_transit":false,"distance":1584,"line":2,"time":3,"station_id":"DP","i_long":106.816926},{"time":6,"i_lat":-6.448811,"i_long":106.800298,"line":2,"is_transit":false,"station_id":"CTA","transit":false,"distance":5084,"station_name":"Citayam"},{"distance":5197,"time":5,"station_id":"BJD","station_name":"Bojonggede","line":2,"i_long":106.792719,"i_lat":-6.493243,"transit":false,"is_transit":false},{"station_name":"Cilebut","distance":4331,"line":2,"i_lat":-6.530544,"time":5,"is_transit":false,"station_id":"CLT","i_long":106.800016,"transit":false},{"station_id":"BOO","transit":false,"i_long":106.790574,"distance":7514,"station_name":"Bogor","i_lat":-6.594596,"line":2,"is_transit":false,"time":9}],[{"transit":false,"time":0,"station_name":"Tigaraksa","is_transit":false,"station_id":"TGS","distance":0,"i_lat":-6.328533,"line":6,"i_long":106.425991},{"transit":false,"i_long":106.460812,"station_id":"TEJ","i_lat":-6.327251,"distance":2974,"time":5,"station_name":"Tenjo","is_transit":false,"line":6},{"i_lat":-6.338021,"time":5,"station_id":"DAR","transit":false,"i_long":106.491338,"station_name":"Daru","is_transit":false,"line":0,"distance":3902},{"time":6,"i_lat":-6.354349,"line":3,"station_name":"Cilejit","distance":2675,"i_long":106.508482,"is_transit":false,"station_id":"CJT","transit":false},{"is_transit":false,"station_id":"PRP","transit":false,"distance":7025,"time":9,"i_lat":-6.3441410000000005,"i_long":106.568863,"station_name":"Parung Panjang","line":6},{"transit":false,"station_name":"Cicayur","is_transit":false,"i_long":106.617853,"station_id":"CC","i_lat":-6.329547,"line":3,"time":8,"distance":5968},{"time":4,"i_lat":-6.32484,"transit":false,"distance":2519,"station_name":"Cisauk","is_transit":false,"line":3,"station_id":"CSK","i_long":106.640411},{"station_id":"SRP","station_name":"Serpong","i_lat":-6.319871,"time":4,"is_transit":false,"distance":1784,"transit":false,"i_long":106.66566,"line":6},{"i_long":106.675475,"distance":2413,"station_name":"Rawa Buntu","is_transit":false,"time":4,"i_lat":-6.314823,"line":6,"transit":false,"station_id":"RU"},{"is_transit":false,"line":6,"i_lat":-6.296963,"distance":4566,"time":6,"station_name":"Sudimara","transit":false,"i_long":106.712277,"station_id":"SDM"},{"station_name":"Jurangmangu","i_lat":-6.288927,"i_long":106.728916,"transit":false,"is_transit":false,"line":6,"station_id":"JMU","time":4,"distance":1994},{"i_long":106.74273,"station_name":"Pondokranji","line":6,"station_id":"PDJ","distance":2179,"time":3,"is_transit":false,"transit":false,"i_lat":-6.276362},{"time":8,"station_id":"KBY","distance":6218,"station_name":"Kebayoran","is_transit":false,"i_long":106.780334,"transit":false,"i_lat":-6.237242,"line":6},{"transit":false,"is_transit":false,"station_id":"PLM","time":7,"line":6,"i_lat":-6.207404,"i_long":106.79689,"distance":3737,"station_name":"Palmerah"},{"transit":true,"station_name":"Tanah Abang","is_transit":true,"distance":3191,"station_id":"THB","line":1,"i_long":106.811091,"time":6,"i_lat":-6.185545},{"i_long":106.800832,"station_id":"DU","i_lat":-6.155215,"line":1,"time":8,"is_transit":false,"transit":false,"station_name":"Duri","distance":3632},{"time":4,"is_transit":false,"line":1,"transit":false,"i_lat":-6.144674,"station_id":"AK","station_name":"Angke","i_long":106.79867,"distance":1230},{"time":9,"station_name":"Kampung Bandan","i_lat":-6.132549,"distance":4102,"i_long":106.826365,"line":4,"station_id":"KPB","is_transit":true,"transit":true},{"distance":1364,"station_name":"Jakarta Kota","transit":true,"station_id":"JAKK","line":2,"is_transit":true,"time":3,"i_lat":-6.137569,"i_long":106.812439},{"distance":1264,"station_name":"Jayakarta","station_id":"JAY","is_transit":false,"line":2,"transit":false,"time":4,"i_long":106.820901,"i_lat":-6.141205},{"time":2,"distance":1080,"station_name":"Manggabesar","transit":false,"station_id":"MGB","is_transit":false,"i_lat":-6.149769,"i_long":106.82482,"line":2},{"is_transit":false,"i_lat":-6.160725,"line":2,"station_id":"SW","time":2,"distance":906,"station_name":"Sawah Besar","i_long":106.827103,"transit":false},{"station_id":"JUA","distance":1149,"time":2,"i_lat":-6.166716,"i_long":106.828284,"station_name":"Juanda","is_transit":false,"transit":false,"line":2},{"i_lat":-6.186295,"station_name":"Gondangdia","time":4,"distance":2015,"line":2,"transit":false,"i_long":106.832183,"station_id":"GDD","is_transit":false},{"i_lat":-6.198556,"i_long":106.840169,"line":2,"transit":false,"station_id":"CKI","distance":1750,"time":3,"is_transit":false,"station_name":"Cikini"},{"distance":1590,"transit":false,"station_name":"Manggarai","station_id":"MRI","line":2,"is_transit":false,"i_long":106.84912,"time":4,"i_lat":-6.209883},{"distance":2610,"station_id":"TEB","line":2,"i_lat":-6.226659,"i_long":106.857948,"station_name":"Tebet","transit":false,"is_transit":false,"time":4},{"time":2,"station_id":"CW","transit":false,"line":2,"station_name":"Cawang","i_lat":-6.242512,"distance":1230,"i_long":106.856607,"is_transit":false},{"station_name":"Duren Kalibata","station_id":"DRN","i_lat":-6.255332,"distance":1546,"line":2,"time":3,"is_transit":false,"i_long":106.85449,"transit":false},{"i_lat":-6.263214,"station_id":"PSMB","i_long":106.851577,"line":2,"distance":824,"time":2,"station_name":"Pasar Minggu Baru","is_transit":false,"transit":false},{"line":2,"station_id":"PSM","is_transit":false,"time":2,"station_name":"Pasar Minggu","transit":false,"i_long":106.843999,"distance":2380,"i_lat":-6.2842400000000005},{"station_name":"Tanjung Barat","is_transit":false,"i_lat":-6.3080680000000005,"i_long":106.838896,"time":4,"distance":2820,"line":2,"transit":false,"station_id":"TNT"},{"station_id":"LNA","i_long":106.832616,"transit":false,"line":2,"distance":2671,"i_lat":-6.330363,"is_transit":false,"time":3,"station_name":"Lenteng Agung"},{"transit":false,"i_lat":-6.339291,"line":2,"is_transit":false,"i_long":106.834175,"distance":1029,"station_name":"Univ. Pancasila","station_id":"UP","time":2},{"is_transit":false,"station_name":"Univ. Indonesia","station_id":"UI","i_long":106.831474,"line":2,"time":3,"transit":false,"i_lat":-6.360749,"distance":2264},{"line":2,"station_id":"POC","distance":1109,"time":2,"station_name":"Pondok Cina","is_transit":false,"i_lat":-6.369073,"transit":false,"i_long":106.831114},{"station_name":"Depokbaru","distance":2727,"station_id":"DPB","is_transit":false,"i_lat":-6.391065,"i_long":106.819451,"line":2,"transit":false,"time":4},{"station_id":"DP","line":2,"distance":1584,"i_long":106.816926,"time":3,"i_lat":-6.405256,"station_name":"Depok","transit":false,"is_transit":false},{"station_id":"CTA","is_transit":false,"transit":false,"time":6,"i_lat":-6.448811,"distance":5084,"line":2,"station_name":"Citayam","i_long":106.800298},{"line":2,"station_id":"BJD","station_name":"Bojonggede","transit":false,"is_transit":false,"time":5,"i_lat":-6.493243,"i_long":106.792719,"distance":5197},{"line":2,"time":5,"station_id":"CLT","i_long":106.800016,"is_transit":false,"i_lat":-6.530544,"distance":4331,"transit":false,"station_name":"Cilebut"},{"station_id":"BOO","distance":7514,"station_name":"Bogor","transit":false,"is_transit":false,"i_long":106.790574,"time":9,"line":2,"i_lat":-6.594596}],[{"i_long":106.425991,"station_id":"TGS","line":6,"is_transit":false,"time":0,"station_name":"Tigaraksa","distance":0,"transit":false,"i_lat":-6.328533},{"distance":2974,"station_id":"TEJ","line":6,"is_transit":false,"i_lat":-6.327251,"time":5,"i_long":106.460812,"transit":false,"station_name":"Tenjo"},{"i_lat":-6.338021,"time":5,"transit":false,"station_name":"Daru","line":0,"is_transit":false,"distance":3902,"i_long":106.491338,"station_id":"DAR"},{"station_id":"CJT","is_transit":false,"transit":false,"i_long":106.508482,"line":3,"distance":2675,"time":6,"station_name":"Cilejit","i_lat":-6.354349},{"time":9,"station_name":"Parung Panjang","transit":false,"distance":7025,"i_long":106.568863,"station_id":"PRP","line":6,"i_lat":-6.3441410000000005,"is_transit":false},{"transit":false,"i_lat":-6.329547,"distance":5968,"is_transit":false,"station_name":"Cicayur","i_long":106.617853,"station_id":"CC","line":3,"time":8},{"station_name":"Cisauk","station_id":"CSK","i_lat":-6.32484,"time":4,"transit":false,"is_transit":false,"i_long":106.640411,"line":3,"distance":2519},{"time":4,"distance":1784,"station_name":"Serpong","station_id":"SRP","is_transit":false,"line":6,"transit":false,"i_long":106.66566,"i_lat":-6.319871},{"station_name":"Rawa Buntu","station_id":"RU","is_transit":false,"time":4,"distance":2413,"transit":false,"line":6,"i_lat":-6.314823,"i_long":106.675475},{"station_id":"SDM","is_transit":false,"i_long":106.712277,"time":6,"station_name":"Sudimara","transit":false,"line":6,"i_lat":-6.296963,"distance":4566},{"i_long":106.728916,"i_lat":-6.288927,"station_name":"Jurangmangu","is_transit":false,"transit":false,"station_id":"JMU","line":6,"distance":1994,"time":4},{"line":6,"distance":2179,"transit":false,"station_id":"PDJ","time":3,"station_name":"Pondokranji","i_lat":-6.276362,"i_long":106.74273,"is_transit":false},{"time":8,"station_name":"Kebayoran","line":6,"is_transit":false,"transit":false,"i_long":106.780334,"distance":6218,"station_id":"KBY","i_lat":-6.237242},{"station_id":"PLM","distance":3737,"transit":false,"station_name":"Palmerah","i_long":106.79689,"is_transit":false,"time":7,"i_lat":-6.207404,"line":6},{"time":6,"is_transit":true,"i_long":106.811091,"transit":true,"line":1,"station_name":"Tanah Abang","distance":3191,"station_id":"THB","i_lat":-6.185545},{"line":1,"is_transit":false,"distance":3632,"station_id":"DU","station_name":"Duri","i_lat":-6.155215,"i_long":106.800832,"time":8,"transit":false},{"station_id":"AK","station_name":"Angke","line":1,"time":4,"distance":1230,"i_lat":-6.144674,"transit":false,"is_transit":false,"i_long":106.79867},{"distance":4102,"station_id":"KPB","transit":true,"is_transit":true,"i_lat":-6.132549,"i_long":106.826365,"station_name":"Kampung Bandan","line":4,"time":9},{"time":3,"i_lat":-6.14505,"station_id":"RJW","line":11,"station_name":"Rajawali","distance":1444,"is_transit":false,"transit":false,"i_long":106.836569},{"time":5,"station_name":"Kemayoran","transit":false,"i_long":106.839204,"line":11,"distance":1901,"is_transit":false,"station_id":"KMO","i_lat":-6.161728},{"distance":1436,"line":11,"time":4,"station_name":"Pasar Senen","station_id":"PSE","i_long":106.84368,"i_lat":-6.174784,"transit":false,"is_transit":false},{"distance":1567,"is_transit":false,"time":8,"station_name":"Gang Sentiong","station_id":"GST","i_lat":-6.185975,"line":11,"transit":false,"i_long":106.850107},{"time":1,"transit":false,"i_lat":-6.193792,"line":11,"station_name":"Kramat","i_long":106.855437,"station_id":"KMT","distance":973,"is_transit":false},{"i_lat":-6.209188,"i_long":106.861737,"time":2,"distance":1829,"station_id":"POK","line":11,"station_name":"Pondok Jati","is_transit":false,"transit":false},{"i_long":106.86807400000001,"distance":1236,"station_name":"Jatinegara","station_id":"JNG","line":1,"time":9,"i_lat":-6.215091,"transit":true,"is_transit":true},{"station_id":"MTR","distance":1377,"time":2,"station_name":"Matraman","transit":false,"is_transit":false,"i_lat":-6.212485,"i_long":106.858896,"line":1},{"transit":true,"i_long":106.84912,"line":2,"i_lat":-6.209883,"station_name":"Manggarai","station_id":"MRI","distance":1275,"time":2,"is_transit":true},{"i_lat":-6.226659,"transit":false,"distance":2610,"station_id":"TEB","is_transit":false,"station_name":"Tebet","i_long":106.857948,"line":2,"time":4},{"station_name":"Cawang","i_long":106.856607,"station_id":"CW","time":2,"distance":1230,"transit":false,"is_transit":false,"i_lat":-6.242512,"line":2},{"i_long":106.85449,"distance":1546,"station_id":"DRN","station_name":"Duren Kalibata","line":2,"i_lat":-6.255332,"is_transit":false,"transit":false,"time":3},{"line":2,"distance":824,"i_lat":-6.263214,"station_name":"Pasar Minggu Baru","is_transit":false,"time":2,"transit":false,"i_long":106.851577,"station_id":"PSMB"},{"station_id":"PSM","i_long":106.843999,"time":2,"distance":2380,"transit":false,"i_lat":-6.2842400000000005,"station_name":"Pasar Minggu","is_transit":false,"line":2},{"i_lat":-6.3080680000000005,"station_id":"TNT","i_long":106.838896,"distance":2820,"time":4,"station_name":"Tanjung Barat","transit":false,"is_transit":false,"line":2},{"i_long":106.832616,"station_name":"Lenteng Agung","is_transit":false,"distance":2671,"station_id":"LNA","time":3,"line":2,"transit":false,"i_lat":-6.330363},{"station_id":"UP","i_lat":-6.339291,"time":2,"i_long":106.834175,"station_name":"Univ. Pancasila","line":2,"is_transit":false,"transit":false,"distance":1029},{"time":3,"is_transit":false,"station_name":"Univ. Indonesia","station_id":"UI","line":2,"i_lat":-6.360749,"i_long":106.831474,"transit":false,"distance":2264},{"station_id":"POC","station_name":"Pondok Cina","i_long":106.831114,"line":2,"time":2,"is_transit":false,"distance":1109,"transit":false,"i_lat":-6.369073},{"distance":2727,"is_transit":false,"line":2,"station_name":"Depokbaru","i_lat":-6.391065,"i_long":106.819451,"station_id":"DPB","transit":false,"time":4},{"transit":false,"distance":1584,"station_name":"Depok","line":2,"station_id":"DP","i_lat":-6.405256,"time":3,"is_transit":false,"i_long":106.816926},{"distance":5084,"i_long":106.800298,"station_id":"CTA","time":6,"station_name":"Citayam","is_transit":false,"i_lat":-6.448811,"line":2,"transit":false},{"i_long":106.792719,"i_lat":-6.493243,"station_name":"Bojonggede","time":5,"distance":5197,"line":2,"is_transit":false,"station_id":"BJD","transit":false},{"station_name":"Cilebut","is_transit":false,"transit":false,"line":2,"time":5,"i_lat":-6.530544,"i_long":106.800016,"station_id":"CLT","distance":4331},{"station_id":"BOO","i_lat":-6.594596,"is_transit":false,"line":2,"station_name":"Bogor","transit":false,"distance":7514,"i_long":106.790574,"time":9}]]}