{"data":[[{"time":0,"station_name":"Tigaraksa","transit":false,"i_lat":-6.328533,"line":6,"station_id":"TGS","is_transit":false,"i_long":106.425991,"distance":0},{"time":5,"is_transit":false,"distance":2974,"station_id":"TEJ","transit":false,"i_lat":-6.327251,"i_long":106.460812,"station_name":"Tenjo","line":6},{"line":0,"transit":false,"i_long":106.491338,"is_transit":false,"station_name":"Daru","distance":3902,"i_lat":-6.338021,"station_id":"DAR","time":5},{"transit":false,"distance":2675,"line":3,"i_lat":-6.354349,"station_id":"CJT","time":6,"station_name":"Cilejit","i_long":106.508482,"is_transit":false},{"line":6,"i_lat":-6.3441410000000005,"transit":false,"is_transit":false,"station_name":"Parung Panjang","distance":7025,"time":9,"i_long":106.568863,"station_id":"PRP"},{"time":8,"station_id":"CC","i_long":106.617853,"is_transit":false,"line":3,"i_lat":-6.329547,"distance":5968,"transit":false,"station_name":"Cicayur"},{"is_transit":false,"distance":2519,"station_id":"CSK","i_long":106.640411,"i_lat":-6.32484,"transit":false,"time":4,"station_name":"Cisauk","line":3},{"transit":false,"i_long":106.66566,"distance":1784,"line":6,"i_lat":-6.319871,"station_id":"SRP","time":4,"is_transit":false,"station_name":"Serpong"},{"station_id":"RU","station_name":"Rawa Buntu","i_long":106.675475,"i_lat":-6.314823,"time":4,"is_transit":false,"line":6,"distance":2413,"transit":false},{"is_transit":false,"i_long":106.712277,"station_name":"Sudimara","time":6,"station_id":"SDM","line":6,"distance":4566,"transit":false,"i_lat":-6.296963},{"line":6,"is_transit":false,"transit":false,"station_name":"Jurangmangu","station_id":"JMU","distance":1994,"time":4,"i_lat":-6.288927,"i_long":106.728916},{"transit":false,"is_transit":false,"station_name":"Pondokranji","line":6,"distance":2179,"time":3,"i_long":106.74273,"i_lat":-6.276362,"station_id":"PDJ"},{"i_lat":-6.237242,"distance":6218,"is_transit":false,"station_name":"Kebayoran","time":8,"transit":false,"i_long":106.780334,"line":6,"station_id":"KBY"},{"station_name":"Palmerah","is_transit":false,"time":7,"station_id":"PLM","i_long":106.79689,"line":6,"transit":false,"distance":3737,"i_lat":-6.207404},{"i_long":106.811091,"line":1,"station_name":"Tanah Abang","is_transit":true,"time":6,"distance":3191,"station_id":"THB","transit":true,"i_lat":-6.185545},{"station_name":"Duri","transit":true,"station_id":"DU","time":8,"i_lat":-6.155215,"is_transit":true,"distance":3632,"i_long":106.800832,"line":1},{"station_name":"Grogol","is_transit":false,"i_long":106.788277,"transit":false,"station_id":"GGL","i_lat":-6.162021,"distance":1700,"time":3,"line":5},{"distance":2036,"is_transit":false,"station_id":"PSG","time":2,"station_name":"Pesing","line":5,"i_long":106.771379,"transit":false,"i_lat":-6.161433},{"distance":1614,"i_lat":-6.1587309999999995,"station_id":"TKO","line":5,"station_name":"Taman Kota","i_long":106.756522,"transit":false,"is_transit":false,"time":2},{"time":2,"line":5,"transit":false,"distance":2334,"is_transit":false,"i_lat":-6.159876,"station_name":"Bojongindah","i_long":106.737035,"station_id":"BOI"},{"transit":false,"time":4,"station_id":"RW","line":5,"i_lat":-6.162758,"distance":1152,"is_transit":false,"i_long":106.723064,"station_name":"Rawa Buaya"},{"transit":false,"station_name":"Kalideres","is_transit":false,"i_lat":-6.166068,"time":3,"distance":2504,"station_id":"KDS","i_long":106.701612,"line":5}],[{"transit":false,"i_lat":-6.328533,"time":0,"i_long":106.425991,"station_name":"Tigaraksa","distance":0,"line":6,"station_id":"TGS","is_transit":false},{"is_transit":false,"station_name":"Tenjo","station_id":"TEJ","i_lat":-6.327251,"transit":false,"distance":2974,"time":5,"line":6,"i_long":106.460812},{"time":5,"distance":3902,"station_id":"DAR","station_name":"Daru","i_lat":-6.338021,"i_long":106.491338,"transit":false,"line":0,"is_transit":false},{"is_transit":false,"i_lat":-6.354349,"station_name":"Cilejit","time":6,"station_id":"CJT","i_long":106.508482,"line":3,"distance":2675,"transit":false},{"is_transit":false,"i_long":106.568863,"distance":7025,"transit":false,"station_name":"Parung Panjang","i_lat":-6.3441410000000005,"time":9,"line":6,"station_id":"PRP"},{"transit":false,"i_long":106.617853,"station_name":"Cicayur","i_lat":-6.329547,"line":3,"station_id":"CC","distance":5968,"is_transit":false,"time":8},{"station_name":"Cisauk","is_transit":false,"time":4,"transit":false,"i_lat":-6.32484,"i_long":106.640411,"station_id":"CSK","line":3,"distance":2519},{"station_id":"SRP","transit":false,"time":4,"distance":1784,"i_long":106.66566,"station_name":"Serpong","is_transit":false,"i_lat":-6.319871,"line":6},{"i_long":106.675475,"station_name":"Rawa Buntu","is_transit":false,"i_lat":-6.314823,"distance":2413,"station_id":"RU","time":4,"transit":false,"line":6},{"transit":false,"station_name":"Sudimara","is_transit":false,"distance":4566,"station_id":"SDM","i_lat":-6.296963,"i_long":106.712277,"time":6,"line":6},{"i_lat":-6.288927,"is_transit":false,"line":6,"transit":false,"station_name":"Jurangmangu","distance":1994,"station_id":"JMU","i_long":106.728916,"time":4},{"i_lat":-6.276362,"is_transit":false,"line":6,"station_name":"Pondokranji","distance":2179,"time":3,"transit":false,"station_id":"PDJ","i_long":106.74273},{"is_transit":false,"time":8,"distance":6218,"transit":false,"station_name":"Kebayoran","station_id":"KBY","i_lat":-6.237242,"i_long":106.780334,"line":6},{"time":7,"is_transit":false,"line":6,"station_id":"PLM","transit":false,"i_lat":-6.207404,"distance":3737,"i_long":106.79689,"station_name":"Palmerah"},{"station_name":"Tanah Abang","line":1,"station_id":"THB","is_transit":true,"transit":true,"i_lat":-6.185545,"i_long":106.811091,"time":6,"distance":3191},{"line":1,"transit":false,"station_name":"Karet","station_id":"KAT","i_lat":-6.20132,"distance":2029,"is_transit":false,"i_long":106.816351,"time":5},{"time":1,"line":1,"i_lat":-6.201433,"transit":false,"station_id":"SUDB","i_long":106.819881,"station_name":"Sudirman Baru","is_transit":false,"distance":471},{"line":1,"station_id":"SUD","station_name":"Sudirman","is_transit":false,"time":1,"distance":280,"transit":false,"i_lat":-6.202263,"i_long":106.822649},{"transit":true,"station_id":"MRI","i_lat":-6.209883,"i_long":106.84912,"is_transit":true,"time":4,"distance":3186,"station_name":"Manggarai","line":2},{"time":4,"i_lat":-6.198556,"i_long":106.840169,"station_name":"Cikini","is_transit":false,"transit":false,"distance":1590,"station_id":"CKI","line":2},{"station_name":"Gondangdia","is_transit":false,"time":3,"station_id":"GDD","transit":false,"i_lat":-6.186295,"line":2,"distance":1750,"i_long":106.832183},{"i_long":106.828284,"i_lat":-6.166716,"distance":2015,"is_transit":false,"transit":false,"station_id":"JUA","station_name":"Juanda","time":4,"line":2},{"distance":1149,"time":2,"i_lat":-6.160725,"i_long":106.827103,"is_transit":false,"station_id":"SW","line":2,"station_name":"Sawah Besar","transit":false},{"is_transit":false,"station_id":"MGB","time":2,"station_name":"Manggabesar","line":2,"distance":906,"i_long":106.82482,"transit":false,"i_lat":-6.149769},{"station_name":"Jayakarta","is_transit":false,"distance":1080,"i_lat":-6.141205,"line":2,"station_id":"JAY","i_long":106.820901,"transit":false,"time":2},{"line":2,"distance":1264,"transit":true,"time":4,"is_transit":true,"i_lat":-6.137569,"station_name":"Jakarta Kota","i_long":106.812439,"station_id":"JAKK"},{"line":4,"transit":true,"station_id":"KPB","station_name":"Kampung Bandan","is_transit":true,"time":3,"distance":1364,"i_long":106.826365,"i_lat":-6.132549},{"station_name":"Angke","i_long":106.79867,"station_id":"AK","line":1,"i_lat":-6.144674,"is_transit":false,"transit":false,"time":9,"distance":4102},{"is_transit":true,"i_lat":-6.155215,"i_long":106.800832,"station_id":"DU","distance":1230,"time":4,"station_name":"Duri","transit":true,"line":1},{"station_name":"Grogol","transit":false,"i_lat":-6.162021,"station_id":"GGL","distance":1700,"time":3,"is_transit":false,"line":5,"i_long":106.788277},{"line":5,"time":2,"transit":false,"station_id":"PSG","is_transit":false,"station_name":"Pesing","i_long":106.771379,"distance":2036,"i_lat":-6.161433},{"time":2,"station_name":"Taman Kota","distance":1614,"is_transit":false,"i_long":106.756522,"transit":false,"station_id":"TKO","i_lat":-6.1587309999999995,"line":5},{"station_id":"BOI","time":2,"transit":false,"line":5,"i_long":106.737035,"is_transit":false,"i_lat":-6.159876,"station_name":"Bojongindah","distance":2334},{"time":4,"transit":false,"is_transit":false,"distance":1152,"line":5,"i_long":106.723064,"station_name":"Rawa Buaya","station_id":"RW","i_lat":-6.162758},{"station_name":"Kalideres","station_id":"KDS","i_lat":-6.166068,"line":5,"distance":2504,"transit":false,"is_transit":false,"i_long":106.701612,"time":3}],[{"station_name":"Tigaraksa","is_transit":false,"line":6,"transit":false,"distance":0,"time":0,"i_long":106.425991,"i_lat":-6.328533,"station_id":"TGS"},{"station_name":"Tenjo","transit":false,"i_lat":-6.327251,"is_transit":false,"station_id":"TEJ","time":5,"line":6,"i_long":106.460812,"distance":2974},{"distance":3902,"is_transit":false,"line":0,"station_id":"DAR","transit":false,"time":5,"i_lat":-6.338021,"i_long":106.491338,"station_name":"Daru"},{"station_name":"Cilejit","distance":2675,"time":6,"line":3,"transit":false,"i_long":106.508482,"is_transit":false,"station_id":"CJT","i_lat":-6.354349},{"time":9,"line":6,"i_lat":-6.3441410000000005,"station_name":"Parung Panjang","transit":false,"i_long":106.568863,"station_id":"PRP","distance":7025,"is_transit":false},{"i_lat":-6.329547,"transit":false,"line":3,"time":8,"is_transit":false,"distance":5968,"i_long":106.617853,"station_name":"Cicayur","station_id":"CC"},{"i_lat":-6.32484,"station_id":"CSK","transit":false,"station_name":"Cisauk","line":3,"distance":2519,"i_long":106.640411,"is_transit":false,"time":4},{"line":6,"distance":1784,"station_name":"Serpong","station_id":"SRP","is_transit":false,"time":4,"transit":false,"i_long":106.66566,"i_lat":-6.319871},{"time":4,"i_lat":-6.314823,"station_name":"Rawa Buntu","is_transit":false,"i_long":106.675475,"line":6,"transit":false,"station_id":"RU","distance":2413},{"station_name":"Sudimara","distance":4566,"time":6,"i_lat":-6.296963,"line":6,"transit":false,"station_id":"SDM","i_long":106.712277,"is_transit":false},{"distance":1994,"i_lat":-6.288927,"i_long":106.728916,"is_transit":false,"station_id":"JMU","station_name":"Jurangmangu","time":4,"transit":false,"line":6},{"distance":2179,"i_long":106.74273,"station_name":"Pondokranji","is_transit":false,"time":3,"line":6,"transit":false,"i_lat":-6.276362,"station_id":"PDJ"},{"i_lat":-6.237242,"is_transit":false,"transit":false,"station_id":"KBY","i_long":106.780334,"line":6,"distance":6218,"station_name":"Kebayoran","time":8},{"i_lat":-6.207404,"transit":false,"time":7,"i_long":106.79689,"station_name":"Palmerah","station_id":"PLM","line":6,"is_transit":false,"distance":3737},{"station_name":"Tanah Abang","distance":3191,"time":6,"i_long":106.811091,"transit":true,"i_lat":-6.185545,"station_id":"THB","line":1,"is_transit":true},{"transit":false,"i_long":106.816351,"is_transit":false,"time":5,"station_name":"Karet","distance":2029,"station_id":"KAT","line":1,"i_lat":-6.20132},{"i_long":106.819881,"distance":471,"i_lat":-6.201433,"line":1,"time":1,"transit":false,"station_name":"Sudirman Baru","is_transit":false,"station_id":"SUDB"},{"line":1,"time":1,"distance":280,"station_name":"Sudirman","is_transit":false,"station_id":"SUD","i_long":106.822649,"transit":false,"i_lat":-6.202263},{"i_long":106.84912,"line":2,"station_id":"MRI","station_name":"Manggarai","distance":3186,"transit":false,"time":4,"is_transit":false,"i_lat":-6.209883},{"station_name":"Matraman","line":1,"station_id":"MTR","distance":1275,"transit":false,"i_lat":-6.212485,"is_transit":false,"time":2,"i_long":106.858896},{"station_name":"Jatinegara","time":8,"station_id":"JNG","i_lat":-6.215091,"line":1,"is_transit":true,"transit":true,"i_long":106.86807400000001,"distance":1377},{"line":11,"station_id":"POK","i_lat":-6.209188,"i_long":106.861737,"time":2,"is_transit":false,"station_name":"Pondok Jati","distance":1236,"transit":false},{"i_lat":-6.193792,"is_transit":false,"transit":false,"i_long":106.855437,"station_name":"Kramat","line":11,"time":2,"distance":1829,"station_id":"KMT"},{"time":1,"distance":973,"i_long":106.850107,"is_transit":false,"station_id":"GST","line":11,"transit":false,"i_lat":-6.185975,"station_name":"Gang Sentiong"},{"is_transit":false,"station_name":"Pasar Senen","station_id":"PSE","transit":false,"i_long":106.84368,"distance":1567,"time":8,"line":11,"i_lat":-6.174784},{"station_id":"KMO","time":4,"line":11,"is_transit":false,"i_long":106.839204,"station_name":"Kemayoran","distance":1436,"i_lat":-6.161728,"transit":false},{"distance":1901,"transit":false,"i_long":106.836569,"station_name":"Rajawali","station_id":"RJW","line":11,"i_lat":-6.14505,"time":5,"is_transit":false},{"time":3,"i_long":106.826365,"transit":true,"station_id":"KPB","distance":1444,"is_transit":true,"i_lat":-6.132549,"station_name":"Kampung Bandan","line":4},{"station_name":"Angke","time":9,"distance":4102,"i_lat":-6.144674,"is_transit":false,"line":1,"transit":false,"station_id":"AK","i_long":106.79867},{"distance":1230,"time":4,"is_transit":true,"i_long":106.800832,"station_id":"DU","station_name":"Duri","i_lat":-6.155215,"transit":true,"line":1},{"station_id":"GGL","i_lat":-6.162021,"distance":1700,"i_long":106.788277,"is_transit":false,"transit":false,"time":3,"line":5,"station_name":"Grogol"},{"is_transit":false,"transit":false,"station_id":"PSG","i_long":106.771379,"line":5,"distance":2036,"time":2,"station_name":"Pesing","i_lat":-6.161433},{"is_transit":false,"time":2,"i_long":106.756522,"station_name":"Taman Kota","distance":1614,"i_lat":-6.1587309999999995,"transit":false,"station_id":"TKO","line":5},{"transit":false,"i_lat":-6.159876,"distance":2334,"time":2,"station_name":"Bojongindah","station_id":"BOI","is_transit":false,"i_long":106.737035,"line":5},{"station_name":"Rawa Buaya","time":4,"i_long":106.723064,"station_id":"RW","i_lat":-6.162758,"distance":1152,"transit":false,"is_transit":false,"line":5},{"i_long":106.701612,"distance":2504,"line":5,"time":3,"i_lat":-6.166068,"station_name":"Kalideres","is_transit":false,"station_id":"KDS","transit":false}]]}