{"data":[[{"i_long":106.425991,"i_lat":-6.328533,"transit":false,"station_id":"TGS","distance":0,"is_transit":false,"station_name":"Tigaraksa","line":6,"time":0},{"distance":2974,"station_id":"TEJ","is_transit":false,"i_long":106.460812,"transit":false,"station_name":"Tenjo","i_lat":-6.327251,"line":6,"time":5},{"is_transit":false,"transit":false,"line":0,"station_id":"DAR","time":5,"i_lat":-6.338021,"station_name":"Daru","i_long":106.491338,"distance":3902},{"station_id":"CJT","time":6,"is_transit":false,"transit":false,"i_long":106.508482,"distance":2675,"station_name":"Cilejit","i_lat":-6.354349,"line":3},{"distance":7025,"i_long":106.568863,"station_name":"Parung Panjang","transit":false,"i_lat":-6.3441410000000005,"line":6,"station_id":"PRP","time":9,"is_transit":false},{"i_long":106.617853,"i_lat":-6.329547,"distance":5968,"time":8,"transit":false,"line":3,"is_transit":false,"station_id":"CC","station_name":"Cicayur"},{"i_lat":-6.32484,"transit":false,"line":3,"station_name":"Cisauk","distance":2519,"station_id":"CSK","time":4,"is_transit":false,"i_long":106.640411},{"transit":false,"time":4,"station_name":"Serpong","i_lat":-6.319871,"i_long":106.66566,"line":6,"station_id":"SRP","is_transit":false,"distance":1784},{"distance":2413,"station_id":"RU","i_lat":-6.314823,"station_name":"Rawa Buntu","transit":false,"is_transit":false,"i_long":106.675475,"time":4,"line":6},{"i_long":106.712277,"i_lat":-6.296963,"is_transit":false,"line":6,"distance":4566,"transit":false,"station_name":"Sudimara","time":6,"station_id":"SDM"},{"i_long":106.728916,"station_name":"Jurangmangu","station_id":"JMU","i_lat":-6.288927,"line":6,"is_transit":false,"transit":false,"time":4,"distance":1994},{"time":3,"i_lat":-6.276362,"distance":2179,"is_transit":false,"i_long":106.74273,"station_name":"Pondokranji","transit":false,"line":6,"station_id":"PDJ"},{"line":6,"time":8,"i_long":106.780334,"i_lat":-6.237242,"station_name":"Kebayoran","station_id":"KBY","distance":6218,"transit":false,"is_transit":false},{"station_id":"PLM","time":7,"is_transit":false,"transit":false,"i_lat":-6.207404,"i_long":106.79689,"station_name":"Palmerah","line":6,"distance":3737},{"distance":3191,"time":6,"station_id":"THB","is_transit":true,"i_lat":-6.185545,"i_long":106.811091,"line":1,"transit":true,"station_name":"Tanah Abang"},{"is_transit":false,"station_name":"Duri","time":8,"i_long":106.800832,"transit":false,"line":1,"distance":3632,"station_id":"DU","i_lat":-6.155215},{"time":4,"line":1,"i_long":106.79867,"is_transit":false,"distance":1230,"station_name":"Angke","transit":false,"station_id":"AK","i_lat":-6.144674},{"transit":true,"time":9,"station_id":"KPB","i_long":106.826365,"line":4,"i_lat":-6.132549,"station_name":"Kampung Bandan","is_transit":true,"distance":4102},{"time":3,"station_id":"RJW","station_name":"Rajawali","transit":false,"i_lat":-6.14505,"line":11,"i_long":106.836569,"distance":1444,"is_transit":false},{"station_name":"Kemayoran","time":5,"station_id":"KMO","line":11,"is_transit":false,"transit":false,"i_lat":-6.161728,"i_long":106.839204,"distance":1901},{"i_long":106.84368,"i_lat":-6.174784,"is_transit":false,"station_name":"Pasar Senen","transit":false,"time":4,"line":11,"station_id":"PSE","distance":1436},{"station_name":"Gang Sentiong","i_lat":-6.185975,"distance":1567,"is_transit":false,"i_long":106.850107,"transit":false,"line":11,"time":8,"station_id":"GST"},{"station_name":"Kramat","transit":false,"line":11,"distance":973,"i_long":106.855437,"time":1,"i_lat":-6.193792,"station_id":"KMT","is_transit":false}],[{"line":6,"station_id":"TGS","transit":false,"is_transit":false,"station_name":"Tigaraksa","time":0,"i_lat":-6.328533,"distance":0,"i_long":106.425991},{"station_id":"TEJ","line":6,"transit":false,"i_long":106.460812,"station_name":"Tenjo","is_transit":false,"time":5,"distance":2974,"i_lat":-6.327251},{"station_name":"Daru","i_long":106.491338,"i_lat":-6.338021,"transit":false,"is_transit":false,"time":5,"line":0,"station_id":"DAR","distance":3902},{"station_name":"Cilejit","time":6,"is_transit":false,"i_lat":-6.354349,"transit":false,"i_long":106.508482,"line":3,"station_id":"CJT","distance":2675},{"distance":7025,"i_lat":-6.3441410000000005,"station_id":"PRP","i_long":106.568863,"time":9,"transit":false,"station_name":"Parung Panjang","is_transit":false,"line":6},{"is_transit":false,"i_lat":-6.329547,"line":3,"station_name":"Cicayur","i_long":106.617853,"time":8,"station_id":"CC","transit":false,"distance":5968},{"station_name":"Cisauk","transit":false,"distance":2519,"station_id":"CSK","i_lat":-6.32484,"time":4,"is_transit":false,"line":3,"i_long":106.640411},{"is_transit":false,"i_lat":-6.319871,"time":4,"distance":1784,"i_long":106.66566,"line":6,"station_name":"Serpong","transit":false,"station_id":"SRP"},{"station_name":"Rawa Buntu","i_lat":-6.314823,"transit":false,"station_id":"RU","i_long":106.675475,"line":6,"is_transit":false,"time":4,"distance":2413},{"i_long":106.712277,"line":6,"station_name":"Sudimara","time":6,"transit":false,"station_id":"SDM","distance":4566,"i_lat":-6.296963,"is_transit":false},{"i_lat":-6.288927,"station_name":"Jurangmangu","time":4,"distance":1994,"transit":false,"line":6,"station_id":"JMU","i_long":106.728916,"is_transit":false},{"time":3,"transit":false,"distance":2179,"i_lat":-6.276362,"is_transit":false,"line":6,"station_name":"Pondokranji","i_long":106.74273,"station_id":"PDJ"},{"time":8,"distance":6218,"transit":false,"station_id":"KBY","i_long":106.780334,"line":6,"station_name":"Kebayoran","is_transit":false,"i_lat":-6.237242},{"transit":false,"station_name":"Palmerah","i_lat":-6.207404,"line":6,"distance":3737,"time":7,"is_transit":false,"station_id":"PLM","i_long":106.79689},{"time":6,"distance":3191,"station_id":"THB","is_transit":true,"station_name":"Tanah Abang","line":1,"i_lat":-6.185545,"i_long":106.811091,"transit":true},{"line":1,"station_id":"KAT","transit":false,"i_lat":-6.20132,"is_transit":false,"distance":2029,"i_long":106.816351,"station_name":"Karet","time":5},{"is_transit":false,"line":1,"transit":false,"i_long":106.819881,"station_name":"Sudirman Baru","distance":471,"station_id":"SUDB","time":1,"i_lat":-6.201433},{"i_lat":-6.202263,"distance":280,"is_transit":false,"station_name":"Sudirman","station_id":"SUD","time":1,"transit":false,"line":1,"i_long":106.822649},{"is_transit":false,"station_id":"MRI","i_lat":-6.209883,"transit":false,"distance":3186,"station_name":"Manggarai","time":4,"line":2,"i_long":106.84912},{"station_name":"Matraman","is_transit":false,"distance":1275,"station_id":"MTR","time":2,"i_lat":-6.212485,"i_long":106.858896,"line":1,"transit":false},{"station_id":"JNG","station_name":"Jatinegara","distance":1377,"i_long":106.86807400000001,"transit":true,"is_transit":true,"i_lat":-6.215091,"time":8,"line":1},{"transit":false,"is_transit":false,"time":2,"i_lat":-6.209188,"i_long":106.861737,"line":11,"station_name":"Pondok Jati","station_id":"POK","distance":1236},{"transit":false,"line":11,"time":2,"distance":1829,"i_lat":-6.193792,"is_transit":false,"i_long":106.855437,"station_name":"Kramat","station_id":"KMT"}],[{"line":6,"is_transit":false,"time":0,"station_id":"TGS","distance":0,"station_name":"Tigaraksa","i_long":106.425991,"transit":false,"i_lat":-6.328533},{"i_long":106.460812,"time":5,"station_id":"TEJ","distance":2974,"i_lat":-6.327251,"station_name":"Tenjo","line":6,"transit":false,"is_transit":false},{"i_lat":-6.338021,"is_transit":false,"time":5,"transit":false,"distance":3902,"station_name":"Daru","station_id":"DAR","i_long":106.491338,"line":0},{"time":6,"i_long":106.508482,"i_lat":-6.354349,"distance":2675,"transit":false,"is_transit":false,"line":3,"station_name":"Cilejit","station_id":"CJT"},{"station_name":"Parung Panjang","time":9,"line":6,"distance":7025,"i_long":106.568863,"transit":false,"station_id":"PRP","i_lat":-6.3441410000000005,"is_transit":false},{"station_name":"Cicayur","is_transit":false,"line":3,"i_lat":-6.329547,"i_long":106.617853,"time":8,"station_id":"CC","distance":5968,"transit":false},{"distance":2519,"line":3,"time":4,"station_name":"Cisauk","is_transit":false,"station_id":"CSK","i_long":106.640411,"transit":false,"i_lat":-6.32484},{"distance":1784,"time":4,"i_long":106.66566,"line":6,"is_transit":false,"station_name":"Serpong","station_id":"SRP","i_lat":-6.319871,"transit":false},{"transit":false,"time":4,"i_lat":-6.314823,"i_long":106.675475,"line":6,"is_transit":false,"distance":2413,"station_name":"Rawa Buntu","station_id":"RU"},{"i_long":106.712277,"distance":4566,"transit":false,"station_id":"SDM","station_name":"Sudimara","i_lat":-6.296963,"time":6,"line":6,"is_transit":false},{"station_name":"Jurangmangu","is_transit":false,"time":4,"distance":1994,"station_id":"JMU","i_lat":-6.288927,"line":6,"i_long":106.728916,"transit":false},{"i_long":106.74273,"station_id":"PDJ","station_name":"Pondokranji","i_lat":-6.276362,"line":6,"distance":2179,"is_transit":false,"transit":false,"time":3},{"line":6,"distance":6218,"transit":false,"i_long":106.780334,"time":8,"is_transit":false,"station_id":"KBY","station_name":"Kebayoran","i_lat":-6.237242},{"transit":false,"station_id":"PLM","distance":3737,"i_lat":-6.207404,"is_transit":false,"line":6,"station_name":"Palmerah","time":7,"i_long":106.79689},{"distance":3191,"station_name":"Tanah Abang","i_lat":-6.185545,"transit":true,"station_id":"THB","is_transit":true,"i_long":106.811091,"line":1,"time":6},{"is_transit":false,"line":1,"i_long":106.800832,"station_name":"Duri","time":8,"distance":3632,"transit":false,"station_id":"DU","i_lat":-6.155215},{"time":4,"i_lat":-6.144674,"transit":false,"distance":1230,"is_transit":false,"i_long":106.79867,"line":1,"station_name":"Angke","station_id":"AK"},{"i_lat":-6.132549,"is_transit":true,"time":9,"distance":4102,"transit":true,"i_long":106.826365,"line":4,"station_id":"KPB","station_name":"Kampung Bandan"},{"distance":1364,"i_lat":-6.137569,"i_long":106.812439,"time":3,"station_id":"JAKK","is_transit":true,"line":2,"transit":true,"station_name":"Jakarta Kota"},{"time":4,"station_name":"Jayakarta","i_lat":-6.141205,"transit":false,"distance":1264,"line":2,"i_long":106.820901,"station_id":"JAY","is_transit":false},{"station_id":"MGB","i_lat":-6.149769,"i_long":106.82482,"distance":1080,"transit":false,"station_name":"Manggabesar","is_transit":false,"time":2,"line":2},{"line":2,"transit":false,"i_long":106.827103,"station_name":"Sawah Besar","is_transit":false,"time":2,"station_id":"SW","distance":906,"i_lat":-6.160725},{"station_name":"Juanda","station_id":"JUA","distance":1149,"i_long":106.828284,"transit":false,"line":2,"i_lat":-6.166716,"time":2,"is_transit":false},{"transit":false,"distance":2015,"time":4,"station_name":"Gondangdia","is_transit":false,"station_id":"GDD","i_long":106.832183,"i_lat":-6.186295,"line":2},{"station_id":"CKI","i_lat":-6.198556,"distance":1750,"transit":false,"is_transit":false,"time":3,"station_name":"Cikini","i_long":106.840169,"line":2},{"station_name":"Manggarai","transit":true,"line":2,"i_lat":-6.209883,"distance":1590,"is_transit":true,"i_long":106.84912,"time":4,"station_id":"MRI"},{"transit":false,"time":2,"distance":1275,"is_transit":false,"station_id":"MTR","i_lat":-6.212485,"line":1,"station_name":"Matraman","i_long":106.858896},{"is_transit":true,"station_name":"Jatinegara","line":1,"time":8,"i_long":106.86807400000001,"distance":1377,"i_lat":-6.215091,"station_id":"JNG","transit":true},{"distance":1236,"transit":false,"station_name":"Pondok Jati","line":11,"time":2,"i_long":106.861737,"station_id":"POK","i_lat":-6.209188,"is_transit":false},{"station_id":"KMT","i_long":106.855437,"transit":false,"i_lat":-6.193792,"line":11,"is_transit":false,"station_name":"Kramat","distance":1829,"time":2}],[{"station_name":"Tigaraksa","i_lat":-6.328533,"line":6,"station_id":"TGS","time":0,"i_long":106.425991,"transit":false,"distance":0,"is_transit":false},{"time":5,"i_lat":-6.327251,"i_long":106.460812,"is_transit":false,"station_name":"Tenjo","transit":false,"station_id":"TEJ","distance":2974,"line":6},{"distance":3902,"is_transit":false,"time":5,"line":0,"transit":false,"station_id":"DAR","i_lat":-6.338021,"station_name":"Daru","i_long":106.491338},{"distance":2675,"i_lat":-6.354349,"line":3,"station_name":"Cilejit","station_id":"CJT","time":6,"transit":false,"is_transit":false,"i_long":106.508482},{"line":6,"distance":7025,"is_transit":false,"station_name":"Parung Panjang","transit":false,"i_long":106.568863,"time":9,"station_id":"PRP","i_lat":-6.3441410000000005},{"is_transit":false,"time":8,"station_name":"Cicayur","i_lat":-6.329547,"transit":false,"distance":5968,"i_long":106.617853,"line":3,"station_id":"CC"},{"i_lat":-6.32484,"transit":false,"i_long":106.640411,"line":3,"time":4,"station_name":"Cisauk","distance":2519,"station_id":"CSK","is_transit":false},{"is_transit":false,"time":4,"distance":1784,"i_long":106.66566,"station_name":"Serpong","i_lat":-6.319871,"station_id":"SRP","transit":false,"line":6},{"is_transit":false,"station_id":"RU","transit":false,"line":6,"i_lat":-6.314823,"distance":2413,"station_name":"Rawa Buntu","time":4,"i_long":106.675475},{"station_id":"SDM","i_long":106.712277,"transit":false,"line":6,"time":6,"station_name":"Sudimara","i_lat":-6.296963,"is_transit":false,"distance":4566},{"distance":1994,"i_lat":-6.288927,"station_name":"Jurangmangu","is_transit":false,"time":4,"i_long":106.728916,"line":6,"station_id":"JMU","transit":false},{"station_name":"Pondokranji","i_lat":-6.276362,"transit":false,"i_long":106.74273,"distance":2179,"is_transit":false,"time":3,"station_id":"PDJ","line":6},{"is_transit":false,"i_long":106.780334,"i_lat":-6.237242,"station_name":"Kebayoran","transit":false,"distance":6218,"line":6,"time":8,"station_id":"KBY"},{"line":6,"station_name":"Palmerah","distance":3737,"time":7,"station_id":"PLM","is_transit":false,"i_lat":-6.207404,"transit":false,"i_long":106.79689},{"station_name":"Tanah Abang","distance":3191,"transit":true,"i_lat":-6.185545,"i_long":106.811091,"line":1,"is_transit":true,"station_id":"THB","time":6},{"i_lat":-6.20132,"line":1,"is_transit":false,"time":5,"transit":false,"station_id":"KAT","i_long":106.816351,"distance":2029,"station_name":"Karet"},{"transit":false,"distance":471,"i_long":106.819881,"line":1,"time":1,"is_transit":false,"station_name":"Sudirman Baru","station_id":"SUDB","i_lat":-6.201433},{"distance":280,"station_id":"SUD","i_long":106.822649,"station_name":"Sudirman","i_lat":-6.202263,"line":1,"transit":false,"is_transit":false,"time":1},{"station_name":"Manggarai","i_lat":-6.209883,"is_transit":true,"distance":3186,"transit":true,"i_long":106.84912,"line":2,"time":4,"station_id":"MRI"},{"i_long":106.840169,"line":2,"is_transit":false,"time":4,"distance":1590,"station_id":"CKI","station_name":"Cikini","transit":false,"i_lat":-6.198556},{"transit":false,"distance":1750,"i_lat":-6.186295,"i_long":106.832183,"line":2,"time":3,"station_id":"GDD","is_transit":false,"station_name":"Gondangdia"},{"station_name":"Juanda","is_transit":false,"station_id":"JUA","i_lat":-6.166716,"distance":2015,"line":2,"transit":false,"i_long":106.828284,"time":4},{"distance":1149,"line":2,"is_transit":false,"station_name":"Sawah Besar","time":2,"station_id":"SW","i_lat":-6.160725,"transit":false,"i_long":106.827103},{"station_name":"Manggabesar","distance":906,"i_long":106.82482,"transit":false,"time":2,"station_id":"MGB","is_transit":false,"line":2,"i_lat":-6.149769},{"line":2,"station_name":"Jayakarta","distance":1080,"transit":false,"is_transit":false,"time":2,"station_id":"JAY","i_lat":-6.141205,"i_long":106.820901},{"i_long":106.812439,"time":4,"i_lat":-6.137569,"station_name":"Jakarta Kota","line":2,"is_transit":true,"transit":true,"station_id":"JAKK","distance":1264},{"transit":true,"i_lat":-6.132549,"i_long":106.826365,"station_id":"KPB","station_name":"Kampung Bandan","distance":1364,"line":4,"time":3,"is_transit":true},{"i_long":106.836569,"station_id":"RJW","line":11,"i_lat":-6.14505,"time":3,"transit":false,"station_name":"Rajawali","distance":1444,"is_transit":false},{"i_long":106.839204,"time":5,"transit":false,"station_name":"Kemayoran","i_lat":-6.161728,"distance":1901,"line":11,"station_id":"KMO","is_transit":false},{"distance":1436,"transit":false,"time":4,"is_transit":false,"station_id":"PSE","i_lat":-6.174784,"i_long":106.84368,"line":11,"station_name":"Pasar Senen"},{"station_id":"GST","transit":false,"station_name":"Gang Sentiong","distance":1567,"time":8,"i_long":106.850107,"i_lat":-6.185975,"is_transit":false,"line":11},{"distance":973,"time":1,"station_id":"KMT","station_name":"Kramat","is_transit":false,"i_lat":-6.193792,"line":11,"i_long":106.855437,"transit":false}]]}