{"data":[[{"station_name":"Tigaraksa","transit":false,"time":0,"is_transit":false,"distance":0,"i_long":106.425991,"line":6,"station_id":"TGS","i_lat":-6.328533},{"station_id":"TEJ","time":5,"transit":false,"line":6,"distance":2974,"station_name":"Tenjo","is_transit":false,"i_lat":-6.327251,"i_long":106.460812},{"line":0,"i_long":106.491338,"station_name":"Daru","is_transit":false,"transit":false,"station_id":"DAR","time":5,"distance":3902,"i_lat":-6.338021},{"is_transit":false,"station_name":"Cilejit","time":6,"distance":2675,"i_lat":-6.354349,"line":3,"station_id":"CJT","transit":false,"i_long":106.508482},{"is_transit":false,"distance":7025,"i_long":106.568863,"line":6,"station_name":"Parung Panjang","station_id":"PRP","transit":false,"time":9,"i_lat":-6.3441410000000005},{"i_long":106.617853,"i_lat":-6.329547,"line":3,"distance":5968,"station_id":"CC","time":8,"is_transit":false,"transit":false,"station_name":"Cicayur"}]]}