{"data":[[{"transit":false,"station_id":"TGS","is_transit":false,"i_lat":-6.328533,"distance":0,"time":0,"station_name":"Tigaraksa","i_long":106.425991,"line":6},{"i_long":106.460812,"i_lat":-6.327251,"is_transit":false,"station_name":"Tenjo","line":6,"transit":false,"station_id":"TEJ","distance":2974,"time":5},{"is_transit":false,"station_id":"DAR","station_name":"Daru","i_lat":-6.338021,"i_long":106.491338,"line":0,"time":5,"transit":false,"distance":3902},{"distance":2675,"line":3,"is_transit":false,"station_id":"CJT","i_long":106.508482,"transit":false,"station_name":"Cilejit","i_lat":-6.354349,"time":6},{"station_name":"Parung Panjang","distance":7025,"is_transit":false,"line":6,"i_lat":-6.3441410000000005,"station_id":"PRP","transit":false,"i_long":106.568863,"time":9},{"is_transit":false,"distance":5968,"station_id":"CC","time":8,"i_long":106.617853,"transit":false,"i_lat":-6.329547,"line":3,"station_name":"Cicayur"},{"line":3,"station_name":"Cisauk","i_lat":-6.32484,"time":4,"is_transit":false,"transit":false,"i_long":106.640411,"distance":2519,"station_id":"CSK"},{"station_id":"SRP","i_lat":-6.319871,"distance":1784,"is_transit":false,"transit":false,"time":4,"station_name":"Serpong","i_long":106.66566,"line":6},{"station_name":"Rawa Buntu","i_long":106.675475,"time":4,"transit":false,"distance":2413,"i_lat":-6.314823,"is_transit":false,"line":6,"station_id":"RU"},{"station_name":"Sudimara","transit":false,"is_transit":false,"i_long":106.712277,"line":6,"time":6,"i_lat":-6.296963,"distance":4566,"station_id":"SDM"},{"is_transit":false,"i_long":106.728916,"transit":false,"station_name":"Jurangmangu","time":4,"i_lat":-6.288927,"distance":1994,"line":6,"station_id":"JMU"},{"is_transit":false,"transit":false,"i_long":106.74273,"line":6,"time":3,"station_name":"Pondokranji","i_lat":-6.276362,"distance":2179,"station_id":"PDJ"},{"time":8,"line":6,"distance":6218,"i_long":106.780334,"transit":false,"station_id":"KBY","is_transit":false,"station_name":"Kebayoran","i_lat":-6.237242},{"station_name":"Palmerah","is_transit":false,"i_long":106.79689,"line":6,"station_id":"PLM","distance":3737,"i_lat":-6.207404,"time":7,"transit":false},{"is_transit":true,"i_lat":-6.185545,"time":6,"distance":3191,"station_name":"Tanah Abang","transit":true,"station_id":"THB","i_long":106.811091,"line":1},{"i_lat":-6.155215,"transit":false,"i_long":106.800832,"distance":3632,"line":1,"station_id":"DU","time":8,"is_transit":false,"station_name":"Duri"},{"station_name":"Angke","is_transit":false,"time":4,"distance":1230,"i_long":106.79867,"transit":false,"station_id":"AK","i_lat":-6.144674,"line":1},{"is_transit":true,"distance":4102,"station_name":"Kampung Bandan","i_long":106.826365,"station_id":"KPB","i_lat":-6.132549,"time":9,"line":4,"transit":true},{"is_transit":false,"line":11,"station_id":"RJW","i_long":106.836569,"i_lat":-6.14505,"station_name":"Rajawali","distance":1444,"transit":false,"time":3},{"line":11,"transit":false,"time":5,"i_lat":-6.161728,"station_id":"KMO","distance":1901,"station_name":"Kemayoran","is_transit":false,"i_long":106.839204},{"i_lat":-6.174784,"transit":false,"distance":1436,"is_transit":false,"i_long":106.84368,"station_id":"PSE","line":11,"time":4,"station_name":"Pasar Senen"},{"time":8,"transit":false,"line":11,"station_id":"GST","is_transit":false,"station_name":"Gang Sentiong","i_long":106.850107,"distance":1567,"i_lat":-6.185975},{"station_id":"KMT","station_name":"Kramat","line":11,"time":1,"i_long":106.855437,"transit":false,"distance":973,"is_transit":false,"i_lat":-6.193792}],[{"i_long":106.425991,"i_lat":-6.328533,"is_transit":false,"time":0,"station_name":"Tigaraksa","distance":0,"transit":false,"station_id":"TGS","line":6},{"is_transit":false,"time":5,"i_lat":-6.327251,"i_long":106.460812,"transit":false,"station_id":"TEJ","distance":2974,"line":6,"station_name":"Tenjo"},{"i_long":106.491338,"time":5,"transit":false,"station_name":"Daru","is_transit":false,"line":0,"i_lat":-6.338021,"station_id":"DAR","distance":3902},{"line":3,"station_name":"Cilejit","distance":2675,"i_lat":-6.354349,"transit":false,"time":6,"i_long":106.508482,"is_transit":false,"station_id":"CJT"},{"is_transit":false,"time":9,"i_lat":-6.3441410000000005,"line":6,"transit":false,"station_id":"PRP","distance":7025,"i_long":106.568863,"station_name":"Parung Panjang"},{"station_name":"Cicayur","station_id":"CC","is_transit":false,"i_long":106.617853,"i_lat":-6.329547,"transit":false,"distance":5968,"line":3,"time":8},{"line":3,"transit":false,"time":4,"i_lat":-6.32484,"i_long":106.640411,"is_transit":false,"station_name":"Cisauk","distance":2519,"station_id":"CSK"},{"distance":1784,"is_transit":false,"station_id":"SRP","i_lat":-6.319871,"time":4,"line":6,"transit":false,"station_name":"Serpong","i_long":106.66566},{"line":6,"transit":false,"is_transit":false,"i_long":106.675475,"time":4,"station_name":"Rawa Buntu","station_id":"RU","distance":2413,"i_lat":-6.314823},{"time":6,"station_id":"SDM","is_transit":false,"transit":false,"station_name":"Sudimara","i_lat":-6.296963,"i_long":106.712277,"line":6,"distance":4566},{"transit":false,"station_id":"JMU","time":4,"distance":1994,"i_lat":-6.288927,"station_name":"Jurangmangu","i_long":106.728916,"line":6,"is_transit":false},{"station_id":"PDJ","transit":false,"line":6,"i_lat":-6.276362,"i_long":106.74273,"is_transit":false,"distance":2179,"time":3,"station_name":"Pondokranji"},{"is_transit":false,"time":8,"distance":6218,"i_long":106.780334,"line":6,"transit":false,"i_lat":-6.237242,"station_name":"Kebayoran","station_id":"KBY"},{"time":7,"station_name":"Palmerah","station_id":"PLM","line":6,"i_lat":-6.207404,"distance":3737,"i_long":106.79689,"transit":false,"is_transit":false},{"transit":true,"distance":3191,"is_transit":true,"i_long":106.811091,"line":1,"time":6,"station_name":"Tanah Abang","station_id":"THB","i_lat":-6.185545},{"time":5,"is_transit":false,"station_id":"KAT","i_lat":-6.20132,"distance":2029,"station_name":"Karet","line":1,"transit":false,"i_long":106.816351},{"station_id":"SUDB","i_lat":-6.201433,"transit":false,"time":1,"is_transit":false,"i_long":106.819881,"line":1,"station_name":"Sudirman Baru","distance":471},{"i_long":106.822649,"distance":280,"station_id":"SUD","transit":false,"time":1,"station_name":"Sudirman","i_lat":-6.202263,"line":1,"is_transit":false},{"station_id":"MRI","line":2,"station_name":"Manggarai","is_transit":false,"distance":3186,"i_lat":-6.209883,"time":4,"i_long":106.84912,"transit":false},{"i_lat":-6.212485,"transit":false,"station_name":"Matraman","station_id":"MTR","i_long":106.858896,"time":2,"distance":1275,"is_transit":false,"line":1},{"distance":1377,"station_name":"Jatinegara","station_id":"JNG","i_lat":-6.215091,"time":8,"i_long":106.86807400000001,"line":1,"transit":true,"is_transit":true},{"time":2,"distance":1236,"line":11,"station_name":"Pondok Jati","transit":false,"station_id":"POK","is_transit":false,"i_lat":-6.209188,"i_long":106.861737},{"station_id":"KMT","station_name":"Kramat","i_lat":-6.193792,"is_transit":false,"distance":1829,"transit":false,"i_long":106.855437,"line":11,"time":2}],[{"distance":0,"time":0,"i_lat":-6.328533,"station_id":"TGS","is_transit":false,"station_name":"Tigaraksa","transit":false,"i_long":106.425991,"line":6},{"i_long":106.460812,"i_lat":-6.327251,"transit":false,"station_id":"TEJ","is_transit":false,"time":5,"distance":2974,"station_name":"Tenjo","line":6},{"time":5,"i_lat":-6.338021,"station_name":"Daru","is_transit":false,"station_id":"DAR","distance":3902,"transit":false,"i_long":106.491338,"line":0},{"station_name":"Cilejit","distance":2675,"i_long":106.508482,"transit":false,"station_id":"CJT","is_transit":false,"i_lat":-6.354349,"line":3,"time":6},{"line":6,"i_long":106.568863,"is_transit":false,"station_name":"Parung Panjang","time":9,"station_id":"PRP","distance":7025,"i_lat":-6.3441410000000005,"transit":false},{"time":8,"distance":5968,"line":3,"i_long":106.617853,"transit":false,"is_transit":false,"i_lat":-6.329547,"station_id":"CC","station_name":"Cicayur"},{"station_id":"CSK","is_transit":false,"i_lat":-6.32484,"line":3,"i_long":106.640411,"time":4,"transit":false,"station_name":"Cisauk","distance":2519},{"station_name":"Serpong","i_long":106.66566,"distance":1784,"line":6,"is_transit":false,"station_id":"SRP","time":4,"transit":false,"i_lat":-6.319871},{"time":4,"line":6,"transit":false,"station_id":"RU","i_lat":-6.314823,"i_long":106.675475,"is_transit":false,"distance":2413,"station_name":"Rawa Buntu"},{"transit":false,"station_name":"Sudimara","i_lat":-6.296963,"station_id":"SDM","time":6,"i_long":106.712277,"is_transit":false,"line":6,"distance":4566},{"i_lat":-6.288927,"transit":false,"is_transit":false,"distance":1994,"i_long":106.728916,"line":6,"station_id":"JMU","time":4,"station_name":"Jurangmangu"},{"line":6,"i_long":106.74273,"transit":false,"is_transit":false,"i_lat":-6.276362,"time":3,"station_name":"Pondokranji","distance":2179,"station_id":"PDJ"},{"station_id":"KBY","is_transit":false,"distance":6218,"i_lat":-6.237242,"line":6,"station_name":"Kebayoran","transit":false,"time":8,"i_long":106.780334},{"transit":false,"station_id":"PLM","i_lat":-6.207404,"i_long":106.79689,"line":6,"time":7,"distance":3737,"is_transit":false,"station_name":"Palmerah"},{"i_long":106.811091,"station_name":"Tanah Abang","transit":true,"line":1,"distance":3191,"station_id":"THB","is_transit":true,"time":6,"i_lat":-6.185545},{"station_id":"DU","is_transit":false,"station_name":"Duri","transit":false,"distance":3632,"time":8,"line":1,"i_lat":-6.155215,"i_long":106.800832},{"line":1,"is_transit":false,"transit":false,"station_name":"Angke","i_long":106.79867,"time":4,"distance":1230,"i_lat":-6.144674,"station_id":"AK"},{"distance":4102,"transit":true,"i_lat":-6.132549,"station_name":"Kampung Bandan","i_long":106.826365,"time":9,"is_transit":true,"station_id":"KPB","line":4},{"transit":true,"i_long":106.812439,"distance":1364,"i_lat":-6.137569,"is_transit":true,"line":2,"time":3,"station_name":"Jakarta Kota","station_id":"JAKK"},{"transit":false,"station_name":"Jayakarta","distance":1264,"station_id":"JAY","time":4,"is_transit":false,"line":2,"i_long":106.820901,"i_lat":-6.141205},{"line":2,"i_lat":-6.149769,"transit":false,"station_id":"MGB","is_transit":false,"station_name":"Manggabesar","distance":1080,"time":2,"i_long":106.82482},{"station_id":"SW","time":2,"distance":906,"i_lat":-6.160725,"i_long":106.827103,"transit":false,"line":2,"is_transit":false,"station_name":"Sawah Besar"},{"is_transit":false,"time":2,"distance":1149,"station_name":"Juanda","i_lat":-6.166716,"transit":false,"i_long":106.828284,"line":2,"station_id":"JUA"},{"transit":false,"is_transit":false,"i_long":106.832183,"station_id":"GDD","distance":2015,"station_name":"Gondangdia","time":4,"i_lat":-6.186295,"line":2},{"is_transit":false,"i_lat":-6.198556,"station_id":"CKI","distance":1750,"transit":false,"station_name":"Cikini","i_long":106.840169,"line":2,"time":3},{"station_id":"MRI","time":4,"station_name":"Manggarai","i_lat":-6.209883,"i_long":106.84912,"is_transit":true,"distance":1590,"line":2,"transit":true},{"station_id":"MTR","is_transit":false,"time":2,"transit":false,"line":1,"distance":1275,"station_name":"Matraman","i_lat":-6.212485,"i_long":106.858896},{"is_transit":true,"station_id":"JNG","distance":1377,"line":1,"station_name":"Jatinegara","i_lat":-6.215091,"transit":true,"time":8,"i_long":106.86807400000001},{"i_lat":-6.209188,"is_transit":false,"transit":false,"station_name":"Pondok Jati","distance":1236,"station_id":"POK","i_long":106.861737,"line":11,"time":2},{"station_name":"Kramat","i_long":106.855437,"line":11,"distance":1829,"is_transit":false,"station_id":"KMT","transit":false,"time":2,"i_lat":-6.193792}],[{"is_transit":false,"time":0,"distance":0,"i_long":106.425991,"station_name":"Tigaraksa","line":6,"transit":false,"i_lat":-6.328533,"station_id":"TGS"},{"station_id":"TEJ","is_transit":false,"station_name":"Tenjo","i_lat":-6.327251,"line":6,"distance":2974,"i_long":106.460812,"time":5,"transit":false},{"time":5,"station_id":"DAR","i_long":106.491338,"is_transit":false,"line":0,"transit":false,"station_name":"Daru","distance":3902,"i_lat":-6.338021},{"distance":2675,"line":3,"is_transit":false,"station_id":"CJT","transit":false,"station_name":"Cilejit","time":6,"i_long":106.508482,"i_lat":-6.354349},{"transit":false,"is_transit":false,"station_name":"Parung Panjang","distance":7025,"line":6,"i_long":106.568863,"time":9,"station_id":"PRP","i_lat":-6.3441410000000005},{"station_id":"CC","time":8,"distance":5968,"line":3,"is_transit":false,"i_long":106.617853,"transit":false,"station_name":"Cicayur","i_lat":-6.329547},{"station_id":"CSK","time":4,"station_name":"Cisauk","line":3,"transit":false,"distance":2519,"is_transit":false,"i_lat":-6.32484,"i_long":106.640411},{"is_transit":false,"time":4,"station_name":"Serpong","distance":1784,"i_long":106.66566,"line":6,"transit":false,"station_id":"SRP","i_lat":-6.319871},{"is_transit":false,"distance":2413,"i_long":106.675475,"time":4,"line":6,"station_id":"RU","i_lat":-6.314823,"transit":false,"station_name":"Rawa Buntu"},{"transit":false,"time":6,"station_name":"Sudimara","i_lat":-6.296963,"line":6,"station_id":"SDM","i_long":106.712277,"distance":4566,"is_transit":false},{"i_long":106.728916,"distance":1994,"time":4,"line":6,"transit":false,"is_transit":false,"i_lat":-6.288927,"station_id":"JMU","station_name":"Jurangmangu"},{"transit":false,"distance":2179,"station_name":"Pondokranji","line":6,"i_lat":-6.276362,"i_long":106.74273,"time":3,"station_id":"PDJ","is_transit":false},{"is_transit":false,"station_name":"Kebayoran","i_lat":-6.237242,"distance":6218,"line":6,"station_id":"KBY","time":8,"i_long":106.780334,"transit":false},{"i_lat":-6.207404,"line":6,"time":7,"distance":3737,"i_long":106.79689,"transit":false,"station_name":"Palmerah","station_id":"PLM","is_transit":false},{"line":1,"station_id":"THB","time":6,"station_name":"Tanah Abang","is_transit":true,"distance":3191,"i_lat":-6.185545,"transit":true,"i_long":106.811091},{"transit":false,"station_id":"KAT","distance":2029,"i_lat":-6.20132,"is_transit":false,"line":1,"i_long":106.816351,"time":5,"station_name":"Karet"},{"transit":false,"line":1,"time":1,"station_name":"Sudirman Baru","i_lat":-6.201433,"i_long":106.819881,"station_id":"SUDB","distance":471,"is_transit":false},{"time":1,"i_long":106.822649,"station_id":"SUD","is_transit":false,"transit":false,"line":1,"i_lat":-6.202263,"station_name":"Sudirman","distance":280},{"time":4,"i_long":106.84912,"station_name":"Manggarai","distance":3186,"transit":true,"is_transit":true,"line":2,"station_id":"MRI","i_lat":-6.209883},{"transit":false,"time":4,"i_lat":-6.198556,"station_id":"CKI","is_transit":false,"station_name":"Cikini","line":2,"distance":1590,"i_long":106.840169},{"i_long":106.832183,"transit":false,"distance":1750,"i_lat":-6.186295,"station_id":"GDD","is_transit":false,"time":3,"station_name":"Gondangdia","line":2},{"line":2,"distance":2015,"time":4,"i_long":106.828284,"station_id":"JUA","is_transit":false,"transit":false,"station_name":"Juanda","i_lat":-6.166716},{"time":2,"i_lat":-6.160725,"transit":false,"station_id":"SW","line":2,"station_name":"Sawah Besar","is_transit":false,"distance":1149,"i_long":106.827103},{"transit":false,"time":2,"i_lat":-6.149769,"is_transit":false,"line":2,"station_id":"MGB","station_name":"Manggabesar","i_long":106.82482,"distance":906},{"line":2,"transit":false,"i_lat":-6.141205,"i_long":106.820901,"station_id":"JAY","is_transit":false,"time":2,"station_name":"Jayakarta","distance":1080},{"line":2,"i_long":106.812439,"distance":1264,"is_transit":true,"transit":true,"time":4,"station_name":"Jakarta Kota","station_id":"JAKK","i_lat":-6.137569},{"time":3,"transit":true,"station_name":"Kampung Bandan","station_id":"KPB","distance":1364,"line":4,"i_long":106.826365,"i_lat":-6.132549,"is_transit":true},{"is_transit":false,"i_lat":-6.14505,"time":3,"station_name":"Rajawali","distance":1444,"transit":false,"i_long":106.836569,"station_id":"RJW","line":11},{"i_lat":-6.161728,"station_id":"KMO","transit":false,"station_name":"Kemayoran","distance":1901,"i_long":106.839204,"line":11,"is_transit":false,"time":5},{"distance":1436,"is_transit":false,"line":11,"station_id":"PSE","transit":false,"i_lat":-6.174784,"i_long":106.84368,"time":4,"station_name":"Pasar Senen"},{"is_transit":false,"line":11,"station_id":"GST","time":8,"station_name":"Gang Sentiong","distance":1567,"i_long":106.850107,"transit":false,"i_lat":-6.185975},{"i_long":106.855437,"station_id":"KMT","distance":973,"station_name":"Kramat","is_transit":false,"time":1,"i_lat":-6.193792,"line":11,"transit":false}]]}