{"data":[[{"is_transit":false,"i_lat":-6.328533,"i_long":106.425991,"station_id":"TGS","transit":false,"station_name":"Tigaraksa","time":0,"line":6,"distance":0},{"station_id":"TEJ","is_transit":false,"i_lat":-6.327251,"i_long":106.460812,"station_name":"Tenjo","line":6,"transit":false,"time":5,"distance":2974},{"time":5,"i_lat":-6.338021,"distance":3902,"i_long":106.491338,"station_id":"DAR","transit":false,"line":0,"station_name":"Daru","is_transit":false},{"i_lat":-6.354349,"distance":2675,"is_transit":false,"station_id":"CJT","station_name":"Cilejit","transit":false,"i_long":106.508482,"line":0,"time":6},{"i_lat":-6.3441410000000005,"i_long":106.568863,"station_id":"PRP","line":6,"station_name":"Parung Panjang","transit":false,"is_transit":false,"time":9,"distance":7025},{"transit":false,"is_transit":false,"station_name":"Cicayur","time":8,"i_lat":-6.329547,"i_long":106.617853,"distance":5968,"line":0,"station_id":"CC"},{"i_long":106.640411,"is_transit":false,"i_lat":-6.32484,"station_name":"Cisauk","time":4,"distance":2519,"station_id":"CSK","transit":false,"line":0},{"station_name":"Serpong","distance":1784,"i_lat":-6.319871,"line":6,"time":4,"is_transit":false,"i_long":106.66566,"station_id":"SRP","transit":false},{"i_long":106.675475,"distance":2413,"is_transit":false,"transit":false,"line":6,"i_lat":-6.314823,"station_name":"Rawa Buntu","time":4,"station_id":"RU"},{"transit":false,"time":6,"i_long":106.712277,"line":6,"is_transit":false,"distance":4566,"station_id":"SDM","station_name":"Sudimara","i_lat":-6.296963},{"line":6,"i_lat":-6.288927,"distance":1994,"station_name":"Jurangmangu","station_id":"JMU","time":4,"is_transit":false,"i_long":106.728916,"transit":false},{"station_id":"PDJ","transit":false,"time":3,"i_long":106.74273,"is_transit":false,"i_lat":-6.276362,"distance":2179,"station_name":"Pondokranji","line":6},{"station_id":"KBY","transit":false,"i_lat":-6.237242,"is_transit":false,"time":8,"station_name":"Kebayoran","distance":6218,"line":6,"i_long":106.780334},{"distance":3737,"i_long":106.79689,"line":6,"transit":false,"station_id":"PLM","i_lat":-6.207404,"is_transit":false,"station_name":"Palmerah","time":7}]]}