{"data":[[{"is_transit":false,"station_id":"TGS","transit":false,"i_lat":-6.328533,"i_long":106.425991,"line":6,"station_name":"Tigaraksa","time":0,"distance":0},{"i_long":106.460812,"station_id":"TEJ","is_transit":false,"time":5,"transit":false,"i_lat":-6.327251,"distance":2974,"station_name":"Tenjo","line":6},{"i_long":106.491338,"time":5,"i_lat":-6.338021,"line":0,"station_id":"DAR","station_name":"Daru","is_transit":false,"distance":3902,"transit":false},{"i_long":106.508482,"transit":false,"is_transit":false,"station_name":"Cilejit","i_lat":-6.354349,"line":3,"station_id":"CJT","distance":2675,"time":6},{"is_transit":false,"time":9,"line":6,"station_id":"PRP","i_lat":-6.3441410000000005,"i_long":106.568863,"transit":false,"station_name":"Parung Panjang","distance":7025},{"time":8,"is_transit":false,"i_lat":-6.329547,"line":3,"transit":false,"station_id":"CC","distance":5968,"i_long":106.617853,"station_name":"Cicayur"},{"i_long":106.640411,"transit":false,"i_lat":-6.32484,"line":3,"is_transit":false,"station_id":"CSK","time":4,"distance":2519,"station_name":"Cisauk"},{"is_transit":false,"time":4,"transit":false,"i_lat":-6.319871,"station_name":"Serpong","distance":1784,"line":6,"i_long":106.66566,"station_id":"SRP"},{"line":6,"station_name":"Rawa Buntu","station_id":"RU","is_transit":false,"i_lat":-6.314823,"distance":2413,"time":4,"i_long":106.675475,"transit":false},{"distance":4566,"transit":false,"time":6,"i_long":106.712277,"is_transit":false,"line":6,"station_id":"SDM","station_name":"Sudimara","i_lat":-6.296963},{"line":6,"station_id":"JMU","distance":1994,"is_transit":false,"station_name":"Jurangmangu","i_lat":-6.288927,"i_long":106.728916,"time":4,"transit":false},{"transit":false,"station_id":"PDJ","station_name":"Pondokranji","time":3,"i_long":106.74273,"line":6,"i_lat":-6.276362,"distance":2179,"is_transit":false},{"is_transit":false,"transit":false,"station_name":"Kebayoran","time":8,"i_long":106.780334,"line":6,"distance":6218,"i_lat":-6.237242,"station_id":"KBY"},{"station_id":"PLM","transit":false,"line":6,"i_long":106.79689,"time":7,"i_lat":-6.207404,"is_transit":false,"station_name":"Palmerah","distance":3737}]]}