{"data":[[{"i_lat":-6.328533,"distance":0,"transit":false,"i_long":106.425991,"line":6,"is_transit":false,"time":0,"station_id":"TGS","station_name":"Tigaraksa"},{"time":5,"transit":false,"line":6,"distance":2974,"i_long":106.460812,"i_lat":-6.327251,"station_name":"Tenjo","station_id":"TEJ","is_transit":false},{"i_lat":-6.338021,"transit":false,"is_transit":false,"station_id":"DAR","station_name":"Daru","time":5,"i_long":106.491338,"line":0,"distance":3902},{"station_name":"Cilejit","line":0,"transit":false,"i_long":106.508482,"is_transit":false,"station_id":"CJT","time":6,"i_lat":-6.354349,"distance":2675},{"i_long":106.568863,"i_lat":-6.3441410000000005,"is_transit":false,"time":9,"distance":7025,"station_id":"PRP","transit":false,"station_name":"Parung Panjang","line":6},{"transit":false,"distance":5968,"i_long":106.617853,"is_transit":false,"line":0,"station_id":"CC","time":8,"i_lat":-6.329547,"station_name":"Cicayur"},{"station_name":"Cisauk","is_transit":false,"i_long":106.640411,"transit":false,"i_lat":-6.32484,"line":0,"station_id":"CSK","time":4,"distance":2519},{"transit":false,"station_id":"SRP","i_lat":-6.319871,"distance":1784,"station_name":"Serpong","time":4,"is_transit":false,"line":6,"i_long":106.66566},{"i_long":106.675475,"line":6,"i_lat":-6.314823,"station_name":"Rawa Buntu","transit":false,"distance":2413,"is_transit":false,"time":4,"station_id":"RU"},{"time":6,"station_id":"SDM","distance":4566,"station_name":"Sudimara","is_transit":false,"transit":false,"i_lat":-6.296963,"i_long":106.712277,"line":6},{"distance":1994,"line":6,"transit":false,"is_transit":false,"station_name":"Jurangmangu","i_lat":-6.288927,"time":4,"station_id":"JMU","i_long":106.728916},{"transit":false,"distance":2179,"i_lat":-6.276362,"line":6,"station_id":"PDJ","time":3,"i_long":106.74273,"is_transit":false,"station_name":"Pondokranji"},{"distance":6218,"station_name":"Kebayoran","station_id":"KBY","line":6,"i_lat":-6.237242,"is_transit":false,"transit":false,"i_long":106.780334,"time":8},{"station_id":"PLM","is_transit":false,"time":7,"line":6,"transit":false,"i_long":106.79689,"i_lat":-6.207404,"distance":3737,"station_name":"Palmerah"},{"i_long":106.811091,"transit":true,"station_name":"Tanah Abang","station_id":"THB","is_transit":true,"i_lat":-6.185545,"time":6,"line":1,"distance":3191},{"distance":3632,"transit":true,"i_long":106.800832,"station_id":"DU","i_lat":-6.155215,"is_transit":true,"time":8,"line":1,"station_name":"Duri"},{"is_transit":false,"transit":false,"time":4,"distance":1230,"station_name":"Angke","i_long":106.79867,"i_lat":-6.144674,"station_id":"AK","line":0},{"station_name":"Kampung Bandan","is_transit":true,"i_lat":-6.132549,"station_id":"KPB","time":9,"i_long":106.826365,"transit":false,"line":0,"distance":4102},{"i_long":106.84464,"distance":2185,"transit":false,"station_id":"AC","line":0,"is_transit":false,"time":4,"station_name":"Ancol","i_lat":-6.128023},{"line":4,"transit":false,"distance":4566,"station_id":"TPK","time":9,"station_name":"Tanjung Priuk","is_transit":false,"i_lat":-6.1109480000000005,"i_long":106.880089}],[{"station_name":"Tigaraksa","time":0,"line":6,"is_transit":false,"distance":0,"i_long":106.425991,"i_lat":-6.328533,"station_id":"TGS","transit":false},{"time":5,"station_id":"TEJ","transit":false,"i_lat":-6.327251,"i_long":106.460812,"distance":2974,"line":6,"is_transit":false,"station_name":"Tenjo"},{"is_transit":false,"i_long":106.491338,"distance":3902,"line":0,"i_lat":-6.338021,"time":5,"transit":false,"station_id":"DAR","station_name":"Daru"},{"i_lat":-6.354349,"line":0,"transit":false,"is_transit":false,"distance":2675,"i_long":106.508482,"station_name":"Cilejit","time":6,"station_id":"CJT"},{"is_transit":false,"distance":7025,"time":9,"station_id":"PRP","transit":false,"station_name":"Parung Panjang","i_lat":-6.3441410000000005,"i_long":106.568863,"line":6},{"i_long":106.617853,"line":0,"time":8,"station_id":"CC","transit":false,"distance":5968,"is_transit":false,"station_name":"Cicayur","i_lat":-6.329547},{"i_lat":-6.32484,"distance":2519,"station_id":"CSK","time":4,"transit":false,"i_long":106.640411,"is_transit":false,"station_name":"Cisauk","line":0},{"is_transit":false,"i_long":106.66566,"transit":false,"distance":1784,"station_name":"Serpong","line":6,"i_lat":-6.319871,"time":4,"station_id":"SRP"},{"transit":false,"i_long":106.675475,"is_transit":false,"station_id":"RU","station_name":"Rawa Buntu","time":4,"distance":2413,"i_lat":-6.314823,"line":6},{"transit":false,"distance":4566,"station_id":"SDM","i_lat":-6.296963,"line":6,"time":6,"i_long":106.712277,"station_name":"Sudimara","is_transit":false},{"i_lat":-6.288927,"distance":1994,"station_id":"JMU","transit":false,"station_name":"Jurangmangu","i_long":106.728916,"is_transit":false,"line":6,"time":4},{"i_long":106.74273,"is_transit":false,"station_name":"Pondokranji","time":3,"transit":false,"station_id":"PDJ","i_lat":-6.276362,"line":6,"distance":2179},{"station_name":"Kebayoran","is_transit":false,"i_lat":-6.237242,"line":6,"transit":false,"distance":6218,"i_long":106.780334,"time":8,"station_id":"KBY"},{"station_name":"Palmerah","transit":false,"distance":3737,"station_id":"PLM","is_transit":false,"i_lat":-6.207404,"time":7,"i_long":106.79689,"line":6},{"distance":3191,"i_lat":-6.185545,"i_long":106.811091,"station_id":"THB","is_transit":true,"line":1,"station_name":"Tanah Abang","transit":true,"time":6},{"station_id":"KAT","i_lat":-6.20132,"line":1,"time":5,"is_transit":false,"i_long":106.816351,"transit":false,"station_name":"Karet","distance":2029},{"i_long":106.819881,"is_transit":false,"time":1,"transit":false,"station_id":"SUDB","i_lat":-6.201433,"distance":471,"line":1,"station_name":"Sudirman Baru"},{"is_transit":false,"i_long":106.822649,"time":1,"i_lat":-6.202263,"line":1,"station_name":"Sudirman","distance":280,"station_id":"SUD","transit":false},{"distance":3186,"line":0,"transit":true,"i_long":106.84912,"time":4,"is_transit":true,"station_id":"MRI","i_lat":-6.209883,"station_name":"Manggarai"},{"station_name":"Cikini","i_lat":-6.198556,"is_transit":false,"station_id":"CKI","i_long":106.840169,"time":4,"distance":1590,"line":0,"transit":false},{"line":2,"transit":false,"time":3,"station_id":"GDD","station_name":"Gondangdia","i_long":106.832183,"i_lat":-6.186295,"is_transit":false,"distance":1750},{"is_transit":false,"line":2,"station_name":"Juanda","i_long":106.828284,"distance":2015,"transit":false,"i_lat":-6.166716,"station_id":"JUA","time":4},{"transit":false,"i_long":106.827103,"station_name":"Sawah Besar","i_lat":-6.160725,"is_transit":false,"station_id":"SW","time":2,"distance":1149,"line":2},{"line":2,"distance":906,"station_name":"Manggabesar","transit":false,"station_id":"MGB","i_lat":-6.149769,"time":2,"i_long":106.82482,"is_transit":false},{"station_id":"JAY","distance":1080,"transit":false,"i_long":106.820901,"station_name":"Jayakarta","i_lat":-6.141205,"line":7,"is_transit":false,"time":2},{"transit":true,"i_lat":-6.137569,"line":0,"is_transit":true,"station_id":"JAKK","distance":1264,"station_name":"Jakarta Kota","i_long":106.812439,"time":4},{"i_lat":-6.132549,"i_long":106.826365,"distance":1364,"station_id":"KPB","station_name":"Kampung Bandan","is_transit":true,"line":0,"transit":false,"time":3},{"i_lat":-6.128023,"line":0,"station_id":"AC","time":4,"distance":2185,"is_transit":false,"transit":false,"station_name":"Ancol","i_long":106.84464},{"i_long":106.880089,"line":4,"is_transit":false,"station_id":"TPK","transit":false,"i_lat":-6.1109480000000005,"distance":4566,"station_name":"Tanjung Priuk","time":9}],[{"station_id":"TGS","transit":false,"i_long":106.425991,"is_transit":false,"i_lat":-6.328533,"station_name":"Tigaraksa","line":6,"time":0,"distance":0},{"line":6,"is_transit":false,"i_lat":-6.327251,"time":5,"distance":2974,"station_id":"TEJ","transit":false,"i_long":106.460812,"station_name":"Tenjo"},{"line":0,"is_transit":false,"transit":false,"i_long":106.491338,"station_name":"Daru","distance":3902,"station_id":"DAR","time":5,"i_lat":-6.338021},{"line":0,"station_id":"CJT","distance":2675,"is_transit":false,"time":6,"i_lat":-6.354349,"station_name":"Cilejit","transit":false,"i_long":106.508482},{"station_name":"Parung Panjang","i_long":106.568863,"is_transit":false,"transit":false,"i_lat":-6.3441410000000005,"time":9,"distance":7025,"station_id":"PRP","line":6},{"station_name":"Cicayur","transit":false,"is_transit":false,"i_lat":-6.329547,"i_long":106.617853,"time":8,"line":0,"distance":5968,"station_id":"CC"},{"i_lat":-6.32484,"i_long":106.640411,"transit":false,"distance":2519,"station_id":"CSK","line":0,"is_transit":false,"station_name":"Cisauk","time":4},{"station_name":"Serpong","time":4,"transit":false,"i_lat":-6.319871,"is_transit":false,"station_id":"SRP","i_long":106.66566,"distance":1784,"line":6},{"station_name":"Rawa Buntu","i_long":106.675475,"station_id":"RU","is_transit":false,"time":4,"line":6,"transit":false,"distance":2413,"i_lat":-6.314823},{"station_id":"SDM","is_transit":false,"distance":4566,"line":6,"i_long":106.712277,"time":6,"transit":false,"station_name":"Sudimara","i_lat":-6.296963},{"distance":1994,"is_transit":false,"i_lat":-6.288927,"station_name":"Jurangmangu","transit":false,"time":4,"i_long":106.728916,"line":6,"station_id":"JMU"},{"station_name":"Pondokranji","is_transit":false,"line":6,"distance":2179,"i_lat":-6.276362,"station_id":"PDJ","transit":false,"time":3,"i_long":106.74273},{"line":6,"i_lat":-6.237242,"station_id":"KBY","station_name":"Kebayoran","transit":false,"is_transit":false,"time":8,"distance":6218,"i_long":106.780334},{"is_transit":false,"time":7,"station_id":"PLM","transit":false,"i_long":106.79689,"distance":3737,"line":6,"station_name":"Palmerah","i_lat":-6.207404},{"line":1,"transit":true,"station_name":"Tanah Abang","is_transit":true,"time":6,"distance":3191,"i_lat":-6.185545,"i_long":106.811091,"station_id":"THB"},{"station_name":"Karet","transit":false,"line":1,"distance":2029,"i_lat":-6.20132,"is_transit":false,"time":5,"i_long":106.816351,"station_id":"KAT"},{"station_name":"Sudirman Baru","i_lat":-6.201433,"station_id":"SUDB","time":1,"i_long":106.819881,"is_transit":false,"line":1,"transit":false,"distance":471},{"transit":false,"i_lat":-6.202263,"time":1,"is_transit":false,"line":1,"distance":280,"station_id":"SUD","station_name":"Sudirman","i_long":106.822649},{"station_name":"Manggarai","distance":3186,"i_long":106.84912,"station_id":"MRI","line":0,"is_transit":true,"transit":false,"i_lat":-6.209883,"time":4},{"is_transit":false,"distance":1275,"station_name":"Matraman","time":2,"line":1,"station_id":"MTR","i_lat":-6.212485,"transit":false,"i_long":106.858896},{"transit":true,"station_name":"Jatinegara","time":8,"i_long":106.86807400000001,"distance":1377,"station_id":"JNG","is_transit":true,"i_lat":-6.215091,"line":0},{"is_transit":false,"transit":false,"station_name":"Pondok Jati","i_long":106.861737,"i_lat":-6.209188,"distance":1236,"station_id":"POK","time":2,"line":11},{"time":2,"i_lat":-6.193792,"distance":1829,"i_long":106.855437,"station_id":"KMT","transit":false,"is_transit":false,"station_name":"Kramat","line":11},{"line":11,"is_transit":false,"i_long":106.850107,"station_id":"GST","time":1,"station_name":"Gang Sentiong","distance":973,"transit":false,"i_lat":-6.185975},{"i_lat":-6.174784,"station_id":"PSE","distance":1567,"i_long":106.84368,"station_name":"Pasar Senen","line":11,"transit":false,"is_transit":false,"time":8},{"distance":1436,"station_name":"Kemayoran","i_long":106.839204,"i_lat":-6.161728,"is_transit":false,"transit":false,"station_id":"KMO","line":11,"time":4},{"station_name":"Rajawali","i_lat":-6.14505,"transit":false,"is_transit":false,"distance":1901,"station_id":"RJW","line":11,"time":5,"i_long":106.836569},{"time":3,"station_name":"Kampung Bandan","i_lat":-6.132549,"line":0,"distance":1444,"station_id":"KPB","i_long":106.826365,"is_transit":true,"transit":true},{"time":4,"is_transit":false,"transit":false,"station_id":"AC","distance":2185,"line":0,"i_long":106.84464,"station_name":"Ancol","i_lat":-6.128023},{"transit":false,"station_name":"Tanjung Priuk","station_id":"TPK","time":9,"i_lat":-6.1109480000000005,"is_transit":false,"i_long":106.880089,"line":4,"distance":4566}]]}