{"data":[[{"distance":0,"transit":false,"is_transit":false,"line":6,"station_id":"TGS","i_lat":-6.328533,"i_long":106.425991,"time":0,"station_name":"Tigaraksa"},{"time":5,"line":6,"station_id":"TEJ","station_name":"Tenjo","is_transit":false,"transit":false,"distance":2974,"i_lat":-6.327251,"i_long":106.460812},{"is_transit":false,"time":5,"i_lat":-6.338021,"distance":3902,"i_long":106.491338,"line":0,"station_id":"DAR","transit":false,"station_name":"Daru"},{"distance":2675,"is_transit":false,"time":6,"i_long":106.508482,"line":3,"i_lat":-6.354349,"station_id":"CJT","transit":false,"station_name":"Cilejit"},{"is_transit":false,"time":9,"station_name":"Parung Panjang","transit":false,"station_id":"PRP","i_long":106.568863,"distance":7025,"line":6,"i_lat":-6.3441410000000005},{"time":8,"line":3,"distance":5968,"i_long":106.617853,"station_id":"CC","station_name":"Cicayur","is_transit":false,"i_lat":-6.329547,"transit":false},{"i_long":106.640411,"time":4,"is_transit":false,"line":3,"distance":2519,"station_name":"Cisauk","transit":false,"station_id":"CSK","i_lat":-6.32484},{"station_name":"Serpong","i_lat":-6.319871,"station_id":"SRP","time":4,"is_transit":false,"line":6,"i_long":106.66566,"distance":1784,"transit":false},{"time":4,"i_long":106.675475,"distance":2413,"station_id":"RU","is_transit":false,"transit":false,"station_name":"Rawa Buntu","i_lat":-6.314823,"line":6},{"i_long":106.712277,"i_lat":-6.296963,"is_transit":false,"station_name":"Sudimara","distance":4566,"station_id":"SDM","time":6,"transit":false,"line":6},{"i_long":106.728916,"time":4,"transit":false,"is_transit":false,"i_lat":-6.288927,"station_id":"JMU","line":6,"station_name":"Jurangmangu","distance":1994},{"is_transit":false,"i_lat":-6.276362,"distance":2179,"time":3,"transit":false,"station_id":"PDJ","line":6,"station_name":"Pondokranji","i_long":106.74273},{"station_id":"KBY","i_lat":-6.237242,"transit":false,"is_transit":false,"line":6,"distance":6218,"station_name":"Kebayoran","i_long":106.780334,"time":8},{"station_name":"Palmerah","i_long":106.79689,"line":6,"is_transit":false,"distance":3737,"station_id":"PLM","transit":false,"time":7,"i_lat":-6.207404},{"distance":3191,"station_id":"THB","is_transit":true,"i_long":106.811091,"i_lat":-6.185545,"transit":true,"line":1,"station_name":"Tanah Abang","time":6},{"i_long":106.800832,"station_id":"DU","is_transit":true,"transit":true,"station_name":"Duri","line":1,"time":8,"i_lat":-6.155215,"distance":3632},{"distance":1700,"is_transit":false,"i_lat":-6.162021,"transit":false,"station_id":"GGL","station_name":"Grogol","i_long":106.788277,"time":3,"line":5},{"i_long":106.771379,"station_id":"PSG","transit":false,"line":5,"is_transit":false,"distance":2036,"i_lat":-6.161433,"station_name":"Pesing","time":2},{"is_transit":false,"line":5,"transit":false,"station_id":"TKO","i_lat":-6.1587309999999995,"i_long":106.756522,"time":2,"distance":1614,"station_name":"Taman Kota"},{"transit":false,"i_lat":-6.159876,"time":2,"station_name":"Bojongindah","distance":2334,"i_long":106.737035,"line":5,"is_transit":false,"station_id":"BOI"},{"station_name":"Rawa Buaya","is_transit":false,"station_id":"RW","i_long":106.723064,"time":4,"distance":1152,"line":5,"transit":false,"i_lat":-6.162758},{"station_name":"Kalideres","transit":false,"distance":2504,"is_transit":false,"line":5,"station_id":"KDS","i_lat":-6.166068,"time":3,"i_long":106.701612},{"time":3,"transit":false,"i_long":106.679458,"i_lat":-6.169933,"station_name":"Poris","line":5,"is_transit":false,"distance":2548,"station_id":"PI"},{"station_name":"Batuceper","line":5,"time":3,"i_long":106.665036,"is_transit":false,"i_lat":-6.171811,"station_id":"BPR","transit":false,"distance":1834},{"line":5,"i_long":106.64657,"station_name":"Tanah Tinggi","time":3,"transit":false,"is_transit":false,"station_id":"TTI","i_lat":-6.17331,"distance":2028}],[{"i_lat":-6.328533,"is_transit":false,"distance":0,"time":0,"transit":false,"station_name":"Tigaraksa","i_long":106.425991,"line":6,"station_id":"TGS"},{"station_name":"Tenjo","distance":2974,"station_id":"TEJ","i_lat":-6.327251,"transit":false,"time":5,"is_transit":false,"i_long":106.460812,"line":6},{"station_name":"Daru","station_id":"DAR","time":5,"i_lat":-6.338021,"transit":false,"i_long":106.491338,"line":0,"distance":3902,"is_transit":false},{"i_long":106.508482,"time":6,"station_id":"CJT","i_lat":-6.354349,"transit":false,"is_transit":false,"station_name":"Cilejit","distance":2675,"line":3},{"station_id":"PRP","is_transit":false,"line":6,"transit":false,"i_long":106.568863,"time":9,"i_lat":-6.3441410000000005,"station_name":"Parung Panjang","distance":7025},{"transit":false,"i_lat":-6.329547,"station_id":"CC","line":3,"is_transit":false,"i_long":106.617853,"station_name":"Cicayur","distance":5968,"time":8},{"station_name":"Cisauk","i_long":106.640411,"time":4,"station_id":"CSK","transit":false,"line":3,"is_transit":false,"i_lat":-6.32484,"distance":2519},{"station_id":"SRP","is_transit":false,"i_lat":-6.319871,"station_name":"Serpong","transit":false,"line":6,"i_long":106.66566,"distance":1784,"time":4},{"is_transit":false,"station_name":"Rawa Buntu","station_id":"RU","i_lat":-6.314823,"transit":false,"time":4,"i_long":106.675475,"line":6,"distance":2413},{"distance":4566,"line":6,"i_long":106.712277,"time":6,"station_name":"Sudimara","is_transit":false,"transit":false,"i_lat":-6.296963,"station_id":"SDM"},{"station_name":"Jurangmangu","transit":false,"i_long":106.728916,"time":4,"station_id":"JMU","is_transit":false,"distance":1994,"line":6,"i_lat":-6.288927},{"i_lat":-6.276362,"line":6,"distance":2179,"i_long":106.74273,"time":3,"station_id":"PDJ","station_name":"Pondokranji","is_transit":false,"transit":false},{"time":8,"line":6,"distance":6218,"station_id":"KBY","i_lat":-6.237242,"is_transit":false,"transit":false,"i_long":106.780334,"station_name":"Kebayoran"},{"station_name":"Palmerah","time":7,"i_long":106.79689,"i_lat":-6.207404,"transit":false,"station_id":"PLM","is_transit":false,"line":6,"distance":3737},{"i_long":106.811091,"time":6,"transit":true,"station_id":"THB","i_lat":-6.185545,"line":1,"distance":3191,"is_transit":true,"station_name":"Tanah Abang"},{"station_name":"Karet","distance":2029,"is_transit":false,"time":5,"transit":false,"station_id":"KAT","i_lat":-6.20132,"i_long":106.816351,"line":1},{"station_name":"Sudirman Baru","i_lat":-6.201433,"station_id":"SUDB","i_long":106.819881,"transit":false,"line":1,"distance":471,"time":1,"is_transit":false},{"time":1,"station_id":"SUD","i_long":106.822649,"line":1,"is_transit":false,"distance":280,"transit":false,"station_name":"Sudirman","i_lat":-6.202263},{"i_long":106.84912,"transit":true,"time":4,"is_transit":true,"line":2,"station_id":"MRI","station_name":"Manggarai","distance":3186,"i_lat":-6.209883},{"line":2,"distance":1590,"station_id":"CKI","time":4,"i_lat":-6.198556,"is_transit":false,"transit":false,"i_long":106.840169,"station_name":"Cikini"},{"time":3,"i_lat":-6.186295,"transit":false,"station_id":"GDD","station_name":"Gondangdia","is_transit":false,"distance":1750,"i_long":106.832183,"line":2},{"is_transit":false,"i_lat":-6.166716,"line":2,"distance":2015,"i_long":106.828284,"transit":false,"station_name":"Juanda","time":4,"station_id":"JUA"},{"transit":false,"station_name":"Sawah Besar","i_long":106.827103,"station_id":"SW","line":2,"is_transit":false,"i_lat":-6.160725,"time":2,"distance":1149},{"i_lat":-6.149769,"i_long":106.82482,"distance":906,"is_transit":false,"station_id":"MGB","time":2,"transit":false,"station_name":"Manggabesar","line":2},{"is_transit":false,"station_id":"JAY","time":2,"distance":1080,"i_lat":-6.141205,"station_name":"Jayakarta","i_long":106.820901,"transit":false,"line":2},{"is_transit":true,"distance":1264,"station_name":"Jakarta Kota","i_long":106.812439,"line":2,"transit":true,"i_lat":-6.137569,"station_id":"JAKK","time":4},{"transit":true,"time":3,"distance":1364,"station_id":"KPB","is_transit":true,"station_name":"Kampung Bandan","line":4,"i_long":106.826365,"i_lat":-6.132549},{"station_name":"Angke","i_lat":-6.144674,"i_long":106.79867,"line":1,"transit":false,"distance":4102,"time":9,"is_transit":false,"station_id":"AK"},{"distance":1230,"i_lat":-6.155215,"is_transit":true,"station_name":"Duri","station_id":"DU","line":1,"time":4,"transit":true,"i_long":106.800832},{"i_long":106.788277,"station_name":"Grogol","line":5,"distance":1700,"time":3,"station_id":"GGL","transit":false,"is_transit":false,"i_lat":-6.162021},{"time":2,"station_id":"PSG","station_name":"Pesing","i_long":106.771379,"line":5,"i_lat":-6.161433,"distance":2036,"is_transit":false,"transit":false},{"station_id":"TKO","station_name":"Taman Kota","distance":1614,"i_lat":-6.1587309999999995,"time":2,"transit":false,"is_transit":false,"i_long":106.756522,"line":5},{"is_transit":false,"i_long":106.737035,"transit":false,"distance":2334,"time":2,"station_id":"BOI","station_name":"Bojongindah","i_lat":-6.159876,"line":5},{"distance":1152,"is_transit":false,"line":5,"station_name":"Rawa Buaya","station_id":"RW","transit":false,"i_lat":-6.162758,"time":4,"i_long":106.723064},{"i_long":106.701612,"station_id":"KDS","i_lat":-6.166068,"time":3,"distance":2504,"line":5,"station_name":"Kalideres","transit":false,"is_transit":false},{"i_lat":-6.169933,"transit":false,"line":5,"is_transit":false,"station_id":"PI","distance":2548,"station_name":"Poris","i_long":106.679458,"time":3},{"i_long":106.665036,"station_name":"Batuceper","station_id":"BPR","i_lat":-6.171811,"transit":false,"distance":1834,"is_transit":false,"line":5,"time":3},{"transit":false,"line":5,"i_lat":-6.17331,"i_long":106.64657,"station_id":"TTI","station_name":"Tanah Tinggi","distance":2028,"is_transit":false,"time":3}],[{"transit":false,"station_name":"Tigaraksa","station_id":"TGS","distance":0,"i_long":106.425991,"line":6,"time":0,"is_transit":false,"i_lat":-6.328533},{"distance":2974,"station_id":"TEJ","i_long":106.460812,"line":6,"i_lat":-6.327251,"time":5,"is_transit":false,"station_name":"Tenjo","transit":false},{"distance":3902,"is_transit":false,"station_name":"Daru","line":0,"i_lat":-6.338021,"time":5,"transit":false,"station_id":"DAR","i_long":106.491338},{"i_long":106.508482,"station_id":"CJT","is_transit":false,"transit":false,"i_lat":-6.354349,"distance":2675,"line":3,"time":6,"station_name":"Cilejit"},{"transit":false,"i_lat":-6.3441410000000005,"i_long":106.568863,"time":9,"station_id":"PRP","station_name":"Parung Panjang","line":6,"distance":7025,"is_transit":false},{"time":8,"station_id":"CC","line":3,"distance":5968,"transit":false,"i_long":106.617853,"is_transit":false,"station_name":"Cicayur","i_lat":-6.329547},{"station_name":"Cisauk","distance":2519,"time":4,"i_long":106.640411,"transit":false,"is_transit":false,"line":3,"station_id":"CSK","i_lat":-6.32484},{"transit":false,"station_name":"Serpong","line":6,"i_long":106.66566,"distance":1784,"i_lat":-6.319871,"station_id":"SRP","time":4,"is_transit":false},{"station_id":"RU","transit":false,"is_transit":false,"distance":2413,"i_long":106.675475,"line":6,"i_lat":-6.314823,"time":4,"station_name":"Rawa Buntu"},{"i_long":106.712277,"is_transit":false,"i_lat":-6.296963,"station_id":"SDM","line":6,"time":6,"station_name":"Sudimara","transit":false,"distance":4566},{"line":6,"distance":1994,"station_name":"Jurangmangu","is_transit":false,"i_lat":-6.288927,"time":4,"transit":false,"station_id":"JMU","i_long":106.728916},{"distance":2179,"is_transit":false,"station_id":"PDJ","line":6,"transit":false,"i_lat":-6.276362,"time":3,"station_name":"Pondokranji","i_long":106.74273},{"i_lat":-6.237242,"is_transit":false,"station_id":"KBY","time":8,"i_long":106.780334,"line":6,"distance":6218,"transit":false,"station_name":"Kebayoran"},{"transit":false,"line":6,"station_id":"PLM","i_lat":-6.207404,"time":7,"station_name":"Palmerah","is_transit":false,"distance":3737,"i_long":106.79689},{"station_id":"THB","line":1,"time":6,"i_long":106.811091,"i_lat":-6.185545,"distance":3191,"station_name":"Tanah Abang","transit":true,"is_transit":true},{"i_lat":-6.20132,"time":5,"transit":false,"is_transit":false,"station_id":"KAT","line":1,"distance":2029,"station_name":"Karet","i_long":106.816351},{"i_long":106.819881,"distance":471,"station_name":"Sudirman Baru","time":1,"station_id":"SUDB","transit":false,"is_transit":false,"line":1,"i_lat":-6.201433},{"distance":280,"station_name":"Sudirman","i_lat":-6.202263,"time":1,"transit":false,"is_transit":false,"i_long":106.822649,"line":1,"station_id":"SUD"},{"station_id":"MRI","is_transit":false,"station_name":"Manggarai","time":4,"i_lat":-6.209883,"transit":false,"i_long":106.84912,"line":2,"distance":3186},{"i_lat":-6.212485,"station_name":"Matraman","is_transit":false,"distance":1275,"time":2,"station_id":"MTR","line":1,"transit":false,"i_long":106.858896},{"is_transit":true,"station_name":"Jatinegara","line":1,"station_id":"JNG","transit":true,"i_long":106.86807400000001,"i_lat":-6.215091,"distance":1377,"time":8},{"transit":false,"is_transit":false,"station_id":"POK","i_lat":-6.209188,"i_long":106.861737,"time":2,"station_name":"Pondok Jati","distance":1236,"line":11},{"station_id":"KMT","i_long":106.855437,"distance":1829,"line":11,"time":2,"transit":false,"is_transit":false,"i_lat":-6.193792,"station_name":"Kramat"},{"time":1,"station_name":"Gang Sentiong","station_id":"GST","line":11,"is_transit":false,"i_long":106.850107,"distance":973,"i_lat":-6.185975,"transit":false},{"time":8,"distance":1567,"line":11,"station_id":"PSE","transit":false,"station_name":"Pasar Senen","i_lat":-6.174784,"is_transit":false,"i_long":106.84368},{"transit":false,"i_long":106.839204,"distance":1436,"station_name":"Kemayoran","station_id":"KMO","i_lat":-6.161728,"time":4,"line":11,"is_transit":false},{"time":5,"i_long":106.836569,"station_id":"RJW","station_name":"Rajawali","i_lat":-6.14505,"line":11,"is_transit":false,"transit":false,"distance":1901},{"station_id":"KPB","distance":1444,"station_name":"Kampung Bandan","i_long":106.826365,"time":3,"transit":true,"i_lat":-6.132549,"line":4,"is_transit":true},{"i_lat":-6.144674,"is_transit":false,"line":1,"station_name":"Angke","time":9,"station_id":"AK","i_long":106.79867,"distance":4102,"transit":false},{"station_name":"Duri","i_lat":-6.155215,"i_long":106.800832,"distance":1230,"time":4,"line":1,"transit":true,"station_id":"DU","is_transit":true},{"time":3,"i_lat":-6.162021,"transit":false,"i_long":106.788277,"station_name":"Grogol","line":5,"is_transit":false,"station_id":"GGL","distance":1700},{"time":2,"i_lat":-6.161433,"i_long":106.771379,"transit":false,"distance":2036,"is_transit":false,"station_id":"PSG","line":5,"station_name":"Pesing"},{"station_name":"Taman Kota","i_long":106.756522,"distance":1614,"time":2,"transit":false,"line":5,"i_lat":-6.1587309999999995,"station_id":"TKO","is_transit":false},{"time":2,"station_id":"BOI","distance":2334,"i_lat":-6.159876,"i_long":106.737035,"station_name":"Bojongindah","line":5,"transit":false,"is_transit":false},{"i_long":106.723064,"distance":1152,"time":4,"station_id":"RW","transit":false,"is_transit":false,"station_name":"Rawa Buaya","i_lat":-6.162758,"line":5},{"i_lat":-6.166068,"line":5,"transit":false,"is_transit":false,"i_long":106.701612,"time":3,"distance":2504,"station_id":"KDS","station_name":"Kalideres"},{"station_id":"PI","i_long":106.679458,"line":5,"transit":false,"time":3,"i_lat":-6.169933,"distance":2548,"is_transit":false,"station_name":"Poris"},{"station_id":"BPR","line":5,"time":3,"distance":1834,"transit":false,"is_transit":false,"station_name":"Batuceper","i_long":106.665036,"i_lat":-6.171811},{"time":3,"transit":false,"line":5,"i_lat":-6.17331,"i_long":106.64657,"distance":2028,"station_id":"TTI","is_transit":false,"station_name":"Tanah Tinggi"}]]}