{"data":[[{"line":6,"distance":0,"transit":false,"station_name":"Tigaraksa","i_lat":-6.328533,"i_long":106.425991,"is_transit":false,"station_id":"TGS","time":0},{"i_lat":-6.327251,"line":6,"distance":2974,"transit":false,"station_id":"TEJ","time":5,"is_transit":false,"station_name":"Tenjo","i_long":106.460812},{"distance":3902,"transit":false,"time":5,"line":0,"is_transit":false,"i_long":106.491338,"station_id":"DAR","station_name":"Daru","i_lat":-6.338021},{"i_long":106.508482,"station_id":"CJT","i_lat":-6.354349,"line":0,"station_name":"Cilejit","is_transit":false,"distance":2675,"transit":false,"time":6},{"distance":7025,"station_id":"PRP","i_long":106.568863,"line":6,"station_name":"Parung Panjang","time":9,"i_lat":-6.3441410000000005,"is_transit":false,"transit":false},{"line":0,"is_transit":false,"distance":5968,"transit":false,"station_id":"CC","station_name":"Cicayur","i_long":106.617853,"i_lat":-6.329547,"time":8},{"station_name":"Cisauk","distance":2519,"is_transit":false,"transit":false,"line":0,"i_long":106.640411,"station_id":"CSK","time":4,"i_lat":-6.32484},{"is_transit":false,"station_id":"SRP","i_long":106.66566,"line":6,"distance":1784,"station_name":"Serpong","transit":false,"i_lat":-6.319871,"time":4},{"is_transit":false,"time":4,"transit":false,"i_long":106.675475,"station_id":"RU","station_name":"Rawa Buntu","line":6,"distance":2413,"i_lat":-6.314823},{"time":6,"station_id":"SDM","i_lat":-6.296963,"transit":false,"line":6,"i_long":106.712277,"distance":4566,"station_name":"Sudimara","is_transit":false},{"station_name":"Jurangmangu","station_id":"JMU","transit":false,"line":6,"distance":1994,"i_lat":-6.288927,"is_transit":false,"time":4,"i_long":106.728916},{"transit":false,"station_id":"PDJ","line":6,"is_transit":false,"i_long":106.74273,"station_name":"Pondokranji","time":3,"i_lat":-6.276362,"distance":2179},{"time":8,"i_long":106.780334,"station_id":"KBY","station_name":"Kebayoran","i_lat":-6.237242,"line":6,"distance":6218,"is_transit":false,"transit":false},{"time":7,"distance":3737,"station_id":"PLM","line":6,"station_name":"Palmerah","is_transit":false,"transit":false,"i_long":106.79689,"i_lat":-6.207404},{"line":1,"station_id":"THB","is_transit":true,"i_long":106.811091,"distance":3191,"time":6,"station_name":"Tanah Abang","transit":true,"i_lat":-6.185545},{"station_id":"KAT","i_long":106.816351,"distance":2029,"line":1,"is_transit":false,"station_name":"Karet","transit":false,"i_lat":-6.20132,"time":5},{"is_transit":false,"i_long":106.819881,"line":1,"distance":471,"transit":false,"station_id":"SUDB","station_name":"Sudirman Baru","time":1,"i_lat":-6.201433},{"i_long":106.822649,"line":1,"station_name":"Sudirman","time":1,"distance":280,"station_id":"SUD","is_transit":false,"i_lat":-6.202263,"transit":false},{"time":4,"i_long":106.84912,"line":0,"station_name":"Manggarai","station_id":"MRI","distance":3186,"is_transit":true,"i_lat":-6.209883,"transit":true},{"i_lat":-6.226659,"station_id":"TEB","time":4,"distance":2610,"i_long":106.857948,"line":2,"is_transit":false,"station_name":"Tebet","transit":false},{"line":0,"is_transit":false,"distance":1230,"station_id":"CW","i_long":106.856607,"time":2,"i_lat":-6.242512,"station_name":"Cawang","transit":false},{"line":0,"i_long":106.85449,"distance":1546,"station_id":"DRN","station_name":"Duren Kalibata","i_lat":-6.255332,"time":3,"transit":false,"is_transit":false},{"station_id":"PSMB","transit":false,"time":2,"i_lat":-6.263214,"line":2,"i_long":106.851577,"distance":824,"is_transit":false,"station_name":"Pasar Minggu Baru"},{"is_transit":false,"station_id":"PSM","station_name":"Pasar Minggu","time":2,"i_long":106.843999,"transit":false,"i_lat":-6.2842400000000005,"distance":2380,"line":2},{"is_transit":false,"transit":false,"station_name":"Tanjung Barat","i_long":106.838896,"station_id":"TNT","distance":2820,"time":4,"i_lat":-6.3080680000000005,"line":2},{"distance":2671,"transit":false,"is_transit":false,"time":3,"i_lat":-6.330363,"station_name":"Lenteng Agung","line":2,"station_id":"LNA","i_long":106.832616},{"time":2,"is_transit":false,"station_id":"UP","station_name":"Univ. Pancasila","i_long":106.834175,"line":2,"distance":1029,"transit":false,"i_lat":-6.339291},{"i_lat":-6.360749,"time":3,"station_id":"UI","i_long":106.831474,"is_transit":false,"distance":2264,"station_name":"Univ. Indonesia","transit":false,"line":2},{"i_long":106.831114,"transit":false,"station_id":"POC","time":2,"line":2,"station_name":"Pondok Cina","i_lat":-6.369073,"is_transit":false,"distance":1109},{"i_lat":-6.391065,"station_name":"Depokbaru","distance":2727,"is_transit":false,"station_id":"DPB","transit":false,"line":0,"time":4,"i_long":106.819451},{"i_long":106.816926,"station_id":"DP","distance":1584,"time":3,"station_name":"Depok","is_transit":false,"i_lat":-6.405256,"transit":false,"line":0},{"transit":false,"station_name":"Citayam","time":6,"distance":5084,"is_transit":true,"station_id":"CTA","i_lat":-6.448811,"i_long":106.800298,"line":1},{"is_transit":false,"i_lat":-6.493243,"distance":5197,"station_id":"BJD","i_long":106.792719,"line":0,"transit":false,"station_name":"Bojonggede","time":5},{"line":0,"transit":false,"i_lat":-6.530544,"distance":4331,"station_id":"CLT","i_long":106.800016,"station_name":"Cilebut","is_transit":false,"time":5},{"i_lat":-6.594596,"station_name":"Bogor","time":9,"is_transit":true,"station_id":"BOO","transit":false,"distance":7514,"line":1,"i_long":106.790574}],[{"transit":false,"distance":0,"time":0,"station_id":"TGS","i_long":106.425991,"line":6,"station_name":"Tigaraksa","i_lat":-6.328533,"is_transit":false},{"time":5,"transit":false,"distance":2974,"station_id":"TEJ","i_lat":-6.327251,"i_long":106.460812,"is_transit":false,"station_name":"Tenjo","line":6},{"is_transit":false,"station_name":"Daru","i_long":106.491338,"distance":3902,"line":0,"transit":false,"time":5,"station_id":"DAR","i_lat":-6.338021},{"i_lat":-6.354349,"i_long":106.508482,"is_transit":false,"distance":2675,"time":6,"line":0,"transit":false,"station_id":"CJT","station_name":"Cilejit"},{"transit":false,"i_lat":-6.3441410000000005,"distance":7025,"is_transit":false,"station_id":"PRP","line":6,"i_long":106.568863,"time":9,"station_name":"Parung Panjang"},{"station_id":"CC","i_long":106.617853,"line":0,"transit":false,"distance":5968,"i_lat":-6.329547,"is_transit":false,"station_name":"Cicayur","time":8},{"is_transit":false,"station_name":"Cisauk","distance":2519,"time":4,"line":0,"station_id":"CSK","i_long":106.640411,"transit":false,"i_lat":-6.32484},{"i_lat":-6.319871,"i_long":106.66566,"station_id":"SRP","time":4,"is_transit":false,"line":6,"distance":1784,"station_name":"Serpong","transit":false},{"i_lat":-6.314823,"station_id":"RU","line":6,"time":4,"is_transit":false,"distance":2413,"transit":false,"i_long":106.675475,"station_name":"Rawa Buntu"},{"is_transit":false,"distance":4566,"line":6,"transit":false,"station_id":"SDM","station_name":"Sudimara","i_lat":-6.296963,"time":6,"i_long":106.712277},{"distance":1994,"is_transit":false,"transit":false,"line":6,"time":4,"i_long":106.728916,"i_lat":-6.288927,"station_name":"Jurangmangu","station_id":"JMU"},{"distance":2179,"is_transit":false,"station_name":"Pondokranji","line":6,"i_lat":-6.276362,"time":3,"station_id":"PDJ","i_long":106.74273,"transit":false},{"i_long":106.780334,"distance":6218,"station_id":"KBY","transit":false,"time":8,"station_name":"Kebayoran","is_transit":false,"i_lat":-6.237242,"line":6},{"line":6,"station_id":"PLM","distance":3737,"time":7,"station_name":"Palmerah","is_transit":false,"i_long":106.79689,"i_lat":-6.207404,"transit":false},{"i_lat":-6.185545,"i_long":106.811091,"time":6,"line":1,"station_name":"Tanah Abang","transit":true,"is_transit":true,"distance":3191,"station_id":"THB"},{"i_lat":-6.155215,"is_transit":true,"i_long":106.800832,"station_name":"Duri","time":8,"line":1,"distance":3632,"station_id":"DU","transit":true},{"station_name":"Angke","station_id":"AK","i_long":106.79867,"time":4,"line":0,"distance":1230,"transit":false,"i_lat":-6.144674,"is_transit":false},{"station_name":"Kampung Bandan","i_lat":-6.132549,"time":9,"is_transit":true,"station_id":"KPB","i_long":106.826365,"transit":false,"line":0,"distance":4102},{"time":3,"is_transit":true,"i_long":106.812439,"station_name":"Jakarta Kota","station_id":"JAKK","distance":1364,"line":0,"i_lat":-6.137569,"transit":true},{"i_lat":-6.141205,"distance":1264,"line":7,"i_long":106.820901,"station_name":"Jayakarta","transit":false,"station_id":"JAY","time":4,"is_transit":false},{"time":2,"distance":1080,"transit":false,"station_id":"MGB","i_long":106.82482,"is_transit":false,"line":2,"station_name":"Manggabesar","i_lat":-6.149769},{"i_lat":-6.160725,"is_transit":false,"transit":false,"time":2,"line":2,"distance":906,"station_id":"SW","station_name":"Sawah Besar","i_long":106.827103},{"is_transit":false,"station_id":"JUA","transit":false,"distance":1149,"time":2,"line":2,"i_long":106.828284,"station_name":"Juanda","i_lat":-6.166716},{"transit":false,"i_long":106.832183,"is_transit":false,"i_lat":-6.186295,"station_name":"Gondangdia","line":2,"station_id":"GDD","time":4,"distance":2015},{"distance":1750,"station_id":"CKI","i_long":106.840169,"station_name":"Cikini","is_transit":false,"line":0,"time":3,"transit":false,"i_lat":-6.198556},{"distance":1590,"i_long":106.84912,"station_name":"Manggarai","station_id":"MRI","transit":true,"is_transit":true,"time":4,"i_lat":-6.209883,"line":0},{"i_lat":-6.226659,"transit":false,"line":2,"time":4,"station_name":"Tebet","distance":2610,"is_transit":false,"i_long":106.857948,"station_id":"TEB"},{"is_transit":false,"station_name":"Cawang","time":2,"station_id":"CW","i_lat":-6.242512,"i_long":106.856607,"distance":1230,"transit":false,"line":0},{"transit":false,"distance":1546,"i_long":106.85449,"time":3,"station_id":"DRN","is_transit":false,"station_name":"Duren Kalibata","i_lat":-6.255332,"line":0},{"line":2,"i_long":106.851577,"station_id":"PSMB","time":2,"distance":824,"is_transit":false,"transit":false,"station_name":"Pasar Minggu Baru","i_lat":-6.263214},{"distance":2380,"i_long":106.843999,"i_lat":-6.2842400000000005,"line":2,"time":2,"is_transit":false,"station_id":"PSM","transit":false,"station_name":"Pasar Minggu"},{"transit":false,"station_id":"TNT","station_name":"Tanjung Barat","is_transit":false,"time":4,"i_lat":-6.3080680000000005,"i_long":106.838896,"distance":2820,"line":2},{"station_id":"LNA","time":3,"distance":2671,"station_name":"Lenteng Agung","i_long":106.832616,"line":2,"transit":false,"is_transit":false,"i_lat":-6.330363},{"line":2,"i_long":106.834175,"station_id":"UP","transit":false,"distance":1029,"time":2,"i_lat":-6.339291,"is_transit":false,"station_name":"Univ. Pancasila"},{"is_transit":false,"line":2,"i_lat":-6.360749,"time":3,"station_name":"Univ. Indonesia","i_long":106.831474,"transit":false,"station_id":"UI","distance":2264},{"station_id":"POC","time":2,"distance":1109,"transit":false,"station_name":"Pondok Cina","is_transit":false,"i_lat":-6.369073,"i_long":106.831114,"line":2},{"line":0,"transit":false,"i_long":106.819451,"i_lat":-6.391065,"distance":2727,"station_name":"Depokbaru","is_transit":false,"station_id":"DPB","time":4},{"station_id":"DP","line":0,"time":3,"i_long":106.816926,"is_transit":false,"i_lat":-6.405256,"distance":1584,"transit":false,"station_name":"Depok"},{"is_transit":true,"i_long":106.800298,"line":1,"station_id":"CTA","station_name":"Citayam","transit":false,"time":6,"i_lat":-6.448811,"distance":5084},{"line":0,"station_id":"BJD","i_lat":-6.493243,"transit":false,"i_long":106.792719,"station_name":"Bojonggede","time":5,"distance":5197,"is_transit":false},{"i_lat":-6.530544,"i_long":106.800016,"line":0,"time":5,"transit":false,"station_name":"Cilebut","is_transit":false,"station_id":"CLT","distance":4331},{"line":1,"is_transit":true,"station_id":"BOO","distance":7514,"transit":false,"i_lat":-6.594596,"i_long":106.790574,"station_name":"Bogor","time":9}],[{"station_id":"TGS","i_long":106.425991,"line":6,"distance":0,"transit":false,"time":0,"i_lat":-6.328533,"is_transit":false,"station_name":"Tigaraksa"},{"is_transit":false,"transit":false,"time":5,"station_name":"Tenjo","i_lat":-6.327251,"line":6,"station_id":"TEJ","i_long":106.460812,"distance":2974},{"is_transit":false,"transit":false,"i_lat":-6.338021,"station_name":"Daru","station_id":"DAR","i_long":106.491338,"line":0,"distance":3902,"time":5},{"i_long":106.508482,"is_transit":false,"station_id":"CJT","i_lat":-6.354349,"transit":false,"line":0,"distance":2675,"station_name":"Cilejit","time":6},{"is_transit":false,"transit":false,"i_lat":-6.3441410000000005,"distance":7025,"i_long":106.568863,"station_name":"Parung Panjang","line":6,"time":9,"station_id":"PRP"},{"is_transit":false,"i_lat":-6.329547,"time":8,"transit":false,"station_id":"CC","i_long":106.617853,"distance":5968,"line":0,"station_name":"Cicayur"},{"i_lat":-6.32484,"station_id":"CSK","is_transit":false,"i_long":106.640411,"station_name":"Cisauk","transit":false,"time":4,"line":0,"distance":2519},{"station_id":"SRP","i_long":106.66566,"is_transit":false,"time":4,"transit":false,"i_lat":-6.319871,"line":6,"station_name":"Serpong","distance":1784},{"time":4,"i_lat":-6.314823,"line":6,"distance":2413,"transit":false,"station_id":"RU","i_long":106.675475,"is_transit":false,"station_name":"Rawa Buntu"},{"line":6,"time":6,"transit":false,"station_id":"SDM","station_name":"Sudimara","distance":4566,"is_transit":false,"i_lat":-6.296963,"i_long":106.712277},{"time":4,"station_name":"Jurangmangu","i_lat":-6.288927,"transit":false,"i_long":106.728916,"line":6,"distance":1994,"is_transit":false,"station_id":"JMU"},{"station_name":"Pondokranji","distance":2179,"transit":false,"time":3,"is_transit":false,"i_long":106.74273,"i_lat":-6.276362,"station_id":"PDJ","line":6},{"i_long":106.780334,"line":6,"station_id":"KBY","station_name":"Kebayoran","distance":6218,"i_lat":-6.237242,"is_transit":false,"time":8,"transit":false},{"time":7,"transit":false,"i_lat":-6.207404,"line":6,"station_id":"PLM","i_long":106.79689,"is_transit":false,"station_name":"Palmerah","distance":3737},{"station_name":"Tanah Abang","transit":true,"is_transit":true,"i_lat":-6.185545,"station_id":"THB","line":1,"i_long":106.811091,"distance":3191,"time":6},{"is_transit":true,"station_name":"Duri","line":1,"distance":3632,"station_id":"DU","time":8,"transit":true,"i_lat":-6.155215,"i_long":106.800832},{"i_long":106.79867,"line":0,"distance":1230,"station_name":"Angke","time":4,"i_lat":-6.144674,"is_transit":false,"transit":false,"station_id":"AK"},{"i_lat":-6.132549,"is_transit":true,"station_name":"Kampung Bandan","transit":true,"time":9,"i_long":106.826365,"line":0,"distance":4102,"station_id":"KPB"},{"i_lat":-6.14505,"distance":1444,"transit":false,"is_transit":false,"time":3,"i_long":106.836569,"line":11,"station_name":"Rajawali","station_id":"RJW"},{"transit":false,"station_name":"Kemayoran","i_long":106.839204,"i_lat":-6.161728,"line":11,"distance":1901,"station_id":"KMO","time":5,"is_transit":false},{"distance":1436,"is_transit":false,"station_name":"Pasar Senen","i_lat":-6.174784,"time":4,"transit":false,"i_long":106.84368,"station_id":"PSE","line":11},{"i_long":106.850107,"is_transit":false,"transit":false,"station_id":"GST","time":8,"station_name":"Gang Sentiong","i_lat":-6.185975,"line":11,"distance":1567},{"time":1,"line":11,"distance":973,"transit":false,"station_name":"Kramat","i_long":106.855437,"i_lat":-6.193792,"is_transit":false,"station_id":"KMT"},{"station_id":"POK","station_name":"Pondok Jati","i_long":106.861737,"transit":false,"i_lat":-6.209188,"is_transit":false,"time":2,"line":11,"distance":1829},{"transit":true,"is_transit":true,"i_lat":-6.215091,"time":9,"distance":1236,"line":0,"station_id":"JNG","station_name":"Jatinegara","i_long":106.86807400000001},{"station_id":"MTR","transit":false,"is_transit":false,"distance":1377,"station_name":"Matraman","time":2,"i_long":106.858896,"line":1,"i_lat":-6.212485},{"station_id":"MRI","line":0,"is_transit":true,"time":2,"i_long":106.84912,"transit":true,"i_lat":-6.209883,"distance":1275,"station_name":"Manggarai"},{"station_id":"TEB","transit":false,"distance":2610,"i_long":106.857948,"line":2,"time":4,"i_lat":-6.226659,"is_transit":false,"station_name":"Tebet"},{"distance":1230,"transit":false,"is_transit":false,"time":2,"i_lat":-6.242512,"line":0,"i_long":106.856607,"station_name":"Cawang","station_id":"CW"},{"distance":1546,"time":3,"i_long":106.85449,"station_id":"DRN","is_transit":false,"line":0,"i_lat":-6.255332,"station_name":"Duren Kalibata","transit":false},{"station_id":"PSMB","i_long":106.851577,"distance":824,"is_transit":false,"station_name":"Pasar Minggu Baru","transit":false,"line":2,"time":2,"i_lat":-6.263214},{"time":2,"transit":false,"station_name":"Pasar Minggu","station_id":"PSM","distance":2380,"line":2,"i_lat":-6.2842400000000005,"is_transit":false,"i_long":106.843999},{"line":2,"i_long":106.838896,"is_transit":false,"station_id":"TNT","station_name":"Tanjung Barat","distance":2820,"time":4,"transit":false,"i_lat":-6.3080680000000005},{"i_lat":-6.330363,"line":2,"distance":2671,"is_transit":false,"station_id":"LNA","station_name":"Lenteng Agung","time":3,"i_long":106.832616,"transit":false},{"time":2,"is_transit":false,"i_lat":-6.339291,"distance":1029,"transit":false,"station_name":"Univ. Pancasila","station_id":"UP","line":2,"i_long":106.834175},{"station_id":"UI","station_name":"Univ. Indonesia","time":3,"distance":2264,"transit":false,"i_long":106.831474,"is_transit":false,"i_lat":-6.360749,"line":2},{"station_name":"Pondok Cina","station_id":"POC","time":2,"transit":false,"distance":1109,"line":2,"is_transit":false,"i_lat":-6.369073,"i_long":106.831114},{"transit":false,"i_lat":-6.391065,"distance":2727,"station_name":"Depokbaru","time":4,"line":0,"is_transit":false,"station_id":"DPB","i_long":106.819451},{"line":0,"is_transit":false,"station_id":"DP","station_name":"Depok","transit":false,"i_long":106.816926,"distance":1584,"time":3,"i_lat":-6.405256},{"distance":5084,"station_id":"CTA","transit":false,"line":1,"is_transit":true,"i_long":106.800298,"time":6,"station_name":"Citayam","i_lat":-6.448811},{"distance":5197,"i_lat":-6.493243,"station_name":"Bojonggede","station_id":"BJD","is_transit":false,"line":0,"i_long":106.792719,"time":5,"transit":false},{"line":0,"station_name":"Cilebut","station_id":"CLT","time":5,"distance":4331,"is_transit":false,"i_lat":-6.530544,"transit":false,"i_long":106.800016},{"distance":7514,"station_name":"Bogor","is_transit":true,"line":1,"transit":false,"station_id":"BOO","time":9,"i_lat":-6.594596,"i_long":106.790574}]]}