{"data":[[{"is_transit":false,"station_id":"TGS","i_lat":-6.328533,"line":6,"time":0,"i_long":106.425991,"distance":0,"station_name":"Tigaraksa","transit":false},{"distance":2974,"is_transit":false,"time":5,"transit":false,"i_long":106.460812,"line":6,"station_id":"TEJ","station_name":"Tenjo","i_lat":-6.327251},{"distance":3902,"transit":false,"i_long":106.491338,"station_id":"DAR","line":0,"i_lat":-6.338021,"is_transit":false,"station_name":"Daru","time":5},{"station_id":"CJT","transit":false,"station_name":"Cilejit","line":3,"i_long":106.508482,"time":6,"i_lat":-6.354349,"is_transit":false,"distance":2675},{"i_long":106.568863,"distance":7025,"time":9,"station_id":"PRP","transit":false,"i_lat":-6.3441410000000005,"line":6,"is_transit":false,"station_name":"Parung Panjang"},{"is_transit":false,"line":3,"time":8,"station_id":"CC","transit":false,"station_name":"Cicayur","i_long":106.617853,"i_lat":-6.329547,"distance":5968},{"i_long":106.640411,"i_lat":-6.32484,"is_transit":false,"station_id":"CSK","time":4,"transit":false,"line":3,"distance":2519,"station_name":"Cisauk"},{"i_lat":-6.319871,"time":4,"is_transit":false,"station_name":"Serpong","i_long":106.66566,"line":6,"station_id":"SRP","distance":1784,"transit":false},{"i_lat":-6.314823,"i_long":106.675475,"line":6,"time":4,"station_name":"Rawa Buntu","station_id":"RU","is_transit":false,"transit":false,"distance":2413},{"transit":false,"i_long":106.712277,"station_name":"Sudimara","is_transit":false,"line":6,"i_lat":-6.296963,"distance":4566,"station_id":"SDM","time":6},{"time":4,"i_long":106.728916,"line":6,"i_lat":-6.288927,"transit":false,"station_id":"JMU","station_name":"Jurangmangu","distance":1994,"is_transit":false},{"is_transit":false,"time":3,"station_id":"PDJ","station_name":"Pondokranji","i_lat":-6.276362,"i_long":106.74273,"line":6,"transit":false,"distance":2179},{"is_transit":false,"station_name":"Kebayoran","distance":6218,"i_long":106.780334,"time":8,"station_id":"KBY","i_lat":-6.237242,"line":6,"transit":false},{"transit":false,"station_id":"PLM","i_long":106.79689,"distance":3737,"time":7,"line":6,"is_transit":false,"station_name":"Palmerah","i_lat":-6.207404},{"i_long":106.811091,"time":6,"transit":true,"i_lat":-6.185545,"distance":3191,"is_transit":true,"station_name":"Tanah Abang","line":1,"station_id":"THB"},{"station_name":"Karet","i_long":106.816351,"time":5,"is_transit":false,"transit":false,"station_id":"KAT","distance":2029,"i_lat":-6.20132,"line":1},{"transit":false,"station_id":"SUDB","i_long":106.819881,"i_lat":-6.201433,"station_name":"Sudirman Baru","line":1,"distance":471,"is_transit":false,"time":1},{"station_name":"Sudirman","time":1,"line":1,"distance":280,"i_long":106.822649,"transit":false,"station_id":"SUD","i_lat":-6.202263,"is_transit":false},{"station_name":"Manggarai","is_transit":true,"line":2,"i_lat":-6.209883,"i_long":106.84912,"time":4,"distance":3186,"station_id":"MRI","transit":true},{"distance":2610,"line":2,"time":4,"station_name":"Tebet","is_transit":false,"station_id":"TEB","i_long":106.857948,"transit":false,"i_lat":-6.226659},{"distance":1230,"time":2,"i_long":106.856607,"line":2,"is_transit":false,"station_name":"Cawang","station_id":"CW","i_lat":-6.242512,"transit":false},{"transit":false,"time":3,"i_lat":-6.255332,"i_long":106.85449,"line":2,"is_transit":false,"distance":1546,"station_name":"Duren Kalibata","station_id":"DRN"},{"i_long":106.851577,"distance":824,"transit":false,"station_id":"PSMB","station_name":"Pasar Minggu Baru","i_lat":-6.263214,"time":2,"line":2,"is_transit":false},{"station_name":"Pasar Minggu","is_transit":false,"time":2,"distance":2380,"station_id":"PSM","i_lat":-6.2842400000000005,"line":2,"i_long":106.843999,"transit":false},{"i_long":106.838896,"station_id":"TNT","station_name":"Tanjung Barat","i_lat":-6.3080680000000005,"line":2,"distance":2820,"is_transit":false,"transit":false,"time":4}],[{"line":6,"distance":0,"transit":false,"i_long":106.425991,"time":0,"station_id":"TGS","is_transit":false,"station_name":"Tigaraksa","i_lat":-6.328533},{"transit":false,"distance":2974,"station_id":"TEJ","i_lat":-6.327251,"is_transit":false,"line":6,"station_name":"Tenjo","time":5,"i_long":106.460812},{"distance":3902,"station_name":"Daru","i_lat":-6.338021,"transit":false,"station_id":"DAR","is_transit":false,"i_long":106.491338,"line":0,"time":5},{"is_transit":false,"line":3,"i_long":106.508482,"station_name":"Cilejit","time":6,"distance":2675,"transit":false,"station_id":"CJT","i_lat":-6.354349},{"time":9,"i_lat":-6.3441410000000005,"transit":false,"distance":7025,"is_transit":false,"i_long":106.568863,"line":6,"station_name":"Parung Panjang","station_id":"PRP"},{"station_name":"Cicayur","i_lat":-6.329547,"transit":false,"time":8,"i_long":106.617853,"is_transit":false,"distance":5968,"station_id":"CC","line":3},{"station_name":"Cisauk","i_lat":-6.32484,"i_long":106.640411,"transit":false,"station_id":"CSK","is_transit":false,"distance":2519,"time":4,"line":3},{"station_name":"Serpong","line":6,"transit":false,"station_id":"SRP","distance":1784,"i_lat":-6.319871,"is_transit":false,"time":4,"i_long":106.66566},{"i_long":106.675475,"station_name":"Rawa Buntu","is_transit":false,"time":4,"transit":false,"line":6,"distance":2413,"station_id":"RU","i_lat":-6.314823},{"i_long":106.712277,"time":6,"is_transit":false,"i_lat":-6.296963,"transit":false,"station_name":"Sudimara","station_id":"SDM","line":6,"distance":4566},{"i_lat":-6.288927,"station_id":"JMU","is_transit":false,"time":4,"distance":1994,"i_long":106.728916,"transit":false,"station_name":"Jurangmangu","line":6},{"station_id":"PDJ","i_lat":-6.276362,"time":3,"station_name":"Pondokranji","i_long":106.74273,"is_transit":false,"line":6,"transit":false,"distance":2179},{"station_name":"Kebayoran","distance":6218,"transit":false,"is_transit":false,"i_lat":-6.237242,"time":8,"station_id":"KBY","i_long":106.780334,"line":6},{"i_long":106.79689,"distance":3737,"station_name":"Palmerah","transit":false,"is_transit":false,"time":7,"i_lat":-6.207404,"line":6,"station_id":"PLM"},{"i_long":106.811091,"station_id":"THB","i_lat":-6.185545,"is_transit":true,"transit":true,"time":6,"distance":3191,"station_name":"Tanah Abang","line":1},{"distance":3632,"station_id":"DU","i_lat":-6.155215,"i_long":106.800832,"line":1,"time":8,"transit":false,"station_name":"Duri","is_transit":false},{"i_lat":-6.144674,"i_long":106.79867,"line":1,"transit":false,"time":4,"distance":1230,"station_id":"AK","is_transit":false,"station_name":"Angke"},{"station_id":"KPB","i_long":106.826365,"transit":true,"i_lat":-6.132549,"line":4,"is_transit":true,"station_name":"Kampung Bandan","distance":4102,"time":9},{"station_name":"Jakarta Kota","i_lat":-6.137569,"line":2,"station_id":"JAKK","time":3,"i_long":106.812439,"transit":true,"distance":1364,"is_transit":true},{"time":4,"i_lat":-6.141205,"i_long":106.820901,"is_transit":false,"station_name":"Jayakarta","transit":false,"distance":1264,"station_id":"JAY","line":2},{"distance":1080,"is_transit":false,"time":2,"line":2,"transit":false,"station_id":"MGB","i_lat":-6.149769,"station_name":"Manggabesar","i_long":106.82482},{"distance":906,"i_lat":-6.160725,"line":2,"station_name":"Sawah Besar","station_id":"SW","time":2,"transit":false,"is_transit":false,"i_long":106.827103},{"line":2,"distance":1149,"is_transit":false,"station_name":"Juanda","transit":false,"i_long":106.828284,"time":2,"station_id":"JUA","i_lat":-6.166716},{"time":4,"is_transit":false,"station_name":"Gondangdia","i_lat":-6.186295,"transit":false,"distance":2015,"i_long":106.832183,"line":2,"station_id":"GDD"},{"i_lat":-6.198556,"transit":false,"i_long":106.840169,"line":2,"time":3,"station_name":"Cikini","distance":1750,"station_id":"CKI","is_transit":false},{"time":4,"distance":1590,"is_transit":false,"i_long":106.84912,"station_name":"Manggarai","i_lat":-6.209883,"station_id":"MRI","transit":false,"line":2},{"is_transit":false,"station_id":"TEB","transit":false,"line":2,"i_lat":-6.226659,"distance":2610,"station_name":"Tebet","time":4,"i_long":106.857948},{"station_id":"CW","i_long":106.856607,"transit":false,"line":2,"time":2,"station_name":"Cawang","i_lat":-6.242512,"is_transit":false,"distance":1230},{"distance":1546,"i_lat":-6.255332,"station_name":"Duren Kalibata","is_transit":false,"time":3,"i_long":106.85449,"line":2,"station_id":"DRN","transit":false},{"station_name":"Pasar Minggu Baru","i_lat":-6.263214,"transit":false,"i_long":106.851577,"distance":824,"is_transit":false,"time":2,"station_id":"PSMB","line":2},{"is_transit":false,"i_long":106.843999,"i_lat":-6.2842400000000005,"station_name":"Pasar Minggu","transit":false,"distance":2380,"line":2,"time":2,"station_id":"PSM"},{"line":2,"station_name":"Tanjung Barat","distance":2820,"time":4,"station_id":"TNT","is_transit":false,"i_lat":-6.3080680000000005,"transit":false,"i_long":106.838896}],[{"station_name":"Tigaraksa","distance":0,"transit":false,"i_lat":-6.328533,"i_long":106.425991,"line":6,"is_transit":false,"station_id":"TGS","time":0},{"i_lat":-6.327251,"line":6,"is_transit":false,"time":5,"transit":false,"station_id":"TEJ","i_long":106.460812,"distance":2974,"station_name":"Tenjo"},{"transit":false,"distance":3902,"i_long":106.491338,"line":0,"time":5,"is_transit":false,"station_name":"Daru","station_id":"DAR","i_lat":-6.338021},{"line":3,"time":6,"station_name":"Cilejit","is_transit":false,"i_long":106.508482,"i_lat":-6.354349,"transit":false,"distance":2675,"station_id":"CJT"},{"station_name":"Parung Panjang","i_lat":-6.3441410000000005,"i_long":106.568863,"station_id":"PRP","is_transit":false,"distance":7025,"transit":false,"line":6,"time":9},{"distance":5968,"time":8,"i_lat":-6.329547,"station_id":"CC","transit":false,"station_name":"Cicayur","is_transit":false,"i_long":106.617853,"line":3},{"station_name":"Cisauk","transit":false,"i_lat":-6.32484,"i_long":106.640411,"is_transit":false,"line":3,"distance":2519,"station_id":"CSK","time":4},{"station_name":"Serpong","is_transit":false,"i_long":106.66566,"time":4,"line":6,"i_lat":-6.319871,"transit":false,"station_id":"SRP","distance":1784},{"time":4,"is_transit":false,"i_long":106.675475,"distance":2413,"station_id":"RU","station_name":"Rawa Buntu","line":6,"transit":false,"i_lat":-6.314823},{"i_lat":-6.296963,"is_transit":false,"station_id":"SDM","line":6,"transit":false,"distance":4566,"station_name":"Sudimara","time":6,"i_long":106.712277},{"is_transit":false,"line":6,"time":4,"i_lat":-6.288927,"station_id":"JMU","transit":false,"i_long":106.728916,"station_name":"Jurangmangu","distance":1994},{"distance":2179,"i_lat":-6.276362,"i_long":106.74273,"is_transit":false,"station_name":"Pondokranji","time":3,"transit":false,"station_id":"PDJ","line":6},{"station_name":"Kebayoran","i_long":106.780334,"line":6,"distance":6218,"transit":false,"time":8,"is_transit":false,"station_id":"KBY","i_lat":-6.237242},{"line":6,"station_name":"Palmerah","transit":false,"distance":3737,"station_id":"PLM","is_transit":false,"i_long":106.79689,"time":7,"i_lat":-6.207404},{"station_name":"Tanah Abang","station_id":"THB","transit":true,"time":6,"line":1,"i_long":106.811091,"is_transit":true,"i_lat":-6.185545,"distance":3191},{"is_transit":false,"i_lat":-6.155215,"transit":false,"distance":3632,"line":1,"time":8,"station_id":"DU","station_name":"Duri","i_long":106.800832},{"station_name":"Angke","i_lat":-6.144674,"transit":false,"time":4,"distance":1230,"line":1,"station_id":"AK","i_long":106.79867,"is_transit":false},{"distance":4102,"time":9,"station_id":"KPB","station_name":"Kampung Bandan","is_transit":true,"i_lat":-6.132549,"line":4,"i_long":106.826365,"transit":true},{"transit":false,"station_id":"RJW","is_transit":false,"i_lat":-6.14505,"time":3,"station_name":"Rajawali","distance":1444,"line":11,"i_long":106.836569},{"station_id":"KMO","line":11,"is_transit":false,"distance":1901,"station_name":"Kemayoran","i_lat":-6.161728,"transit":false,"i_long":106.839204,"time":5},{"time":4,"distance":1436,"station_id":"PSE","is_transit":false,"i_lat":-6.174784,"station_name":"Pasar Senen","line":11,"i_long":106.84368,"transit":false},{"station_name":"Gang Sentiong","is_transit":false,"distance":1567,"i_lat":-6.185975,"i_long":106.850107,"transit":false,"station_id":"GST","time":8,"line":11},{"station_id":"KMT","distance":973,"transit":false,"time":1,"i_long":106.855437,"is_transit":false,"station_name":"Kramat","line":11,"i_lat":-6.193792},{"station_name":"Pondok Jati","i_long":106.861737,"i_lat":-6.209188,"is_transit":false,"transit":false,"distance":1829,"line":11,"time":2,"station_id":"POK"},{"i_lat":-6.215091,"station_name":"Jatinegara","line":1,"time":9,"i_long":106.86807400000001,"distance":1236,"transit":true,"station_id":"JNG","is_transit":true},{"transit":false,"i_lat":-6.212485,"i_long":106.858896,"line":1,"station_id":"MTR","station_name":"Matraman","distance":1377,"time":2,"is_transit":false},{"i_lat":-6.209883,"i_long":106.84912,"station_id":"MRI","time":2,"distance":1275,"is_transit":true,"transit":true,"station_name":"Manggarai","line":2},{"i_long":106.857948,"distance":2610,"line":2,"station_id":"TEB","is_transit":false,"station_name":"Tebet","i_lat":-6.226659,"transit":false,"time":4},{"station_id":"CW","time":2,"i_long":106.856607,"line":2,"transit":false,"station_name":"Cawang","distance":1230,"i_lat":-6.242512,"is_transit":false},{"time":3,"line":2,"transit":false,"distance":1546,"station_id":"DRN","i_lat":-6.255332,"station_name":"Duren Kalibata","is_transit":false,"i_long":106.85449},{"is_transit":false,"station_name":"Pasar Minggu Baru","time":2,"distance":824,"i_lat":-6.263214,"line":2,"i_long":106.851577,"transit":false,"station_id":"PSMB"},{"station_name":"Pasar Minggu","distance":2380,"i_lat":-6.2842400000000005,"i_long":106.843999,"is_transit":false,"transit":false,"line":2,"station_id":"PSM","time":2},{"i_lat":-6.3080680000000005,"distance":2820,"i_long":106.838896,"line":2,"time":4,"station_name":"Tanjung Barat","station_id":"TNT","is_transit":false,"transit":false}]]}