{"data":[[{"transit":false,"time":0,"station_id":"TGS","i_long":106.425991,"station_name":"Tigaraksa","is_transit":false,"distance":0,"i_lat":-6.328533,"line":6},{"station_id":"TEJ","station_name":"Tenjo","distance":2974,"i_long":106.460812,"time":5,"transit":false,"i_lat":-6.327251,"line":6,"is_transit":false},{"station_name":"Daru","distance":3902,"i_lat":-6.338021,"time":5,"transit":false,"line":0,"i_long":106.491338,"is_transit":false,"station_id":"DAR"},{"transit":false,"station_id":"CJT","i_lat":-6.354349,"station_name":"Cilejit","distance":2675,"is_transit":false,"i_long":106.508482,"time":6,"line":3},{"station_id":"PRP","transit":false,"is_transit":false,"distance":7025,"time":9,"station_name":"Parung Panjang","i_lat":-6.3441410000000005,"line":6,"i_long":106.568863},{"station_name":"Cicayur","time":8,"transit":false,"i_lat":-6.329547,"i_long":106.617853,"station_id":"CC","is_transit":false,"distance":5968,"line":3},{"is_transit":false,"transit":false,"station_id":"CSK","time":4,"i_lat":-6.32484,"line":3,"station_name":"Cisauk","distance":2519,"i_long":106.640411}]]}