{"data":[[{"i_lat":-6.328533,"station_name":"Tigaraksa","transit":false,"station_id":"TGS","i_long":106.425991,"time":0,"distance":0,"line":6,"is_transit":false},{"station_name":"Tenjo","transit":false,"is_transit":false,"time":5,"distance":2974,"i_lat":-6.327251,"i_long":106.460812,"line":6,"station_id":"TEJ"},{"i_lat":-6.338021,"station_id":"DAR","distance":3902,"station_name":"Daru","time":5,"i_long":106.491338,"line":0,"is_transit":false,"transit":false},{"station_name":"Cilejit","station_id":"CJT","transit":false,"is_transit":false,"distance":2675,"i_lat":-6.354349,"time":6,"line":3,"i_long":106.508482},{"station_name":"Parung Panjang","i_lat":-6.3441410000000005,"line":6,"is_transit":false,"transit":false,"station_id":"PRP","distance":7025,"time":9,"i_long":106.568863},{"time":8,"transit":false,"i_lat":-6.329547,"line":3,"i_long":106.617853,"station_name":"Cicayur","station_id":"CC","is_transit":false,"distance":5968},{"i_long":106.640411,"station_name":"Cisauk","time":4,"transit":false,"is_transit":false,"distance":2519,"i_lat":-6.32484,"line":3,"station_id":"CSK"},{"is_transit":false,"time":4,"station_name":"Serpong","station_id":"SRP","distance":1784,"line":6,"i_lat":-6.319871,"transit":false,"i_long":106.66566},{"i_lat":-6.314823,"is_transit":false,"station_id":"RU","time":4,"distance":2413,"i_long":106.675475,"line":6,"transit":false,"station_name":"Rawa Buntu"},{"time":6,"i_long":106.712277,"is_transit":false,"distance":4566,"line":6,"station_name":"Sudimara","station_id":"SDM","i_lat":-6.296963,"transit":false},{"is_transit":false,"i_lat":-6.288927,"i_long":106.728916,"station_id":"JMU","time":4,"transit":false,"distance":1994,"line":6,"station_name":"Jurangmangu"},{"station_id":"PDJ","distance":2179,"is_transit":false,"station_name":"Pondokranji","i_long":106.74273,"time":3,"i_lat":-6.276362,"line":6,"transit":false},{"i_long":106.780334,"line":6,"station_name":"Kebayoran","station_id":"KBY","i_lat":-6.237242,"is_transit":false,"transit":false,"distance":6218,"time":8},{"station_id":"PLM","distance":3737,"time":7,"is_transit":false,"i_long":106.79689,"i_lat":-6.207404,"transit":false,"station_name":"Palmerah","line":6},{"time":6,"line":1,"i_lat":-6.185545,"station_name":"Tanah Abang","transit":true,"i_long":106.811091,"station_id":"THB","is_transit":true,"distance":3191},{"i_long":106.800832,"transit":true,"is_transit":true,"distance":3632,"i_lat":-6.155215,"station_id":"DU","station_name":"Duri","time":8,"line":1},{"transit":false,"distance":1700,"is_transit":false,"time":3,"station_id":"GGL","i_lat":-6.162021,"station_name":"Grogol","i_long":106.788277,"line":5},{"station_name":"Pesing","station_id":"PSG","i_lat":-6.161433,"line":5,"distance":2036,"i_long":106.771379,"transit":false,"time":2,"is_transit":false},{"transit":false,"distance":1614,"time":2,"i_long":106.756522,"i_lat":-6.1587309999999995,"station_id":"TKO","station_name":"Taman Kota","is_transit":false,"line":5},{"line":5,"i_long":106.737035,"i_lat":-6.159876,"time":2,"transit":false,"station_id":"BOI","is_transit":false,"station_name":"Bojongindah","distance":2334},{"transit":false,"i_lat":-6.162758,"station_name":"Rawa Buaya","is_transit":false,"line":5,"station_id":"RW","time":4,"distance":1152,"i_long":106.723064},{"i_long":106.701612,"i_lat":-6.166068,"transit":false,"line":5,"station_id":"KDS","time":3,"station_name":"Kalideres","is_transit":false,"distance":2504},{"i_lat":-6.169933,"time":3,"distance":2548,"is_transit":false,"line":5,"station_id":"PI","station_name":"Poris","transit":false,"i_long":106.679458},{"station_name":"Batuceper","is_transit":false,"distance":1834,"i_lat":-6.171811,"transit":false,"line":5,"i_long":106.665036,"station_id":"BPR","time":3},{"transit":false,"station_name":"Tanah Tinggi","station_id":"TTI","i_lat":-6.17331,"time":3,"i_long":106.64657,"is_transit":false,"distance":2028,"line":5}],[{"distance":0,"station_name":"Tigaraksa","is_transit":false,"time":0,"transit":false,"line":6,"i_long":106.425991,"i_lat":-6.328533,"station_id":"TGS"},{"i_lat":-6.327251,"time":5,"transit":false,"i_long":106.460812,"is_transit":false,"line":6,"station_name":"Tenjo","distance":2974,"station_id":"TEJ"},{"station_id":"DAR","is_transit":false,"line":0,"station_name":"Daru","distance":3902,"i_long":106.491338,"time":5,"i_lat":-6.338021,"transit":false},{"is_transit":false,"i_lat":-6.354349,"line":3,"distance":2675,"transit":false,"station_name":"Cilejit","time":6,"i_long":106.508482,"station_id":"CJT"},{"distance":7025,"i_long":106.568863,"station_name":"Parung Panjang","transit":false,"station_id":"PRP","is_transit":false,"i_lat":-6.3441410000000005,"time":9,"line":6},{"line":3,"is_transit":false,"station_name":"Cicayur","transit":false,"station_id":"CC","distance":5968,"time":8,"i_lat":-6.329547,"i_long":106.617853},{"station_id":"CSK","i_lat":-6.32484,"distance":2519,"time":4,"transit":false,"station_name":"Cisauk","i_long":106.640411,"is_transit":false,"line":3},{"station_id":"SRP","station_name":"Serpong","i_long":106.66566,"is_transit":false,"line":6,"distance":1784,"i_lat":-6.319871,"transit":false,"time":4},{"station_id":"RU","transit":false,"station_name":"Rawa Buntu","time":4,"i_lat":-6.314823,"is_transit":false,"distance":2413,"i_long":106.675475,"line":6},{"i_lat":-6.296963,"is_transit":false,"station_id":"SDM","line":6,"i_long":106.712277,"time":6,"distance":4566,"transit":false,"station_name":"Sudimara"},{"line":6,"transit":false,"distance":1994,"station_name":"Jurangmangu","is_transit":false,"station_id":"JMU","time":4,"i_lat":-6.288927,"i_long":106.728916},{"transit":false,"line":6,"i_lat":-6.276362,"time":3,"station_id":"PDJ","is_transit":false,"station_name":"Pondokranji","distance":2179,"i_long":106.74273},{"transit":false,"distance":6218,"i_lat":-6.237242,"station_name":"Kebayoran","station_id":"KBY","is_transit":false,"time":8,"line":6,"i_long":106.780334},{"i_lat":-6.207404,"time":7,"station_name":"Palmerah","is_transit":false,"distance":3737,"i_long":106.79689,"station_id":"PLM","transit":false,"line":6},{"distance":3191,"i_lat":-6.185545,"i_long":106.811091,"station_name":"Tanah Abang","time":6,"line":1,"is_transit":true,"transit":true,"station_id":"THB"},{"is_transit":false,"distance":2029,"line":1,"i_long":106.816351,"time":5,"station_name":"Karet","i_lat":-6.20132,"transit":false,"station_id":"KAT"},{"distance":471,"line":1,"station_name":"Sudirman Baru","time":1,"i_lat":-6.201433,"transit":false,"is_transit":false,"station_id":"SUDB","i_long":106.819881},{"i_long":106.822649,"station_name":"Sudirman","time":1,"transit":false,"station_id":"SUD","distance":280,"is_transit":false,"line":1,"i_lat":-6.202263},{"i_lat":-6.209883,"station_id":"MRI","is_transit":true,"distance":3186,"i_long":106.84912,"station_name":"Manggarai","transit":true,"time":4,"line":2},{"time":4,"i_lat":-6.198556,"transit":false,"station_name":"Cikini","station_id":"CKI","is_transit":false,"distance":1590,"i_long":106.840169,"line":2},{"distance":1750,"transit":false,"time":3,"station_id":"GDD","is_transit":false,"station_name":"Gondangdia","line":2,"i_lat":-6.186295,"i_long":106.832183},{"time":4,"line":2,"station_name":"Juanda","is_transit":false,"distance":2015,"i_lat":-6.166716,"transit":false,"i_long":106.828284,"station_id":"JUA"},{"station_name":"Sawah Besar","station_id":"SW","distance":1149,"transit":false,"line":2,"is_transit":false,"time":2,"i_long":106.827103,"i_lat":-6.160725},{"i_lat":-6.149769,"station_name":"Manggabesar","time":2,"distance":906,"is_transit":false,"i_long":106.82482,"line":2,"transit":false,"station_id":"MGB"},{"station_id":"JAY","station_name":"Jayakarta","time":2,"i_lat":-6.141205,"i_long":106.820901,"line":2,"is_transit":false,"distance":1080,"transit":false},{"i_lat":-6.137569,"i_long":106.812439,"station_id":"JAKK","line":2,"is_transit":true,"station_name":"Jakarta Kota","transit":true,"time":4,"distance":1264},{"distance":1364,"is_transit":true,"i_lat":-6.132549,"station_id":"KPB","line":4,"transit":true,"station_name":"Kampung Bandan","time":3,"i_long":106.826365},{"station_id":"AK","is_transit":false,"station_name":"Angke","time":9,"distance":4102,"transit":false,"i_lat":-6.144674,"i_long":106.79867,"line":1},{"line":1,"i_long":106.800832,"station_name":"Duri","time":4,"station_id":"DU","distance":1230,"transit":true,"i_lat":-6.155215,"is_transit":true},{"line":5,"is_transit":false,"i_lat":-6.162021,"distance":1700,"transit":false,"time":3,"station_name":"Grogol","station_id":"GGL","i_long":106.788277},{"station_name":"Pesing","transit":false,"is_transit":false,"distance":2036,"time":2,"line":5,"station_id":"PSG","i_lat":-6.161433,"i_long":106.771379},{"station_name":"Taman Kota","distance":1614,"line":5,"i_long":106.756522,"i_lat":-6.1587309999999995,"station_id":"TKO","transit":false,"time":2,"is_transit":false},{"transit":false,"is_transit":false,"station_name":"Bojongindah","station_id":"BOI","distance":2334,"line":5,"i_lat":-6.159876,"time":2,"i_long":106.737035},{"distance":1152,"station_name":"Rawa Buaya","i_lat":-6.162758,"transit":false,"is_transit":false,"time":4,"line":5,"station_id":"RW","i_long":106.723064},{"station_name":"Kalideres","is_transit":false,"station_id":"KDS","time":3,"distance":2504,"i_lat":-6.166068,"i_long":106.701612,"line":5,"transit":false},{"is_transit":false,"line":5,"distance":2548,"i_lat":-6.169933,"i_long":106.679458,"transit":false,"station_id":"PI","time":3,"station_name":"Poris"},{"is_transit":false,"distance":1834,"i_long":106.665036,"line":5,"time":3,"station_id":"BPR","station_name":"Batuceper","i_lat":-6.171811,"transit":false},{"is_transit":false,"i_long":106.64657,"line":5,"station_id":"TTI","i_lat":-6.17331,"station_name":"Tanah Tinggi","time":3,"transit":false,"distance":2028}],[{"station_id":"TGS","i_lat":-6.328533,"line":6,"is_transit":false,"time":0,"i_long":106.425991,"transit":false,"station_name":"Tigaraksa","distance":0},{"is_transit":false,"station_id":"TEJ","i_lat":-6.327251,"i_long":106.460812,"line":6,"station_name":"Tenjo","distance":2974,"time":5,"transit":false},{"station_id":"DAR","line":0,"transit":false,"station_name":"Daru","is_transit":false,"i_lat":-6.338021,"distance":3902,"i_long":106.491338,"time":5},{"station_name":"Cilejit","station_id":"CJT","time":6,"transit":false,"distance":2675,"is_transit":false,"i_long":106.508482,"line":3,"i_lat":-6.354349},{"transit":false,"station_name":"Parung Panjang","time":9,"distance":7025,"line":6,"i_lat":-6.3441410000000005,"i_long":106.568863,"station_id":"PRP","is_transit":false},{"i_lat":-6.329547,"i_long":106.617853,"station_id":"CC","time":8,"transit":false,"is_transit":false,"distance":5968,"line":3,"station_name":"Cicayur"},{"station_name":"Cisauk","is_transit":false,"transit":false,"i_lat":-6.32484,"station_id":"CSK","i_long":106.640411,"time":4,"line":3,"distance":2519},{"transit":false,"is_transit":false,"station_id":"SRP","i_lat":-6.319871,"line":6,"station_name":"Serpong","distance":1784,"i_long":106.66566,"time":4},{"distance":2413,"station_id":"RU","i_lat":-6.314823,"i_long":106.675475,"time":4,"transit":false,"line":6,"station_name":"Rawa Buntu","is_transit":false},{"i_long":106.712277,"station_name":"Sudimara","is_transit":false,"station_id":"SDM","distance":4566,"time":6,"i_lat":-6.296963,"transit":false,"line":6},{"is_transit":false,"time":4,"station_id":"JMU","distance":1994,"line":6,"i_long":106.728916,"transit":false,"station_name":"Jurangmangu","i_lat":-6.288927},{"station_id":"PDJ","is_transit":false,"time":3,"station_name":"Pondokranji","line":6,"transit":false,"distance":2179,"i_long":106.74273,"i_lat":-6.276362},{"time":8,"i_lat":-6.237242,"transit":false,"station_name":"Kebayoran","i_long":106.780334,"distance":6218,"line":6,"station_id":"KBY","is_transit":false},{"line":6,"i_long":106.79689,"transit":false,"time":7,"is_transit":false,"distance":3737,"i_lat":-6.207404,"station_id":"PLM","station_name":"Palmerah"},{"is_transit":true,"distance":3191,"station_name":"Tanah Abang","i_long":106.811091,"time":6,"i_lat":-6.185545,"transit":true,"line":1,"station_id":"THB"},{"station_id":"KAT","is_transit":false,"distance":2029,"transit":false,"station_name":"Karet","i_lat":-6.20132,"i_long":106.816351,"line":1,"time":5},{"station_name":"Sudirman Baru","distance":471,"line":1,"station_id":"SUDB","time":1,"i_lat":-6.201433,"i_long":106.819881,"is_transit":false,"transit":false},{"is_transit":false,"i_long":106.822649,"station_id":"SUD","transit":false,"distance":280,"i_lat":-6.202263,"time":1,"station_name":"Sudirman","line":1},{"station_id":"MRI","transit":false,"distance":3186,"is_transit":false,"i_lat":-6.209883,"line":2,"station_name":"Manggarai","i_long":106.84912,"time":4},{"line":1,"station_name":"Matraman","station_id":"MTR","is_transit":false,"i_long":106.858896,"distance":1275,"time":2,"transit":false,"i_lat":-6.212485},{"i_lat":-6.215091,"i_long":106.86807400000001,"is_transit":true,"station_id":"JNG","time":8,"transit":true,"distance":1377,"line":1,"station_name":"Jatinegara"},{"i_lat":-6.209188,"i_long":106.861737,"line":11,"station_name":"Pondok Jati","time":2,"station_id":"POK","transit":false,"distance":1236,"is_transit":false},{"transit":false,"station_id":"KMT","line":11,"is_transit":false,"i_lat":-6.193792,"i_long":106.855437,"time":2,"station_name":"Kramat","distance":1829},{"transit":false,"station_name":"Gang Sentiong","i_long":106.850107,"is_transit":false,"line":11,"distance":973,"station_id":"GST","time":1,"i_lat":-6.185975},{"i_lat":-6.174784,"line":11,"i_long":106.84368,"transit":false,"station_id":"PSE","is_transit":false,"station_name":"Pasar Senen","time":8,"distance":1567},{"station_id":"KMO","station_name":"Kemayoran","is_transit":false,"time":4,"i_lat":-6.161728,"i_long":106.839204,"distance":1436,"transit":false,"line":11},{"station_name":"Rajawali","distance":1901,"transit":false,"station_id":"RJW","time":5,"i_lat":-6.14505,"is_transit":false,"line":11,"i_long":106.836569},{"is_transit":true,"time":3,"station_id":"KPB","i_lat":-6.132549,"i_long":106.826365,"transit":true,"station_name":"Kampung Bandan","distance":1444,"line":4},{"line":1,"i_long":106.79867,"station_id":"AK","i_lat":-6.144674,"transit":false,"station_name":"Angke","distance":4102,"is_transit":false,"time":9},{"line":1,"time":4,"i_lat":-6.155215,"is_transit":true,"transit":true,"i_long":106.800832,"station_id":"DU","distance":1230,"station_name":"Duri"},{"station_name":"Grogol","i_lat":-6.162021,"i_long":106.788277,"is_transit":false,"transit":false,"distance":1700,"time":3,"station_id":"GGL","line":5},{"distance":2036,"is_transit":false,"transit":false,"station_name":"Pesing","i_lat":-6.161433,"i_long":106.771379,"line":5,"station_id":"PSG","time":2},{"i_long":106.756522,"station_id":"TKO","distance":1614,"time":2,"line":5,"station_name":"Taman Kota","transit":false,"is_transit":false,"i_lat":-6.1587309999999995},{"time":2,"is_transit":false,"i_long":106.737035,"distance":2334,"i_lat":-6.159876,"line":5,"station_name":"Bojongindah","station_id":"BOI","transit":false},{"transit":false,"station_name":"Rawa Buaya","is_transit":false,"time":4,"distance":1152,"station_id":"RW","i_lat":-6.162758,"i_long":106.723064,"line":5},{"station_name":"Kalideres","is_transit":false,"i_lat":-6.166068,"station_id":"KDS","i_long":106.701612,"time":3,"transit":false,"distance":2504,"line":5},{"line":5,"station_name":"Poris","transit":false,"station_id":"PI","i_lat":-6.169933,"i_long":106.679458,"is_transit":false,"distance":2548,"time":3},{"station_name":"Batuceper","i_long":106.665036,"station_id":"BPR","line":5,"is_transit":false,"time":3,"distance":1834,"transit":false,"i_lat":-6.171811},{"time":3,"station_id":"TTI","station_name":"Tanah Tinggi","i_long":106.64657,"transit":false,"is_transit":false,"i_lat":-6.17331,"line":5,"distance":2028}]]}