{"data":[[{"station_name":"Tigaraksa","i_lat":-6.328533,"line":6,"distance":0,"i_long":106.425991,"time":0,"is_transit":false,"transit":false,"station_id":"TGS"},{"line":6,"station_name":"Tenjo","i_long":106.460812,"distance":2974,"time":5,"station_id":"TEJ","transit":false,"is_transit":false,"i_lat":-6.327251},{"transit":false,"station_id":"DAR","i_long":106.491338,"time":5,"distance":3902,"is_transit":false,"line":0,"i_lat":-6.338021,"station_name":"Daru"},{"distance":2675,"line":0,"station_id":"CJT","station_name":"Cilejit","time":6,"is_transit":false,"i_lat":-6.354349,"i_long":106.508482,"transit":false},{"time":9,"distance":7025,"station_id":"PRP","i_lat":-6.3441410000000005,"line":6,"station_name":"Parung Panjang","transit":false,"is_transit":false,"i_long":106.568863},{"i_lat":-6.329547,"i_long":106.617853,"is_transit":false,"time":8,"station_name":"Cicayur","line":0,"station_id":"CC","distance":5968,"transit":false},{"transit":false,"distance":2519,"line":0,"time":4,"is_transit":false,"i_long":106.640411,"i_lat":-6.32484,"station_id":"CSK","station_name":"Cisauk"},{"transit":false,"i_long":106.66566,"line":6,"station_id":"SRP","station_name":"Serpong","distance":1784,"i_lat":-6.319871,"is_transit":false,"time":4},{"station_name":"Rawa Buntu","transit":false,"i_lat":-6.314823,"distance":2413,"time":4,"i_long":106.675475,"line":6,"is_transit":false,"station_id":"RU"},{"distance":4566,"i_lat":-6.296963,"station_id":"SDM","time":6,"i_long":106.712277,"line":6,"station_name":"Sudimara","transit":false,"is_transit":false},{"is_transit":false,"station_name":"Jurangmangu","transit":false,"i_lat":-6.288927,"i_long":106.728916,"line":6,"distance":1994,"time":4,"station_id":"JMU"},{"station_name":"Pondokranji","station_id":"PDJ","i_long":106.74273,"i_lat":-6.276362,"line":6,"transit":false,"is_transit":false,"time":3,"distance":2179},{"i_long":106.780334,"line":6,"station_name":"Kebayoran","i_lat":-6.237242,"transit":false,"station_id":"KBY","distance":6218,"time":8,"is_transit":false},{"is_transit":false,"transit":false,"station_name":"Palmerah","i_long":106.79689,"time":7,"distance":3737,"station_id":"PLM","i_lat":-6.207404,"line":6},{"line":1,"station_id":"THB","transit":true,"is_transit":true,"distance":3191,"station_name":"Tanah Abang","i_long":106.811091,"time":6,"i_lat":-6.185545},{"time":8,"i_lat":-6.155215,"station_id":"DU","transit":true,"is_transit":true,"i_long":106.800832,"line":1,"distance":3632,"station_name":"Duri"},{"station_id":"AK","i_long":106.79867,"transit":false,"line":0,"is_transit":false,"time":4,"distance":1230,"station_name":"Angke","i_lat":-6.144674},{"is_transit":true,"transit":false,"station_name":"Kampung Bandan","time":9,"i_lat":-6.132549,"i_long":106.826365,"line":0,"distance":4102,"station_id":"KPB"},{"is_transit":true,"i_lat":-6.137569,"line":0,"distance":1364,"transit":true,"station_id":"JAKK","station_name":"Jakarta Kota","time":3,"i_long":106.812439},{"station_name":"Jayakarta","is_transit":false,"distance":1264,"transit":false,"time":4,"i_lat":-6.141205,"line":7,"i_long":106.820901,"station_id":"JAY"},{"time":2,"i_long":106.82482,"station_id":"MGB","transit":false,"is_transit":false,"i_lat":-6.149769,"line":2,"station_name":"Manggabesar","distance":1080},{"station_id":"SW","time":2,"transit":false,"distance":906,"i_lat":-6.160725,"line":2,"station_name":"Sawah Besar","i_long":106.827103,"is_transit":false}],[{"i_lat":-6.328533,"transit":false,"station_name":"Tigaraksa","i_long":106.425991,"line":6,"is_transit":false,"distance":0,"station_id":"TGS","time":0},{"station_name":"Tenjo","line":6,"time":5,"station_id":"TEJ","transit":false,"is_transit":false,"i_lat":-6.327251,"distance":2974,"i_long":106.460812},{"distance":3902,"time":5,"is_transit":false,"station_id":"DAR","station_name":"Daru","i_long":106.491338,"line":0,"transit":false,"i_lat":-6.338021},{"time":6,"transit":false,"distance":2675,"station_id":"CJT","i_long":106.508482,"is_transit":false,"line":0,"i_lat":-6.354349,"station_name":"Cilejit"},{"i_lat":-6.3441410000000005,"station_id":"PRP","is_transit":false,"station_name":"Parung Panjang","i_long":106.568863,"line":6,"time":9,"distance":7025,"transit":false},{"transit":false,"line":0,"distance":5968,"time":8,"i_lat":-6.329547,"is_transit":false,"i_long":106.617853,"station_id":"CC","station_name":"Cicayur"},{"station_id":"CSK","distance":2519,"line":0,"transit":false,"station_name":"Cisauk","time":4,"is_transit":false,"i_long":106.640411,"i_lat":-6.32484},{"is_transit":false,"distance":1784,"station_name":"Serpong","time":4,"i_long":106.66566,"station_id":"SRP","i_lat":-6.319871,"line":6,"transit":false},{"line":6,"distance":2413,"station_id":"RU","i_long":106.675475,"transit":false,"time":4,"station_name":"Rawa Buntu","is_transit":false,"i_lat":-6.314823},{"station_id":"SDM","station_name":"Sudimara","time":6,"distance":4566,"is_transit":false,"transit":false,"i_lat":-6.296963,"i_long":106.712277,"line":6},{"line":6,"station_name":"Jurangmangu","transit":false,"i_lat":-6.288927,"i_long":106.728916,"station_id":"JMU","time":4,"distance":1994,"is_transit":false},{"line":6,"distance":2179,"is_transit":false,"station_id":"PDJ","station_name":"Pondokranji","time":3,"transit":false,"i_long":106.74273,"i_lat":-6.276362},{"is_transit":false,"station_name":"Kebayoran","i_long":106.780334,"transit":false,"i_lat":-6.237242,"line":6,"distance":6218,"station_id":"KBY","time":8},{"is_transit":false,"i_lat":-6.207404,"i_long":106.79689,"station_name":"Palmerah","transit":false,"line":6,"time":7,"station_id":"PLM","distance":3737},{"time":6,"station_id":"THB","i_lat":-6.185545,"i_long":106.811091,"station_name":"Tanah Abang","line":1,"transit":true,"distance":3191,"is_transit":true},{"is_transit":false,"i_long":106.816351,"time":5,"transit":false,"distance":2029,"i_lat":-6.20132,"line":1,"station_name":"Karet","station_id":"KAT"},{"distance":471,"station_id":"SUDB","station_name":"Sudirman Baru","time":1,"i_lat":-6.201433,"i_long":106.819881,"is_transit":false,"line":1,"transit":false},{"transit":false,"is_transit":false,"station_name":"Sudirman","station_id":"SUD","i_lat":-6.202263,"distance":280,"i_long":106.822649,"line":1,"time":1},{"time":4,"station_id":"MRI","line":0,"transit":true,"station_name":"Manggarai","i_lat":-6.209883,"distance":3186,"is_transit":true,"i_long":106.84912},{"i_lat":-6.198556,"station_id":"CKI","line":0,"time":4,"i_long":106.840169,"transit":false,"distance":1590,"station_name":"Cikini","is_transit":false},{"transit":false,"line":2,"station_id":"GDD","i_long":106.832183,"distance":1750,"is_transit":false,"station_name":"Gondangdia","i_lat":-6.186295,"time":3},{"i_lat":-6.166716,"line":2,"i_long":106.828284,"distance":2015,"station_id":"JUA","transit":false,"station_name":"Juanda","time":4,"is_transit":false},{"i_long":106.827103,"time":2,"transit":false,"is_transit":false,"station_id":"SW","line":2,"station_name":"Sawah Besar","i_lat":-6.160725,"distance":1149}],[{"station_id":"TGS","i_lat":-6.328533,"i_long":106.425991,"is_transit":false,"station_name":"Tigaraksa","distance":0,"line":6,"time":0,"transit":false},{"time":5,"i_lat":-6.327251,"station_id":"TEJ","transit":false,"station_name":"Tenjo","line":6,"i_long":106.460812,"distance":2974,"is_transit":false},{"time":5,"distance":3902,"station_name":"Daru","i_lat":-6.338021,"line":0,"i_long":106.491338,"transit":false,"is_transit":false,"station_id":"DAR"},{"i_long":106.508482,"station_name":"Cilejit","line":0,"i_lat":-6.354349,"transit":false,"station_id":"CJT","is_transit":false,"time":6,"distance":2675},{"i_long":106.568863,"line":6,"time":9,"station_id":"PRP","is_transit":false,"i_lat":-6.3441410000000005,"transit":false,"distance":7025,"station_name":"Parung Panjang"},{"transit":false,"station_id":"CC","is_transit":false,"line":0,"i_lat":-6.329547,"distance":5968,"i_long":106.617853,"time":8,"station_name":"Cicayur"},{"time":4,"i_long":106.640411,"i_lat":-6.32484,"transit":false,"station_id":"CSK","is_transit":false,"line":0,"distance":2519,"station_name":"Cisauk"},{"i_long":106.66566,"transit":false,"time":4,"is_transit":false,"station_name":"Serpong","distance":1784,"line":6,"i_lat":-6.319871,"station_id":"SRP"},{"time":4,"i_long":106.675475,"line":6,"i_lat":-6.314823,"station_id":"RU","distance":2413,"station_name":"Rawa Buntu","transit":false,"is_transit":false},{"station_id":"SDM","i_lat":-6.296963,"line":6,"time":6,"transit":false,"is_transit":false,"distance":4566,"station_name":"Sudimara","i_long":106.712277},{"station_name":"Jurangmangu","distance":1994,"transit":false,"time":4,"station_id":"JMU","i_long":106.728916,"is_transit":false,"i_lat":-6.288927,"line":6},{"is_transit":false,"i_long":106.74273,"station_id":"PDJ","line":6,"distance":2179,"transit":false,"i_lat":-6.276362,"time":3,"station_name":"Pondokranji"},{"line":6,"time":8,"is_transit":false,"station_id":"KBY","i_lat":-6.237242,"transit":false,"distance":6218,"station_name":"Kebayoran","i_long":106.780334},{"station_id":"PLM","distance":3737,"station_name":"Palmerah","line":6,"is_transit":false,"time":7,"i_lat":-6.207404,"i_long":106.79689,"transit":false},{"time":6,"transit":true,"station_name":"Tanah Abang","station_id":"THB","i_lat":-6.185545,"is_transit":true,"distance":3191,"line":1,"i_long":106.811091},{"distance":3632,"station_name":"Duri","i_long":106.800832,"transit":true,"i_lat":-6.155215,"station_id":"DU","time":8,"line":1,"is_transit":true},{"is_transit":false,"line":0,"time":4,"i_lat":-6.144674,"distance":1230,"station_name":"Angke","transit":false,"station_id":"AK","i_long":106.79867},{"time":9,"transit":true,"line":0,"i_long":106.826365,"distance":4102,"i_lat":-6.132549,"station_id":"KPB","station_name":"Kampung Bandan","is_transit":true},{"transit":false,"line":11,"is_transit":false,"i_lat":-6.14505,"i_long":106.836569,"station_name":"Rajawali","station_id":"RJW","time":3,"distance":1444},{"i_long":106.839204,"station_name":"Kemayoran","transit":false,"i_lat":-6.161728,"time":5,"line":11,"distance":1901,"is_transit":false,"station_id":"KMO"},{"line":11,"is_transit":false,"time":4,"station_id":"PSE","transit":false,"i_lat":-6.174784,"i_long":106.84368,"distance":1436,"station_name":"Pasar Senen"},{"is_transit":false,"i_long":106.850107,"station_id":"GST","distance":1567,"station_name":"Gang Sentiong","i_lat":-6.185975,"transit":false,"line":11,"time":8},{"distance":973,"is_transit":false,"time":1,"i_long":106.855437,"transit":false,"line":11,"station_id":"KMT","i_lat":-6.193792,"station_name":"Kramat"},{"time":2,"station_id":"POK","transit":false,"distance":1829,"is_transit":false,"station_name":"Pondok Jati","i_long":106.861737,"i_lat":-6.209188,"line":11},{"station_name":"Jatinegara","i_lat":-6.215091,"line":0,"station_id":"JNG","is_transit":true,"i_long":106.86807400000001,"distance":1236,"time":9,"transit":true},{"transit":false,"i_lat":-6.212485,"is_transit":false,"time":2,"station_name":"Matraman","distance":1377,"i_long":106.858896,"line":1,"station_id":"MTR"},{"station_name":"Manggarai","is_transit":true,"i_lat":-6.209883,"distance":1275,"time":2,"station_id":"MRI","transit":true,"i_long":106.84912,"line":0},{"time":4,"i_long":106.840169,"line":0,"distance":1590,"is_transit":false,"i_lat":-6.198556,"station_id":"CKI","station_name":"Cikini","transit":false},{"distance":1750,"is_transit":false,"station_id":"GDD","station_name":"Gondangdia","i_lat":-6.186295,"i_long":106.832183,"time":3,"line":2,"transit":false},{"station_id":"JUA","is_transit":false,"transit":false,"i_long":106.828284,"distance":2015,"time":4,"i_lat":-6.166716,"line":2,"station_name":"Juanda"},{"transit":false,"i_lat":-6.160725,"time":2,"distance":1149,"station_name":"Sawah Besar","line":2,"i_long":106.827103,"is_transit":false,"station_id":"SW"}],[{"is_transit":false,"station_id":"TGS","transit":false,"line":6,"distance":0,"i_lat":-6.328533,"station_name":"Tigaraksa","i_long":106.425991,"time":0},{"time":5,"station_id":"TEJ","transit":false,"station_name":"Tenjo","i_long":106.460812,"is_transit":false,"line":6,"distance":2974,"i_lat":-6.327251},{"station_id":"DAR","i_lat":-6.338021,"i_long":106.491338,"station_name":"Daru","distance":3902,"time":5,"is_transit":false,"transit":false,"line":0},{"station_id":"CJT","i_lat":-6.354349,"line":0,"is_transit":false,"station_name":"Cilejit","i_long":106.508482,"time":6,"distance":2675,"transit":false},{"is_transit":false,"line":6,"time":9,"i_lat":-6.3441410000000005,"station_name":"Parung Panjang","i_long":106.568863,"transit":false,"station_id":"PRP","distance":7025},{"i_lat":-6.329547,"i_long":106.617853,"is_transit":false,"distance":5968,"station_id":"CC","station_name":"Cicayur","transit":false,"time":8,"line":0},{"i_long":106.640411,"transit":false,"is_transit":false,"station_name":"Cisauk","station_id":"CSK","i_lat":-6.32484,"distance":2519,"line":0,"time":4},{"transit":false,"distance":1784,"i_lat":-6.319871,"i_long":106.66566,"station_name":"Serpong","station_id":"SRP","is_transit":false,"line":6,"time":4},{"time":4,"line":6,"station_name":"Rawa Buntu","i_lat":-6.314823,"i_long":106.675475,"station_id":"RU","distance":2413,"is_transit":false,"transit":false},{"distance":4566,"line":6,"time":6,"is_transit":false,"station_name":"Sudimara","i_lat":-6.296963,"i_long":106.712277,"transit":false,"station_id":"SDM"},{"distance":1994,"line":6,"time":4,"i_lat":-6.288927,"transit":false,"is_transit":false,"station_id":"JMU","station_name":"Jurangmangu","i_long":106.728916},{"line":6,"is_transit":false,"station_id":"PDJ","station_name":"Pondokranji","i_long":106.74273,"i_lat":-6.276362,"transit":false,"distance":2179,"time":3},{"i_lat":-6.237242,"station_id":"KBY","line":6,"transit":false,"distance":6218,"is_transit":false,"i_long":106.780334,"time":8,"station_name":"Kebayoran"},{"line":6,"distance":3737,"i_lat":-6.207404,"is_transit":false,"i_long":106.79689,"transit":false,"station_id":"PLM","time":7,"station_name":"Palmerah"},{"transit":true,"i_long":106.811091,"time":6,"distance":3191,"station_id":"THB","station_name":"Tanah Abang","i_lat":-6.185545,"line":1,"is_transit":true},{"distance":2029,"i_long":106.816351,"is_transit":false,"station_id":"KAT","line":1,"time":5,"station_name":"Karet","i_lat":-6.20132,"transit":false},{"distance":471,"time":1,"transit":false,"station_id":"SUDB","station_name":"Sudirman Baru","i_lat":-6.201433,"i_long":106.819881,"line":1,"is_transit":false},{"station_name":"Sudirman","i_long":106.822649,"i_lat":-6.202263,"station_id":"SUD","is_transit":false,"time":1,"transit":false,"line":1,"distance":280},{"is_transit":true,"station_id":"MRI","i_long":106.84912,"i_lat":-6.209883,"station_name":"Manggarai","line":0,"time":4,"distance":3186,"transit":false},{"line":1,"time":2,"distance":1275,"station_id":"MTR","transit":false,"station_name":"Matraman","i_lat":-6.212485,"i_long":106.858896,"is_transit":false},{"transit":true,"time":8,"i_long":106.86807400000001,"station_id":"JNG","line":0,"is_transit":true,"distance":1377,"station_name":"Jatinegara","i_lat":-6.215091},{"line":11,"is_transit":false,"station_id":"POK","i_lat":-6.209188,"i_long":106.861737,"time":2,"transit":false,"station_name":"Pondok Jati","distance":1236},{"station_name":"Kramat","i_long":106.855437,"line":11,"time":2,"is_transit":false,"station_id":"KMT","i_lat":-6.193792,"transit":false,"distance":1829},{"distance":973,"station_name":"Gang Sentiong","i_lat":-6.185975,"i_long":106.850107,"station_id":"GST","line":11,"is_transit":false,"time":1,"transit":false},{"station_name":"Pasar Senen","i_long":106.84368,"station_id":"PSE","time":8,"line":11,"is_transit":false,"i_lat":-6.174784,"transit":false,"distance":1567},{"i_long":106.839204,"line":11,"is_transit":false,"station_id":"KMO","time":4,"i_lat":-6.161728,"transit":false,"distance":1436,"station_name":"Kemayoran"},{"station_name":"Rajawali","transit":false,"is_transit":false,"i_long":106.836569,"time":5,"distance":1901,"line":11,"i_lat":-6.14505,"station_id":"RJW"},{"i_lat":-6.132549,"line":0,"station_id":"KPB","time":3,"distance":1444,"transit":true,"i_long":106.826365,"station_name":"Kampung Bandan","is_transit":true},{"distance":1364,"transit":true,"line":0,"i_lat":-6.137569,"time":3,"is_transit":true,"station_id":"JAKK","station_name":"Jakarta Kota","i_long":106.812439},{"transit":false,"i_long":106.820901,"line":7,"distance":1264,"station_id":"JAY","time":4,"station_name":"Jayakarta","i_lat":-6.141205,"is_transit":false},{"time":2,"i_long":106.82482,"station_id":"MGB","i_lat":-6.149769,"distance":1080,"line":2,"transit":false,"is_transit":false,"station_name":"Manggabesar"},{"station_name":"Sawah Besar","is_transit":false,"transit":false,"time":2,"line":2,"i_long":106.827103,"i_lat":-6.160725,"distance":906,"station_id":"SW"}]]}