{"data":[[{"i_lat":-6.328533,"station_name":"Tigaraksa","i_long":106.425991,"station_id":"TGS","time":0,"line":6,"transit":false,"is_transit":false,"distance":0},{"station_name":"Tenjo","distance":2974,"time":5,"i_long":106.460812,"transit":false,"line":6,"i_lat":-6.327251,"station_id":"TEJ","is_transit":false},{"is_transit":false,"distance":3902,"station_name":"Daru","station_id":"DAR","i_lat":-6.338021,"line":0,"time":5,"transit":false,"i_long":106.491338},{"distance":2675,"transit":false,"time":6,"i_long":106.508482,"line":3,"i_lat":-6.354349,"station_name":"Cilejit","is_transit":false,"station_id":"CJT"},{"distance":7025,"station_id":"PRP","is_transit":false,"time":9,"station_name":"Parung Panjang","i_long":106.568863,"transit":false,"i_lat":-6.3441410000000005,"line":6},{"line":3,"is_transit":false,"i_long":106.617853,"transit":false,"time":8,"i_lat":-6.329547,"station_name":"Cicayur","distance":5968,"station_id":"CC"},{"transit":false,"station_name":"Cisauk","is_transit":false,"time":4,"line":3,"distance":2519,"i_lat":-6.32484,"i_long":106.640411,"station_id":"CSK"},{"i_lat":-6.319871,"transit":false,"station_name":"Serpong","i_long":106.66566,"time":4,"station_id":"SRP","is_transit":false,"line":6,"distance":1784},{"time":4,"is_transit":false,"i_long":106.675475,"transit":false,"line":6,"i_lat":-6.314823,"station_name":"Rawa Buntu","station_id":"RU","distance":2413},{"time":6,"i_long":106.712277,"line":6,"is_transit":false,"station_id":"SDM","transit":false,"i_lat":-6.296963,"distance":4566,"station_name":"Sudimara"},{"transit":false,"time":4,"station_id":"JMU","station_name":"Jurangmangu","is_transit":false,"distance":1994,"line":6,"i_lat":-6.288927,"i_long":106.728916},{"i_long":106.74273,"line":6,"station_name":"Pondokranji","is_transit":false,"distance":2179,"time":3,"transit":false,"i_lat":-6.276362,"station_id":"PDJ"},{"i_long":106.780334,"is_transit":false,"time":8,"i_lat":-6.237242,"line":6,"station_id":"KBY","station_name":"Kebayoran","transit":false,"distance":6218},{"station_id":"PLM","distance":3737,"i_lat":-6.207404,"transit":false,"line":6,"i_long":106.79689,"station_name":"Palmerah","is_transit":false,"time":7},{"transit":true,"station_name":"Tanah Abang","time":6,"distance":3191,"station_id":"THB","i_lat":-6.185545,"line":1,"i_long":106.811091,"is_transit":true},{"station_id":"DU","transit":true,"is_transit":true,"station_name":"Duri","line":1,"i_lat":-6.155215,"i_long":106.800832,"distance":3632,"time":8},{"station_name":"Grogol","is_transit":false,"i_lat":-6.162021,"time":3,"line":5,"station_id":"GGL","i_long":106.788277,"distance":1700,"transit":false},{"distance":2036,"i_lat":-6.161433,"is_transit":false,"i_long":106.771379,"line":5,"station_id":"PSG","station_name":"Pesing","transit":false,"time":2},{"distance":1614,"is_transit":false,"station_id":"TKO","line":5,"transit":false,"i_lat":-6.1587309999999995,"station_name":"Taman Kota","time":2,"i_long":106.756522},{"distance":2334,"transit":false,"station_id":"BOI","i_lat":-6.159876,"time":2,"line":5,"station_name":"Bojongindah","i_long":106.737035,"is_transit":false},{"station_name":"Rawa Buaya","i_lat":-6.162758,"line":5,"distance":1152,"transit":false,"time":4,"station_id":"RW","i_long":106.723064,"is_transit":false},{"station_name":"Kalideres","station_id":"KDS","transit":false,"time":3,"is_transit":false,"i_long":106.701612,"line":5,"distance":2504,"i_lat":-6.166068},{"i_long":106.679458,"i_lat":-6.169933,"transit":false,"is_transit":false,"time":3,"line":5,"station_id":"PI","distance":2548,"station_name":"Poris"},{"distance":1834,"i_long":106.665036,"is_transit":false,"transit":false,"time":3,"i_lat":-6.171811,"station_id":"BPR","station_name":"Batuceper","line":5},{"station_id":"TTI","i_lat":-6.17331,"line":5,"i_long":106.64657,"transit":false,"station_name":"Tanah Tinggi","is_transit":false,"time":3,"distance":2028}],[{"transit":false,"station_id":"TGS","distance":0,"time":0,"line":6,"i_lat":-6.328533,"is_transit":false,"station_name":"Tigaraksa","i_long":106.425991},{"i_lat":-6.327251,"time":5,"distance":2974,"line":6,"station_id":"TEJ","is_transit":false,"transit":false,"i_long":106.460812,"station_name":"Tenjo"},{"i_long":106.491338,"transit":false,"line":0,"station_name":"Daru","is_transit":false,"station_id":"DAR","distance":3902,"i_lat":-6.338021,"time":5},{"i_lat":-6.354349,"time":6,"distance":2675,"station_id":"CJT","is_transit":false,"i_long":106.508482,"line":3,"transit":false,"station_name":"Cilejit"},{"is_transit":false,"line":6,"i_long":106.568863,"distance":7025,"transit":false,"time":9,"i_lat":-6.3441410000000005,"station_name":"Parung Panjang","station_id":"PRP"},{"station_id":"CC","i_lat":-6.329547,"distance":5968,"transit":false,"is_transit":false,"station_name":"Cicayur","time":8,"line":3,"i_long":106.617853},{"station_id":"CSK","transit":false,"i_long":106.640411,"is_transit":false,"time":4,"line":3,"i_lat":-6.32484,"station_name":"Cisauk","distance":2519},{"transit":false,"is_transit":false,"station_name":"Serpong","time":4,"distance":1784,"i_long":106.66566,"line":6,"i_lat":-6.319871,"station_id":"SRP"},{"time":4,"i_long":106.675475,"line":6,"station_id":"RU","distance":2413,"transit":false,"station_name":"Rawa Buntu","is_transit":false,"i_lat":-6.314823},{"station_name":"Sudimara","i_long":106.712277,"is_transit":false,"line":6,"distance":4566,"i_lat":-6.296963,"time":6,"station_id":"SDM","transit":false},{"distance":1994,"station_name":"Jurangmangu","line":6,"i_lat":-6.288927,"time":4,"transit":false,"i_long":106.728916,"is_transit":false,"station_id":"JMU"},{"time":3,"distance":2179,"station_id":"PDJ","station_name":"Pondokranji","transit":false,"is_transit":false,"line":6,"i_long":106.74273,"i_lat":-6.276362},{"station_id":"KBY","distance":6218,"station_name":"Kebayoran","transit":false,"is_transit":false,"i_long":106.780334,"time":8,"i_lat":-6.237242,"line":6},{"time":7,"i_long":106.79689,"line":6,"transit":false,"i_lat":-6.207404,"distance":3737,"station_name":"Palmerah","is_transit":false,"station_id":"PLM"},{"time":6,"distance":3191,"station_id":"THB","station_name":"Tanah Abang","i_long":106.811091,"transit":true,"line":1,"is_transit":true,"i_lat":-6.185545},{"i_long":106.816351,"is_transit":false,"i_lat":-6.20132,"line":1,"distance":2029,"time":5,"transit":false,"station_name":"Karet","station_id":"KAT"},{"transit":false,"station_id":"SUDB","station_name":"Sudirman Baru","line":1,"time":1,"is_transit":false,"i_lat":-6.201433,"distance":471,"i_long":106.819881},{"i_long":106.822649,"line":1,"transit":false,"station_id":"SUD","is_transit":false,"i_lat":-6.202263,"distance":280,"station_name":"Sudirman","time":1},{"station_id":"MRI","i_long":106.84912,"line":2,"distance":3186,"time":4,"i_lat":-6.209883,"station_name":"Manggarai","transit":true,"is_transit":true},{"i_long":106.840169,"transit":false,"station_id":"CKI","distance":1590,"time":4,"line":2,"station_name":"Cikini","is_transit":false,"i_lat":-6.198556},{"i_lat":-6.186295,"is_transit":false,"i_long":106.832183,"line":2,"distance":1750,"transit":false,"station_name":"Gondangdia","time":3,"station_id":"GDD"},{"transit":false,"i_long":106.828284,"line":2,"is_transit":false,"station_id":"JUA","station_name":"Juanda","i_lat":-6.166716,"distance":2015,"time":4},{"station_id":"SW","i_lat":-6.160725,"is_transit":false,"i_long":106.827103,"transit":false,"distance":1149,"time":2,"line":2,"station_name":"Sawah Besar"},{"line":2,"station_id":"MGB","i_long":106.82482,"is_transit":false,"distance":906,"transit":false,"i_lat":-6.149769,"time":2,"station_name":"Manggabesar"},{"station_id":"JAY","is_transit":false,"i_long":106.820901,"transit":false,"line":2,"i_lat":-6.141205,"station_name":"Jayakarta","time":2,"distance":1080},{"station_name":"Jakarta Kota","is_transit":true,"line":2,"i_lat":-6.137569,"distance":1264,"transit":true,"i_long":106.812439,"station_id":"JAKK","time":4},{"station_name":"Kampung Bandan","line":4,"is_transit":true,"distance":1364,"i_lat":-6.132549,"station_id":"KPB","time":3,"transit":true,"i_long":106.826365},{"transit":false,"is_transit":false,"distance":4102,"station_id":"AK","time":9,"i_lat":-6.144674,"i_long":106.79867,"station_name":"Angke","line":1},{"station_name":"Duri","station_id":"DU","is_transit":true,"transit":true,"i_lat":-6.155215,"distance":1230,"i_long":106.800832,"line":1,"time":4},{"station_id":"GGL","is_transit":false,"i_long":106.788277,"i_lat":-6.162021,"station_name":"Grogol","transit":false,"line":5,"distance":1700,"time":3},{"is_transit":false,"i_lat":-6.161433,"line":5,"station_name":"Pesing","station_id":"PSG","distance":2036,"transit":false,"time":2,"i_long":106.771379},{"distance":1614,"transit":false,"is_transit":false,"i_long":106.756522,"time":2,"station_id":"TKO","station_name":"Taman Kota","i_lat":-6.1587309999999995,"line":5},{"distance":2334,"station_id":"BOI","transit":false,"station_name":"Bojongindah","i_long":106.737035,"line":5,"i_lat":-6.159876,"time":2,"is_transit":false},{"station_id":"RW","station_name":"Rawa Buaya","distance":1152,"time":4,"is_transit":false,"i_long":106.723064,"transit":false,"i_lat":-6.162758,"line":5},{"distance":2504,"station_name":"Kalideres","i_lat":-6.166068,"station_id":"KDS","transit":false,"time":3,"i_long":106.701612,"line":5,"is_transit":false},{"transit":false,"i_lat":-6.169933,"time":3,"i_long":106.679458,"is_transit":false,"distance":2548,"station_id":"PI","station_name":"Poris","line":5},{"distance":1834,"transit":false,"station_name":"Batuceper","line":5,"time":3,"is_transit":false,"i_lat":-6.171811,"i_long":106.665036,"station_id":"BPR"},{"i_long":106.64657,"time":3,"station_name":"Tanah Tinggi","i_lat":-6.17331,"is_transit":false,"station_id":"TTI","transit":false,"line":5,"distance":2028}],[{"distance":0,"i_long":106.425991,"time":0,"line":6,"station_name":"Tigaraksa","is_transit":false,"transit":false,"station_id":"TGS","i_lat":-6.328533},{"i_long":106.460812,"station_name":"Tenjo","is_transit":false,"time":5,"i_lat":-6.327251,"distance":2974,"line":6,"transit":false,"station_id":"TEJ"},{"transit":false,"station_id":"DAR","time":5,"is_transit":false,"i_long":106.491338,"i_lat":-6.338021,"line":0,"distance":3902,"station_name":"Daru"},{"time":6,"i_long":106.508482,"i_lat":-6.354349,"line":3,"is_transit":false,"station_id":"CJT","distance":2675,"transit":false,"station_name":"Cilejit"},{"station_name":"Parung Panjang","line":6,"is_transit":false,"time":9,"station_id":"PRP","i_lat":-6.3441410000000005,"i_long":106.568863,"distance":7025,"transit":false},{"station_id":"CC","station_name":"Cicayur","is_transit":false,"time":8,"line":3,"i_lat":-6.329547,"distance":5968,"transit":false,"i_long":106.617853},{"station_name":"Cisauk","i_lat":-6.32484,"line":3,"transit":false,"is_transit":false,"i_long":106.640411,"station_id":"CSK","distance":2519,"time":4},{"station_id":"SRP","transit":false,"distance":1784,"is_transit":false,"time":4,"i_lat":-6.319871,"line":6,"station_name":"Serpong","i_long":106.66566},{"distance":2413,"i_long":106.675475,"station_name":"Rawa Buntu","line":6,"station_id":"RU","time":4,"i_lat":-6.314823,"transit":false,"is_transit":false},{"i_lat":-6.296963,"time":6,"transit":false,"i_long":106.712277,"station_name":"Sudimara","line":6,"distance":4566,"station_id":"SDM","is_transit":false},{"transit":false,"distance":1994,"is_transit":false,"time":4,"station_name":"Jurangmangu","station_id":"JMU","i_lat":-6.288927,"i_long":106.728916,"line":6},{"line":6,"distance":2179,"is_transit":false,"time":3,"i_lat":-6.276362,"station_name":"Pondokranji","i_long":106.74273,"station_id":"PDJ","transit":false},{"i_lat":-6.237242,"station_name":"Kebayoran","i_long":106.780334,"is_transit":false,"line":6,"distance":6218,"transit":false,"time":8,"station_id":"KBY"},{"is_transit":false,"i_lat":-6.207404,"station_name":"Palmerah","station_id":"PLM","i_long":106.79689,"transit":false,"time":7,"line":6,"distance":3737},{"station_id":"THB","is_transit":true,"i_long":106.811091,"i_lat":-6.185545,"time":6,"transit":true,"line":1,"distance":3191,"station_name":"Tanah Abang"},{"station_id":"KAT","time":5,"distance":2029,"station_name":"Karet","is_transit":false,"transit":false,"line":1,"i_long":106.816351,"i_lat":-6.20132},{"line":1,"distance":471,"transit":false,"i_long":106.819881,"station_name":"Sudirman Baru","is_transit":false,"station_id":"SUDB","i_lat":-6.201433,"time":1},{"line":1,"i_long":106.822649,"distance":280,"transit":false,"station_name":"Sudirman","is_transit":false,"time":1,"i_lat":-6.202263,"station_id":"SUD"},{"time":4,"line":2,"i_lat":-6.209883,"station_name":"Manggarai","is_transit":false,"i_long":106.84912,"distance":3186,"transit":false,"station_id":"MRI"},{"i_long":106.858896,"transit":false,"time":2,"i_lat":-6.212485,"station_id":"MTR","is_transit":false,"line":1,"distance":1275,"station_name":"Matraman"},{"distance":1377,"time":8,"transit":true,"i_lat":-6.215091,"is_transit":true,"station_name":"Jatinegara","i_long":106.86807400000001,"station_id":"JNG","line":1},{"station_name":"Pondok Jati","station_id":"POK","is_transit":false,"transit":false,"i_lat":-6.209188,"distance":1236,"line":11,"i_long":106.861737,"time":2},{"transit":false,"line":11,"station_name":"Kramat","station_id":"KMT","time":2,"i_long":106.855437,"distance":1829,"is_transit":false,"i_lat":-6.193792},{"station_name":"Gang Sentiong","distance":973,"i_lat":-6.185975,"i_long":106.850107,"is_transit":false,"transit":false,"line":11,"station_id":"GST","time":1},{"is_transit":false,"distance":1567,"transit":false,"i_long":106.84368,"line":11,"station_name":"Pasar Senen","i_lat":-6.174784,"station_id":"PSE","time":8},{"i_lat":-6.161728,"time":4,"i_long":106.839204,"is_transit":false,"distance":1436,"station_name":"Kemayoran","transit":false,"line":11,"station_id":"KMO"},{"station_id":"RJW","station_name":"Rajawali","is_transit":false,"i_long":106.836569,"transit":false,"time":5,"line":11,"distance":1901,"i_lat":-6.14505},{"i_long":106.826365,"transit":true,"is_transit":true,"i_lat":-6.132549,"station_name":"Kampung Bandan","time":3,"distance":1444,"station_id":"KPB","line":4},{"station_id":"AK","time":9,"i_long":106.79867,"i_lat":-6.144674,"transit":false,"station_name":"Angke","is_transit":false,"line":1,"distance":4102},{"station_name":"Duri","i_lat":-6.155215,"transit":true,"i_long":106.800832,"distance":1230,"line":1,"station_id":"DU","time":4,"is_transit":true},{"is_transit":false,"time":3,"transit":false,"station_id":"GGL","i_long":106.788277,"distance":1700,"i_lat":-6.162021,"line":5,"station_name":"Grogol"},{"line":5,"time":2,"distance":2036,"station_id":"PSG","i_lat":-6.161433,"i_long":106.771379,"station_name":"Pesing","transit":false,"is_transit":false},{"station_id":"TKO","time":2,"transit":false,"line":5,"i_lat":-6.1587309999999995,"is_transit":false,"distance":1614,"station_name":"Taman Kota","i_long":106.756522},{"line":5,"station_name":"Bojongindah","distance":2334,"time":2,"station_id":"BOI","transit":false,"i_lat":-6.159876,"is_transit":false,"i_long":106.737035},{"distance":1152,"station_id":"RW","station_name":"Rawa Buaya","is_transit":false,"time":4,"i_long":106.723064,"transit":false,"line":5,"i_lat":-6.162758},{"i_lat":-6.166068,"line":5,"time":3,"distance":2504,"transit":false,"i_long":106.701612,"station_id":"KDS","is_transit":false,"station_name":"Kalideres"},{"station_id":"PI","time":3,"i_lat":-6.169933,"is_transit":false,"i_long":106.679458,"station_name":"Poris","line":5,"transit":false,"distance":2548},{"transit":false,"station_name":"Batuceper","time":3,"i_lat":-6.171811,"distance":1834,"i_long":106.665036,"is_transit":false,"station_id":"BPR","line":5},{"i_long":106.64657,"station_id":"TTI","time":3,"i_lat":-6.17331,"is_transit":false,"line":5,"transit":false,"distance":2028,"station_name":"Tanah Tinggi"}]]}