{"data":[[{"i_long":106.425991,"i_lat":-6.328533,"distance":0,"line":6,"station_name":"Tigaraksa","is_transit":false,"transit":false,"station_id":"TGS","time":0},{"transit":false,"line":6,"time":5,"is_transit":false,"station_id":"TEJ","distance":2974,"i_lat":-6.327251,"station_name":"Tenjo","i_long":106.460812},{"station_name":"Daru","is_transit":false,"time":5,"station_id":"DAR","transit":false,"i_lat":-6.338021,"i_long":106.491338,"distance":3902,"line":0},{"distance":2675,"is_transit":false,"station_name":"Cilejit","i_long":106.508482,"station_id":"CJT","transit":false,"i_lat":-6.354349,"time":6,"line":0},{"time":9,"line":6,"i_long":106.568863,"station_name":"Parung Panjang","distance":7025,"is_transit":false,"station_id":"PRP","transit":false,"i_lat":-6.3441410000000005},{"i_lat":-6.329547,"line":0,"distance":5968,"is_transit":false,"station_name":"Cicayur","time":8,"station_id":"CC","i_long":106.617853,"transit":false},{"station_id":"CSK","line":0,"station_name":"Cisauk","distance":2519,"i_long":106.640411,"is_transit":false,"i_lat":-6.32484,"time":4,"transit":false},{"station_name":"Serpong","i_long":106.66566,"time":4,"is_transit":false,"i_lat":-6.319871,"transit":false,"line":6,"station_id":"SRP","distance":1784},{"time":4,"is_transit":false,"i_lat":-6.314823,"transit":false,"station_name":"Rawa Buntu","distance":2413,"line":6,"station_id":"RU","i_long":106.675475},{"time":6,"station_name":"Sudimara","transit":false,"distance":4566,"is_transit":false,"i_lat":-6.296963,"i_long":106.712277,"station_id":"SDM","line":6},{"distance":1994,"i_lat":-6.288927,"station_name":"Jurangmangu","time":4,"is_transit":false,"i_long":106.728916,"line":6,"transit":false,"station_id":"JMU"},{"i_long":106.74273,"transit":false,"distance":2179,"line":6,"is_transit":false,"station_id":"PDJ","time":3,"i_lat":-6.276362,"station_name":"Pondokranji"},{"transit":false,"i_lat":-6.237242,"station_name":"Kebayoran","i_long":106.780334,"station_id":"KBY","is_transit":false,"time":8,"distance":6218,"line":6},{"time":7,"i_lat":-6.207404,"station_name":"Palmerah","transit":false,"station_id":"PLM","distance":3737,"i_long":106.79689,"line":6,"is_transit":false},{"i_lat":-6.185545,"station_id":"THB","is_transit":true,"time":6,"i_long":106.811091,"line":1,"transit":true,"distance":3191,"station_name":"Tanah Abang"},{"i_long":106.816351,"transit":false,"time":5,"i_lat":-6.20132,"station_id":"KAT","distance":2029,"station_name":"Karet","is_transit":false,"line":1},{"distance":471,"transit":false,"line":1,"is_transit":false,"i_lat":-6.201433,"i_long":106.819881,"station_name":"Sudirman Baru","station_id":"SUDB","time":1},{"is_transit":false,"transit":false,"distance":280,"i_long":106.822649,"station_name":"Sudirman","station_id":"SUD","line":1,"time":1,"i_lat":-6.202263},{"i_long":106.84912,"i_lat":-6.209883,"time":4,"distance":3186,"transit":true,"line":0,"is_transit":true,"station_name":"Manggarai","station_id":"MRI"},{"station_id":"TEB","time":4,"is_transit":false,"station_name":"Tebet","distance":2610,"line":2,"transit":false,"i_long":106.857948,"i_lat":-6.226659},{"is_transit":false,"distance":1230,"station_name":"Cawang","transit":false,"i_lat":-6.242512,"time":2,"i_long":106.856607,"line":0,"station_id":"CW"},{"i_long":106.85449,"transit":false,"line":0,"distance":1546,"time":3,"station_id":"DRN","is_transit":false,"station_name":"Duren Kalibata","i_lat":-6.255332},{"transit":false,"i_long":106.851577,"station_name":"Pasar Minggu Baru","station_id":"PSMB","is_transit":false,"line":2,"distance":824,"time":2,"i_lat":-6.263214},{"distance":2380,"line":2,"station_id":"PSM","transit":false,"i_lat":-6.2842400000000005,"time":2,"is_transit":false,"station_name":"Pasar Minggu","i_long":106.843999},{"i_long":106.838896,"line":2,"i_lat":-6.3080680000000005,"is_transit":false,"station_name":"Tanjung Barat","distance":2820,"station_id":"TNT","time":4,"transit":false},{"transit":false,"station_name":"Lenteng Agung","station_id":"LNA","line":2,"i_long":106.832616,"is_transit":false,"i_lat":-6.330363,"time":3,"distance":2671},{"line":2,"is_transit":false,"time":2,"distance":1029,"i_lat":-6.339291,"i_long":106.834175,"station_id":"UP","station_name":"Univ. Pancasila","transit":false},{"i_long":106.831474,"station_name":"Univ. Indonesia","time":3,"station_id":"UI","line":2,"transit":false,"distance":2264,"i_lat":-6.360749,"is_transit":false},{"station_id":"POC","time":2,"transit":false,"distance":1109,"is_transit":false,"station_name":"Pondok Cina","line":2,"i_long":106.831114,"i_lat":-6.369073},{"is_transit":false,"distance":2727,"time":4,"i_lat":-6.391065,"line":0,"station_name":"Depokbaru","i_long":106.819451,"transit":false,"station_id":"DPB"},{"i_lat":-6.405256,"station_id":"DP","transit":false,"station_name":"Depok","i_long":106.816926,"distance":1584,"line":0,"is_transit":false,"time":3},{"i_long":106.800298,"station_id":"CTA","line":1,"time":6,"distance":5084,"i_lat":-6.448811,"transit":false,"station_name":"Citayam","is_transit":true}],[{"line":6,"time":0,"is_transit":false,"transit":false,"station_name":"Tigaraksa","i_long":106.425991,"station_id":"TGS","distance":0,"i_lat":-6.328533},{"is_transit":false,"i_lat":-6.327251,"i_long":106.460812,"line":6,"time":5,"station_name":"Tenjo","station_id":"TEJ","distance":2974,"transit":false},{"transit":false,"i_long":106.491338,"line":0,"i_lat":-6.338021,"time":5,"station_id":"DAR","station_name":"Daru","is_transit":false,"distance":3902},{"station_id":"CJT","station_name":"Cilejit","time":6,"distance":2675,"line":0,"i_lat":-6.354349,"i_long":106.508482,"transit":false,"is_transit":false},{"distance":7025,"time":9,"i_long":106.568863,"i_lat":-6.3441410000000005,"transit":false,"station_id":"PRP","line":6,"station_name":"Parung Panjang","is_transit":false},{"transit":false,"line":0,"is_transit":false,"time":8,"i_long":106.617853,"i_lat":-6.329547,"distance":5968,"station_name":"Cicayur","station_id":"CC"},{"distance":2519,"i_lat":-6.32484,"i_long":106.640411,"is_transit":false,"transit":false,"station_id":"CSK","station_name":"Cisauk","time":4,"line":0},{"i_lat":-6.319871,"station_name":"Serpong","is_transit":false,"time":4,"line":6,"transit":false,"distance":1784,"station_id":"SRP","i_long":106.66566},{"i_lat":-6.314823,"line":6,"station_id":"RU","station_name":"Rawa Buntu","i_long":106.675475,"is_transit":false,"distance":2413,"transit":false,"time":4},{"line":6,"distance":4566,"station_name":"Sudimara","i_lat":-6.296963,"transit":false,"is_transit":false,"time":6,"i_long":106.712277,"station_id":"SDM"},{"transit":false,"station_id":"JMU","line":6,"station_name":"Jurangmangu","distance":1994,"time":4,"is_transit":false,"i_long":106.728916,"i_lat":-6.288927},{"station_name":"Pondokranji","distance":2179,"is_transit":false,"i_lat":-6.276362,"i_long":106.74273,"line":6,"time":3,"transit":false,"station_id":"PDJ"},{"is_transit":false,"time":8,"distance":6218,"transit":false,"station_id":"KBY","i_lat":-6.237242,"line":6,"station_name":"Kebayoran","i_long":106.780334},{"distance":3737,"transit":false,"station_id":"PLM","i_lat":-6.207404,"is_transit":false,"line":6,"i_long":106.79689,"time":7,"station_name":"Palmerah"},{"transit":true,"station_name":"Tanah Abang","is_transit":true,"line":1,"i_long":106.811091,"time":6,"distance":3191,"i_lat":-6.185545,"station_id":"THB"},{"station_id":"DU","i_lat":-6.155215,"time":8,"station_name":"Duri","distance":3632,"i_long":106.800832,"line":1,"transit":true,"is_transit":true},{"distance":1230,"i_long":106.79867,"station_name":"Angke","line":0,"station_id":"AK","is_transit":false,"transit":false,"i_lat":-6.144674,"time":4},{"station_id":"KPB","station_name":"Kampung Bandan","i_long":106.826365,"i_lat":-6.132549,"line":0,"time":9,"distance":4102,"transit":false,"is_transit":true},{"i_long":106.812439,"station_id":"JAKK","distance":1364,"line":0,"is_transit":true,"transit":true,"time":3,"i_lat":-6.137569,"station_name":"Jakarta Kota"},{"i_long":106.820901,"station_id":"JAY","time":4,"transit":false,"station_name":"Jayakarta","is_transit":false,"distance":1264,"line":7,"i_lat":-6.141205},{"is_transit":false,"time":2,"station_name":"Manggabesar","line":2,"i_lat":-6.149769,"station_id":"MGB","i_long":106.82482,"transit":false,"distance":1080},{"station_id":"SW","distance":906,"i_lat":-6.160725,"time":2,"line":2,"station_name":"Sawah Besar","is_transit":false,"transit":false,"i_long":106.827103},{"line":2,"distance":1149,"transit":false,"is_transit":false,"station_id":"JUA","i_lat":-6.166716,"station_name":"Juanda","i_long":106.828284,"time":2},{"is_transit":false,"i_lat":-6.186295,"station_name":"Gondangdia","i_long":106.832183,"line":2,"distance":2015,"time":4,"station_id":"GDD","transit":false},{"station_name":"Cikini","line":0,"transit":false,"is_transit":false,"distance":1750,"i_lat":-6.198556,"station_id":"CKI","time":3,"i_long":106.840169},{"distance":1590,"station_id":"MRI","transit":true,"i_long":106.84912,"station_name":"Manggarai","line":0,"is_transit":true,"time":4,"i_lat":-6.209883},{"is_transit":false,"i_lat":-6.226659,"i_long":106.857948,"station_id":"TEB","time":4,"line":2,"distance":2610,"transit":false,"station_name":"Tebet"},{"i_long":106.856607,"time":2,"transit":false,"line":0,"station_name":"Cawang","is_transit":false,"i_lat":-6.242512,"distance":1230,"station_id":"CW"},{"i_long":106.85449,"is_transit":false,"station_name":"Duren Kalibata","transit":false,"line":0,"distance":1546,"station_id":"DRN","i_lat":-6.255332,"time":3},{"line":2,"station_name":"Pasar Minggu Baru","is_transit":false,"station_id":"PSMB","time":2,"i_long":106.851577,"distance":824,"transit":false,"i_lat":-6.263214},{"i_long":106.843999,"station_id":"PSM","time":2,"line":2,"transit":false,"is_transit":false,"distance":2380,"station_name":"Pasar Minggu","i_lat":-6.2842400000000005},{"line":2,"time":4,"distance":2820,"station_name":"Tanjung Barat","i_long":106.838896,"station_id":"TNT","transit":false,"is_transit":false,"i_lat":-6.3080680000000005},{"transit":false,"distance":2671,"station_name":"Lenteng Agung","i_long":106.832616,"station_id":"LNA","line":2,"i_lat":-6.330363,"is_transit":false,"time":3},{"transit":false,"i_long":106.834175,"distance":1029,"is_transit":false,"line":2,"station_name":"Univ. Pancasila","station_id":"UP","time":2,"i_lat":-6.339291},{"station_name":"Univ. Indonesia","time":3,"station_id":"UI","distance":2264,"transit":false,"is_transit":false,"i_lat":-6.360749,"i_long":106.831474,"line":2},{"line":2,"station_id":"POC","transit":false,"is_transit":false,"station_name":"Pondok Cina","distance":1109,"i_lat":-6.369073,"i_long":106.831114,"time":2},{"distance":2727,"station_id":"DPB","is_transit":false,"transit":false,"station_name":"Depokbaru","i_long":106.819451,"i_lat":-6.391065,"line":0,"time":4},{"is_transit":false,"station_id":"DP","station_name":"Depok","transit":false,"i_lat":-6.405256,"i_long":106.816926,"time":3,"distance":1584,"line":0},{"distance":5084,"time":6,"transit":false,"i_long":106.800298,"i_lat":-6.448811,"line":1,"is_transit":true,"station_id":"CTA","station_name":"Citayam"}],[{"i_lat":-6.328533,"distance":0,"time":0,"is_transit":false,"transit":false,"i_long":106.425991,"station_name":"Tigaraksa","line":6,"station_id":"TGS"},{"i_long":106.460812,"station_name":"Tenjo","time":5,"i_lat":-6.327251,"transit":false,"distance":2974,"line":6,"station_id":"TEJ","is_transit":false},{"station_name":"Daru","transit":false,"i_lat":-6.338021,"i_long":106.491338,"is_transit":false,"time":5,"distance":3902,"line":0,"station_id":"DAR"},{"transit":false,"station_id":"CJT","station_name":"Cilejit","time":6,"i_lat":-6.354349,"is_transit":false,"line":0,"i_long":106.508482,"distance":2675},{"time":9,"is_transit":false,"i_lat":-6.3441410000000005,"line":6,"i_long":106.568863,"station_id":"PRP","station_name":"Parung Panjang","distance":7025,"transit":false},{"station_id":"CC","time":8,"i_lat":-6.329547,"distance":5968,"line":0,"is_transit":false,"i_long":106.617853,"station_name":"Cicayur","transit":false},{"i_lat":-6.32484,"distance":2519,"i_long":106.640411,"line":0,"transit":false,"station_name":"Cisauk","time":4,"is_transit":false,"station_id":"CSK"},{"line":6,"transit":false,"i_long":106.66566,"station_name":"Serpong","station_id":"SRP","is_transit":false,"distance":1784,"i_lat":-6.319871,"time":4},{"station_id":"RU","transit":false,"line":6,"i_long":106.675475,"i_lat":-6.314823,"station_name":"Rawa Buntu","distance":2413,"is_transit":false,"time":4},{"transit":false,"i_long":106.712277,"i_lat":-6.296963,"time":6,"line":6,"station_name":"Sudimara","is_transit":false,"distance":4566,"station_id":"SDM"},{"is_transit":false,"station_name":"Jurangmangu","transit":false,"line":6,"i_long":106.728916,"station_id":"JMU","time":4,"distance":1994,"i_lat":-6.288927},{"i_lat":-6.276362,"i_long":106.74273,"is_transit":false,"station_name":"Pondokranji","line":6,"distance":2179,"station_id":"PDJ","transit":false,"time":3},{"distance":6218,"transit":false,"i_lat":-6.237242,"i_long":106.780334,"station_id":"KBY","station_name":"Kebayoran","time":8,"line":6,"is_transit":false},{"station_name":"Palmerah","i_lat":-6.207404,"distance":3737,"i_long":106.79689,"line":6,"time":7,"is_transit":false,"station_id":"PLM","transit":false},{"time":6,"station_id":"THB","is_transit":true,"distance":3191,"transit":true,"i_lat":-6.185545,"station_name":"Tanah Abang","i_long":106.811091,"line":1},{"transit":true,"station_name":"Duri","is_transit":true,"distance":3632,"line":1,"i_lat":-6.155215,"time":8,"station_id":"DU","i_long":106.800832},{"station_name":"Angke","i_lat":-6.144674,"transit":false,"distance":1230,"line":0,"time":4,"station_id":"AK","i_long":106.79867,"is_transit":false},{"i_long":106.826365,"line":0,"station_id":"KPB","station_name":"Kampung Bandan","time":9,"i_lat":-6.132549,"distance":4102,"is_transit":true,"transit":true},{"i_lat":-6.14505,"station_name":"Rajawali","transit":false,"is_transit":false,"time":3,"distance":1444,"station_id":"RJW","i_long":106.836569,"line":11},{"station_id":"KMO","transit":false,"i_long":106.839204,"time":5,"distance":1901,"is_transit":false,"station_name":"Kemayoran","line":11,"i_lat":-6.161728},{"time":4,"station_name":"Pasar Senen","distance":1436,"transit":false,"i_long":106.84368,"is_transit":false,"station_id":"PSE","line":11,"i_lat":-6.174784},{"station_name":"Gang Sentiong","distance":1567,"is_transit":false,"time":8,"i_lat":-6.185975,"station_id":"GST","transit":false,"i_long":106.850107,"line":11},{"transit":false,"i_lat":-6.193792,"time":1,"i_long":106.855437,"line":11,"distance":973,"is_transit":false,"station_name":"Kramat","station_id":"KMT"},{"time":2,"i_long":106.861737,"distance":1829,"station_name":"Pondok Jati","transit":false,"line":11,"i_lat":-6.209188,"is_transit":false,"station_id":"POK"},{"is_transit":true,"transit":true,"distance":1236,"i_lat":-6.215091,"line":0,"station_id":"JNG","time":9,"i_long":106.86807400000001,"station_name":"Jatinegara"},{"distance":1377,"i_long":106.858896,"line":1,"time":2,"is_transit":false,"transit":false,"station_name":"Matraman","i_lat":-6.212485,"station_id":"MTR"},{"is_transit":true,"station_id":"MRI","distance":1275,"transit":true,"i_long":106.84912,"station_name":"Manggarai","i_lat":-6.209883,"line":0,"time":2},{"station_name":"Tebet","i_long":106.857948,"time":4,"distance":2610,"transit":false,"is_transit":false,"i_lat":-6.226659,"line":2,"station_id":"TEB"},{"station_id":"CW","station_name":"Cawang","distance":1230,"i_long":106.856607,"i_lat":-6.242512,"line":0,"time":2,"transit":false,"is_transit":false},{"i_lat":-6.255332,"is_transit":false,"station_id":"DRN","distance":1546,"i_long":106.85449,"time":3,"line":0,"station_name":"Duren Kalibata","transit":false},{"line":2,"time":2,"transit":false,"i_lat":-6.263214,"station_name":"Pasar Minggu Baru","i_long":106.851577,"station_id":"PSMB","distance":824,"is_transit":false},{"transit":false,"i_lat":-6.2842400000000005,"line":2,"station_name":"Pasar Minggu","is_transit":false,"i_long":106.843999,"time":2,"station_id":"PSM","distance":2380},{"distance":2820,"transit":false,"i_lat":-6.3080680000000005,"station_name":"Tanjung Barat","station_id":"TNT","is_transit":false,"time":4,"i_long":106.838896,"line":2},{"is_transit":false,"transit":false,"distance":2671,"line":2,"time":3,"i_lat":-6.330363,"i_long":106.832616,"station_name":"Lenteng Agung","station_id":"LNA"},{"distance":1029,"station_name":"Univ. Pancasila","transit":false,"line":2,"station_id":"UP","i_lat":-6.339291,"is_transit":false,"time":2,"i_long":106.834175},{"line":2,"transit":false,"time":3,"i_lat":-6.360749,"station_id":"UI","i_long":106.831474,"station_name":"Univ. Indonesia","distance":2264,"is_transit":false},{"distance":1109,"is_transit":false,"transit":false,"station_name":"Pondok Cina","time":2,"i_lat":-6.369073,"station_id":"POC","i_long":106.831114,"line":2},{"i_long":106.819451,"distance":2727,"line":0,"station_name":"Depokbaru","station_id":"DPB","i_lat":-6.391065,"time":4,"transit":false,"is_transit":false},{"distance":1584,"i_lat":-6.405256,"transit":false,"i_long":106.816926,"time":3,"is_transit":false,"line":0,"station_name":"Depok","station_id":"DP"},{"time":6,"station_id":"CTA","distance":5084,"transit":false,"is_transit":true,"i_long":106.800298,"line":1,"i_lat":-6.448811,"station_name":"Citayam"}]]}