{"data":[[{"station_name":"Tigaraksa","is_transit":false,"i_lat":-6.328533,"i_long":106.425991,"station_id":"TGS","distance":0,"line":6,"time":0,"transit":false},{"time":5,"line":6,"distance":2974,"i_long":106.460812,"station_name":"Tenjo","i_lat":-6.327251,"station_id":"TEJ","is_transit":false,"transit":false},{"time":5,"station_name":"Daru","i_lat":-6.338021,"transit":false,"station_id":"DAR","distance":3902,"is_transit":false,"i_long":106.491338,"line":0},{"i_long":106.508482,"time":6,"station_id":"CJT","distance":2675,"transit":false,"i_lat":-6.354349,"line":3,"is_transit":false,"station_name":"Cilejit"},{"transit":false,"distance":7025,"station_name":"Parung Panjang","i_long":106.568863,"is_transit":false,"line":6,"time":9,"i_lat":-6.3441410000000005,"station_id":"PRP"},{"i_lat":-6.329547,"i_long":106.617853,"time":8,"station_id":"CC","distance":5968,"transit":false,"station_name":"Cicayur","line":3,"is_transit":false},{"i_lat":-6.32484,"i_long":106.640411,"is_transit":false,"transit":false,"station_id":"CSK","line":3,"distance":2519,"time":4,"station_name":"Cisauk"},{"time":4,"station_name":"Serpong","station_id":"SRP","is_transit":false,"i_long":106.66566,"distance":1784,"line":6,"transit":false,"i_lat":-6.319871},{"time":4,"distance":2413,"i_long":106.675475,"transit":false,"station_id":"RU","line":6,"is_transit":false,"station_name":"Rawa Buntu","i_lat":-6.314823},{"transit":false,"i_lat":-6.296963,"station_name":"Sudimara","distance":4566,"station_id":"SDM","is_transit":false,"i_long":106.712277,"time":6,"line":6},{"transit":false,"station_name":"Jurangmangu","line":6,"i_long":106.728916,"is_transit":false,"distance":1994,"time":4,"station_id":"JMU","i_lat":-6.288927},{"i_long":106.74273,"line":6,"is_transit":false,"station_id":"PDJ","transit":false,"time":3,"i_lat":-6.276362,"distance":2179,"station_name":"Pondokranji"},{"time":8,"distance":6218,"i_long":106.780334,"station_id":"KBY","i_lat":-6.237242,"line":6,"station_name":"Kebayoran","is_transit":false,"transit":false},{"i_lat":-6.207404,"time":7,"distance":3737,"station_id":"PLM","transit":false,"line":6,"station_name":"Palmerah","is_transit":false,"i_long":106.79689}]]}