{"data":[[{"i_long":106.425991,"is_transit":false,"i_lat":-6.328533,"station_id":"TGS","distance":0,"transit":false,"time":0,"station_name":"Tigaraksa","line":6},{"transit":false,"i_lat":-6.327251,"station_id":"TEJ","station_name":"Tenjo","line":6,"is_transit":false,"distance":2974,"i_long":106.460812,"time":5},{"time":5,"i_long":106.491338,"station_name":"Daru","is_transit":false,"distance":3902,"station_id":"DAR","line":0,"transit":false,"i_lat":-6.338021},{"transit":false,"i_lat":-6.354349,"is_transit":false,"distance":2675,"time":6,"station_id":"CJT","i_long":106.508482,"line":3,"station_name":"Cilejit"},{"transit":false,"i_lat":-6.3441410000000005,"is_transit":false,"station_id":"PRP","time":9,"distance":7025,"line":6,"i_long":106.568863,"station_name":"Parung Panjang"},{"line":3,"is_transit":false,"transit":false,"i_long":106.617853,"distance":5968,"station_id":"CC","station_name":"Cicayur","time":8,"i_lat":-6.329547},{"time":4,"i_lat":-6.32484,"i_long":106.640411,"distance":2519,"is_transit":false,"station_id":"CSK","transit":false,"station_name":"Cisauk","line":3},{"i_lat":-6.319871,"station_id":"SRP","time":4,"is_transit":false,"transit":false,"station_name":"Serpong","line":6,"distance":1784,"i_long":106.66566},{"time":4,"i_lat":-6.314823,"is_transit":false,"distance":2413,"station_name":"Rawa Buntu","i_long":106.675475,"line":6,"station_id":"RU","transit":false},{"line":6,"time":6,"station_id":"SDM","i_long":106.712277,"transit":false,"i_lat":-6.296963,"distance":4566,"is_transit":false,"station_name":"Sudimara"},{"station_id":"JMU","i_long":106.728916,"line":6,"i_lat":-6.288927,"distance":1994,"time":4,"is_transit":false,"transit":false,"station_name":"Jurangmangu"},{"line":6,"station_name":"Pondokranji","is_transit":false,"transit":false,"time":3,"i_long":106.74273,"distance":2179,"i_lat":-6.276362,"station_id":"PDJ"},{"i_lat":-6.237242,"transit":false,"i_long":106.780334,"distance":6218,"line":6,"is_transit":false,"station_id":"KBY","time":8,"station_name":"Kebayoran"},{"transit":false,"station_name":"Palmerah","time":7,"station_id":"PLM","distance":3737,"i_lat":-6.207404,"i_long":106.79689,"is_transit":false,"line":6},{"station_name":"Tanah Abang","distance":3191,"line":1,"transit":true,"time":6,"is_transit":true,"station_id":"THB","i_lat":-6.185545,"i_long":106.811091},{"station_name":"Duri","i_long":106.800832,"i_lat":-6.155215,"is_transit":false,"distance":3632,"time":8,"transit":false,"line":1,"station_id":"DU"},{"station_id":"AK","time":4,"station_name":"Angke","transit":false,"i_lat":-6.144674,"line":1,"i_long":106.79867,"distance":1230,"is_transit":false},{"station_name":"Kampung Bandan","is_transit":true,"time":9,"line":4,"transit":true,"i_lat":-6.132549,"distance":4102,"station_id":"KPB","i_long":106.826365},{"station_name":"Ancol","distance":2185,"time":4,"i_lat":-6.128023,"is_transit":false,"transit":false,"line":4,"station_id":"AC","i_long":106.84464},{"transit":false,"i_long":106.880089,"time":9,"station_id":"TPK","i_lat":-6.1109480000000005,"is_transit":false,"distance":4566,"station_name":"Tanjung Priuk","line":4}],[{"line":6,"time":0,"station_name":"Tigaraksa","i_lat":-6.328533,"is_transit":false,"transit":false,"distance":0,"station_id":"TGS","i_long":106.425991},{"time":5,"distance":2974,"transit":false,"i_lat":-6.327251,"line":6,"is_transit":false,"station_name":"Tenjo","i_long":106.460812,"station_id":"TEJ"},{"distance":3902,"time":5,"is_transit":false,"i_lat":-6.338021,"line":0,"transit":false,"station_name":"Daru","station_id":"DAR","i_long":106.491338},{"i_long":106.508482,"is_transit":false,"transit":false,"line":3,"distance":2675,"station_name":"Cilejit","i_lat":-6.354349,"time":6,"station_id":"CJT"},{"time":9,"line":6,"is_transit":false,"i_lat":-6.3441410000000005,"distance":7025,"station_name":"Parung Panjang","transit":false,"station_id":"PRP","i_long":106.568863},{"is_transit":false,"line":3,"transit":false,"station_name":"Cicayur","station_id":"CC","i_long":106.617853,"distance":5968,"i_lat":-6.329547,"time":8},{"station_id":"CSK","is_transit":false,"transit":false,"station_name":"Cisauk","i_lat":-6.32484,"i_long":106.640411,"time":4,"line":3,"distance":2519},{"transit":false,"station_name":"Serpong","station_id":"SRP","time":4,"line":6,"distance":1784,"i_lat":-6.319871,"is_transit":false,"i_long":106.66566},{"distance":2413,"time":4,"station_id":"RU","i_lat":-6.314823,"is_transit":false,"line":6,"station_name":"Rawa Buntu","i_long":106.675475,"transit":false},{"station_name":"Sudimara","i_lat":-6.296963,"transit":false,"time":6,"distance":4566,"station_id":"SDM","i_long":106.712277,"is_transit":false,"line":6},{"distance":1994,"transit":false,"i_long":106.728916,"is_transit":false,"line":6,"time":4,"station_name":"Jurangmangu","station_id":"JMU","i_lat":-6.288927},{"is_transit":false,"i_lat":-6.276362,"station_name":"Pondokranji","transit":false,"station_id":"PDJ","time":3,"line":6,"i_long":106.74273,"distance":2179},{"station_id":"KBY","is_transit":false,"line":6,"station_name":"Kebayoran","distance":6218,"time":8,"i_lat":-6.237242,"i_long":106.780334,"transit":false},{"station_name":"Palmerah","is_transit":false,"i_long":106.79689,"station_id":"PLM","i_lat":-6.207404,"line":6,"distance":3737,"time":7,"transit":false},{"i_long":106.811091,"station_name":"Tanah Abang","i_lat":-6.185545,"transit":true,"distance":3191,"is_transit":true,"line":1,"station_id":"THB","time":6},{"i_lat":-6.20132,"line":1,"time":5,"station_id":"KAT","distance":2029,"transit":false,"is_transit":false,"i_long":106.816351,"station_name":"Karet"},{"station_id":"SUDB","is_transit":false,"distance":471,"station_name":"Sudirman Baru","time":1,"transit":false,"i_lat":-6.201433,"i_long":106.819881,"line":1},{"i_lat":-6.202263,"line":1,"i_long":106.822649,"is_transit":false,"station_name":"Sudirman","distance":280,"time":1,"station_id":"SUD","transit":false},{"time":4,"is_transit":true,"station_name":"Manggarai","i_lat":-6.209883,"distance":3186,"transit":true,"station_id":"MRI","i_long":106.84912,"line":2},{"line":2,"transit":false,"station_name":"Cikini","is_transit":false,"distance":1590,"time":4,"i_long":106.840169,"station_id":"CKI","i_lat":-6.198556},{"station_id":"GDD","station_name":"Gondangdia","i_long":106.832183,"time":3,"i_lat":-6.186295,"distance":1750,"line":2,"transit":false,"is_transit":false},{"transit":false,"is_transit":false,"i_lat":-6.166716,"line":2,"i_long":106.828284,"station_id":"JUA","time":4,"distance":2015,"station_name":"Juanda"},{"is_transit":false,"station_id":"SW","i_long":106.827103,"distance":1149,"transit":false,"line":2,"time":2,"station_name":"Sawah Besar","i_lat":-6.160725},{"time":2,"line":2,"transit":false,"station_id":"MGB","i_lat":-6.149769,"is_transit":false,"station_name":"Manggabesar","distance":906,"i_long":106.82482},{"time":2,"transit":false,"station_name":"Jayakarta","station_id":"JAY","i_lat":-6.141205,"line":2,"i_long":106.820901,"distance":1080,"is_transit":false},{"i_lat":-6.137569,"transit":true,"i_long":106.812439,"station_name":"Jakarta Kota","line":2,"station_id":"JAKK","is_transit":true,"distance":1264,"time":4},{"i_lat":-6.132549,"station_id":"KPB","i_long":106.826365,"line":4,"transit":true,"station_name":"Kampung Bandan","is_transit":true,"time":3,"distance":1364},{"line":4,"station_id":"AC","distance":2185,"station_name":"Ancol","transit":false,"time":4,"is_transit":false,"i_lat":-6.128023,"i_long":106.84464},{"i_lat":-6.1109480000000005,"transit":false,"i_long":106.880089,"time":9,"is_transit":false,"station_name":"Tanjung Priuk","line":4,"distance":4566,"station_id":"TPK"}],[{"transit":false,"station_id":"TGS","distance":0,"station_name":"Tigaraksa","time":0,"i_long":106.425991,"line":6,"i_lat":-6.328533,"is_transit":false},{"time":5,"distance":2974,"transit":false,"station_id":"TEJ","station_name":"Tenjo","i_long":106.460812,"i_lat":-6.327251,"line":6,"is_transit":false},{"station_id":"DAR","station_name":"Daru","time":5,"i_long":106.491338,"i_lat":-6.338021,"line":0,"transit":false,"is_transit":false,"distance":3902},{"station_name":"Cilejit","i_long":106.508482,"transit":false,"is_transit":false,"station_id":"CJT","line":3,"time":6,"distance":2675,"i_lat":-6.354349},{"is_transit":false,"transit":false,"station_name":"Parung Panjang","station_id":"PRP","time":9,"i_lat":-6.3441410000000005,"line":6,"i_long":106.568863,"distance":7025},{"time":8,"is_transit":false,"distance":5968,"station_id":"CC","i_lat":-6.329547,"i_long":106.617853,"transit":false,"station_name":"Cicayur","line":3},{"transit":false,"time":4,"i_lat":-6.32484,"is_transit":false,"line":3,"station_id":"CSK","distance":2519,"i_long":106.640411,"station_name":"Cisauk"},{"time":4,"line":6,"transit":false,"is_transit":false,"i_long":106.66566,"distance":1784,"station_id":"SRP","station_name":"Serpong","i_lat":-6.319871},{"is_transit":false,"i_lat":-6.314823,"line":6,"station_name":"Rawa Buntu","distance":2413,"transit":false,"i_long":106.675475,"time":4,"station_id":"RU"},{"i_long":106.712277,"is_transit":false,"i_lat":-6.296963,"line":6,"time":6,"station_name":"Sudimara","distance":4566,"station_id":"SDM","transit":false},{"distance":1994,"i_lat":-6.288927,"i_long":106.728916,"transit":false,"station_id":"JMU","station_name":"Jurangmangu","line":6,"is_transit":false,"time":4},{"distance":2179,"i_lat":-6.276362,"transit":false,"i_long":106.74273,"is_transit":false,"station_id":"PDJ","station_name":"Pondokranji","time":3,"line":6},{"time":8,"station_name":"Kebayoran","line":6,"is_transit":false,"station_id":"KBY","transit":false,"i_lat":-6.237242,"i_long":106.780334,"distance":6218},{"distance":3737,"time":7,"i_lat":-6.207404,"line":6,"transit":false,"station_id":"PLM","is_transit":false,"i_long":106.79689,"station_name":"Palmerah"},{"is_transit":true,"station_id":"THB","transit":true,"time":6,"distance":3191,"i_long":106.811091,"i_lat":-6.185545,"station_name":"Tanah Abang","line":1},{"distance":2029,"station_id":"KAT","is_transit":false,"transit":false,"i_long":106.816351,"station_name":"Karet","i_lat":-6.20132,"line":1,"time":5},{"line":1,"is_transit":false,"station_name":"Sudirman Baru","transit":false,"station_id":"SUDB","i_long":106.819881,"time":1,"i_lat":-6.201433,"distance":471},{"distance":280,"transit":false,"is_transit":false,"i_lat":-6.202263,"i_long":106.822649,"line":1,"station_id":"SUD","station_name":"Sudirman","time":1},{"is_transit":false,"transit":false,"time":4,"i_long":106.84912,"station_id":"MRI","distance":3186,"line":2,"station_name":"Manggarai","i_lat":-6.209883},{"line":1,"time":2,"distance":1275,"transit":false,"station_name":"Matraman","station_id":"MTR","i_long":106.858896,"is_transit":false,"i_lat":-6.212485},{"transit":true,"i_lat":-6.215091,"i_long":106.86807400000001,"line":1,"is_transit":true,"station_name":"Jatinegara","station_id":"JNG","time":8,"distance":1377},{"is_transit":false,"time":2,"i_lat":-6.209188,"transit":false,"line":11,"station_id":"POK","i_long":106.861737,"station_name":"Pondok Jati","distance":1236},{"station_id":"KMT","i_lat":-6.193792,"transit":false,"distance":1829,"is_transit":false,"station_name":"Kramat","i_long":106.855437,"line":11,"time":2},{"station_name":"Gang Sentiong","time":1,"i_long":106.850107,"i_lat":-6.185975,"is_transit":false,"distance":973,"transit":false,"line":11,"station_id":"GST"},{"transit":false,"distance":1567,"is_transit":false,"time":8,"station_name":"Pasar Senen","station_id":"PSE","i_lat":-6.174784,"i_long":106.84368,"line":11},{"distance":1436,"time":4,"is_transit":false,"i_lat":-6.161728,"station_name":"Kemayoran","transit":false,"i_long":106.839204,"station_id":"KMO","line":11},{"i_lat":-6.14505,"line":11,"distance":1901,"is_transit":false,"i_long":106.836569,"time":5,"station_id":"RJW","transit":false,"station_name":"Rajawali"},{"i_lat":-6.132549,"i_long":106.826365,"line":4,"is_transit":true,"station_name":"Kampung Bandan","station_id":"KPB","distance":1444,"transit":true,"time":3},{"distance":2185,"transit":false,"i_lat":-6.128023,"station_name":"Ancol","line":4,"is_transit":false,"station_id":"AC","time":4,"i_long":106.84464},{"station_name":"Tanjung Priuk","time":9,"transit":false,"i_lat":-6.1109480000000005,"line":4,"distance":4566,"is_transit":false,"station_id":"TPK","i_long":106.880089}]]}