{"data":[[{"transit":false,"station_name":"Tigaraksa","distance":0,"i_long":106.425991,"i_lat":-6.328533,"is_transit":false,"station_id":"TGS","time":0,"line":6},{"time":5,"i_long":106.460812,"is_transit":false,"station_id":"TEJ","distance":2974,"transit":false,"line":6,"i_lat":-6.327251,"station_name":"Tenjo"},{"time":5,"i_lat":-6.338021,"transit":false,"station_id":"DAR","is_transit":false,"line":0,"distance":3902,"station_name":"Daru","i_long":106.491338},{"time":6,"line":3,"distance":2675,"station_id":"CJT","transit":false,"is_transit":false,"i_lat":-6.354349,"station_name":"Cilejit","i_long":106.508482},{"line":6,"time":9,"is_transit":false,"station_name":"Parung Panjang","i_lat":-6.3441410000000005,"i_long":106.568863,"station_id":"PRP","transit":false,"distance":7025},{"is_transit":false,"transit":false,"distance":5968,"time":8,"station_name":"Cicayur","i_lat":-6.329547,"i_long":106.617853,"line":3,"station_id":"CC"},{"line":3,"i_lat":-6.32484,"station_name":"Cisauk","transit":false,"is_transit":false,"station_id":"CSK","i_long":106.640411,"time":4,"distance":2519}]]}