{"data":[[{"line":6,"time":0,"i_long":106.425991,"station_name":"Tigaraksa","i_lat":-6.328533,"station_id":"TGS","transit":false,"is_transit":false,"distance":0},{"line":6,"time":5,"transit":false,"station_name":"Tenjo","is_transit":false,"i_lat":-6.327251,"distance":2974,"station_id":"TEJ","i_long":106.460812},{"transit":false,"station_id":"DAR","station_name":"Daru","is_transit":false,"distance":3902,"i_long":106.491338,"time":5,"line":0,"i_lat":-6.338021},{"i_long":106.508482,"time":6,"line":3,"i_lat":-6.354349,"station_id":"CJT","is_transit":false,"station_name":"Cilejit","transit":false,"distance":2675},{"transit":false,"distance":7025,"station_id":"PRP","is_transit":false,"station_name":"Parung Panjang","time":9,"i_lat":-6.3441410000000005,"i_long":106.568863,"line":6},{"station_id":"CC","line":3,"is_transit":false,"i_lat":-6.329547,"time":8,"transit":false,"distance":5968,"i_long":106.617853,"station_name":"Cicayur"},{"time":4,"i_long":106.640411,"distance":2519,"line":3,"i_lat":-6.32484,"transit":false,"station_name":"Cisauk","station_id":"CSK","is_transit":false},{"is_transit":false,"transit":false,"time":4,"station_id":"SRP","distance":1784,"i_lat":-6.319871,"line":6,"station_name":"Serpong","i_long":106.66566},{"transit":false,"station_name":"Rawa Buntu","i_long":106.675475,"time":4,"station_id":"RU","is_transit":false,"distance":2413,"i_lat":-6.314823,"line":6},{"i_long":106.712277,"station_name":"Sudimara","station_id":"SDM","time":6,"i_lat":-6.296963,"line":6,"distance":4566,"transit":false,"is_transit":false},{"i_long":106.728916,"station_id":"JMU","time":4,"distance":1994,"station_name":"Jurangmangu","is_transit":false,"line":6,"i_lat":-6.288927,"transit":false},{"i_long":106.74273,"station_id":"PDJ","line":6,"is_transit":false,"distance":2179,"i_lat":-6.276362,"transit":false,"station_name":"Pondokranji","time":3},{"i_lat":-6.237242,"transit":false,"is_transit":false,"line":6,"distance":6218,"i_long":106.780334,"station_id":"KBY","time":8,"station_name":"Kebayoran"},{"station_name":"Palmerah","i_long":106.79689,"transit":false,"distance":3737,"is_transit":false,"station_id":"PLM","time":7,"i_lat":-6.207404,"line":6},{"distance":3191,"is_transit":true,"line":1,"station_name":"Tanah Abang","time":6,"i_long":106.811091,"i_lat":-6.185545,"station_id":"THB","transit":true},{"i_long":106.816351,"station_name":"Karet","is_transit":false,"time":5,"distance":2029,"line":1,"transit":false,"i_lat":-6.20132,"station_id":"KAT"},{"station_id":"SUDB","i_lat":-6.201433,"time":1,"i_long":106.819881,"station_name":"Sudirman Baru","line":1,"is_transit":false,"distance":471,"transit":false},{"time":1,"i_lat":-6.202263,"transit":false,"station_name":"Sudirman","is_transit":false,"line":1,"station_id":"SUD","distance":280,"i_long":106.822649},{"transit":false,"is_transit":false,"i_lat":-6.209883,"line":2,"station_id":"MRI","distance":3186,"station_name":"Manggarai","time":4,"i_long":106.84912},{"i_lat":-6.212485,"is_transit":false,"station_name":"Matraman","time":2,"distance":1275,"line":1,"station_id":"MTR","transit":false,"i_long":106.858896},{"transit":false,"station_id":"JNG","station_name":"Jatinegara","line":1,"time":8,"distance":1377,"i_lat":-6.215091,"is_transit":false,"i_long":106.86807400000001},{"time":3,"station_id":"KLD","i_lat":-6.2135,"station_name":"Klender","distance":3395,"line":1,"transit":false,"i_long":106.899548,"is_transit":false},{"transit":false,"i_long":106.922662,"station_name":"Buaran","station_id":"BUA","time":2,"line":1,"distance":3100,"is_transit":false,"i_lat":-6.215568}],[{"time":0,"line":6,"is_transit":false,"transit":false,"i_long":106.425991,"station_name":"Tigaraksa","i_lat":-6.328533,"distance":0,"station_id":"TGS"},{"line":6,"distance":2974,"i_long":106.460812,"i_lat":-6.327251,"station_id":"TEJ","station_name":"Tenjo","transit":false,"is_transit":false,"time":5},{"time":5,"i_lat":-6.338021,"line":0,"i_long":106.491338,"transit":false,"station_id":"DAR","is_transit":false,"station_name":"Daru","distance":3902},{"time":6,"station_name":"Cilejit","station_id":"CJT","is_transit":false,"i_long":106.508482,"line":3,"distance":2675,"transit":false,"i_lat":-6.354349},{"i_long":106.568863,"distance":7025,"line":6,"station_id":"PRP","is_transit":false,"i_lat":-6.3441410000000005,"station_name":"Parung Panjang","transit":false,"time":9},{"station_name":"Cicayur","time":8,"station_id":"CC","line":3,"i_lat":-6.329547,"i_long":106.617853,"transit":false,"is_transit":false,"distance":5968},{"i_lat":-6.32484,"station_id":"CSK","transit":false,"station_name":"Cisauk","line":3,"is_transit":false,"time":4,"distance":2519,"i_long":106.640411},{"station_id":"SRP","is_transit":false,"time":4,"distance":1784,"i_lat":-6.319871,"i_long":106.66566,"transit":false,"station_name":"Serpong","line":6},{"line":6,"is_transit":false,"i_long":106.675475,"transit":false,"distance":2413,"station_id":"RU","station_name":"Rawa Buntu","time":4,"i_lat":-6.314823},{"station_id":"SDM","transit":false,"is_transit":false,"station_name":"Sudimara","time":6,"distance":4566,"line":6,"i_lat":-6.296963,"i_long":106.712277},{"distance":1994,"line":6,"time":4,"station_id":"JMU","transit":false,"station_name":"Jurangmangu","is_transit":false,"i_lat":-6.288927,"i_long":106.728916},{"i_long":106.74273,"line":6,"is_transit":false,"station_name":"Pondokranji","transit":false,"time":3,"station_id":"PDJ","distance":2179,"i_lat":-6.276362},{"i_lat":-6.237242,"transit":false,"time":8,"station_name":"Kebayoran","distance":6218,"line":6,"is_transit":false,"station_id":"KBY","i_long":106.780334},{"time":7,"i_lat":-6.207404,"line":6,"station_name":"Palmerah","i_long":106.79689,"transit":false,"is_transit":false,"distance":3737,"station_id":"PLM"},{"time":6,"station_id":"THB","transit":true,"i_long":106.811091,"line":1,"station_name":"Tanah Abang","distance":3191,"i_lat":-6.185545,"is_transit":true},{"time":8,"transit":false,"is_transit":false,"i_lat":-6.155215,"station_id":"DU","station_name":"Duri","distance":3632,"i_long":106.800832,"line":1},{"station_name":"Angke","time":4,"line":1,"distance":1230,"i_lat":-6.144674,"station_id":"AK","transit":false,"is_transit":false,"i_long":106.79867},{"transit":true,"i_lat":-6.132549,"i_long":106.826365,"station_id":"KPB","is_transit":true,"line":4,"station_name":"Kampung Bandan","time":9,"distance":4102},{"station_id":"RJW","is_transit":false,"distance":1444,"i_lat":-6.14505,"line":11,"time":3,"station_name":"Rajawali","i_long":106.836569,"transit":false},{"i_lat":-6.161728,"transit":false,"distance":1901,"station_name":"Kemayoran","line":11,"is_transit":false,"i_long":106.839204,"time":5,"station_id":"KMO"},{"station_id":"PSE","time":4,"is_transit":false,"i_long":106.84368,"line":11,"transit":false,"station_name":"Pasar Senen","distance":1436,"i_lat":-6.174784},{"i_long":106.850107,"distance":1567,"is_transit":false,"station_id":"GST","transit":false,"station_name":"Gang Sentiong","line":11,"time":8,"i_lat":-6.185975},{"time":1,"station_name":"Kramat","is_transit":false,"i_long":106.855437,"station_id":"KMT","transit":false,"i_lat":-6.193792,"line":11,"distance":973},{"transit":false,"distance":1829,"i_lat":-6.209188,"station_id":"POK","time":2,"is_transit":false,"station_name":"Pondok Jati","line":11,"i_long":106.861737},{"line":1,"is_transit":true,"distance":1236,"transit":true,"station_name":"Jatinegara","station_id":"JNG","time":9,"i_long":106.86807400000001,"i_lat":-6.215091},{"i_long":106.899548,"station_name":"Klender","transit":false,"time":3,"distance":3395,"i_lat":-6.2135,"is_transit":false,"station_id":"KLD","line":1},{"distance":3100,"i_lat":-6.215568,"i_long":106.922662,"station_name":"Buaran","line":1,"station_id":"BUA","transit":false,"is_transit":false,"time":2}],[{"transit":false,"time":0,"i_long":106.425991,"is_transit":false,"line":6,"station_id":"TGS","station_name":"Tigaraksa","distance":0,"i_lat":-6.328533},{"station_id":"TEJ","i_long":106.460812,"line":6,"transit":false,"is_transit":false,"station_name":"Tenjo","i_lat":-6.327251,"time":5,"distance":2974},{"station_name":"Daru","i_lat":-6.338021,"station_id":"DAR","transit":false,"i_long":106.491338,"line":0,"time":5,"distance":3902,"is_transit":false},{"transit":false,"distance":2675,"station_id":"CJT","station_name":"Cilejit","time":6,"i_lat":-6.354349,"line":3,"i_long":106.508482,"is_transit":false},{"time":9,"station_name":"Parung Panjang","distance":7025,"i_lat":-6.3441410000000005,"transit":false,"station_id":"PRP","line":6,"is_transit":false,"i_long":106.568863},{"station_name":"Cicayur","line":3,"time":8,"transit":false,"is_transit":false,"distance":5968,"i_lat":-6.329547,"station_id":"CC","i_long":106.617853},{"station_name":"Cisauk","distance":2519,"time":4,"i_long":106.640411,"i_lat":-6.32484,"is_transit":false,"transit":false,"station_id":"CSK","line":3},{"line":6,"is_transit":false,"distance":1784,"station_name":"Serpong","time":4,"station_id":"SRP","i_long":106.66566,"transit":false,"i_lat":-6.319871},{"is_transit":false,"station_name":"Rawa Buntu","i_long":106.675475,"transit":false,"distance":2413,"i_lat":-6.314823,"line":6,"station_id":"RU","time":4},{"i_lat":-6.296963,"station_name":"Sudimara","station_id":"SDM","distance":4566,"transit":false,"i_long":106.712277,"is_transit":false,"time":6,"line":6},{"station_id":"JMU","transit":false,"is_transit":false,"time":4,"i_lat":-6.288927,"line":6,"i_long":106.728916,"station_name":"Jurangmangu","distance":1994},{"station_id":"PDJ","station_name":"Pondokranji","is_transit":false,"i_long":106.74273,"transit":false,"time":3,"distance":2179,"line":6,"i_lat":-6.276362},{"line":6,"transit":false,"station_name":"Kebayoran","time":8,"station_id":"KBY","i_lat":-6.237242,"is_transit":false,"i_long":106.780334,"distance":6218},{"station_id":"PLM","distance":3737,"i_lat":-6.207404,"station_name":"Palmerah","line":6,"i_long":106.79689,"is_transit":false,"time":7,"transit":false},{"station_id":"THB","i_long":106.811091,"is_transit":true,"time":6,"distance":3191,"transit":true,"i_lat":-6.185545,"line":1,"station_name":"Tanah Abang"},{"i_long":106.800832,"distance":3632,"line":1,"time":8,"station_name":"Duri","transit":false,"is_transit":false,"i_lat":-6.155215,"station_id":"DU"},{"station_id":"AK","i_lat":-6.144674,"distance":1230,"i_long":106.79867,"is_transit":false,"line":1,"station_name":"Angke","time":4,"transit":false},{"i_long":106.826365,"transit":true,"i_lat":-6.132549,"station_id":"KPB","time":9,"is_transit":true,"line":4,"station_name":"Kampung Bandan","distance":4102},{"is_transit":true,"station_id":"JAKK","station_name":"Jakarta Kota","distance":1364,"i_lat":-6.137569,"line":2,"time":3,"transit":true,"i_long":106.812439},{"time":4,"i_long":106.820901,"transit":false,"station_name":"Jayakarta","distance":1264,"station_id":"JAY","i_lat":-6.141205,"is_transit":false,"line":2},{"distance":1080,"is_transit":false,"transit":false,"station_id":"MGB","i_long":106.82482,"line":2,"station_name":"Manggabesar","i_lat":-6.149769,"time":2},{"distance":906,"time":2,"i_lat":-6.160725,"i_long":106.827103,"is_transit":false,"station_id":"SW","line":2,"transit":false,"station_name":"Sawah Besar"},{"transit":false,"is_transit":false,"time":2,"i_long":106.828284,"line":2,"station_name":"Juanda","i_lat":-6.166716,"distance":1149,"station_id":"JUA"},{"time":4,"i_lat":-6.186295,"station_name":"Gondangdia","i_long":106.832183,"transit":false,"line":2,"distance":2015,"is_transit":false,"station_id":"GDD"},{"time":3,"i_long":106.840169,"i_lat":-6.198556,"transit":false,"distance":1750,"station_id":"CKI","station_name":"Cikini","line":2,"is_transit":false},{"transit":true,"is_transit":true,"i_lat":-6.209883,"line":2,"station_name":"Manggarai","i_long":106.84912,"station_id":"MRI","time":4,"distance":1590},{"i_long":106.858896,"line":1,"station_name":"Matraman","is_transit":false,"distance":1275,"i_lat":-6.212485,"transit":false,"station_id":"MTR","time":2},{"is_transit":false,"i_long":106.86807400000001,"i_lat":-6.215091,"line":1,"station_name":"Jatinegara","station_id":"JNG","time":8,"distance":1377,"transit":false},{"distance":3395,"transit":false,"station_name":"Klender","station_id":"KLD","time":3,"i_long":106.899548,"line":1,"i_lat":-6.2135,"is_transit":false},{"i_long":106.922662,"i_lat":-6.215568,"line":1,"time":2,"station_id":"BUA","station_name":"Buaran","transit":false,"is_transit":false,"distance":3100}],[{"transit":false,"line":6,"station_name":"Tigaraksa","i_lat":-6.328533,"is_transit":false,"distance":0,"i_long":106.425991,"time":0,"station_id":"TGS"},{"station_id":"TEJ","station_name":"Tenjo","line":6,"is_transit":false,"time":5,"transit":false,"distance":2974,"i_lat":-6.327251,"i_long":106.460812},{"i_lat":-6.338021,"time":5,"transit":false,"i_long":106.491338,"station_id":"DAR","is_transit":false,"distance":3902,"line":0,"station_name":"Daru"},{"i_lat":-6.354349,"station_id":"CJT","is_transit":false,"transit":false,"station_name":"Cilejit","line":3,"i_long":106.508482,"time":6,"distance":2675},{"station_name":"Parung Panjang","is_transit":false,"distance":7025,"station_id":"PRP","i_lat":-6.3441410000000005,"transit":false,"i_long":106.568863,"time":9,"line":6},{"distance":5968,"i_long":106.617853,"i_lat":-6.329547,"line":3,"transit":false,"station_name":"Cicayur","time":8,"is_transit":false,"station_id":"CC"},{"station_id":"CSK","line":3,"distance":2519,"time":4,"station_name":"Cisauk","i_lat":-6.32484,"is_transit":false,"transit":false,"i_long":106.640411},{"i_lat":-6.319871,"i_long":106.66566,"is_transit":false,"transit":false,"time":4,"line":6,"station_name":"Serpong","station_id":"SRP","distance":1784},{"time":4,"is_transit":false,"line":6,"station_name":"Rawa Buntu","station_id":"RU","transit":false,"distance":2413,"i_long":106.675475,"i_lat":-6.314823},{"station_id":"SDM","line":6,"time":6,"distance":4566,"is_transit":false,"station_name":"Sudimara","i_long":106.712277,"i_lat":-6.296963,"transit":false},{"time":4,"distance":1994,"station_name":"Jurangmangu","i_lat":-6.288927,"is_transit":false,"station_id":"JMU","i_long":106.728916,"line":6,"transit":false},{"station_name":"Pondokranji","distance":2179,"is_transit":false,"time":3,"i_lat":-6.276362,"transit":false,"i_long":106.74273,"station_id":"PDJ","line":6},{"station_name":"Kebayoran","i_long":106.780334,"time":8,"is_transit":false,"i_lat":-6.237242,"station_id":"KBY","distance":6218,"transit":false,"line":6},{"distance":3737,"transit":false,"line":6,"time":7,"is_transit":false,"i_long":106.79689,"i_lat":-6.207404,"station_name":"Palmerah","station_id":"PLM"},{"i_long":106.811091,"is_transit":true,"distance":3191,"transit":true,"line":1,"i_lat":-6.185545,"station_name":"Tanah Abang","station_id":"THB","time":6},{"i_lat":-6.20132,"is_transit":false,"station_name":"Karet","line":1,"i_long":106.816351,"distance":2029,"transit":false,"time":5,"station_id":"KAT"},{"i_lat":-6.201433,"i_long":106.819881,"time":1,"is_transit":false,"distance":471,"station_id":"SUDB","station_name":"Sudirman Baru","line":1,"transit":false},{"is_transit":false,"distance":280,"i_long":106.822649,"i_lat":-6.202263,"time":1,"station_id":"SUD","line":1,"transit":false,"station_name":"Sudirman"},{"station_name":"Manggarai","transit":true,"i_long":106.84912,"line":2,"station_id":"MRI","is_transit":true,"distance":3186,"i_lat":-6.209883,"time":4},{"i_lat":-6.198556,"line":2,"transit":false,"time":4,"station_name":"Cikini","i_long":106.840169,"station_id":"CKI","is_transit":false,"distance":1590},{"distance":1750,"i_long":106.832183,"station_id":"GDD","is_transit":false,"station_name":"Gondangdia","time":3,"transit":false,"i_lat":-6.186295,"line":2},{"line":2,"station_id":"JUA","distance":2015,"transit":false,"is_transit":false,"time":4,"i_lat":-6.166716,"i_long":106.828284,"station_name":"Juanda"},{"is_transit":false,"time":2,"station_name":"Sawah Besar","station_id":"SW","i_lat":-6.160725,"transit":false,"distance":1149,"i_long":106.827103,"line":2},{"i_long":106.82482,"is_transit":false,"transit":false,"line":2,"station_name":"Manggabesar","time":2,"i_lat":-6.149769,"station_id":"MGB","distance":906},{"station_name":"Jayakarta","time":2,"i_lat":-6.141205,"i_long":106.820901,"distance":1080,"line":2,"station_id":"JAY","transit":false,"is_transit":false},{"i_lat":-6.137569,"transit":true,"distance":1264,"line":2,"is_transit":true,"station_name":"Jakarta Kota","time":4,"station_id":"JAKK","i_long":106.812439},{"time":3,"station_id":"KPB","i_lat":-6.132549,"is_transit":true,"station_name":"Kampung Bandan","i_long":106.826365,"distance":1364,"line":4,"transit":true},{"transit":false,"i_lat":-6.14505,"station_id":"RJW","line":11,"i_long":106.836569,"station_name":"Rajawali","is_transit":false,"time":3,"distance":1444},{"transit":false,"distance":1901,"time":5,"is_transit":false,"i_lat":-6.161728,"line":11,"station_id":"KMO","station_name":"Kemayoran","i_long":106.839204},{"line":11,"transit":false,"station_id":"PSE","station_name":"Pasar Senen","time":4,"i_lat":-6.174784,"is_transit":false,"distance":1436,"i_long":106.84368},{"station_name":"Gang Sentiong","is_transit":false,"transit":false,"i_lat":-6.185975,"time":8,"station_id":"GST","distance":1567,"i_long":106.850107,"line":11},{"distance":973,"transit":false,"is_transit":false,"station_name":"Kramat","i_lat":-6.193792,"time":1,"i_long":106.855437,"line":11,"station_id":"KMT"},{"time":2,"station_name":"Pondok Jati","is_transit":false,"station_id":"POK","transit":false,"i_lat":-6.209188,"line":11,"distance":1829,"i_long":106.861737},{"transit":true,"station_name":"Jatinegara","time":9,"line":1,"distance":1236,"is_transit":true,"station_id":"JNG","i_lat":-6.215091,"i_long":106.86807400000001},{"transit":false,"station_name":"Klender","distance":3395,"line":1,"station_id":"KLD","time":3,"is_transit":false,"i_lat":-6.2135,"i_long":106.899548},{"station_id":"BUA","i_lat":-6.215568,"is_transit":false,"distance":3100,"station_name":"Buaran","transit":false,"time":2,"line":1,"i_long":106.922662}]]}