{"data":[[{"transit":false,"station_name":"Tigaraksa","station_id":"TGS","is_transit":false,"distance":0,"i_lat":-6.328533,"i_long":106.425991,"line":6,"time":0},{"time":5,"line":6,"transit":false,"station_name":"Tenjo","is_transit":false,"i_lat":-6.327251,"i_long":106.460812,"station_id":"TEJ","distance":2974},{"i_lat":-6.338021,"time":5,"i_long":106.491338,"station_name":"Daru","station_id":"DAR","transit":false,"line":0,"distance":3902,"is_transit":false},{"i_long":106.508482,"transit":false,"station_id":"CJT","distance":2675,"time":6,"line":3,"station_name":"Cilejit","is_transit":false,"i_lat":-6.354349},{"station_name":"Parung Panjang","time":9,"is_transit":false,"line":6,"transit":false,"station_id":"PRP","distance":7025,"i_long":106.568863,"i_lat":-6.3441410000000005},{"line":3,"i_lat":-6.329547,"distance":5968,"time":8,"i_long":106.617853,"is_transit":false,"transit":false,"station_name":"Cicayur","station_id":"CC"},{"transit":false,"station_name":"Cisauk","i_long":106.640411,"line":3,"time":4,"distance":2519,"station_id":"CSK","is_transit":false,"i_lat":-6.32484},{"i_long":106.66566,"is_transit":false,"transit":false,"station_id":"SRP","station_name":"Serpong","time":4,"distance":1784,"line":6,"i_lat":-6.319871},{"i_lat":-6.314823,"is_transit":false,"transit":false,"distance":2413,"i_long":106.675475,"station_name":"Rawa Buntu","station_id":"RU","time":4,"line":6},{"distance":4566,"station_name":"Sudimara","i_lat":-6.296963,"station_id":"SDM","transit":false,"is_transit":false,"time":6,"i_long":106.712277,"line":6}]]}