{"data":[[{"station_id":"TGS","i_lat":-6.328533,"line":6,"time":0,"i_long":106.425991,"transit":false,"distance":0,"station_name":"Tigaraksa","is_transit":false},{"line":6,"time":5,"station_name":"Tenjo","i_long":106.460812,"transit":false,"is_transit":false,"station_id":"TEJ","distance":2974,"i_lat":-6.327251},{"transit":false,"i_long":106.491338,"is_transit":false,"line":0,"station_name":"Daru","time":5,"station_id":"DAR","distance":3902,"i_lat":-6.338021},{"time":6,"station_id":"CJT","distance":2675,"i_lat":-6.354349,"is_transit":false,"i_long":106.508482,"station_name":"Cilejit","line":3,"transit":false},{"station_name":"Parung Panjang","i_long":106.568863,"is_transit":false,"i_lat":-6.3441410000000005,"time":9,"distance":7025,"line":6,"station_id":"PRP","transit":false},{"is_transit":false,"i_long":106.617853,"distance":5968,"i_lat":-6.329547,"time":8,"line":3,"transit":false,"station_id":"CC","station_name":"Cicayur"},{"i_lat":-6.32484,"station_id":"CSK","station_name":"Cisauk","distance":2519,"time":4,"i_long":106.640411,"line":3,"is_transit":false,"transit":false},{"i_lat":-6.319871,"i_long":106.66566,"line":6,"station_name":"Serpong","time":4,"is_transit":false,"transit":false,"distance":1784,"station_id":"SRP"},{"station_id":"RU","station_name":"Rawa Buntu","i_lat":-6.314823,"i_long":106.675475,"time":4,"distance":2413,"transit":false,"line":6,"is_transit":false},{"is_transit":false,"distance":4566,"transit":false,"line":6,"station_id":"SDM","i_long":106.712277,"time":6,"i_lat":-6.296963,"station_name":"Sudimara"},{"i_long":106.728916,"line":6,"transit":false,"station_name":"Jurangmangu","station_id":"JMU","distance":1994,"is_transit":false,"i_lat":-6.288927,"time":4},{"time":3,"station_name":"Pondokranji","line":6,"distance":2179,"transit":false,"i_long":106.74273,"is_transit":false,"station_id":"PDJ","i_lat":-6.276362},{"station_name":"Kebayoran","transit":false,"line":6,"station_id":"KBY","distance":6218,"time":8,"is_transit":false,"i_long":106.780334,"i_lat":-6.237242},{"time":7,"distance":3737,"i_lat":-6.207404,"station_id":"PLM","transit":false,"station_name":"Palmerah","i_long":106.79689,"is_transit":false,"line":6},{"station_name":"Tanah Abang","line":1,"station_id":"THB","is_transit":true,"transit":true,"distance":3191,"i_lat":-6.185545,"i_long":106.811091,"time":6},{"station_name":"Karet","time":5,"i_lat":-6.20132,"line":1,"transit":false,"station_id":"KAT","distance":2029,"is_transit":false,"i_long":106.816351},{"station_name":"Sudirman Baru","time":1,"distance":471,"line":1,"transit":false,"is_transit":false,"i_long":106.819881,"station_id":"SUDB","i_lat":-6.201433},{"time":1,"transit":false,"is_transit":false,"i_long":106.822649,"station_name":"Sudirman","line":1,"station_id":"SUD","i_lat":-6.202263,"distance":280},{"station_id":"MRI","station_name":"Manggarai","time":4,"distance":3186,"transit":true,"is_transit":true,"i_lat":-6.209883,"line":2,"i_long":106.84912},{"time":4,"station_name":"Tebet","transit":false,"line":2,"i_lat":-6.226659,"is_transit":false,"station_id":"TEB","i_long":106.857948,"distance":2610},{"i_lat":-6.242512,"line":2,"station_name":"Cawang","time":2,"is_transit":false,"transit":false,"station_id":"CW","distance":1230,"i_long":106.856607},{"station_id":"DRN","i_lat":-6.255332,"time":3,"line":2,"station_name":"Duren Kalibata","i_long":106.85449,"distance":1546,"is_transit":false,"transit":false},{"transit":false,"line":2,"is_transit":false,"i_lat":-6.263214,"station_name":"Pasar Minggu Baru","i_long":106.851577,"distance":824,"station_id":"PSMB","time":2},{"i_lat":-6.2842400000000005,"station_id":"PSM","transit":false,"station_name":"Pasar Minggu","distance":2380,"i_long":106.843999,"line":2,"is_transit":false,"time":2},{"distance":2820,"time":4,"station_name":"Tanjung Barat","station_id":"TNT","i_long":106.838896,"line":2,"i_lat":-6.3080680000000005,"transit":false,"is_transit":false},{"station_name":"Lenteng Agung","time":3,"station_id":"LNA","distance":2671,"i_lat":-6.330363,"i_long":106.832616,"is_transit":false,"transit":false,"line":2},{"i_lat":-6.339291,"time":2,"distance":1029,"transit":false,"station_name":"Univ. Pancasila","is_transit":false,"i_long":106.834175,"line":2,"station_id":"UP"},{"time":3,"i_long":106.831474,"is_transit":false,"i_lat":-6.360749,"transit":false,"station_name":"Univ. Indonesia","station_id":"UI","distance":2264,"line":2},{"i_lat":-6.369073,"time":2,"i_long":106.831114,"station_id":"POC","station_name":"Pondok Cina","distance":1109,"is_transit":false,"line":2,"transit":false}],[{"station_name":"Tigaraksa","is_transit":false,"i_lat":-6.328533,"i_long":106.425991,"line":6,"transit":false,"station_id":"TGS","time":0,"distance":0},{"transit":false,"station_name":"Tenjo","time":5,"line":6,"station_id":"TEJ","is_transit":false,"i_lat":-6.327251,"distance":2974,"i_long":106.460812},{"distance":3902,"transit":false,"time":5,"is_transit":false,"station_name":"Daru","station_id":"DAR","i_lat":-6.338021,"i_long":106.491338,"line":0},{"station_id":"CJT","transit":false,"i_long":106.508482,"i_lat":-6.354349,"station_name":"Cilejit","time":6,"is_transit":false,"distance":2675,"line":3},{"time":9,"distance":7025,"is_transit":false,"transit":false,"line":6,"station_name":"Parung Panjang","station_id":"PRP","i_lat":-6.3441410000000005,"i_long":106.568863},{"line":3,"station_id":"CC","i_long":106.617853,"station_name":"Cicayur","time":8,"distance":5968,"is_transit":false,"transit":false,"i_lat":-6.329547},{"station_id":"CSK","line":3,"distance":2519,"is_transit":false,"i_long":106.640411,"i_lat":-6.32484,"transit":false,"station_name":"Cisauk","time":4},{"distance":1784,"line":6,"time":4,"i_lat":-6.319871,"is_transit":false,"i_long":106.66566,"station_name":"Serpong","transit":false,"station_id":"SRP"},{"distance":2413,"i_long":106.675475,"line":6,"station_id":"RU","is_transit":false,"transit":false,"time":4,"station_name":"Rawa Buntu","i_lat":-6.314823},{"is_transit":false,"time":6,"line":6,"station_id":"SDM","station_name":"Sudimara","i_lat":-6.296963,"i_long":106.712277,"distance":4566,"transit":false},{"distance":1994,"station_id":"JMU","station_name":"Jurangmangu","is_transit":false,"i_lat":-6.288927,"line":6,"time":4,"i_long":106.728916,"transit":false},{"time":3,"i_long":106.74273,"station_id":"PDJ","i_lat":-6.276362,"line":6,"station_name":"Pondokranji","transit":false,"distance":2179,"is_transit":false},{"line":6,"is_transit":false,"time":8,"station_id":"KBY","i_lat":-6.237242,"transit":false,"station_name":"Kebayoran","i_long":106.780334,"distance":6218},{"i_long":106.79689,"time":7,"station_name":"Palmerah","station_id":"PLM","transit":false,"is_transit":false,"distance":3737,"i_lat":-6.207404,"line":6},{"distance":3191,"time":6,"i_long":106.811091,"transit":true,"i_lat":-6.185545,"station_name":"Tanah Abang","station_id":"THB","line":1,"is_transit":true},{"station_id":"DU","station_name":"Duri","i_lat":-6.155215,"time":8,"i_long":106.800832,"transit":false,"is_transit":false,"distance":3632,"line":1},{"line":1,"time":4,"station_name":"Angke","i_lat":-6.144674,"distance":1230,"is_transit":false,"i_long":106.79867,"transit":false,"station_id":"AK"},{"transit":true,"station_name":"Kampung Bandan","line":4,"i_lat":-6.132549,"distance":4102,"station_id":"KPB","time":9,"is_transit":true,"i_long":106.826365},{"time":3,"transit":true,"distance":1364,"station_name":"Jakarta Kota","station_id":"JAKK","line":2,"i_lat":-6.137569,"is_transit":true,"i_long":106.812439},{"is_transit":false,"station_name":"Jayakarta","transit":false,"time":4,"i_lat":-6.141205,"station_id":"JAY","line":2,"i_long":106.820901,"distance":1264},{"distance":1080,"i_lat":-6.149769,"line":2,"station_id":"MGB","transit":false,"i_long":106.82482,"is_transit":false,"time":2,"station_name":"Manggabesar"},{"i_lat":-6.160725,"line":2,"distance":906,"time":2,"transit":false,"station_name":"Sawah Besar","is_transit":false,"station_id":"SW","i_long":106.827103},{"i_long":106.828284,"is_transit":false,"transit":false,"time":2,"station_id":"JUA","i_lat":-6.166716,"distance":1149,"line":2,"station_name":"Juanda"},{"distance":2015,"i_long":106.832183,"station_id":"GDD","transit":false,"is_transit":false,"i_lat":-6.186295,"time":4,"line":2,"station_name":"Gondangdia"},{"line":2,"i_long":106.840169,"distance":1750,"is_transit":false,"station_id":"CKI","station_name":"Cikini","transit":false,"i_lat":-6.198556,"time":3},{"i_long":106.84912,"time":4,"station_name":"Manggarai","station_id":"MRI","i_lat":-6.209883,"line":2,"is_transit":false,"distance":1590,"transit":false},{"is_transit":false,"distance":2610,"i_lat":-6.226659,"line":2,"station_id":"TEB","time":4,"station_name":"Tebet","i_long":106.857948,"transit":false},{"station_name":"Cawang","distance":1230,"i_long":106.856607,"line":2,"transit":false,"time":2,"is_transit":false,"i_lat":-6.242512,"station_id":"CW"},{"time":3,"i_long":106.85449,"distance":1546,"transit":false,"station_name":"Duren Kalibata","is_transit":false,"i_lat":-6.255332,"line":2,"station_id":"DRN"},{"line":2,"station_name":"Pasar Minggu Baru","i_long":106.851577,"distance":824,"transit":false,"time":2,"is_transit":false,"i_lat":-6.263214,"station_id":"PSMB"},{"line":2,"is_transit":false,"station_id":"PSM","i_lat":-6.2842400000000005,"i_long":106.843999,"transit":false,"time":2,"station_name":"Pasar Minggu","distance":2380},{"i_long":106.838896,"transit":false,"station_id":"TNT","station_name":"Tanjung Barat","distance":2820,"time":4,"is_transit":false,"i_lat":-6.3080680000000005,"line":2},{"line":2,"station_id":"LNA","time":3,"distance":2671,"i_lat":-6.330363,"transit":false,"is_transit":false,"station_name":"Lenteng Agung","i_long":106.832616},{"is_transit":false,"station_name":"Univ. Pancasila","distance":1029,"time":2,"i_lat":-6.339291,"line":2,"i_long":106.834175,"station_id":"UP","transit":false},{"i_long":106.831474,"station_name":"Univ. Indonesia","transit":false,"time":3,"distance":2264,"i_lat":-6.360749,"line":2,"is_transit":false,"station_id":"UI"},{"distance":1109,"time":2,"i_lat":-6.369073,"line":2,"is_transit":false,"station_name":"Pondok Cina","transit":false,"i_long":106.831114,"station_id":"POC"}],[{"station_id":"TGS","i_lat":-6.328533,"time":0,"i_long":106.425991,"distance":0,"transit":false,"station_name":"Tigaraksa","line":6,"is_transit":false},{"distance":2974,"station_name":"Tenjo","station_id":"TEJ","i_lat":-6.327251,"is_transit":false,"i_long":106.460812,"time":5,"transit":false,"line":6},{"station_name":"Daru","i_long":106.491338,"station_id":"DAR","time":5,"i_lat":-6.338021,"line":0,"distance":3902,"transit":false,"is_transit":false},{"station_name":"Cilejit","distance":2675,"time":6,"transit":false,"i_long":106.508482,"i_lat":-6.354349,"is_transit":false,"station_id":"CJT","line":3},{"station_name":"Parung Panjang","time":9,"station_id":"PRP","is_transit":false,"distance":7025,"i_lat":-6.3441410000000005,"line":6,"transit":false,"i_long":106.568863},{"line":3,"is_transit":false,"station_name":"Cicayur","station_id":"CC","distance":5968,"i_long":106.617853,"time":8,"i_lat":-6.329547,"transit":false},{"time":4,"station_id":"CSK","station_name":"Cisauk","line":3,"is_transit":false,"distance":2519,"i_lat":-6.32484,"i_long":106.640411,"transit":false},{"i_long":106.66566,"i_lat":-6.319871,"station_name":"Serpong","distance":1784,"transit":false,"time":4,"station_id":"SRP","line":6,"is_transit":false},{"distance":2413,"line":6,"is_transit":false,"i_lat":-6.314823,"transit":false,"station_name":"Rawa Buntu","i_long":106.675475,"time":4,"station_id":"RU"},{"line":6,"i_lat":-6.296963,"distance":4566,"i_long":106.712277,"is_transit":false,"transit":false,"station_id":"SDM","station_name":"Sudimara","time":6},{"transit":false,"time":4,"i_lat":-6.288927,"distance":1994,"line":6,"station_id":"JMU","i_long":106.728916,"is_transit":false,"station_name":"Jurangmangu"},{"station_id":"PDJ","time":3,"distance":2179,"i_long":106.74273,"station_name":"Pondokranji","is_transit":false,"i_lat":-6.276362,"transit":false,"line":6},{"station_name":"Kebayoran","time":8,"i_long":106.780334,"line":6,"i_lat":-6.237242,"is_transit":false,"station_id":"KBY","transit":false,"distance":6218},{"transit":false,"i_lat":-6.207404,"distance":3737,"i_long":106.79689,"station_id":"PLM","station_name":"Palmerah","time":7,"line":6,"is_transit":false},{"i_long":106.811091,"is_transit":true,"station_name":"Tanah Abang","i_lat":-6.185545,"station_id":"THB","transit":true,"distance":3191,"line":1,"time":6},{"station_id":"DU","distance":3632,"i_lat":-6.155215,"station_name":"Duri","line":1,"transit":false,"i_long":106.800832,"time":8,"is_transit":false},{"time":4,"i_lat":-6.144674,"station_name":"Angke","station_id":"AK","distance":1230,"transit":false,"is_transit":false,"i_long":106.79867,"line":1},{"line":4,"distance":4102,"station_name":"Kampung Bandan","i_long":106.826365,"time":9,"transit":true,"station_id":"KPB","i_lat":-6.132549,"is_transit":true},{"transit":false,"is_transit":false,"i_long":106.836569,"station_id":"RJW","line":11,"i_lat":-6.14505,"station_name":"Rajawali","distance":1444,"time":3},{"transit":false,"station_name":"Kemayoran","time":5,"is_transit":false,"station_id":"KMO","i_lat":-6.161728,"line":11,"i_long":106.839204,"distance":1901},{"i_lat":-6.174784,"i_long":106.84368,"time":4,"line":11,"station_id":"PSE","transit":false,"is_transit":false,"station_name":"Pasar Senen","distance":1436},{"i_lat":-6.185975,"i_long":106.850107,"line":11,"station_id":"GST","transit":false,"is_transit":false,"distance":1567,"time":8,"station_name":"Gang Sentiong"},{"is_transit":false,"station_id":"KMT","station_name":"Kramat","i_lat":-6.193792,"transit":false,"time":1,"distance":973,"i_long":106.855437,"line":11},{"transit":false,"station_name":"Pondok Jati","is_transit":false,"station_id":"POK","i_lat":-6.209188,"line":11,"i_long":106.861737,"time":2,"distance":1829},{"time":9,"i_long":106.86807400000001,"line":1,"i_lat":-6.215091,"station_name":"Jatinegara","station_id":"JNG","transit":true,"is_transit":true,"distance":1236},{"station_name":"Matraman","time":2,"is_transit":false,"station_id":"MTR","i_long":106.858896,"transit":false,"distance":1377,"line":1,"i_lat":-6.212485},{"i_lat":-6.209883,"line":2,"is_transit":true,"station_id":"MRI","transit":true,"time":2,"distance":1275,"station_name":"Manggarai","i_long":106.84912},{"distance":2610,"is_transit":false,"i_long":106.857948,"time":4,"transit":false,"station_id":"TEB","i_lat":-6.226659,"line":2,"station_name":"Tebet"},{"station_id":"CW","i_long":106.856607,"is_transit":false,"distance":1230,"i_lat":-6.242512,"line":2,"station_name":"Cawang","time":2,"transit":false},{"is_transit":false,"station_id":"DRN","distance":1546,"time":3,"station_name":"Duren Kalibata","line":2,"i_long":106.85449,"transit":false,"i_lat":-6.255332},{"distance":824,"station_id":"PSMB","i_long":106.851577,"line":2,"station_name":"Pasar Minggu Baru","is_transit":false,"i_lat":-6.263214,"time":2,"transit":false},{"station_id":"PSM","time":2,"distance":2380,"station_name":"Pasar Minggu","transit":false,"is_transit":false,"i_lat":-6.2842400000000005,"i_long":106.843999,"line":2},{"transit":false,"distance":2820,"i_long":106.838896,"line":2,"i_lat":-6.3080680000000005,"station_name":"Tanjung Barat","time":4,"is_transit":false,"station_id":"TNT"},{"transit":false,"station_name":"Lenteng Agung","i_lat":-6.330363,"distance":2671,"station_id":"LNA","line":2,"i_long":106.832616,"time":3,"is_transit":false},{"transit":false,"line":2,"time":2,"i_lat":-6.339291,"is_transit":false,"distance":1029,"station_id":"UP","station_name":"Univ. Pancasila","i_long":106.834175},{"i_lat":-6.360749,"line":2,"station_name":"Univ. Indonesia","time":3,"i_long":106.831474,"is_transit":false,"transit":false,"station_id":"UI","distance":2264},{"transit":false,"is_transit":false,"station_name":"Pondok Cina","station_id":"POC","distance":1109,"i_long":106.831114,"time":2,"line":2,"i_lat":-6.369073}]]}