{"data":[[{"time":0,"i_lat":-6.328533,"line":6,"i_long":106.425991,"transit":false,"station_id":"TGS","distance":0,"is_transit":false,"station_name":"Tigaraksa"},{"station_id":"TEJ","station_name":"Tenjo","i_long":106.460812,"line":6,"transit":false,"is_transit":false,"time":5,"i_lat":-6.327251,"distance":2974},{"station_id":"DAR","i_lat":-6.338021,"station_name":"Daru","i_long":106.491338,"distance":3902,"time":5,"is_transit":false,"transit":false,"line":0},{"station_id":"CJT","i_long":106.508482,"distance":2675,"i_lat":-6.354349,"line":3,"transit":false,"station_name":"Cilejit","time":6,"is_transit":false},{"time":9,"i_long":106.568863,"is_transit":false,"i_lat":-6.3441410000000005,"distance":7025,"transit":false,"station_id":"PRP","line":6,"station_name":"Parung Panjang"},{"transit":false,"time":8,"station_id":"CC","distance":5968,"i_long":106.617853,"line":3,"is_transit":false,"i_lat":-6.329547,"station_name":"Cicayur"},{"i_lat":-6.32484,"distance":2519,"i_long":106.640411,"time":4,"line":3,"station_id":"CSK","is_transit":false,"transit":false,"station_name":"Cisauk"},{"i_long":106.66566,"distance":1784,"is_transit":false,"line":6,"transit":false,"station_name":"Serpong","time":4,"station_id":"SRP","i_lat":-6.319871},{"i_lat":-6.314823,"transit":false,"time":4,"distance":2413,"station_name":"Rawa Buntu","is_transit":false,"station_id":"RU","i_long":106.675475,"line":6},{"distance":4566,"i_long":106.712277,"station_name":"Sudimara","i_lat":-6.296963,"line":6,"transit":false,"is_transit":false,"station_id":"SDM","time":6},{"time":4,"is_transit":false,"line":6,"transit":false,"station_id":"JMU","i_lat":-6.288927,"i_long":106.728916,"distance":1994,"station_name":"Jurangmangu"},{"distance":2179,"time":3,"transit":false,"station_name":"Pondokranji","is_transit":false,"line":6,"station_id":"PDJ","i_lat":-6.276362,"i_long":106.74273},{"distance":6218,"line":6,"time":8,"station_name":"Kebayoran","transit":false,"station_id":"KBY","i_lat":-6.237242,"is_transit":false,"i_long":106.780334},{"is_transit":false,"distance":3737,"time":7,"station_name":"Palmerah","i_lat":-6.207404,"i_long":106.79689,"line":6,"station_id":"PLM","transit":false},{"transit":true,"i_lat":-6.185545,"line":1,"station_id":"THB","is_transit":true,"distance":3191,"station_name":"Tanah Abang","i_long":106.811091,"time":6},{"distance":3632,"station_name":"Duri","transit":false,"is_transit":false,"line":1,"i_lat":-6.155215,"time":8,"station_id":"DU","i_long":106.800832},{"distance":1230,"station_id":"AK","i_lat":-6.144674,"transit":false,"station_name":"Angke","line":1,"time":4,"is_transit":false,"i_long":106.79867},{"time":9,"station_name":"Kampung Bandan","i_lat":-6.132549,"line":4,"distance":4102,"station_id":"KPB","transit":true,"i_long":106.826365,"is_transit":true},{"time":3,"distance":1364,"i_long":106.812439,"line":2,"is_transit":true,"station_id":"JAKK","transit":true,"station_name":"Jakarta Kota","i_lat":-6.137569},{"station_id":"JAY","i_lat":-6.141205,"time":4,"transit":false,"is_transit":false,"station_name":"Jayakarta","line":2,"distance":1264,"i_long":106.820901},{"station_name":"Manggabesar","transit":false,"i_lat":-6.149769,"time":2,"distance":1080,"i_long":106.82482,"station_id":"MGB","is_transit":false,"line":2},{"is_transit":false,"distance":906,"i_long":106.827103,"i_lat":-6.160725,"line":2,"transit":false,"station_name":"Sawah Besar","time":2,"station_id":"SW"}],[{"station_id":"TGS","i_lat":-6.328533,"transit":false,"station_name":"Tigaraksa","is_transit":false,"time":0,"line":6,"i_long":106.425991,"distance":0},{"transit":false,"distance":2974,"i_long":106.460812,"station_name":"Tenjo","is_transit":false,"station_id":"TEJ","i_lat":-6.327251,"time":5,"line":6},{"transit":false,"i_lat":-6.338021,"line":0,"station_id":"DAR","i_long":106.491338,"is_transit":false,"distance":3902,"station_name":"Daru","time":5},{"station_id":"CJT","transit":false,"station_name":"Cilejit","is_transit":false,"time":6,"distance":2675,"i_lat":-6.354349,"i_long":106.508482,"line":3},{"station_id":"PRP","transit":false,"is_transit":false,"line":6,"i_long":106.568863,"time":9,"distance":7025,"station_name":"Parung Panjang","i_lat":-6.3441410000000005},{"line":3,"is_transit":false,"station_name":"Cicayur","i_long":106.617853,"time":8,"transit":false,"distance":5968,"i_lat":-6.329547,"station_id":"CC"},{"station_name":"Cisauk","distance":2519,"transit":false,"i_lat":-6.32484,"i_long":106.640411,"is_transit":false,"time":4,"station_id":"CSK","line":3},{"transit":false,"i_lat":-6.319871,"is_transit":false,"i_long":106.66566,"line":6,"distance":1784,"station_id":"SRP","time":4,"station_name":"Serpong"},{"is_transit":false,"transit":false,"station_name":"Rawa Buntu","i_lat":-6.314823,"time":4,"line":6,"distance":2413,"i_long":106.675475,"station_id":"RU"},{"i_long":106.712277,"station_id":"SDM","is_transit":false,"time":6,"distance":4566,"i_lat":-6.296963,"line":6,"transit":false,"station_name":"Sudimara"},{"distance":1994,"transit":false,"i_long":106.728916,"time":4,"is_transit":false,"station_name":"Jurangmangu","i_lat":-6.288927,"station_id":"JMU","line":6},{"station_id":"PDJ","line":6,"time":3,"distance":2179,"transit":false,"station_name":"Pondokranji","i_lat":-6.276362,"i_long":106.74273,"is_transit":false},{"time":8,"line":6,"station_name":"Kebayoran","station_id":"KBY","distance":6218,"i_lat":-6.237242,"i_long":106.780334,"is_transit":false,"transit":false},{"time":7,"station_name":"Palmerah","i_lat":-6.207404,"line":6,"station_id":"PLM","is_transit":false,"i_long":106.79689,"distance":3737,"transit":false},{"distance":3191,"i_long":106.811091,"i_lat":-6.185545,"station_name":"Tanah Abang","line":1,"is_transit":true,"station_id":"THB","transit":true,"time":6},{"line":1,"transit":false,"station_id":"KAT","i_long":106.816351,"station_name":"Karet","is_transit":false,"time":5,"distance":2029,"i_lat":-6.20132},{"transit":false,"i_long":106.819881,"station_id":"SUDB","time":1,"station_name":"Sudirman Baru","is_transit":false,"distance":471,"i_lat":-6.201433,"line":1},{"time":1,"i_lat":-6.202263,"i_long":106.822649,"transit":false,"is_transit":false,"line":1,"station_name":"Sudirman","station_id":"SUD","distance":280},{"distance":3186,"station_id":"MRI","time":4,"station_name":"Manggarai","is_transit":true,"transit":true,"i_lat":-6.209883,"line":2,"i_long":106.84912},{"line":2,"i_long":106.840169,"station_id":"CKI","transit":false,"is_transit":false,"time":4,"distance":1590,"station_name":"Cikini","i_lat":-6.198556},{"line":2,"i_long":106.832183,"i_lat":-6.186295,"transit":false,"distance":1750,"station_name":"Gondangdia","time":3,"station_id":"GDD","is_transit":false},{"station_id":"JUA","transit":false,"station_name":"Juanda","is_transit":false,"distance":2015,"i_long":106.828284,"line":2,"time":4,"i_lat":-6.166716},{"i_long":106.827103,"transit":false,"station_name":"Sawah Besar","line":2,"is_transit":false,"distance":1149,"time":2,"station_id":"SW","i_lat":-6.160725}],[{"transit":false,"is_transit":false,"line":6,"station_name":"Tigaraksa","station_id":"TGS","time":0,"i_long":106.425991,"distance":0,"i_lat":-6.328533},{"time":5,"station_id":"TEJ","i_long":106.460812,"line":6,"transit":false,"i_lat":-6.327251,"distance":2974,"is_transit":false,"station_name":"Tenjo"},{"is_transit":false,"line":0,"time":5,"distance":3902,"i_lat":-6.338021,"station_name":"Daru","transit":false,"station_id":"DAR","i_long":106.491338},{"transit":false,"station_name":"Cilejit","is_transit":false,"distance":2675,"time":6,"i_long":106.508482,"i_lat":-6.354349,"line":3,"station_id":"CJT"},{"line":6,"is_transit":false,"transit":false,"station_id":"PRP","time":9,"i_lat":-6.3441410000000005,"i_long":106.568863,"distance":7025,"station_name":"Parung Panjang"},{"is_transit":false,"line":3,"time":8,"i_lat":-6.329547,"i_long":106.617853,"station_id":"CC","distance":5968,"transit":false,"station_name":"Cicayur"},{"station_name":"Cisauk","time":4,"distance":2519,"line":3,"station_id":"CSK","is_transit":false,"i_lat":-6.32484,"i_long":106.640411,"transit":false},{"i_long":106.66566,"station_id":"SRP","transit":false,"time":4,"station_name":"Serpong","i_lat":-6.319871,"is_transit":false,"distance":1784,"line":6},{"distance":2413,"i_lat":-6.314823,"time":4,"line":6,"station_name":"Rawa Buntu","i_long":106.675475,"station_id":"RU","transit":false,"is_transit":false},{"distance":4566,"station_name":"Sudimara","is_transit":false,"i_long":106.712277,"station_id":"SDM","i_lat":-6.296963,"transit":false,"time":6,"line":6},{"is_transit":false,"i_lat":-6.288927,"transit":false,"time":4,"distance":1994,"i_long":106.728916,"line":6,"station_id":"JMU","station_name":"Jurangmangu"},{"i_lat":-6.276362,"line":6,"station_id":"PDJ","is_transit":false,"transit":false,"station_name":"Pondokranji","time":3,"distance":2179,"i_long":106.74273},{"distance":6218,"transit":false,"station_name":"Kebayoran","time":8,"station_id":"KBY","line":6,"i_lat":-6.237242,"i_long":106.780334,"is_transit":false},{"station_name":"Palmerah","distance":3737,"i_lat":-6.207404,"is_transit":false,"transit":false,"i_long":106.79689,"line":6,"time":7,"station_id":"PLM"},{"i_long":106.811091,"line":1,"time":6,"i_lat":-6.185545,"station_id":"THB","distance":3191,"station_name":"Tanah Abang","transit":true,"is_transit":true},{"is_transit":false,"station_name":"Duri","i_lat":-6.155215,"i_long":106.800832,"station_id":"DU","line":1,"transit":false,"time":8,"distance":3632},{"transit":false,"station_id":"AK","time":4,"is_transit":false,"distance":1230,"i_lat":-6.144674,"i_long":106.79867,"line":1,"station_name":"Angke"},{"distance":4102,"time":9,"station_name":"Kampung Bandan","i_long":106.826365,"i_lat":-6.132549,"station_id":"KPB","is_transit":true,"transit":true,"line":4},{"station_id":"RJW","transit":false,"distance":1444,"station_name":"Rajawali","line":11,"is_transit":false,"time":3,"i_lat":-6.14505,"i_long":106.836569},{"station_name":"Kemayoran","is_transit":false,"station_id":"KMO","time":5,"distance":1901,"i_lat":-6.161728,"i_long":106.839204,"line":11,"transit":false},{"is_transit":false,"transit":false,"station_id":"PSE","i_long":106.84368,"time":4,"i_lat":-6.174784,"distance":1436,"station_name":"Pasar Senen","line":11},{"distance":1567,"is_transit":false,"line":11,"station_id":"GST","time":8,"transit":false,"station_name":"Gang Sentiong","i_lat":-6.185975,"i_long":106.850107},{"i_long":106.855437,"station_name":"Kramat","time":1,"line":11,"transit":false,"station_id":"KMT","is_transit":false,"distance":973,"i_lat":-6.193792},{"station_id":"POK","is_transit":false,"distance":1829,"i_long":106.861737,"time":2,"line":11,"i_lat":-6.209188,"station_name":"Pondok Jati","transit":false},{"time":9,"distance":1236,"station_id":"JNG","i_lat":-6.215091,"station_name":"Jatinegara","is_transit":true,"transit":true,"i_long":106.86807400000001,"line":1},{"station_name":"Matraman","transit":false,"station_id":"MTR","is_transit":false,"i_lat":-6.212485,"line":1,"distance":1377,"time":2,"i_long":106.858896},{"is_transit":true,"distance":1275,"station_name":"Manggarai","i_lat":-6.209883,"i_long":106.84912,"line":2,"time":2,"station_id":"MRI","transit":true},{"i_long":106.840169,"i_lat":-6.198556,"is_transit":false,"distance":1590,"station_name":"Cikini","transit":false,"station_id":"CKI","line":2,"time":4},{"station_id":"GDD","i_long":106.832183,"is_transit":false,"station_name":"Gondangdia","i_lat":-6.186295,"time":3,"line":2,"distance":1750,"transit":false},{"station_name":"Juanda","i_lat":-6.166716,"time":4,"is_transit":false,"line":2,"transit":false,"distance":2015,"i_long":106.828284,"station_id":"JUA"},{"station_id":"SW","line":2,"i_long":106.827103,"is_transit":false,"transit":false,"station_name":"Sawah Besar","time":2,"i_lat":-6.160725,"distance":1149}],[{"station_id":"TGS","distance":0,"i_lat":-6.328533,"time":0,"line":6,"i_long":106.425991,"transit":false,"is_transit":false,"station_name":"Tigaraksa"},{"time":5,"distance":2974,"station_name":"Tenjo","is_transit":false,"i_lat":-6.327251,"station_id":"TEJ","transit":false,"i_long":106.460812,"line":6},{"transit":false,"station_id":"DAR","is_transit":false,"distance":3902,"time":5,"i_lat":-6.338021,"i_long":106.491338,"line":0,"station_name":"Daru"},{"i_long":106.508482,"is_transit":false,"time":6,"station_name":"Cilejit","i_lat":-6.354349,"transit":false,"station_id":"CJT","distance":2675,"line":3},{"i_lat":-6.3441410000000005,"line":6,"transit":false,"is_transit":false,"distance":7025,"i_long":106.568863,"station_name":"Parung Panjang","time":9,"station_id":"PRP"},{"distance":5968,"i_long":106.617853,"time":8,"is_transit":false,"station_name":"Cicayur","i_lat":-6.329547,"station_id":"CC","line":3,"transit":false},{"is_transit":false,"i_lat":-6.32484,"time":4,"line":3,"transit":false,"distance":2519,"station_id":"CSK","i_long":106.640411,"station_name":"Cisauk"},{"station_id":"SRP","i_long":106.66566,"time":4,"i_lat":-6.319871,"station_name":"Serpong","transit":false,"is_transit":false,"distance":1784,"line":6},{"i_long":106.675475,"line":6,"station_id":"RU","transit":false,"distance":2413,"time":4,"is_transit":false,"i_lat":-6.314823,"station_name":"Rawa Buntu"},{"transit":false,"station_id":"SDM","station_name":"Sudimara","time":6,"i_long":106.712277,"is_transit":false,"line":6,"distance":4566,"i_lat":-6.296963},{"station_id":"JMU","is_transit":false,"time":4,"distance":1994,"i_lat":-6.288927,"i_long":106.728916,"line":6,"station_name":"Jurangmangu","transit":false},{"transit":false,"i_lat":-6.276362,"station_name":"Pondokranji","is_transit":false,"time":3,"distance":2179,"station_id":"PDJ","i_long":106.74273,"line":6},{"is_transit":false,"time":8,"i_long":106.780334,"line":6,"station_id":"KBY","station_name":"Kebayoran","transit":false,"distance":6218,"i_lat":-6.237242},{"i_long":106.79689,"station_name":"Palmerah","station_id":"PLM","time":7,"is_transit":false,"line":6,"distance":3737,"i_lat":-6.207404,"transit":false},{"distance":3191,"station_name":"Tanah Abang","station_id":"THB","i_long":106.811091,"transit":true,"i_lat":-6.185545,"is_transit":true,"time":6,"line":1},{"station_id":"KAT","station_name":"Karet","is_transit":false,"time":5,"transit":false,"distance":2029,"i_lat":-6.20132,"i_long":106.816351,"line":1},{"station_id":"SUDB","station_name":"Sudirman Baru","distance":471,"transit":false,"is_transit":false,"i_long":106.819881,"line":1,"i_lat":-6.201433,"time":1},{"i_lat":-6.202263,"line":1,"is_transit":false,"i_long":106.822649,"transit":false,"station_name":"Sudirman","station_id":"SUD","time":1,"distance":280},{"transit":false,"station_name":"Manggarai","station_id":"MRI","line":2,"time":4,"distance":3186,"is_transit":false,"i_lat":-6.209883,"i_long":106.84912},{"transit":false,"distance":1275,"i_long":106.858896,"is_transit":false,"i_lat":-6.212485,"line":1,"station_id":"MTR","station_name":"Matraman","time":2},{"station_id":"JNG","i_long":106.86807400000001,"time":8,"is_transit":true,"i_lat":-6.215091,"station_name":"Jatinegara","line":1,"transit":true,"distance":1377},{"line":11,"i_lat":-6.209188,"is_transit":false,"time":2,"distance":1236,"i_long":106.861737,"station_name":"Pondok Jati","transit":false,"station_id":"POK"},{"line":11,"i_lat":-6.193792,"i_long":106.855437,"station_name":"Kramat","is_transit":false,"time":2,"transit":false,"station_id":"KMT","distance":1829},{"distance":973,"i_long":106.850107,"station_id":"GST","time":1,"line":11,"i_lat":-6.185975,"transit":false,"is_transit":false,"station_name":"Gang Sentiong"},{"is_transit":false,"i_lat":-6.174784,"distance":1567,"station_id":"PSE","time":8,"i_long":106.84368,"transit":false,"station_name":"Pasar Senen","line":11},{"distance":1436,"line":11,"station_name":"Kemayoran","transit":false,"is_transit":false,"i_long":106.839204,"station_id":"KMO","time":4,"i_lat":-6.161728},{"time":5,"distance":1901,"i_long":106.836569,"line":11,"station_name":"Rajawali","i_lat":-6.14505,"transit":false,"station_id":"RJW","is_transit":false},{"distance":1444,"i_long":106.826365,"i_lat":-6.132549,"line":4,"transit":true,"station_id":"KPB","time":3,"station_name":"Kampung Bandan","is_transit":true},{"distance":1364,"i_lat":-6.137569,"i_long":106.812439,"time":3,"transit":true,"station_name":"Jakarta Kota","line":2,"station_id":"JAKK","is_transit":true},{"station_id":"JAY","distance":1264,"station_name":"Jayakarta","i_long":106.820901,"is_transit":false,"line":2,"time":4,"i_lat":-6.141205,"transit":false},{"i_lat":-6.149769,"station_name":"Manggabesar","transit":false,"is_transit":false,"i_long":106.82482,"time":2,"distance":1080,"station_id":"MGB","line":2},{"transit":false,"i_long":106.827103,"distance":906,"line":2,"is_transit":false,"i_lat":-6.160725,"time":2,"station_name":"Sawah Besar","station_id":"SW"}]]}