{"data":[[{"distance":0,"station_id":"TGS","station_name":"Tigaraksa","i_long":106.425991,"time":0,"is_transit":false,"transit":false,"line":6,"i_lat":-6.328533},{"station_name":"Tenjo","line":6,"time":5,"station_id":"TEJ","i_lat":-6.327251,"is_transit":false,"transit":false,"i_long":106.460812,"distance":2974},{"i_long":106.491338,"time":5,"station_name":"Daru","distance":3902,"transit":false,"i_lat":-6.338021,"is_transit":false,"line":0,"station_id":"DAR"},{"station_id":"CJT","time":6,"is_transit":false,"transit":false,"distance":2675,"station_name":"Cilejit","i_lat":-6.354349,"line":3,"i_long":106.508482},{"line":6,"time":9,"transit":false,"distance":7025,"station_name":"Parung Panjang","i_long":106.568863,"is_transit":false,"i_lat":-6.3441410000000005,"station_id":"PRP"},{"transit":false,"i_long":106.617853,"line":3,"station_id":"CC","is_transit":false,"i_lat":-6.329547,"distance":5968,"time":8,"station_name":"Cicayur"},{"station_id":"CSK","is_transit":false,"distance":2519,"transit":false,"station_name":"Cisauk","i_long":106.640411,"line":3,"time":4,"i_lat":-6.32484},{"i_lat":-6.319871,"station_name":"Serpong","station_id":"SRP","is_transit":false,"transit":false,"time":4,"distance":1784,"i_long":106.66566,"line":6},{"time":4,"transit":false,"is_transit":false,"i_long":106.675475,"line":6,"station_id":"RU","i_lat":-6.314823,"distance":2413,"station_name":"Rawa Buntu"},{"time":6,"distance":4566,"station_name":"Sudimara","station_id":"SDM","line":6,"i_long":106.712277,"i_lat":-6.296963,"is_transit":false,"transit":false},{"time":4,"station_id":"JMU","station_name":"Jurangmangu","transit":false,"i_lat":-6.288927,"line":6,"is_transit":false,"distance":1994,"i_long":106.728916},{"station_name":"Pondokranji","is_transit":false,"station_id":"PDJ","i_lat":-6.276362,"time":3,"transit":false,"i_long":106.74273,"line":6,"distance":2179},{"is_transit":false,"line":6,"i_lat":-6.237242,"time":8,"distance":6218,"i_long":106.780334,"transit":false,"station_name":"Kebayoran","station_id":"KBY"},{"station_id":"PLM","is_transit":false,"i_lat":-6.207404,"i_long":106.79689,"station_name":"Palmerah","transit":false,"distance":3737,"line":6,"time":7},{"station_name":"Tanah Abang","station_id":"THB","distance":3191,"line":1,"is_transit":true,"i_long":106.811091,"time":6,"transit":true,"i_lat":-6.185545},{"i_lat":-6.20132,"i_long":106.816351,"distance":2029,"transit":false,"line":1,"station_id":"KAT","station_name":"Karet","time":5,"is_transit":false},{"station_name":"Sudirman Baru","transit":false,"i_long":106.819881,"station_id":"SUDB","is_transit":false,"line":1,"time":1,"i_lat":-6.201433,"distance":471},{"time":1,"station_id":"SUD","i_long":106.822649,"line":1,"distance":280,"transit":false,"is_transit":false,"station_name":"Sudirman","i_lat":-6.202263},{"i_lat":-6.209883,"line":2,"distance":3186,"station_name":"Manggarai","i_long":106.84912,"is_transit":true,"station_id":"MRI","time":4,"transit":true},{"station_id":"TEB","time":4,"distance":2610,"station_name":"Tebet","is_transit":false,"transit":false,"i_lat":-6.226659,"i_long":106.857948,"line":2},{"is_transit":false,"line":2,"station_name":"Cawang","time":2,"i_long":106.856607,"distance":1230,"station_id":"CW","transit":false,"i_lat":-6.242512},{"transit":false,"station_name":"Duren Kalibata","time":3,"i_long":106.85449,"distance":1546,"line":2,"station_id":"DRN","is_transit":false,"i_lat":-6.255332},{"transit":false,"i_long":106.851577,"distance":824,"is_transit":false,"station_name":"Pasar Minggu Baru","station_id":"PSMB","line":2,"i_lat":-6.263214,"time":2},{"time":2,"i_long":106.843999,"i_lat":-6.2842400000000005,"station_name":"Pasar Minggu","line":2,"station_id":"PSM","distance":2380,"transit":false,"is_transit":false},{"line":2,"station_id":"TNT","distance":2820,"transit":false,"i_long":106.838896,"station_name":"Tanjung Barat","is_transit":false,"time":4,"i_lat":-6.3080680000000005},{"is_transit":false,"line":2,"station_name":"Lenteng Agung","time":3,"i_lat":-6.330363,"transit":false,"i_long":106.832616,"distance":2671,"station_id":"LNA"},{"time":2,"is_transit":false,"distance":1029,"line":2,"transit":false,"station_name":"Univ. Pancasila","station_id":"UP","i_long":106.834175,"i_lat":-6.339291},{"i_lat":-6.360749,"station_id":"UI","time":3,"distance":2264,"station_name":"Univ. Indonesia","line":2,"i_long":106.831474,"transit":false,"is_transit":false},{"station_id":"POC","i_lat":-6.369073,"distance":1109,"is_transit":false,"i_long":106.831114,"transit":false,"time":2,"line":2,"station_name":"Pondok Cina"},{"time":4,"distance":2727,"station_name":"Depokbaru","is_transit":false,"transit":false,"i_lat":-6.391065,"station_id":"DPB","line":2,"i_long":106.819451},{"time":3,"i_lat":-6.405256,"i_long":106.816926,"transit":false,"station_name":"Depok","station_id":"DP","is_transit":false,"distance":1584,"line":2},{"time":6,"transit":false,"i_long":106.800298,"line":2,"distance":5084,"station_id":"CTA","i_lat":-6.448811,"is_transit":false,"station_name":"Citayam"}],[{"i_long":106.425991,"distance":0,"transit":false,"is_transit":false,"i_lat":-6.328533,"line":6,"time":0,"station_name":"Tigaraksa","station_id":"TGS"},{"transit":false,"station_id":"TEJ","i_lat":-6.327251,"i_long":106.460812,"distance":2974,"is_transit":false,"station_name":"Tenjo","line":6,"time":5},{"time":5,"transit":false,"station_name":"Daru","station_id":"DAR","line":0,"is_transit":false,"i_long":106.491338,"i_lat":-6.338021,"distance":3902},{"i_lat":-6.354349,"line":3,"station_id":"CJT","transit":false,"time":6,"is_transit":false,"distance":2675,"station_name":"Cilejit","i_long":106.508482},{"station_id":"PRP","transit":false,"is_transit":false,"time":9,"i_lat":-6.3441410000000005,"station_name":"Parung Panjang","line":6,"i_long":106.568863,"distance":7025},{"is_transit":false,"station_name":"Cicayur","transit":false,"distance":5968,"time":8,"i_lat":-6.329547,"station_id":"CC","line":3,"i_long":106.617853},{"i_lat":-6.32484,"transit":false,"distance":2519,"i_long":106.640411,"line":3,"time":4,"is_transit":false,"station_name":"Cisauk","station_id":"CSK"},{"distance":1784,"station_name":"Serpong","is_transit":false,"station_id":"SRP","transit":false,"i_lat":-6.319871,"time":4,"i_long":106.66566,"line":6},{"is_transit":false,"i_lat":-6.314823,"i_long":106.675475,"distance":2413,"time":4,"transit":false,"station_name":"Rawa Buntu","line":6,"station_id":"RU"},{"i_long":106.712277,"station_name":"Sudimara","distance":4566,"station_id":"SDM","time":6,"is_transit":false,"transit":false,"i_lat":-6.296963,"line":6},{"station_id":"JMU","line":6,"distance":1994,"transit":false,"i_lat":-6.288927,"is_transit":false,"i_long":106.728916,"station_name":"Jurangmangu","time":4},{"distance":2179,"transit":false,"is_transit":false,"station_name":"Pondokranji","i_long":106.74273,"station_id":"PDJ","i_lat":-6.276362,"line":6,"time":3},{"time":8,"distance":6218,"station_name":"Kebayoran","line":6,"station_id":"KBY","i_lat":-6.237242,"is_transit":false,"transit":false,"i_long":106.780334},{"transit":false,"time":7,"distance":3737,"station_name":"Palmerah","station_id":"PLM","i_lat":-6.207404,"is_transit":false,"i_long":106.79689,"line":6},{"distance":3191,"station_name":"Tanah Abang","time":6,"line":1,"i_long":106.811091,"station_id":"THB","transit":true,"i_lat":-6.185545,"is_transit":true},{"time":8,"i_long":106.800832,"station_id":"DU","is_transit":false,"line":1,"distance":3632,"station_name":"Duri","i_lat":-6.155215,"transit":false},{"transit":false,"station_id":"AK","i_lat":-6.144674,"i_long":106.79867,"line":1,"station_name":"Angke","distance":1230,"time":4,"is_transit":false},{"station_id":"KPB","time":9,"distance":4102,"line":4,"transit":true,"i_lat":-6.132549,"i_long":106.826365,"is_transit":true,"station_name":"Kampung Bandan"},{"distance":1364,"i_lat":-6.137569,"station_name":"Jakarta Kota","station_id":"JAKK","is_transit":true,"i_long":106.812439,"time":3,"transit":true,"line":2},{"station_name":"Jayakarta","i_lat":-6.141205,"time":4,"station_id":"JAY","is_transit":false,"transit":false,"i_long":106.820901,"line":2,"distance":1264},{"transit":false,"station_id":"MGB","i_lat":-6.149769,"line":2,"station_name":"Manggabesar","is_transit":false,"distance":1080,"i_long":106.82482,"time":2},{"line":2,"station_name":"Sawah Besar","station_id":"SW","distance":906,"is_transit":false,"time":2,"i_lat":-6.160725,"i_long":106.827103,"transit":false},{"is_transit":false,"i_lat":-6.166716,"i_long":106.828284,"line":2,"station_id":"JUA","transit":false,"distance":1149,"station_name":"Juanda","time":2},{"i_lat":-6.186295,"transit":false,"distance":2015,"i_long":106.832183,"station_name":"Gondangdia","is_transit":false,"time":4,"station_id":"GDD","line":2},{"time":3,"i_long":106.840169,"line":2,"i_lat":-6.198556,"is_transit":false,"station_name":"Cikini","station_id":"CKI","transit":false,"distance":1750},{"station_name":"Manggarai","distance":1590,"is_transit":false,"station_id":"MRI","transit":false,"i_lat":-6.209883,"i_long":106.84912,"line":2,"time":4},{"line":2,"station_name":"Tebet","time":4,"station_id":"TEB","distance":2610,"i_long":106.857948,"transit":false,"i_lat":-6.226659,"is_transit":false},{"station_id":"CW","i_lat":-6.242512,"station_name":"Cawang","time":2,"i_long":106.856607,"distance":1230,"transit":false,"line":2,"is_transit":false},{"is_transit":false,"line":2,"distance":1546,"transit":false,"i_lat":-6.255332,"i_long":106.85449,"station_name":"Duren Kalibata","station_id":"DRN","time":3},{"distance":824,"station_name":"Pasar Minggu Baru","i_lat":-6.263214,"is_transit":false,"i_long":106.851577,"line":2,"transit":false,"time":2,"station_id":"PSMB"},{"station_name":"Pasar Minggu","i_lat":-6.2842400000000005,"time":2,"line":2,"i_long":106.843999,"distance":2380,"station_id":"PSM","is_transit":false,"transit":false},{"time":4,"i_lat":-6.3080680000000005,"transit":false,"distance":2820,"i_long":106.838896,"is_transit":false,"station_id":"TNT","line":2,"station_name":"Tanjung Barat"},{"station_id":"LNA","is_transit":false,"line":2,"i_long":106.832616,"i_lat":-6.330363,"transit":false,"distance":2671,"station_name":"Lenteng Agung","time":3},{"is_transit":false,"station_id":"UP","transit":false,"i_long":106.834175,"i_lat":-6.339291,"time":2,"distance":1029,"station_name":"Univ. Pancasila","line":2},{"is_transit":false,"transit":false,"line":2,"station_id":"UI","distance":2264,"i_lat":-6.360749,"station_name":"Univ. Indonesia","time":3,"i_long":106.831474},{"time":2,"i_lat":-6.369073,"i_long":106.831114,"line":2,"station_id":"POC","transit":false,"station_name":"Pondok Cina","is_transit":false,"distance":1109},{"distance":2727,"line":2,"i_lat":-6.391065,"transit":false,"time":4,"station_name":"Depokbaru","is_transit":false,"i_long":106.819451,"station_id":"DPB"},{"transit":false,"station_id":"DP","i_long":106.816926,"distance":1584,"is_transit":false,"line":2,"station_name":"Depok","i_lat":-6.405256,"time":3},{"i_long":106.800298,"time":6,"station_id":"CTA","i_lat":-6.448811,"line":2,"transit":false,"is_transit":false,"distance":5084,"station_name":"Citayam"}],[{"time":0,"station_id":"TGS","transit":false,"distance":0,"is_transit":false,"station_name":"Tigaraksa","i_lat":-6.328533,"i_long":106.425991,"line":6},{"is_transit":false,"time":5,"transit":false,"line":6,"i_long":106.460812,"distance":2974,"station_name":"Tenjo","i_lat":-6.327251,"station_id":"TEJ"},{"line":0,"i_lat":-6.338021,"station_name":"Daru","time":5,"distance":3902,"is_transit":false,"transit":false,"i_long":106.491338,"station_id":"DAR"},{"is_transit":false,"line":3,"distance":2675,"i_long":106.508482,"i_lat":-6.354349,"station_id":"CJT","station_name":"Cilejit","time":6,"transit":false},{"i_long":106.568863,"distance":7025,"i_lat":-6.3441410000000005,"station_id":"PRP","is_transit":false,"transit":false,"time":9,"station_name":"Parung Panjang","line":6},{"distance":5968,"line":3,"i_long":106.617853,"station_id":"CC","is_transit":false,"station_name":"Cicayur","time":8,"i_lat":-6.329547,"transit":false},{"station_id":"CSK","time":4,"distance":2519,"i_lat":-6.32484,"i_long":106.640411,"station_name":"Cisauk","is_transit":false,"transit":false,"line":3},{"i_lat":-6.319871,"station_id":"SRP","distance":1784,"is_transit":false,"time":4,"transit":false,"line":6,"station_name":"Serpong","i_long":106.66566},{"transit":false,"station_id":"RU","is_transit":false,"i_lat":-6.314823,"station_name":"Rawa Buntu","time":4,"distance":2413,"i_long":106.675475,"line":6},{"i_long":106.712277,"transit":false,"station_id":"SDM","time":6,"line":6,"is_transit":false,"i_lat":-6.296963,"distance":4566,"station_name":"Sudimara"},{"station_name":"Jurangmangu","distance":1994,"i_long":106.728916,"station_id":"JMU","time":4,"i_lat":-6.288927,"is_transit":false,"transit":false,"line":6},{"distance":2179,"transit":false,"i_long":106.74273,"is_transit":false,"time":3,"station_name":"Pondokranji","station_id":"PDJ","i_lat":-6.276362,"line":6},{"line":6,"time":8,"transit":false,"i_lat":-6.237242,"station_name":"Kebayoran","is_transit":false,"distance":6218,"station_id":"KBY","i_long":106.780334},{"distance":3737,"transit":false,"i_lat":-6.207404,"line":6,"i_long":106.79689,"station_name":"Palmerah","time":7,"station_id":"PLM","is_transit":false},{"is_transit":true,"i_lat":-6.185545,"i_long":106.811091,"line":1,"transit":true,"time":6,"distance":3191,"station_id":"THB","station_name":"Tanah Abang"},{"time":8,"distance":3632,"station_id":"DU","i_lat":-6.155215,"transit":false,"i_long":106.800832,"is_transit":false,"line":1,"station_name":"Duri"},{"i_long":106.79867,"station_id":"AK","i_lat":-6.144674,"time":4,"station_name":"Angke","line":1,"is_transit":false,"transit":false,"distance":1230},{"time":9,"transit":true,"line":4,"i_long":106.826365,"i_lat":-6.132549,"distance":4102,"station_name":"Kampung Bandan","station_id":"KPB","is_transit":true},{"transit":false,"time":3,"i_long":106.836569,"is_transit":false,"station_id":"RJW","distance":1444,"line":11,"i_lat":-6.14505,"station_name":"Rajawali"},{"time":5,"distance":1901,"station_name":"Kemayoran","i_long":106.839204,"i_lat":-6.161728,"line":11,"is_transit":false,"transit":false,"station_id":"KMO"},{"distance":1436,"is_transit":false,"i_long":106.84368,"station_name":"Pasar Senen","time":4,"line":11,"station_id":"PSE","transit":false,"i_lat":-6.174784},{"station_id":"GST","is_transit":false,"station_name":"Gang Sentiong","line":11,"transit":false,"i_lat":-6.185975,"i_long":106.850107,"distance":1567,"time":8},{"distance":973,"i_long":106.855437,"station_id":"KMT","line":11,"transit":false,"is_transit":false,"time":1,"i_lat":-6.193792,"station_name":"Kramat"},{"station_id":"POK","is_transit":false,"station_name":"Pondok Jati","transit":false,"time":2,"i_lat":-6.209188,"distance":1829,"i_long":106.861737,"line":11},{"station_name":"Jatinegara","i_lat":-6.215091,"line":1,"transit":true,"station_id":"JNG","i_long":106.86807400000001,"is_transit":true,"time":9,"distance":1236},{"distance":1377,"transit":false,"is_transit":false,"i_long":106.858896,"line":1,"station_name":"Matraman","station_id":"MTR","time":2,"i_lat":-6.212485},{"transit":true,"line":2,"station_name":"Manggarai","distance":1275,"i_long":106.84912,"is_transit":true,"station_id":"MRI","time":2,"i_lat":-6.209883},{"station_name":"Tebet","time":4,"i_lat":-6.226659,"i_long":106.857948,"distance":2610,"is_transit":false,"transit":false,"line":2,"station_id":"TEB"},{"time":2,"station_id":"CW","i_long":106.856607,"station_name":"Cawang","i_lat":-6.242512,"transit":false,"distance":1230,"line":2,"is_transit":false},{"time":3,"station_id":"DRN","distance":1546,"i_lat":-6.255332,"station_name":"Duren Kalibata","transit":false,"is_transit":false,"line":2,"i_long":106.85449},{"station_name":"Pasar Minggu Baru","distance":824,"line":2,"time":2,"is_transit":false,"station_id":"PSMB","transit":false,"i_long":106.851577,"i_lat":-6.263214},{"station_id":"PSM","time":2,"is_transit":false,"station_name":"Pasar Minggu","transit":false,"line":2,"distance":2380,"i_lat":-6.2842400000000005,"i_long":106.843999},{"time":4,"transit":false,"station_id":"TNT","i_lat":-6.3080680000000005,"i_long":106.838896,"is_transit":false,"station_name":"Tanjung Barat","distance":2820,"line":2},{"i_lat":-6.330363,"station_id":"LNA","station_name":"Lenteng Agung","is_transit":false,"distance":2671,"i_long":106.832616,"line":2,"time":3,"transit":false},{"time":2,"transit":false,"is_transit":false,"i_lat":-6.339291,"station_name":"Univ. Pancasila","station_id":"UP","i_long":106.834175,"line":2,"distance":1029},{"is_transit":false,"line":2,"station_id":"UI","distance":2264,"time":3,"i_lat":-6.360749,"transit":false,"i_long":106.831474,"station_name":"Univ. Indonesia"},{"station_id":"POC","distance":1109,"i_lat":-6.369073,"i_long":106.831114,"time":2,"line":2,"is_transit":false,"transit":false,"station_name":"Pondok Cina"},{"i_lat":-6.391065,"station_id":"DPB","transit":false,"is_transit":false,"distance":2727,"i_long":106.819451,"line":2,"time":4,"station_name":"Depokbaru"},{"station_id":"DP","distance":1584,"is_transit":false,"transit":false,"i_lat":-6.405256,"time":3,"line":2,"station_name":"Depok","i_long":106.816926},{"line":2,"transit":false,"station_name":"Citayam","i_long":106.800298,"station_id":"CTA","is_transit":false,"time":6,"i_lat":-6.448811,"distance":5084}]]}