{"data":[[{"is_transit":false,"time":0,"transit":false,"station_id":"TGS","distance":0,"line":6,"i_lat":-6.328533,"i_long":106.425991,"station_name":"Tigaraksa"},{"transit":false,"is_transit":false,"station_id":"TEJ","i_lat":-6.327251,"time":5,"station_name":"Tenjo","i_long":106.460812,"distance":2974,"line":6},{"i_long":106.491338,"station_id":"DAR","i_lat":-6.338021,"line":0,"time":5,"is_transit":false,"station_name":"Daru","transit":false,"distance":3902},{"line":3,"i_lat":-6.354349,"transit":false,"station_id":"CJT","time":6,"distance":2675,"i_long":106.508482,"is_transit":false,"station_name":"Cilejit"},{"transit":false,"station_id":"PRP","distance":7025,"i_long":106.568863,"is_transit":false,"line":6,"station_name":"Parung Panjang","time":9,"i_lat":-6.3441410000000005},{"time":8,"transit":false,"i_long":106.617853,"station_id":"CC","line":3,"distance":5968,"is_transit":false,"station_name":"Cicayur","i_lat":-6.329547},{"is_transit":false,"transit":false,"i_long":106.640411,"station_name":"Cisauk","distance":2519,"station_id":"CSK","i_lat":-6.32484,"line":3,"time":4},{"station_id":"SRP","time":4,"is_transit":false,"distance":1784,"station_name":"Serpong","transit":false,"i_lat":-6.319871,"line":6,"i_long":106.66566},{"line":6,"i_lat":-6.314823,"station_name":"Rawa Buntu","is_transit":false,"station_id":"RU","time":4,"transit":false,"i_long":106.675475,"distance":2413},{"is_transit":false,"i_long":106.712277,"station_id":"SDM","time":6,"station_name":"Sudimara","transit":false,"i_lat":-6.296963,"line":6,"distance":4566},{"station_id":"JMU","i_lat":-6.288927,"i_long":106.728916,"line":6,"is_transit":false,"time":4,"transit":false,"station_name":"Jurangmangu","distance":1994},{"line":6,"is_transit":false,"time":3,"station_name":"Pondokranji","i_lat":-6.276362,"transit":false,"distance":2179,"station_id":"PDJ","i_long":106.74273},{"transit":false,"station_name":"Kebayoran","time":8,"is_transit":false,"i_long":106.780334,"station_id":"KBY","distance":6218,"i_lat":-6.237242,"line":6},{"is_transit":false,"distance":3737,"line":6,"transit":false,"time":7,"i_lat":-6.207404,"station_id":"PLM","station_name":"Palmerah","i_long":106.79689},{"line":1,"is_transit":true,"time":6,"i_lat":-6.185545,"distance":3191,"transit":true,"station_id":"THB","station_name":"Tanah Abang","i_long":106.811091},{"i_long":106.816351,"station_name":"Karet","distance":2029,"is_transit":false,"line":1,"transit":false,"i_lat":-6.20132,"station_id":"KAT","time":5},{"distance":471,"i_lat":-6.201433,"transit":false,"i_long":106.819881,"time":1,"station_name":"Sudirman Baru","is_transit":false,"station_id":"SUDB","line":1},{"transit":false,"distance":280,"station_name":"Sudirman","i_long":106.822649,"i_lat":-6.202263,"is_transit":false,"line":1,"time":1,"station_id":"SUD"},{"time":4,"station_name":"Manggarai","line":2,"distance":3186,"station_id":"MRI","transit":false,"i_lat":-6.209883,"i_long":106.84912,"is_transit":false}],[{"is_transit":false,"time":0,"i_long":106.425991,"transit":false,"i_lat":-6.328533,"station_id":"TGS","distance":0,"line":6,"station_name":"Tigaraksa"},{"i_lat":-6.327251,"i_long":106.460812,"station_id":"TEJ","distance":2974,"station_name":"Tenjo","line":6,"time":5,"is_transit":false,"transit":false},{"time":5,"station_name":"Daru","station_id":"DAR","i_long":106.491338,"transit":false,"distance":3902,"is_transit":false,"i_lat":-6.338021,"line":0},{"transit":false,"time":6,"i_long":106.508482,"distance":2675,"line":3,"station_id":"CJT","is_transit":false,"station_name":"Cilejit","i_lat":-6.354349},{"station_name":"Parung Panjang","distance":7025,"transit":false,"i_long":106.568863,"station_id":"PRP","i_lat":-6.3441410000000005,"time":9,"is_transit":false,"line":6},{"distance":5968,"i_lat":-6.329547,"line":3,"time":8,"transit":false,"station_id":"CC","station_name":"Cicayur","i_long":106.617853,"is_transit":false},{"i_lat":-6.32484,"station_id":"CSK","i_long":106.640411,"is_transit":false,"time":4,"line":3,"transit":false,"station_name":"Cisauk","distance":2519},{"i_long":106.66566,"station_name":"Serpong","transit":false,"time":4,"i_lat":-6.319871,"station_id":"SRP","line":6,"distance":1784,"is_transit":false},{"i_lat":-6.314823,"i_long":106.675475,"station_name":"Rawa Buntu","is_transit":false,"time":4,"distance":2413,"line":6,"transit":false,"station_id":"RU"},{"station_name":"Sudimara","transit":false,"line":6,"time":6,"distance":4566,"station_id":"SDM","i_lat":-6.296963,"is_transit":false,"i_long":106.712277},{"time":4,"station_id":"JMU","station_name":"Jurangmangu","transit":false,"distance":1994,"i_lat":-6.288927,"is_transit":false,"i_long":106.728916,"line":6},{"i_long":106.74273,"distance":2179,"transit":false,"i_lat":-6.276362,"time":3,"is_transit":false,"line":6,"station_name":"Pondokranji","station_id":"PDJ"},{"station_name":"Kebayoran","i_lat":-6.237242,"distance":6218,"time":8,"is_transit":false,"transit":false,"station_id":"KBY","i_long":106.780334,"line":6},{"i_lat":-6.207404,"i_long":106.79689,"station_id":"PLM","time":7,"distance":3737,"station_name":"Palmerah","is_transit":false,"transit":false,"line":6},{"time":6,"station_id":"THB","station_name":"Tanah Abang","i_long":106.811091,"is_transit":true,"transit":true,"distance":3191,"line":1,"i_lat":-6.185545},{"transit":false,"line":1,"station_id":"DU","station_name":"Duri","is_transit":false,"time":8,"i_lat":-6.155215,"i_long":106.800832,"distance":3632},{"station_id":"AK","i_lat":-6.144674,"is_transit":false,"i_long":106.79867,"station_name":"Angke","time":4,"distance":1230,"line":1,"transit":false},{"transit":true,"i_lat":-6.132549,"time":9,"station_name":"Kampung Bandan","is_transit":true,"station_id":"KPB","line":4,"distance":4102,"i_long":106.826365},{"line":2,"i_long":106.812439,"station_id":"JAKK","station_name":"Jakarta Kota","is_transit":true,"time":3,"distance":1364,"transit":true,"i_lat":-6.137569},{"i_long":106.820901,"station_id":"JAY","station_name":"Jayakarta","i_lat":-6.141205,"time":4,"distance":1264,"is_transit":false,"transit":false,"line":2},{"station_id":"MGB","i_long":106.82482,"line":2,"is_transit":false,"time":2,"station_name":"Manggabesar","distance":1080,"i_lat":-6.149769,"transit":false},{"transit":false,"station_name":"Sawah Besar","i_lat":-6.160725,"time":2,"i_long":106.827103,"line":2,"station_id":"SW","is_transit":false,"distance":906},{"line":2,"transit":false,"distance":1149,"time":2,"i_long":106.828284,"i_lat":-6.166716,"is_transit":false,"station_id":"JUA","station_name":"Juanda"},{"i_lat":-6.186295,"line":2,"is_transit":false,"station_name":"Gondangdia","distance":2015,"i_long":106.832183,"time":4,"station_id":"GDD","transit":false},{"i_long":106.840169,"station_id":"CKI","i_lat":-6.198556,"line":2,"distance":1750,"time":3,"transit":false,"station_name":"Cikini","is_transit":false},{"distance":1590,"time":4,"is_transit":false,"transit":false,"station_id":"MRI","i_lat":-6.209883,"station_name":"Manggarai","line":2,"i_long":106.84912}],[{"station_id":"TGS","time":0,"station_name":"Tigaraksa","distance":0,"is_transit":false,"i_lat":-6.328533,"i_long":106.425991,"transit":false,"line":6},{"transit":false,"time":5,"station_id":"TEJ","distance":2974,"i_lat":-6.327251,"i_long":106.460812,"line":6,"is_transit":false,"station_name":"Tenjo"},{"is_transit":false,"i_lat":-6.338021,"distance":3902,"transit":false,"i_long":106.491338,"line":0,"station_id":"DAR","time":5,"station_name":"Daru"},{"transit":false,"station_name":"Cilejit","distance":2675,"i_lat":-6.354349,"time":6,"station_id":"CJT","is_transit":false,"i_long":106.508482,"line":3},{"distance":7025,"time":9,"station_name":"Parung Panjang","i_long":106.568863,"transit":false,"station_id":"PRP","i_lat":-6.3441410000000005,"line":6,"is_transit":false},{"transit":false,"is_transit":false,"distance":5968,"station_id":"CC","i_lat":-6.329547,"station_name":"Cicayur","i_long":106.617853,"time":8,"line":3},{"station_id":"CSK","distance":2519,"line":3,"station_name":"Cisauk","transit":false,"i_long":106.640411,"is_transit":false,"time":4,"i_lat":-6.32484},{"station_id":"SRP","i_lat":-6.319871,"is_transit":false,"station_name":"Serpong","time":4,"line":6,"i_long":106.66566,"transit":false,"distance":1784},{"i_lat":-6.314823,"distance":2413,"is_transit":false,"station_name":"Rawa Buntu","line":6,"time":4,"transit":false,"station_id":"RU","i_long":106.675475},{"is_transit":false,"transit":false,"i_lat":-6.296963,"station_id":"SDM","station_name":"Sudimara","i_long":106.712277,"time":6,"distance":4566,"line":6},{"i_long":106.728916,"station_id":"JMU","line":6,"i_lat":-6.288927,"transit":false,"is_transit":false,"station_name":"Jurangmangu","time":4,"distance":1994},{"is_transit":false,"station_name":"Pondokranji","transit":false,"i_lat":-6.276362,"time":3,"station_id":"PDJ","distance":2179,"line":6,"i_long":106.74273},{"station_name":"Kebayoran","i_long":106.780334,"transit":false,"station_id":"KBY","time":8,"line":6,"is_transit":false,"distance":6218,"i_lat":-6.237242},{"distance":3737,"transit":false,"i_lat":-6.207404,"station_name":"Palmerah","i_long":106.79689,"line":6,"time":7,"is_transit":false,"station_id":"PLM"},{"station_id":"THB","time":6,"station_name":"Tanah Abang","i_long":106.811091,"distance":3191,"transit":true,"i_lat":-6.185545,"is_transit":true,"line":1},{"station_name":"Duri","i_lat":-6.155215,"time":8,"distance":3632,"transit":false,"station_id":"DU","line":1,"is_transit":false,"i_long":106.800832},{"station_id":"AK","time":4,"distance":1230,"i_lat":-6.144674,"transit":false,"line":1,"station_name":"Angke","i_long":106.79867,"is_transit":false},{"station_id":"KPB","is_transit":true,"i_lat":-6.132549,"distance":4102,"i_long":106.826365,"transit":true,"station_name":"Kampung Bandan","line":4,"time":9},{"time":3,"distance":1444,"is_transit":false,"station_id":"RJW","transit":false,"station_name":"Rajawali","i_lat":-6.14505,"i_long":106.836569,"line":11},{"i_long":106.839204,"station_name":"Kemayoran","transit":false,"station_id":"KMO","line":11,"distance":1901,"is_transit":false,"i_lat":-6.161728,"time":5},{"is_transit":false,"transit":false,"station_id":"PSE","distance":1436,"time":4,"station_name":"Pasar Senen","line":11,"i_lat":-6.174784,"i_long":106.84368},{"is_transit":false,"transit":false,"station_name":"Gang Sentiong","i_long":106.850107,"line":11,"station_id":"GST","distance":1567,"i_lat":-6.185975,"time":8},{"station_id":"KMT","line":11,"i_lat":-6.193792,"is_transit":false,"transit":false,"station_name":"Kramat","distance":973,"i_long":106.855437,"time":1},{"station_id":"POK","station_name":"Pondok Jati","is_transit":false,"i_long":106.861737,"transit":false,"distance":1829,"line":11,"i_lat":-6.209188,"time":2},{"time":9,"station_id":"JNG","transit":true,"i_long":106.86807400000001,"line":1,"is_transit":true,"distance":1236,"station_name":"Jatinegara","i_lat":-6.215091},{"line":1,"is_transit":false,"station_id":"MTR","transit":false,"station_name":"Matraman","distance":1377,"i_lat":-6.212485,"i_long":106.858896,"time":2},{"i_long":106.84912,"i_lat":-6.209883,"station_name":"Manggarai","distance":1275,"time":2,"is_transit":false,"station_id":"MRI","line":2,"transit":false}]]}