{"data":[[{"station_id":"TGS","station_name":"Tigaraksa","time":0,"i_lat":-6.328533,"transit":false,"i_long":106.425991,"distance":0,"line":6,"is_transit":false},{"is_transit":false,"i_long":106.460812,"station_name":"Tenjo","distance":2974,"transit":false,"station_id":"TEJ","line":6,"time":5,"i_lat":-6.327251},{"transit":false,"distance":3902,"line":0,"station_id":"DAR","time":5,"is_transit":false,"i_lat":-6.338021,"station_name":"Daru","i_long":106.491338},{"time":6,"station_name":"Cilejit","line":0,"i_lat":-6.354349,"distance":2675,"is_transit":false,"station_id":"CJT","transit":false,"i_long":106.508482},{"station_name":"Parung Panjang","line":6,"is_transit":false,"time":9,"distance":7025,"i_lat":-6.3441410000000005,"station_id":"PRP","transit":false,"i_long":106.568863},{"transit":false,"time":8,"distance":5968,"is_transit":false,"i_long":106.617853,"line":0,"station_id":"CC","station_name":"Cicayur","i_lat":-6.329547}]]}