{"data":[[{"station_id":"TGS","transit":false,"is_transit":false,"i_lat":-6.328533,"distance":0,"time":0,"i_long":106.425991,"station_name":"Tigaraksa","line":6},{"i_lat":-6.327251,"line":6,"transit":false,"is_transit":false,"i_long":106.460812,"station_name":"Tenjo","time":5,"station_id":"TEJ","distance":2974},{"distance":3902,"i_lat":-6.338021,"line":0,"station_name":"Daru","station_id":"DAR","transit":false,"time":5,"is_transit":false,"i_long":106.491338},{"time":6,"transit":false,"is_transit":false,"station_id":"CJT","distance":2675,"line":3,"i_lat":-6.354349,"station_name":"Cilejit","i_long":106.508482},{"i_lat":-6.3441410000000005,"line":6,"is_transit":false,"i_long":106.568863,"transit":false,"station_id":"PRP","station_name":"Parung Panjang","time":9,"distance":7025},{"i_long":106.617853,"station_name":"Cicayur","station_id":"CC","i_lat":-6.329547,"is_transit":false,"distance":5968,"transit":false,"line":3,"time":8},{"station_name":"Cisauk","distance":2519,"transit":false,"station_id":"CSK","line":3,"is_transit":false,"i_long":106.640411,"time":4,"i_lat":-6.32484},{"i_lat":-6.319871,"station_name":"Serpong","is_transit":false,"line":6,"station_id":"SRP","i_long":106.66566,"time":4,"transit":false,"distance":1784},{"station_id":"RU","is_transit":false,"transit":false,"time":4,"i_long":106.675475,"line":6,"station_name":"Rawa Buntu","distance":2413,"i_lat":-6.314823},{"line":6,"distance":4566,"is_transit":false,"transit":false,"station_id":"SDM","station_name":"Sudimara","time":6,"i_long":106.712277,"i_lat":-6.296963},{"transit":false,"station_id":"JMU","i_long":106.728916,"distance":1994,"station_name":"Jurangmangu","is_transit":false,"line":6,"time":4,"i_lat":-6.288927},{"station_name":"Pondokranji","station_id":"PDJ","is_transit":false,"i_long":106.74273,"line":6,"time":3,"distance":2179,"i_lat":-6.276362,"transit":false},{"distance":6218,"i_lat":-6.237242,"is_transit":false,"station_id":"KBY","time":8,"transit":false,"i_long":106.780334,"line":6,"station_name":"Kebayoran"},{"is_transit":false,"time":7,"station_name":"Palmerah","distance":3737,"i_long":106.79689,"station_id":"PLM","transit":false,"i_lat":-6.207404,"line":6},{"time":6,"station_name":"Tanah Abang","i_long":106.811091,"line":1,"transit":true,"station_id":"THB","distance":3191,"is_transit":true,"i_lat":-6.185545},{"transit":false,"station_name":"Duri","distance":3632,"i_lat":-6.155215,"station_id":"DU","time":8,"line":1,"i_long":106.800832,"is_transit":false},{"i_lat":-6.144674,"line":1,"transit":false,"station_name":"Angke","station_id":"AK","distance":1230,"i_long":106.79867,"is_transit":false,"time":4},{"station_name":"Kampung Bandan","i_lat":-6.132549,"i_long":106.826365,"line":4,"is_transit":true,"transit":true,"station_id":"KPB","time":9,"distance":4102},{"line":4,"station_name":"Ancol","i_long":106.84464,"time":4,"i_lat":-6.128023,"transit":false,"station_id":"AC","is_transit":false,"distance":2185},{"i_long":106.880089,"station_id":"TPK","transit":false,"is_transit":false,"station_name":"Tanjung Priuk","distance":4566,"i_lat":-6.1109480000000005,"line":4,"time":9}],[{"line":6,"time":0,"i_lat":-6.328533,"transit":false,"distance":0,"i_long":106.425991,"is_transit":false,"station_name":"Tigaraksa","station_id":"TGS"},{"station_name":"Tenjo","distance":2974,"station_id":"TEJ","time":5,"line":6,"transit":false,"is_transit":false,"i_lat":-6.327251,"i_long":106.460812},{"distance":3902,"time":5,"transit":false,"station_id":"DAR","i_long":106.491338,"is_transit":false,"i_lat":-6.338021,"line":0,"station_name":"Daru"},{"is_transit":false,"station_name":"Cilejit","station_id":"CJT","transit":false,"i_lat":-6.354349,"i_long":106.508482,"time":6,"distance":2675,"line":3},{"i_long":106.568863,"transit":false,"distance":7025,"time":9,"is_transit":false,"line":6,"i_lat":-6.3441410000000005,"station_id":"PRP","station_name":"Parung Panjang"},{"i_long":106.617853,"station_id":"CC","time":8,"station_name":"Cicayur","line":3,"is_transit":false,"distance":5968,"i_lat":-6.329547,"transit":false},{"time":4,"station_name":"Cisauk","station_id":"CSK","distance":2519,"line":3,"transit":false,"i_lat":-6.32484,"i_long":106.640411,"is_transit":false},{"is_transit":false,"line":6,"station_id":"SRP","time":4,"i_lat":-6.319871,"transit":false,"i_long":106.66566,"distance":1784,"station_name":"Serpong"},{"station_id":"RU","distance":2413,"i_lat":-6.314823,"i_long":106.675475,"line":6,"transit":false,"station_name":"Rawa Buntu","time":4,"is_transit":false},{"i_long":106.712277,"is_transit":false,"transit":false,"station_name":"Sudimara","i_lat":-6.296963,"distance":4566,"station_id":"SDM","line":6,"time":6},{"is_transit":false,"i_long":106.728916,"line":6,"time":4,"station_name":"Jurangmangu","distance":1994,"transit":false,"station_id":"JMU","i_lat":-6.288927},{"time":3,"line":6,"is_transit":false,"station_name":"Pondokranji","i_lat":-6.276362,"i_long":106.74273,"distance":2179,"transit":false,"station_id":"PDJ"},{"i_long":106.780334,"distance":6218,"transit":false,"line":6,"station_name":"Kebayoran","station_id":"KBY","is_transit":false,"i_lat":-6.237242,"time":8},{"distance":3737,"line":6,"transit":false,"station_name":"Palmerah","i_lat":-6.207404,"i_long":106.79689,"time":7,"is_transit":false,"station_id":"PLM"},{"station_id":"THB","transit":true,"line":1,"i_long":106.811091,"distance":3191,"is_transit":true,"i_lat":-6.185545,"time":6,"station_name":"Tanah Abang"},{"station_id":"KAT","is_transit":false,"station_name":"Karet","distance":2029,"i_long":106.816351,"line":1,"transit":false,"time":5,"i_lat":-6.20132},{"transit":false,"is_transit":false,"time":1,"line":1,"station_name":"Sudirman Baru","distance":471,"i_lat":-6.201433,"station_id":"SUDB","i_long":106.819881},{"transit":false,"i_long":106.822649,"time":1,"is_transit":false,"i_lat":-6.202263,"station_name":"Sudirman","station_id":"SUD","distance":280,"line":1},{"i_lat":-6.209883,"station_id":"MRI","time":4,"distance":3186,"is_transit":true,"transit":true,"i_long":106.84912,"station_name":"Manggarai","line":2},{"is_transit":false,"distance":1590,"time":4,"i_long":106.840169,"transit":false,"line":2,"station_id":"CKI","station_name":"Cikini","i_lat":-6.198556},{"distance":1750,"station_name":"Gondangdia","station_id":"GDD","line":2,"is_transit":false,"i_lat":-6.186295,"i_long":106.832183,"transit":false,"time":3},{"is_transit":false,"station_id":"JUA","time":4,"station_name":"Juanda","distance":2015,"transit":false,"i_lat":-6.166716,"line":2,"i_long":106.828284},{"transit":false,"line":2,"is_transit":false,"i_long":106.827103,"distance":1149,"i_lat":-6.160725,"time":2,"station_id":"SW","station_name":"Sawah Besar"},{"station_name":"Manggabesar","time":2,"i_long":106.82482,"transit":false,"i_lat":-6.149769,"station_id":"MGB","line":2,"is_transit":false,"distance":906},{"distance":1080,"station_name":"Jayakarta","transit":false,"time":2,"i_lat":-6.141205,"i_long":106.820901,"line":2,"station_id":"JAY","is_transit":false},{"transit":true,"line":2,"i_lat":-6.137569,"i_long":106.812439,"time":4,"station_name":"Jakarta Kota","distance":1264,"station_id":"JAKK","is_transit":true},{"i_long":106.826365,"transit":true,"time":3,"i_lat":-6.132549,"station_name":"Kampung Bandan","is_transit":true,"station_id":"KPB","distance":1364,"line":4},{"transit":false,"is_transit":false,"distance":2185,"line":4,"station_id":"AC","i_lat":-6.128023,"time":4,"station_name":"Ancol","i_long":106.84464},{"is_transit":false,"transit":false,"i_lat":-6.1109480000000005,"station_id":"TPK","distance":4566,"i_long":106.880089,"time":9,"line":4,"station_name":"Tanjung Priuk"}],[{"is_transit":false,"i_lat":-6.328533,"time":0,"i_long":106.425991,"distance":0,"line":6,"transit":false,"station_name":"Tigaraksa","station_id":"TGS"},{"is_transit":false,"distance":2974,"i_lat":-6.327251,"i_long":106.460812,"line":6,"transit":false,"station_id":"TEJ","station_name":"Tenjo","time":5},{"time":5,"i_long":106.491338,"station_id":"DAR","distance":3902,"is_transit":false,"i_lat":-6.338021,"line":0,"station_name":"Daru","transit":false},{"line":3,"station_name":"Cilejit","distance":2675,"transit":false,"station_id":"CJT","is_transit":false,"time":6,"i_lat":-6.354349,"i_long":106.508482},{"i_long":106.568863,"time":9,"station_name":"Parung Panjang","station_id":"PRP","is_transit":false,"transit":false,"distance":7025,"i_lat":-6.3441410000000005,"line":6},{"is_transit":false,"station_name":"Cicayur","station_id":"CC","time":8,"distance":5968,"i_lat":-6.329547,"transit":false,"i_long":106.617853,"line":3},{"i_lat":-6.32484,"i_long":106.640411,"line":3,"transit":false,"is_transit":false,"station_id":"CSK","station_name":"Cisauk","distance":2519,"time":4},{"distance":1784,"transit":false,"i_lat":-6.319871,"line":6,"i_long":106.66566,"is_transit":false,"time":4,"station_name":"Serpong","station_id":"SRP"},{"transit":false,"station_name":"Rawa Buntu","i_long":106.675475,"time":4,"line":6,"station_id":"RU","is_transit":false,"distance":2413,"i_lat":-6.314823},{"time":6,"is_transit":false,"i_lat":-6.296963,"line":6,"i_long":106.712277,"station_id":"SDM","transit":false,"distance":4566,"station_name":"Sudimara"},{"i_long":106.728916,"station_id":"JMU","is_transit":false,"distance":1994,"line":6,"station_name":"Jurangmangu","transit":false,"i_lat":-6.288927,"time":4},{"transit":false,"distance":2179,"station_name":"Pondokranji","i_lat":-6.276362,"i_long":106.74273,"line":6,"is_transit":false,"station_id":"PDJ","time":3},{"is_transit":false,"distance":6218,"i_long":106.780334,"transit":false,"station_id":"KBY","station_name":"Kebayoran","i_lat":-6.237242,"line":6,"time":8},{"distance":3737,"i_long":106.79689,"station_id":"PLM","is_transit":false,"i_lat":-6.207404,"time":7,"transit":false,"line":6,"station_name":"Palmerah"},{"station_name":"Tanah Abang","transit":true,"i_long":106.811091,"station_id":"THB","i_lat":-6.185545,"distance":3191,"line":1,"is_transit":true,"time":6},{"line":1,"transit":false,"station_name":"Karet","i_lat":-6.20132,"station_id":"KAT","time":5,"is_transit":false,"distance":2029,"i_long":106.816351},{"time":1,"i_long":106.819881,"station_name":"Sudirman Baru","transit":false,"distance":471,"i_lat":-6.201433,"is_transit":false,"line":1,"station_id":"SUDB"},{"time":1,"transit":false,"distance":280,"i_lat":-6.202263,"station_name":"Sudirman","line":1,"is_transit":false,"i_long":106.822649,"station_id":"SUD"},{"station_name":"Manggarai","time":4,"line":2,"i_lat":-6.209883,"i_long":106.84912,"station_id":"MRI","is_transit":false,"distance":3186,"transit":false},{"time":2,"i_long":106.858896,"line":1,"i_lat":-6.212485,"is_transit":false,"station_name":"Matraman","distance":1275,"station_id":"MTR","transit":false},{"line":1,"is_transit":true,"transit":true,"distance":1377,"i_lat":-6.215091,"i_long":106.86807400000001,"station_id":"JNG","time":8,"station_name":"Jatinegara"},{"transit":false,"station_name":"Pondok Jati","time":2,"station_id":"POK","is_transit":false,"i_long":106.861737,"distance":1236,"i_lat":-6.209188,"line":11},{"time":2,"line":11,"transit":false,"i_long":106.855437,"station_id":"KMT","i_lat":-6.193792,"distance":1829,"station_name":"Kramat","is_transit":false},{"station_name":"Gang Sentiong","station_id":"GST","time":1,"is_transit":false,"i_long":106.850107,"line":11,"transit":false,"distance":973,"i_lat":-6.185975},{"line":11,"i_long":106.84368,"station_id":"PSE","i_lat":-6.174784,"transit":false,"distance":1567,"time":8,"station_name":"Pasar Senen","is_transit":false},{"i_lat":-6.161728,"transit":false,"station_name":"Kemayoran","station_id":"KMO","is_transit":false,"time":4,"distance":1436,"i_long":106.839204,"line":11},{"station_id":"RJW","station_name":"Rajawali","line":11,"transit":false,"i_lat":-6.14505,"i_long":106.836569,"distance":1901,"is_transit":false,"time":5},{"line":4,"i_long":106.826365,"time":3,"transit":true,"distance":1444,"i_lat":-6.132549,"station_name":"Kampung Bandan","station_id":"KPB","is_transit":true},{"i_long":106.84464,"line":4,"station_id":"AC","i_lat":-6.128023,"station_name":"Ancol","is_transit":false,"transit":false,"time":4,"distance":2185},{"distance":4566,"i_long":106.880089,"transit":false,"i_lat":-6.1109480000000005,"line":4,"time":9,"is_transit":false,"station_id":"TPK","station_name":"Tanjung Priuk"}]]}