{"data":[[{"line":6,"time":0,"distance":0,"is_transit":false,"station_id":"TGS","i_lat":-6.328533,"transit":false,"station_name":"Tigaraksa","i_long":106.425991},{"i_lat":-6.327251,"line":6,"station_name":"Tenjo","transit":false,"distance":2974,"station_id":"TEJ","i_long":106.460812,"time":5,"is_transit":false},{"is_transit":false,"line":0,"station_name":"Daru","time":5,"distance":3902,"transit":false,"i_long":106.491338,"i_lat":-6.338021,"station_id":"DAR"},{"station_name":"Cilejit","is_transit":false,"distance":2675,"time":6,"transit":false,"i_long":106.508482,"line":3,"station_id":"CJT","i_lat":-6.354349},{"station_id":"PRP","station_name":"Parung Panjang","time":9,"is_transit":false,"line":6,"i_long":106.568863,"distance":7025,"transit":false,"i_lat":-6.3441410000000005},{"station_id":"CC","distance":5968,"is_transit":false,"time":8,"station_name":"Cicayur","i_lat":-6.329547,"i_long":106.617853,"line":3,"transit":false},{"i_long":106.640411,"is_transit":false,"distance":2519,"station_name":"Cisauk","station_id":"CSK","transit":false,"i_lat":-6.32484,"line":3,"time":4},{"time":4,"is_transit":false,"station_name":"Serpong","station_id":"SRP","distance":1784,"i_long":106.66566,"line":6,"transit":false,"i_lat":-6.319871},{"is_transit":false,"i_lat":-6.314823,"line":6,"time":4,"i_long":106.675475,"distance":2413,"transit":false,"station_name":"Rawa Buntu","station_id":"RU"},{"distance":4566,"station_id":"SDM","transit":false,"is_transit":false,"station_name":"Sudimara","time":6,"i_lat":-6.296963,"line":6,"i_long":106.712277},{"transit":false,"line":6,"i_lat":-6.288927,"time":4,"i_long":106.728916,"distance":1994,"station_name":"Jurangmangu","is_transit":false,"station_id":"JMU"},{"i_lat":-6.276362,"distance":2179,"transit":false,"station_name":"Pondokranji","station_id":"PDJ","time":3,"line":6,"is_transit":false,"i_long":106.74273},{"station_name":"Kebayoran","is_transit":false,"distance":6218,"i_lat":-6.237242,"i_long":106.780334,"line":6,"transit":false,"station_id":"KBY","time":8},{"time":7,"station_name":"Palmerah","line":6,"i_long":106.79689,"distance":3737,"station_id":"PLM","is_transit":false,"i_lat":-6.207404,"transit":false}]]}