{"data":[[{"station_name":"Tigaraksa","station_id":"TGS","distance":0,"is_transit":false,"i_long":106.425991,"i_lat":-6.328533,"time":0,"line":6,"transit":false},{"transit":false,"line":6,"time":5,"is_transit":false,"station_name":"Tenjo","distance":2974,"i_long":106.460812,"i_lat":-6.327251,"station_id":"TEJ"},{"station_name":"Daru","time":5,"i_lat":-6.338021,"station_id":"DAR","distance":3902,"transit":false,"is_transit":false,"i_long":106.491338,"line":0},{"time":6,"distance":2675,"station_id":"CJT","i_lat":-6.354349,"is_transit":false,"station_name":"Cilejit","i_long":106.508482,"transit":false,"line":0},{"i_long":106.568863,"station_name":"Parung Panjang","line":6,"station_id":"PRP","time":9,"i_lat":-6.3441410000000005,"distance":7025,"is_transit":false,"transit":false},{"distance":5968,"transit":false,"is_transit":false,"station_id":"CC","station_name":"Cicayur","time":8,"i_lat":-6.329547,"i_long":106.617853,"line":0},{"i_long":106.640411,"line":0,"is_transit":false,"distance":2519,"station_name":"Cisauk","station_id":"CSK","transit":false,"time":4,"i_lat":-6.32484},{"station_name":"Serpong","distance":1784,"is_transit":false,"transit":false,"time":4,"i_lat":-6.319871,"line":6,"station_id":"SRP","i_long":106.66566},{"i_long":106.675475,"line":6,"is_transit":false,"station_id":"RU","distance":2413,"station_name":"Rawa Buntu","transit":false,"i_lat":-6.314823,"time":4},{"i_lat":-6.296963,"station_id":"SDM","station_name":"Sudimara","distance":4566,"transit":false,"time":6,"i_long":106.712277,"is_transit":false,"line":6},{"line":6,"is_transit":false,"station_id":"JMU","i_lat":-6.288927,"i_long":106.728916,"station_name":"Jurangmangu","time":4,"distance":1994,"transit":false},{"station_id":"PDJ","transit":false,"line":6,"distance":2179,"is_transit":false,"time":3,"i_lat":-6.276362,"i_long":106.74273,"station_name":"Pondokranji"},{"time":8,"i_long":106.780334,"station_name":"Kebayoran","is_transit":false,"station_id":"KBY","transit":false,"line":6,"i_lat":-6.237242,"distance":6218},{"i_lat":-6.207404,"line":6,"distance":3737,"i_long":106.79689,"time":7,"is_transit":false,"station_id":"PLM","station_name":"Palmerah","transit":false},{"line":1,"time":6,"station_id":"THB","transit":true,"i_long":106.811091,"is_transit":true,"i_lat":-6.185545,"distance":3191,"station_name":"Tanah Abang"},{"station_name":"Duri","line":1,"i_lat":-6.155215,"i_long":106.800832,"distance":3632,"is_transit":true,"transit":true,"time":8,"station_id":"DU"},{"transit":false,"line":0,"i_long":106.79867,"station_name":"Angke","distance":1230,"time":4,"is_transit":false,"station_id":"AK","i_lat":-6.144674},{"station_id":"KPB","station_name":"Kampung Bandan","distance":4102,"is_transit":true,"transit":true,"line":0,"i_long":106.826365,"i_lat":-6.132549,"time":9},{"line":11,"time":3,"i_lat":-6.14505,"station_name":"Rajawali","i_long":106.836569,"distance":1444,"is_transit":false,"station_id":"RJW","transit":false},{"time":5,"i_lat":-6.161728,"is_transit":false,"station_id":"KMO","distance":1901,"station_name":"Kemayoran","transit":false,"i_long":106.839204,"line":11},{"i_lat":-6.174784,"i_long":106.84368,"is_transit":false,"line":11,"time":4,"station_id":"PSE","distance":1436,"transit":false,"station_name":"Pasar Senen"},{"distance":1567,"transit":false,"station_id":"GST","i_long":106.850107,"station_name":"Gang Sentiong","is_transit":false,"time":8,"i_lat":-6.185975,"line":11},{"station_id":"KMT","distance":973,"is_transit":false,"i_long":106.855437,"station_name":"Kramat","transit":false,"time":1,"i_lat":-6.193792,"line":11}],[{"i_lat":-6.328533,"distance":0,"station_id":"TGS","is_transit":false,"station_name":"Tigaraksa","line":6,"transit":false,"i_long":106.425991,"time":0},{"station_id":"TEJ","distance":2974,"time":5,"i_lat":-6.327251,"station_name":"Tenjo","line":6,"transit":false,"is_transit":false,"i_long":106.460812},{"line":0,"is_transit":false,"station_name":"Daru","time":5,"i_long":106.491338,"station_id":"DAR","i_lat":-6.338021,"distance":3902,"transit":false},{"transit":false,"distance":2675,"station_id":"CJT","i_lat":-6.354349,"station_name":"Cilejit","i_long":106.508482,"is_transit":false,"time":6,"line":0},{"i_lat":-6.3441410000000005,"line":6,"transit":false,"distance":7025,"station_name":"Parung Panjang","station_id":"PRP","time":9,"i_long":106.568863,"is_transit":false},{"station_name":"Cicayur","time":8,"transit":false,"i_long":106.617853,"line":0,"distance":5968,"i_lat":-6.329547,"is_transit":false,"station_id":"CC"},{"is_transit":false,"time":4,"station_id":"CSK","line":0,"transit":false,"station_name":"Cisauk","i_lat":-6.32484,"i_long":106.640411,"distance":2519},{"i_lat":-6.319871,"transit":false,"is_transit":false,"distance":1784,"line":6,"station_id":"SRP","time":4,"station_name":"Serpong","i_long":106.66566},{"time":4,"station_id":"RU","is_transit":false,"station_name":"Rawa Buntu","transit":false,"i_lat":-6.314823,"i_long":106.675475,"distance":2413,"line":6},{"is_transit":false,"station_name":"Sudimara","distance":4566,"time":6,"i_long":106.712277,"line":6,"i_lat":-6.296963,"transit":false,"station_id":"SDM"},{"i_long":106.728916,"i_lat":-6.288927,"line":6,"distance":1994,"is_transit":false,"station_id":"JMU","station_name":"Jurangmangu","transit":false,"time":4},{"line":6,"station_id":"PDJ","is_transit":false,"i_lat":-6.276362,"transit":false,"time":3,"i_long":106.74273,"distance":2179,"station_name":"Pondokranji"},{"station_id":"KBY","station_name":"Kebayoran","transit":false,"i_lat":-6.237242,"time":8,"distance":6218,"is_transit":false,"i_long":106.780334,"line":6},{"station_id":"PLM","distance":3737,"i_long":106.79689,"i_lat":-6.207404,"line":6,"is_transit":false,"station_name":"Palmerah","transit":false,"time":7},{"is_transit":true,"i_lat":-6.185545,"i_long":106.811091,"line":1,"station_name":"Tanah Abang","station_id":"THB","transit":true,"distance":3191,"time":6},{"transit":false,"station_name":"Karet","line":1,"time":5,"i_lat":-6.20132,"distance":2029,"is_transit":false,"station_id":"KAT","i_long":106.816351},{"is_transit":false,"distance":471,"station_name":"Sudirman Baru","i_long":106.819881,"transit":false,"station_id":"SUDB","time":1,"line":1,"i_lat":-6.201433},{"distance":280,"station_id":"SUD","station_name":"Sudirman","transit":false,"line":1,"i_long":106.822649,"is_transit":false,"time":1,"i_lat":-6.202263},{"time":4,"line":0,"i_lat":-6.209883,"i_long":106.84912,"distance":3186,"is_transit":true,"station_id":"MRI","station_name":"Manggarai","transit":false},{"time":2,"station_name":"Matraman","transit":false,"i_long":106.858896,"distance":1275,"i_lat":-6.212485,"is_transit":false,"station_id":"MTR","line":1},{"i_long":106.86807400000001,"is_transit":true,"line":0,"station_id":"JNG","i_lat":-6.215091,"transit":true,"station_name":"Jatinegara","time":8,"distance":1377},{"distance":1236,"i_long":106.861737,"transit":false,"line":11,"station_name":"Pondok Jati","station_id":"POK","i_lat":-6.209188,"is_transit":false,"time":2},{"distance":1829,"i_lat":-6.193792,"i_long":106.855437,"transit":false,"station_name":"Kramat","line":11,"time":2,"is_transit":false,"station_id":"KMT"}],[{"station_name":"Tigaraksa","i_long":106.425991,"station_id":"TGS","distance":0,"is_transit":false,"time":0,"line":6,"transit":false,"i_lat":-6.328533},{"transit":false,"station_id":"TEJ","station_name":"Tenjo","i_lat":-6.327251,"i_long":106.460812,"distance":2974,"line":6,"is_transit":false,"time":5},{"distance":3902,"is_transit":false,"time":5,"station_name":"Daru","i_long":106.491338,"i_lat":-6.338021,"line":0,"station_id":"DAR","transit":false},{"distance":2675,"time":6,"is_transit":false,"station_id":"CJT","transit":false,"line":0,"i_lat":-6.354349,"i_long":106.508482,"station_name":"Cilejit"},{"is_transit":false,"transit":false,"i_long":106.568863,"distance":7025,"station_id":"PRP","station_name":"Parung Panjang","time":9,"i_lat":-6.3441410000000005,"line":6},{"transit":false,"line":0,"distance":5968,"is_transit":false,"station_id":"CC","time":8,"i_long":106.617853,"station_name":"Cicayur","i_lat":-6.329547},{"is_transit":false,"i_long":106.640411,"station_id":"CSK","time":4,"line":0,"distance":2519,"transit":false,"station_name":"Cisauk","i_lat":-6.32484},{"distance":1784,"i_long":106.66566,"line":6,"station_name":"Serpong","transit":false,"is_transit":false,"time":4,"station_id":"SRP","i_lat":-6.319871},{"station_id":"RU","transit":false,"station_name":"Rawa Buntu","i_long":106.675475,"is_transit":false,"time":4,"distance":2413,"i_lat":-6.314823,"line":6},{"i_lat":-6.296963,"transit":false,"i_long":106.712277,"is_transit":false,"line":6,"station_id":"SDM","distance":4566,"station_name":"Sudimara","time":6},{"station_name":"Jurangmangu","time":4,"distance":1994,"transit":false,"i_long":106.728916,"i_lat":-6.288927,"station_id":"JMU","line":6,"is_transit":false},{"station_name":"Pondokranji","i_long":106.74273,"is_transit":false,"distance":2179,"station_id":"PDJ","i_lat":-6.276362,"line":6,"transit":false,"time":3},{"i_long":106.780334,"line":6,"is_transit":false,"time":8,"distance":6218,"station_id":"KBY","station_name":"Kebayoran","i_lat":-6.237242,"transit":false},{"i_long":106.79689,"is_transit":false,"transit":false,"station_name":"Palmerah","line":6,"distance":3737,"station_id":"PLM","i_lat":-6.207404,"time":7},{"is_transit":true,"time":6,"i_lat":-6.185545,"transit":true,"distance":3191,"line":1,"station_id":"THB","i_long":106.811091,"station_name":"Tanah Abang"},{"station_id":"DU","i_lat":-6.155215,"distance":3632,"station_name":"Duri","i_long":106.800832,"line":1,"is_transit":true,"transit":true,"time":8},{"station_id":"AK","line":0,"distance":1230,"is_transit":false,"transit":false,"time":4,"i_lat":-6.144674,"i_long":106.79867,"station_name":"Angke"},{"time":9,"station_id":"KPB","distance":4102,"i_lat":-6.132549,"i_long":106.826365,"station_name":"Kampung Bandan","line":0,"is_transit":true,"transit":false},{"time":3,"i_lat":-6.137569,"i_long":106.812439,"line":0,"transit":true,"station_id":"JAKK","station_name":"Jakarta Kota","distance":1364,"is_transit":true},{"line":7,"distance":1264,"station_name":"Jayakarta","time":4,"is_transit":false,"station_id":"JAY","i_long":106.820901,"i_lat":-6.141205,"transit":false},{"station_id":"MGB","i_long":106.82482,"i_lat":-6.149769,"line":2,"time":2,"is_transit":false,"station_name":"Manggabesar","transit":false,"distance":1080},{"time":2,"is_transit":false,"i_lat":-6.160725,"station_name":"Sawah Besar","line":2,"i_long":106.827103,"station_id":"SW","transit":false,"distance":906},{"line":2,"station_id":"JUA","time":2,"is_transit":false,"station_name":"Juanda","transit":false,"i_long":106.828284,"distance":1149,"i_lat":-6.166716},{"distance":2015,"transit":false,"line":2,"i_long":106.832183,"is_transit":false,"time":4,"station_id":"GDD","station_name":"Gondangdia","i_lat":-6.186295},{"transit":false,"station_name":"Cikini","distance":1750,"station_id":"CKI","line":0,"is_transit":false,"time":3,"i_long":106.840169,"i_lat":-6.198556},{"station_name":"Manggarai","line":0,"i_long":106.84912,"station_id":"MRI","time":4,"transit":true,"i_lat":-6.209883,"is_transit":true,"distance":1590},{"transit":false,"time":2,"i_lat":-6.212485,"line":1,"is_transit":false,"station_name":"Matraman","distance":1275,"station_id":"MTR","i_long":106.858896},{"is_transit":true,"distance":1377,"station_id":"JNG","station_name":"Jatinegara","i_long":106.86807400000001,"i_lat":-6.215091,"time":8,"transit":true,"line":0},{"station_name":"Pondok Jati","line":11,"transit":false,"distance":1236,"i_long":106.861737,"i_lat":-6.209188,"time":2,"station_id":"POK","is_transit":false},{"station_name":"Kramat","i_long":106.855437,"is_transit":false,"time":2,"line":11,"i_lat":-6.193792,"transit":false,"station_id":"KMT","distance":1829}],[{"transit":false,"i_lat":-6.328533,"station_name":"Tigaraksa","station_id":"TGS","distance":0,"line":6,"is_transit":false,"time":0,"i_long":106.425991},{"distance":2974,"station_id":"TEJ","station_name":"Tenjo","transit":false,"i_lat":-6.327251,"is_transit":false,"i_long":106.460812,"line":6,"time":5},{"is_transit":false,"i_lat":-6.338021,"line":0,"station_name":"Daru","time":5,"station_id":"DAR","i_long":106.491338,"transit":false,"distance":3902},{"i_lat":-6.354349,"station_name":"Cilejit","transit":false,"line":0,"station_id":"CJT","distance":2675,"is_transit":false,"i_long":106.508482,"time":6},{"station_name":"Parung Panjang","is_transit":false,"distance":7025,"transit":false,"time":9,"i_long":106.568863,"station_id":"PRP","i_lat":-6.3441410000000005,"line":6},{"distance":5968,"i_long":106.617853,"line":0,"station_name":"Cicayur","i_lat":-6.329547,"time":8,"station_id":"CC","transit":false,"is_transit":false},{"is_transit":false,"station_name":"Cisauk","i_long":106.640411,"time":4,"line":0,"transit":false,"station_id":"CSK","i_lat":-6.32484,"distance":2519},{"transit":false,"i_long":106.66566,"distance":1784,"i_lat":-6.319871,"time":4,"station_name":"Serpong","line":6,"station_id":"SRP","is_transit":false},{"i_lat":-6.314823,"distance":2413,"is_transit":false,"transit":false,"line":6,"time":4,"i_long":106.675475,"station_name":"Rawa Buntu","station_id":"RU"},{"is_transit":false,"line":6,"time":6,"transit":false,"distance":4566,"station_id":"SDM","station_name":"Sudimara","i_lat":-6.296963,"i_long":106.712277},{"transit":false,"line":6,"distance":1994,"time":4,"is_transit":false,"i_long":106.728916,"station_name":"Jurangmangu","i_lat":-6.288927,"station_id":"JMU"},{"i_lat":-6.276362,"time":3,"line":6,"station_id":"PDJ","station_name":"Pondokranji","distance":2179,"transit":false,"is_transit":false,"i_long":106.74273},{"is_transit":false,"distance":6218,"transit":false,"line":6,"i_lat":-6.237242,"station_name":"Kebayoran","time":8,"station_id":"KBY","i_long":106.780334},{"distance":3737,"is_transit":false,"i_long":106.79689,"station_id":"PLM","transit":false,"time":7,"i_lat":-6.207404,"line":6,"station_name":"Palmerah"},{"time":6,"i_long":106.811091,"line":1,"station_id":"THB","distance":3191,"transit":true,"i_lat":-6.185545,"station_name":"Tanah Abang","is_transit":true},{"station_id":"KAT","transit":false,"station_name":"Karet","i_lat":-6.20132,"i_long":106.816351,"distance":2029,"time":5,"line":1,"is_transit":false},{"i_lat":-6.201433,"transit":false,"is_transit":false,"distance":471,"line":1,"time":1,"i_long":106.819881,"station_name":"Sudirman Baru","station_id":"SUDB"},{"line":1,"is_transit":false,"time":1,"transit":false,"i_long":106.822649,"station_id":"SUD","i_lat":-6.202263,"distance":280,"station_name":"Sudirman"},{"time":4,"line":0,"station_name":"Manggarai","is_transit":true,"distance":3186,"i_lat":-6.209883,"i_long":106.84912,"station_id":"MRI","transit":true},{"is_transit":false,"station_id":"CKI","transit":false,"i_long":106.840169,"time":4,"distance":1590,"station_name":"Cikini","i_lat":-6.198556,"line":0},{"is_transit":false,"line":2,"station_name":"Gondangdia","distance":1750,"i_lat":-6.186295,"station_id":"GDD","transit":false,"time":3,"i_long":106.832183},{"time":4,"i_lat":-6.166716,"transit":false,"i_long":106.828284,"line":2,"is_transit":false,"distance":2015,"station_id":"JUA","station_name":"Juanda"},{"distance":1149,"is_transit":false,"i_long":106.827103,"line":2,"station_id":"SW","time":2,"station_name":"Sawah Besar","transit":false,"i_lat":-6.160725},{"station_name":"Manggabesar","station_id":"MGB","is_transit":false,"distance":906,"i_long":106.82482,"line":2,"transit":false,"time":2,"i_lat":-6.149769},{"time":2,"transit":false,"station_id":"JAY","i_long":106.820901,"line":7,"i_lat":-6.141205,"station_name":"Jayakarta","distance":1080,"is_transit":false},{"time":4,"distance":1264,"i_lat":-6.137569,"is_transit":true,"i_long":106.812439,"line":0,"station_id":"JAKK","transit":true,"station_name":"Jakarta Kota"},{"is_transit":true,"distance":1364,"station_id":"KPB","transit":true,"i_lat":-6.132549,"time":3,"i_long":106.826365,"line":0,"station_name":"Kampung Bandan"},{"distance":1444,"line":11,"i_long":106.836569,"transit":false,"station_id":"RJW","station_name":"Rajawali","is_transit":false,"time":3,"i_lat":-6.14505},{"is_transit":false,"i_long":106.839204,"distance":1901,"transit":false,"time":5,"station_id":"KMO","line":11,"station_name":"Kemayoran","i_lat":-6.161728},{"is_transit":false,"i_long":106.84368,"station_id":"PSE","transit":false,"distance":1436,"line":11,"i_lat":-6.174784,"station_name":"Pasar Senen","time":4},{"i_lat":-6.185975,"distance":1567,"is_transit":false,"station_id":"GST","station_name":"Gang Sentiong","transit":false,"time":8,"line":11,"i_long":106.850107},{"distance":973,"is_transit":false,"transit":false,"station_id":"KMT","line":11,"time":1,"i_long":106.855437,"i_lat":-6.193792,"station_name":"Kramat"}]]}