{"data":[[{"i_lat":-6.328533,"line":6,"i_long":106.425991,"is_transit":false,"station_name":"Tigaraksa","time":0,"transit":false,"station_id":"TGS","distance":0},{"transit":false,"station_name":"Tenjo","is_transit":false,"line":6,"distance":2974,"i_long":106.460812,"station_id":"TEJ","i_lat":-6.327251,"time":5},{"i_long":106.491338,"transit":false,"line":0,"is_transit":false,"i_lat":-6.338021,"distance":3902,"time":5,"station_name":"Daru","station_id":"DAR"},{"distance":2675,"station_name":"Cilejit","line":3,"is_transit":false,"time":6,"transit":false,"station_id":"CJT","i_lat":-6.354349,"i_long":106.508482},{"transit":false,"time":9,"line":6,"station_id":"PRP","station_name":"Parung Panjang","i_lat":-6.3441410000000005,"i_long":106.568863,"is_transit":false,"distance":7025},{"distance":5968,"i_long":106.617853,"station_name":"Cicayur","is_transit":false,"line":3,"transit":false,"station_id":"CC","i_lat":-6.329547,"time":8},{"time":4,"i_long":106.640411,"distance":2519,"station_name":"Cisauk","line":3,"i_lat":-6.32484,"station_id":"CSK","is_transit":false,"transit":false},{"distance":1784,"station_name":"Serpong","time":4,"station_id":"SRP","i_lat":-6.319871,"line":6,"is_transit":false,"transit":false,"i_long":106.66566},{"is_transit":false,"line":6,"transit":false,"i_lat":-6.314823,"time":4,"station_name":"Rawa Buntu","distance":2413,"station_id":"RU","i_long":106.675475},{"is_transit":false,"distance":4566,"i_long":106.712277,"time":6,"transit":false,"i_lat":-6.296963,"station_name":"Sudimara","line":6,"station_id":"SDM"},{"line":6,"station_id":"JMU","distance":1994,"station_name":"Jurangmangu","is_transit":false,"time":4,"i_long":106.728916,"transit":false,"i_lat":-6.288927},{"transit":false,"distance":2179,"line":6,"station_id":"PDJ","time":3,"i_lat":-6.276362,"is_transit":false,"station_name":"Pondokranji","i_long":106.74273},{"i_long":106.780334,"i_lat":-6.237242,"distance":6218,"station_name":"Kebayoran","line":6,"is_transit":false,"time":8,"transit":false,"station_id":"KBY"},{"i_lat":-6.207404,"transit":false,"station_id":"PLM","line":6,"i_long":106.79689,"station_name":"Palmerah","time":7,"is_transit":false,"distance":3737},{"station_id":"THB","transit":true,"i_lat":-6.185545,"line":1,"is_transit":true,"time":6,"station_name":"Tanah Abang","i_long":106.811091,"distance":3191},{"line":1,"is_transit":false,"time":5,"station_id":"KAT","station_name":"Karet","i_lat":-6.20132,"distance":2029,"i_long":106.816351,"transit":false},{"i_long":106.819881,"transit":false,"station_name":"Sudirman Baru","line":1,"distance":471,"is_transit":false,"station_id":"SUDB","time":1,"i_lat":-6.201433},{"station_id":"SUD","i_long":106.822649,"is_transit":false,"transit":false,"distance":280,"station_name":"Sudirman","i_lat":-6.202263,"line":1,"time":1},{"station_name":"Manggarai","station_id":"MRI","is_transit":true,"line":2,"transit":true,"time":4,"distance":3186,"i_long":106.84912,"i_lat":-6.209883},{"line":2,"i_long":106.857948,"time":4,"station_name":"Tebet","station_id":"TEB","is_transit":false,"distance":2610,"transit":false,"i_lat":-6.226659},{"transit":false,"station_name":"Cawang","is_transit":false,"i_lat":-6.242512,"line":2,"time":2,"i_long":106.856607,"station_id":"CW","distance":1230},{"station_id":"DRN","transit":false,"line":2,"is_transit":false,"i_long":106.85449,"i_lat":-6.255332,"station_name":"Duren Kalibata","distance":1546,"time":3},{"station_id":"PSMB","is_transit":false,"station_name":"Pasar Minggu Baru","time":2,"i_lat":-6.263214,"distance":824,"line":2,"i_long":106.851577,"transit":false},{"station_id":"PSM","distance":2380,"transit":false,"time":2,"i_lat":-6.2842400000000005,"station_name":"Pasar Minggu","is_transit":false,"i_long":106.843999,"line":2},{"i_long":106.838896,"i_lat":-6.3080680000000005,"station_name":"Tanjung Barat","distance":2820,"time":4,"station_id":"TNT","is_transit":false,"line":2,"transit":false},{"line":2,"station_name":"Lenteng Agung","time":3,"is_transit":false,"distance":2671,"i_lat":-6.330363,"i_long":106.832616,"station_id":"LNA","transit":false},{"station_name":"Univ. Pancasila","station_id":"UP","distance":1029,"i_long":106.834175,"time":2,"line":2,"transit":false,"i_lat":-6.339291,"is_transit":false},{"distance":2264,"line":2,"i_long":106.831474,"station_name":"Univ. Indonesia","is_transit":false,"station_id":"UI","time":3,"i_lat":-6.360749,"transit":false},{"line":2,"transit":false,"distance":1109,"i_lat":-6.369073,"station_name":"Pondok Cina","station_id":"POC","is_transit":false,"time":2,"i_long":106.831114},{"station_name":"Depokbaru","is_transit":false,"distance":2727,"transit":false,"station_id":"DPB","time":4,"i_lat":-6.391065,"line":2,"i_long":106.819451},{"line":2,"station_id":"DP","distance":1584,"i_lat":-6.405256,"is_transit":false,"transit":false,"time":3,"station_name":"Depok","i_long":106.816926},{"i_lat":-6.448811,"transit":false,"station_id":"CTA","is_transit":false,"time":6,"station_name":"Citayam","distance":5084,"i_long":106.800298,"line":2}],[{"station_id":"TGS","transit":false,"time":0,"i_long":106.425991,"station_name":"Tigaraksa","is_transit":false,"distance":0,"i_lat":-6.328533,"line":6},{"is_transit":false,"line":6,"transit":false,"station_name":"Tenjo","i_long":106.460812,"station_id":"TEJ","time":5,"distance":2974,"i_lat":-6.327251},{"time":5,"transit":false,"station_name":"Daru","i_lat":-6.338021,"line":0,"is_transit":false,"distance":3902,"station_id":"DAR","i_long":106.491338},{"i_long":106.508482,"is_transit":false,"station_name":"Cilejit","distance":2675,"i_lat":-6.354349,"line":3,"transit":false,"time":6,"station_id":"CJT"},{"line":6,"station_name":"Parung Panjang","time":9,"transit":false,"i_lat":-6.3441410000000005,"station_id":"PRP","is_transit":false,"i_long":106.568863,"distance":7025},{"station_name":"Cicayur","transit":false,"station_id":"CC","i_lat":-6.329547,"time":8,"line":3,"is_transit":false,"distance":5968,"i_long":106.617853},{"station_id":"CSK","i_lat":-6.32484,"line":3,"i_long":106.640411,"station_name":"Cisauk","transit":false,"is_transit":false,"distance":2519,"time":4},{"station_id":"SRP","line":6,"transit":false,"i_long":106.66566,"time":4,"distance":1784,"i_lat":-6.319871,"station_name":"Serpong","is_transit":false},{"is_transit":false,"i_lat":-6.314823,"distance":2413,"line":6,"time":4,"transit":false,"i_long":106.675475,"station_name":"Rawa Buntu","station_id":"RU"},{"i_lat":-6.296963,"i_long":106.712277,"is_transit":false,"distance":4566,"transit":false,"station_name":"Sudimara","line":6,"time":6,"station_id":"SDM"},{"station_name":"Jurangmangu","line":6,"i_long":106.728916,"i_lat":-6.288927,"time":4,"transit":false,"is_transit":false,"station_id":"JMU","distance":1994},{"transit":false,"station_name":"Pondokranji","station_id":"PDJ","distance":2179,"i_long":106.74273,"line":6,"is_transit":false,"i_lat":-6.276362,"time":3},{"station_id":"KBY","time":8,"distance":6218,"is_transit":false,"transit":false,"station_name":"Kebayoran","i_lat":-6.237242,"i_long":106.780334,"line":6},{"station_name":"Palmerah","station_id":"PLM","time":7,"transit":false,"i_long":106.79689,"is_transit":false,"line":6,"i_lat":-6.207404,"distance":3737},{"time":6,"line":1,"i_long":106.811091,"transit":true,"is_transit":true,"distance":3191,"station_name":"Tanah Abang","station_id":"THB","i_lat":-6.185545},{"line":1,"station_name":"Duri","transit":false,"distance":3632,"station_id":"DU","i_lat":-6.155215,"i_long":106.800832,"is_transit":false,"time":8},{"station_name":"Angke","distance":1230,"i_long":106.79867,"is_transit":false,"line":1,"time":4,"station_id":"AK","i_lat":-6.144674,"transit":false},{"station_id":"KPB","transit":true,"station_name":"Kampung Bandan","i_long":106.826365,"is_transit":true,"time":9,"distance":4102,"line":4,"i_lat":-6.132549},{"transit":true,"i_long":106.812439,"station_id":"JAKK","i_lat":-6.137569,"line":2,"station_name":"Jakarta Kota","distance":1364,"is_transit":true,"time":3},{"is_transit":false,"time":4,"i_lat":-6.141205,"station_name":"Jayakarta","transit":false,"line":2,"station_id":"JAY","distance":1264,"i_long":106.820901},{"time":2,"is_transit":false,"station_name":"Manggabesar","i_long":106.82482,"transit":false,"station_id":"MGB","distance":1080,"i_lat":-6.149769,"line":2},{"station_id":"SW","time":2,"i_long":106.827103,"is_transit":false,"transit":false,"station_name":"Sawah Besar","i_lat":-6.160725,"line":2,"distance":906},{"station_id":"JUA","station_name":"Juanda","is_transit":false,"transit":false,"distance":1149,"time":2,"i_lat":-6.166716,"line":2,"i_long":106.828284},{"station_id":"GDD","is_transit":false,"distance":2015,"i_lat":-6.186295,"time":4,"i_long":106.832183,"transit":false,"station_name":"Gondangdia","line":2},{"i_long":106.840169,"station_id":"CKI","transit":false,"time":3,"is_transit":false,"distance":1750,"station_name":"Cikini","line":2,"i_lat":-6.198556},{"station_id":"MRI","station_name":"Manggarai","line":2,"is_transit":false,"transit":false,"i_long":106.84912,"time":4,"distance":1590,"i_lat":-6.209883},{"station_id":"TEB","time":4,"is_transit":false,"distance":2610,"i_long":106.857948,"line":2,"transit":false,"station_name":"Tebet","i_lat":-6.226659},{"i_lat":-6.242512,"station_name":"Cawang","is_transit":false,"i_long":106.856607,"station_id":"CW","distance":1230,"line":2,"transit":false,"time":2},{"line":2,"i_lat":-6.255332,"station_id":"DRN","time":3,"distance":1546,"i_long":106.85449,"station_name":"Duren Kalibata","is_transit":false,"transit":false},{"transit":false,"distance":824,"i_lat":-6.263214,"i_long":106.851577,"station_name":"Pasar Minggu Baru","station_id":"PSMB","is_transit":false,"time":2,"line":2},{"station_name":"Pasar Minggu","time":2,"transit":false,"i_long":106.843999,"line":2,"is_transit":false,"distance":2380,"i_lat":-6.2842400000000005,"station_id":"PSM"},{"line":2,"station_id":"TNT","distance":2820,"transit":false,"station_name":"Tanjung Barat","i_lat":-6.3080680000000005,"i_long":106.838896,"time":4,"is_transit":false},{"distance":2671,"station_id":"LNA","i_lat":-6.330363,"transit":false,"is_transit":false,"station_name":"Lenteng Agung","i_long":106.832616,"line":2,"time":3},{"i_long":106.834175,"station_id":"UP","transit":false,"time":2,"is_transit":false,"line":2,"station_name":"Univ. Pancasila","distance":1029,"i_lat":-6.339291},{"station_id":"UI","is_transit":false,"transit":false,"line":2,"i_lat":-6.360749,"distance":2264,"station_name":"Univ. Indonesia","time":3,"i_long":106.831474},{"time":2,"transit":false,"station_name":"Pondok Cina","distance":1109,"is_transit":false,"i_lat":-6.369073,"i_long":106.831114,"line":2,"station_id":"POC"},{"i_long":106.819451,"is_transit":false,"line":2,"station_name":"Depokbaru","time":4,"station_id":"DPB","transit":false,"distance":2727,"i_lat":-6.391065},{"station_id":"DP","station_name":"Depok","i_long":106.816926,"line":2,"is_transit":false,"distance":1584,"time":3,"i_lat":-6.405256,"transit":false},{"transit":false,"distance":5084,"i_long":106.800298,"line":2,"is_transit":false,"time":6,"station_name":"Citayam","i_lat":-6.448811,"station_id":"CTA"}],[{"transit":false,"distance":0,"station_id":"TGS","line":6,"is_transit":false,"time":0,"station_name":"Tigaraksa","i_lat":-6.328533,"i_long":106.425991},{"station_id":"TEJ","time":5,"i_long":106.460812,"transit":false,"distance":2974,"i_lat":-6.327251,"line":6,"is_transit":false,"station_name":"Tenjo"},{"time":5,"is_transit":false,"i_long":106.491338,"station_name":"Daru","station_id":"DAR","distance":3902,"i_lat":-6.338021,"line":0,"transit":false},{"i_long":106.508482,"is_transit":false,"line":3,"station_id":"CJT","station_name":"Cilejit","time":6,"transit":false,"distance":2675,"i_lat":-6.354349},{"time":9,"i_lat":-6.3441410000000005,"distance":7025,"transit":false,"is_transit":false,"station_name":"Parung Panjang","line":6,"station_id":"PRP","i_long":106.568863},{"line":3,"distance":5968,"transit":false,"i_long":106.617853,"is_transit":false,"i_lat":-6.329547,"time":8,"station_id":"CC","station_name":"Cicayur"},{"station_name":"Cisauk","transit":false,"station_id":"CSK","distance":2519,"line":3,"i_long":106.640411,"i_lat":-6.32484,"is_transit":false,"time":4},{"transit":false,"station_id":"SRP","distance":1784,"is_transit":false,"i_lat":-6.319871,"i_long":106.66566,"time":4,"line":6,"station_name":"Serpong"},{"i_long":106.675475,"line":6,"station_name":"Rawa Buntu","is_transit":false,"station_id":"RU","time":4,"distance":2413,"i_lat":-6.314823,"transit":false},{"station_name":"Sudimara","transit":false,"station_id":"SDM","is_transit":false,"distance":4566,"i_lat":-6.296963,"i_long":106.712277,"line":6,"time":6},{"line":6,"time":4,"station_name":"Jurangmangu","is_transit":false,"transit":false,"i_long":106.728916,"station_id":"JMU","i_lat":-6.288927,"distance":1994},{"distance":2179,"transit":false,"station_name":"Pondokranji","time":3,"i_lat":-6.276362,"station_id":"PDJ","line":6,"is_transit":false,"i_long":106.74273},{"transit":false,"station_name":"Kebayoran","line":6,"is_transit":false,"time":8,"i_lat":-6.237242,"i_long":106.780334,"station_id":"KBY","distance":6218},{"line":6,"distance":3737,"time":7,"station_id":"PLM","is_transit":false,"i_lat":-6.207404,"transit":false,"station_name":"Palmerah","i_long":106.79689},{"station_name":"Tanah Abang","station_id":"THB","is_transit":true,"time":6,"i_lat":-6.185545,"transit":true,"i_long":106.811091,"line":1,"distance":3191},{"is_transit":false,"time":8,"i_lat":-6.155215,"i_long":106.800832,"line":1,"transit":false,"distance":3632,"station_id":"DU","station_name":"Duri"},{"transit":false,"distance":1230,"is_transit":false,"line":1,"time":4,"station_id":"AK","i_lat":-6.144674,"station_name":"Angke","i_long":106.79867},{"station_id":"KPB","distance":4102,"line":4,"station_name":"Kampung Bandan","is_transit":true,"transit":true,"time":9,"i_lat":-6.132549,"i_long":106.826365},{"time":3,"transit":false,"station_id":"RJW","distance":1444,"i_long":106.836569,"station_name":"Rajawali","line":11,"is_transit":false,"i_lat":-6.14505},{"distance":1901,"i_lat":-6.161728,"station_name":"Kemayoran","i_long":106.839204,"time":5,"line":11,"transit":false,"station_id":"KMO","is_transit":false},{"is_transit":false,"time":4,"distance":1436,"transit":false,"station_id":"PSE","i_lat":-6.174784,"station_name":"Pasar Senen","line":11,"i_long":106.84368},{"station_name":"Gang Sentiong","i_long":106.850107,"i_lat":-6.185975,"distance":1567,"line":11,"transit":false,"station_id":"GST","is_transit":false,"time":8},{"i_lat":-6.193792,"station_id":"KMT","station_name":"Kramat","is_transit":false,"i_long":106.855437,"line":11,"distance":973,"transit":false,"time":1},{"is_transit":false,"station_name":"Pondok Jati","time":2,"transit":false,"i_lat":-6.209188,"distance":1829,"i_long":106.861737,"station_id":"POK","line":11},{"i_long":106.86807400000001,"is_transit":true,"distance":1236,"station_name":"Jatinegara","time":9,"line":1,"transit":true,"station_id":"JNG","i_lat":-6.215091},{"is_transit":false,"time":2,"distance":1377,"i_long":106.858896,"station_id":"MTR","line":1,"i_lat":-6.212485,"transit":false,"station_name":"Matraman"},{"is_transit":true,"station_id":"MRI","i_lat":-6.209883,"i_long":106.84912,"time":2,"station_name":"Manggarai","line":2,"distance":1275,"transit":true},{"transit":false,"time":4,"distance":2610,"station_name":"Tebet","station_id":"TEB","i_lat":-6.226659,"line":2,"i_long":106.857948,"is_transit":false},{"distance":1230,"station_id":"CW","station_name":"Cawang","i_long":106.856607,"i_lat":-6.242512,"transit":false,"line":2,"is_transit":false,"time":2},{"station_name":"Duren Kalibata","i_long":106.85449,"transit":false,"i_lat":-6.255332,"is_transit":false,"line":2,"time":3,"distance":1546,"station_id":"DRN"},{"station_id":"PSMB","is_transit":false,"transit":false,"station_name":"Pasar Minggu Baru","distance":824,"time":2,"i_lat":-6.263214,"i_long":106.851577,"line":2},{"station_name":"Pasar Minggu","station_id":"PSM","i_lat":-6.2842400000000005,"time":2,"is_transit":false,"distance":2380,"i_long":106.843999,"line":2,"transit":false},{"line":2,"i_lat":-6.3080680000000005,"distance":2820,"transit":false,"station_id":"TNT","is_transit":false,"time":4,"i_long":106.838896,"station_name":"Tanjung Barat"},{"line":2,"station_name":"Lenteng Agung","i_lat":-6.330363,"time":3,"station_id":"LNA","distance":2671,"i_long":106.832616,"transit":false,"is_transit":false},{"station_name":"Univ. Pancasila","i_lat":-6.339291,"transit":false,"line":2,"i_long":106.834175,"time":2,"station_id":"UP","is_transit":false,"distance":1029},{"line":2,"station_id":"UI","i_lat":-6.360749,"i_long":106.831474,"transit":false,"station_name":"Univ. Indonesia","time":3,"is_transit":false,"distance":2264},{"station_name":"Pondok Cina","line":2,"is_transit":false,"distance":1109,"time":2,"i_long":106.831114,"station_id":"POC","i_lat":-6.369073,"transit":false},{"time":4,"station_name":"Depokbaru","transit":false,"is_transit":false,"distance":2727,"i_long":106.819451,"i_lat":-6.391065,"station_id":"DPB","line":2},{"i_lat":-6.405256,"line":2,"time":3,"i_long":106.816926,"distance":1584,"transit":false,"station_name":"Depok","station_id":"DP","is_transit":false},{"time":6,"is_transit":false,"distance":5084,"station_id":"CTA","station_name":"Citayam","i_long":106.800298,"line":2,"transit":false,"i_lat":-6.448811}]]}