{"data":[[{"is_transit":false,"i_long":106.425991,"time":0,"distance":0,"station_id":"TGS","transit":false,"line":6,"i_lat":-6.328533,"station_name":"Tigaraksa"},{"transit":false,"i_long":106.460812,"i_lat":-6.327251,"distance":2974,"station_name":"Tenjo","station_id":"TEJ","line":6,"is_transit":false,"time":5},{"is_transit":false,"i_long":106.491338,"station_name":"Daru","time":5,"transit":false,"i_lat":-6.338021,"line":0,"station_id":"DAR","distance":3902},{"transit":false,"time":6,"i_lat":-6.354349,"i_long":106.508482,"station_name":"Cilejit","is_transit":false,"line":0,"distance":2675,"station_id":"CJT"},{"is_transit":false,"station_name":"Parung Panjang","i_lat":-6.3441410000000005,"station_id":"PRP","distance":7025,"line":6,"transit":false,"time":9,"i_long":106.568863},{"time":8,"transit":false,"i_long":106.617853,"distance":5968,"station_id":"CC","i_lat":-6.329547,"line":0,"station_name":"Cicayur","is_transit":false},{"line":0,"distance":2519,"i_long":106.640411,"is_transit":false,"time":4,"station_id":"CSK","transit":false,"i_lat":-6.32484,"station_name":"Cisauk"},{"station_name":"Serpong","is_transit":false,"transit":false,"i_long":106.66566,"line":6,"i_lat":-6.319871,"distance":1784,"time":4,"station_id":"SRP"},{"time":4,"is_transit":false,"distance":2413,"station_name":"Rawa Buntu","i_lat":-6.314823,"line":6,"transit":false,"i_long":106.675475,"station_id":"RU"},{"line":6,"time":6,"i_long":106.712277,"distance":4566,"station_name":"Sudimara","is_transit":false,"i_lat":-6.296963,"station_id":"SDM","transit":false},{"transit":false,"station_id":"JMU","time":4,"i_long":106.728916,"line":6,"distance":1994,"station_name":"Jurangmangu","i_lat":-6.288927,"is_transit":false},{"station_id":"PDJ","is_transit":false,"i_long":106.74273,"line":6,"distance":2179,"transit":false,"station_name":"Pondokranji","i_lat":-6.276362,"time":3},{"transit":false,"i_lat":-6.237242,"time":8,"distance":6218,"line":6,"is_transit":false,"station_id":"KBY","station_name":"Kebayoran","i_long":106.780334},{"transit":false,"time":7,"is_transit":false,"station_name":"Palmerah","line":6,"distance":3737,"i_lat":-6.207404,"i_long":106.79689,"station_id":"PLM"},{"line":1,"is_transit":true,"station_id":"THB","station_name":"Tanah Abang","distance":3191,"transit":true,"i_long":106.811091,"time":6,"i_lat":-6.185545},{"station_name":"Karet","distance":2029,"station_id":"KAT","i_lat":-6.20132,"i_long":106.816351,"is_transit":false,"transit":false,"line":1,"time":5},{"station_name":"Sudirman Baru","i_long":106.819881,"time":1,"distance":471,"transit":false,"is_transit":false,"i_lat":-6.201433,"line":1,"station_id":"SUDB"},{"line":1,"is_transit":false,"i_long":106.822649,"distance":280,"i_lat":-6.202263,"station_id":"SUD","transit":false,"station_name":"Sudirman","time":1},{"transit":false,"is_transit":true,"station_name":"Manggarai","i_long":106.84912,"line":0,"station_id":"MRI","distance":3186,"i_lat":-6.209883,"time":4},{"station_id":"MTR","i_lat":-6.212485,"time":2,"distance":1275,"i_long":106.858896,"line":1,"transit":false,"is_transit":false,"station_name":"Matraman"}],[{"transit":false,"station_id":"TGS","time":0,"is_transit":false,"i_long":106.425991,"line":6,"i_lat":-6.328533,"distance":0,"station_name":"Tigaraksa"},{"station_name":"Tenjo","is_transit":false,"time":5,"transit":false,"i_long":106.460812,"station_id":"TEJ","line":6,"distance":2974,"i_lat":-6.327251},{"i_lat":-6.338021,"time":5,"i_long":106.491338,"line":0,"station_id":"DAR","distance":3902,"transit":false,"is_transit":false,"station_name":"Daru"},{"line":0,"is_transit":false,"distance":2675,"transit":false,"station_name":"Cilejit","station_id":"CJT","i_lat":-6.354349,"i_long":106.508482,"time":6},{"distance":7025,"i_lat":-6.3441410000000005,"line":6,"time":9,"station_id":"PRP","station_name":"Parung Panjang","is_transit":false,"i_long":106.568863,"transit":false},{"is_transit":false,"line":0,"i_long":106.617853,"time":8,"distance":5968,"transit":false,"station_name":"Cicayur","station_id":"CC","i_lat":-6.329547},{"is_transit":false,"i_lat":-6.32484,"time":4,"station_id":"CSK","transit":false,"station_name":"Cisauk","i_long":106.640411,"distance":2519,"line":0},{"time":4,"transit":false,"line":6,"station_id":"SRP","is_transit":false,"i_lat":-6.319871,"distance":1784,"station_name":"Serpong","i_long":106.66566},{"station_name":"Rawa Buntu","i_lat":-6.314823,"distance":2413,"transit":false,"i_long":106.675475,"line":6,"is_transit":false,"station_id":"RU","time":4},{"station_name":"Sudimara","transit":false,"i_lat":-6.296963,"is_transit":false,"line":6,"distance":4566,"i_long":106.712277,"time":6,"station_id":"SDM"},{"i_long":106.728916,"i_lat":-6.288927,"line":6,"station_id":"JMU","station_name":"Jurangmangu","time":4,"distance":1994,"is_transit":false,"transit":false},{"station_id":"PDJ","is_transit":false,"station_name":"Pondokranji","line":6,"transit":false,"distance":2179,"time":3,"i_long":106.74273,"i_lat":-6.276362},{"time":8,"i_lat":-6.237242,"line":6,"station_name":"Kebayoran","station_id":"KBY","distance":6218,"transit":false,"is_transit":false,"i_long":106.780334},{"distance":3737,"station_name":"Palmerah","is_transit":false,"time":7,"transit":false,"i_long":106.79689,"station_id":"PLM","i_lat":-6.207404,"line":6},{"time":6,"line":1,"i_long":106.811091,"distance":3191,"i_lat":-6.185545,"is_transit":true,"station_name":"Tanah Abang","transit":true,"station_id":"THB"},{"i_long":106.800832,"distance":3632,"line":1,"time":8,"is_transit":true,"i_lat":-6.155215,"transit":true,"station_id":"DU","station_name":"Duri"},{"is_transit":false,"station_id":"AK","transit":false,"station_name":"Angke","i_lat":-6.144674,"i_long":106.79867,"time":4,"distance":1230,"line":0},{"station_name":"Kampung Bandan","distance":4102,"line":0,"is_transit":true,"station_id":"KPB","transit":true,"i_long":106.826365,"time":9,"i_lat":-6.132549},{"distance":1444,"time":3,"transit":false,"i_long":106.836569,"line":11,"i_lat":-6.14505,"station_id":"RJW","station_name":"Rajawali","is_transit":false},{"i_lat":-6.161728,"distance":1901,"is_transit":false,"transit":false,"station_name":"Kemayoran","i_long":106.839204,"line":11,"time":5,"station_id":"KMO"},{"station_name":"Pasar Senen","line":11,"i_long":106.84368,"time":4,"transit":false,"station_id":"PSE","i_lat":-6.174784,"is_transit":false,"distance":1436},{"line":11,"distance":1567,"station_id":"GST","transit":false,"i_lat":-6.185975,"station_name":"Gang Sentiong","i_long":106.850107,"is_transit":false,"time":8},{"station_name":"Kramat","distance":973,"station_id":"KMT","i_long":106.855437,"is_transit":false,"time":1,"transit":false,"i_lat":-6.193792,"line":11},{"line":11,"transit":false,"station_id":"POK","time":2,"distance":1829,"station_name":"Pondok Jati","i_lat":-6.209188,"is_transit":false,"i_long":106.861737},{"i_lat":-6.215091,"is_transit":true,"station_name":"Jatinegara","transit":true,"i_long":106.86807400000001,"time":9,"distance":1236,"line":0,"station_id":"JNG"},{"i_long":106.858896,"i_lat":-6.212485,"time":2,"distance":1377,"station_id":"MTR","line":1,"transit":false,"is_transit":false,"station_name":"Matraman"}],[{"is_transit":false,"transit":false,"distance":0,"i_long":106.425991,"station_name":"Tigaraksa","time":0,"i_lat":-6.328533,"line":6,"station_id":"TGS"},{"i_lat":-6.327251,"is_transit":false,"transit":false,"station_id":"TEJ","station_name":"Tenjo","time":5,"i_long":106.460812,"line":6,"distance":2974},{"is_transit":false,"distance":3902,"station_id":"DAR","i_lat":-6.338021,"time":5,"line":0,"i_long":106.491338,"transit":false,"station_name":"Daru"},{"i_lat":-6.354349,"i_long":106.508482,"line":0,"time":6,"station_id":"CJT","station_name":"Cilejit","is_transit":false,"distance":2675,"transit":false},{"distance":7025,"station_name":"Parung Panjang","i_lat":-6.3441410000000005,"transit":false,"i_long":106.568863,"time":9,"is_transit":false,"station_id":"PRP","line":6},{"time":8,"station_name":"Cicayur","station_id":"CC","i_lat":-6.329547,"line":0,"distance":5968,"transit":false,"i_long":106.617853,"is_transit":false},{"station_name":"Cisauk","line":0,"i_lat":-6.32484,"distance":2519,"time":4,"transit":false,"i_long":106.640411,"is_transit":false,"station_id":"CSK"},{"i_lat":-6.319871,"is_transit":false,"station_id":"SRP","distance":1784,"time":4,"transit":false,"station_name":"Serpong","i_long":106.66566,"line":6},{"is_transit":false,"distance":2413,"station_name":"Rawa Buntu","i_long":106.675475,"line":6,"station_id":"RU","transit":false,"time":4,"i_lat":-6.314823},{"i_long":106.712277,"distance":4566,"station_name":"Sudimara","time":6,"transit":false,"station_id":"SDM","i_lat":-6.296963,"is_transit":false,"line":6},{"transit":false,"station_name":"Jurangmangu","distance":1994,"i_long":106.728916,"line":6,"is_transit":false,"station_id":"JMU","i_lat":-6.288927,"time":4},{"distance":2179,"transit":false,"time":3,"is_transit":false,"line":6,"station_name":"Pondokranji","i_lat":-6.276362,"i_long":106.74273,"station_id":"PDJ"},{"time":8,"station_id":"KBY","station_name":"Kebayoran","line":6,"distance":6218,"i_lat":-6.237242,"is_transit":false,"transit":false,"i_long":106.780334},{"station_name":"Palmerah","time":7,"is_transit":false,"station_id":"PLM","i_long":106.79689,"distance":3737,"line":6,"i_lat":-6.207404,"transit":false},{"i_long":106.811091,"station_name":"Tanah Abang","transit":true,"is_transit":true,"station_id":"THB","time":6,"i_lat":-6.185545,"line":1,"distance":3191},{"transit":true,"i_long":106.800832,"time":8,"station_name":"Duri","is_transit":true,"station_id":"DU","distance":3632,"line":1,"i_lat":-6.155215},{"line":0,"distance":1230,"transit":false,"i_lat":-6.144674,"station_name":"Angke","station_id":"AK","is_transit":false,"i_long":106.79867,"time":4},{"station_id":"KPB","i_long":106.826365,"station_name":"Kampung Bandan","transit":false,"i_lat":-6.132549,"time":9,"distance":4102,"is_transit":true,"line":0},{"is_transit":true,"time":3,"station_name":"Jakarta Kota","distance":1364,"station_id":"JAKK","i_lat":-6.137569,"i_long":106.812439,"transit":true,"line":0},{"i_long":106.820901,"line":7,"distance":1264,"i_lat":-6.141205,"is_transit":false,"time":4,"station_id":"JAY","transit":false,"station_name":"Jayakarta"},{"distance":1080,"is_transit":false,"station_id":"MGB","i_lat":-6.149769,"station_name":"Manggabesar","time":2,"i_long":106.82482,"line":2,"transit":false},{"station_name":"Sawah Besar","line":2,"transit":false,"station_id":"SW","distance":906,"i_long":106.827103,"is_transit":false,"time":2,"i_lat":-6.160725},{"transit":false,"station_id":"JUA","i_long":106.828284,"station_name":"Juanda","is_transit":false,"i_lat":-6.166716,"time":2,"line":2,"distance":1149},{"station_name":"Gondangdia","i_long":106.832183,"time":4,"station_id":"GDD","distance":2015,"transit":false,"i_lat":-6.186295,"is_transit":false,"line":2},{"is_transit":false,"distance":1750,"time":3,"station_name":"Cikini","transit":false,"station_id":"CKI","i_lat":-6.198556,"i_long":106.840169,"line":0},{"i_long":106.84912,"line":0,"station_name":"Manggarai","station_id":"MRI","is_transit":true,"distance":1590,"time":4,"transit":true,"i_lat":-6.209883},{"i_lat":-6.212485,"distance":1275,"i_long":106.858896,"transit":false,"is_transit":false,"station_id":"MTR","station_name":"Matraman","line":1,"time":2}],[{"station_name":"Tigaraksa","time":0,"i_lat":-6.328533,"i_long":106.425991,"station_id":"TGS","line":6,"is_transit":false,"distance":0,"transit":false},{"line":6,"i_long":106.460812,"is_transit":false,"station_name":"Tenjo","transit":false,"distance":2974,"i_lat":-6.327251,"station_id":"TEJ","time":5},{"i_lat":-6.338021,"station_name":"Daru","station_id":"DAR","i_long":106.491338,"transit":false,"time":5,"distance":3902,"line":0,"is_transit":false},{"i_long":106.508482,"distance":2675,"time":6,"line":0,"station_id":"CJT","is_transit":false,"station_name":"Cilejit","i_lat":-6.354349,"transit":false},{"distance":7025,"is_transit":false,"time":9,"station_id":"PRP","i_lat":-6.3441410000000005,"i_long":106.568863,"line":6,"transit":false,"station_name":"Parung Panjang"},{"distance":5968,"is_transit":false,"station_id":"CC","transit":false,"i_lat":-6.329547,"i_long":106.617853,"time":8,"line":0,"station_name":"Cicayur"},{"is_transit":false,"i_lat":-6.32484,"distance":2519,"transit":false,"line":0,"station_name":"Cisauk","i_long":106.640411,"time":4,"station_id":"CSK"},{"station_id":"SRP","distance":1784,"station_name":"Serpong","i_lat":-6.319871,"is_transit":false,"transit":false,"time":4,"line":6,"i_long":106.66566},{"i_long":106.675475,"line":6,"station_name":"Rawa Buntu","is_transit":false,"station_id":"RU","transit":false,"distance":2413,"i_lat":-6.314823,"time":4},{"distance":4566,"transit":false,"station_name":"Sudimara","line":6,"time":6,"station_id":"SDM","i_long":106.712277,"i_lat":-6.296963,"is_transit":false},{"i_long":106.728916,"transit":false,"distance":1994,"station_id":"JMU","is_transit":false,"line":6,"time":4,"i_lat":-6.288927,"station_name":"Jurangmangu"},{"transit":false,"line":6,"distance":2179,"station_name":"Pondokranji","i_lat":-6.276362,"station_id":"PDJ","is_transit":false,"time":3,"i_long":106.74273},{"station_name":"Kebayoran","station_id":"KBY","i_long":106.780334,"distance":6218,"is_transit":false,"line":6,"transit":false,"i_lat":-6.237242,"time":8},{"station_id":"PLM","time":7,"distance":3737,"is_transit":false,"transit":false,"i_long":106.79689,"line":6,"station_name":"Palmerah","i_lat":-6.207404},{"i_lat":-6.185545,"distance":3191,"is_transit":true,"time":6,"i_long":106.811091,"station_name":"Tanah Abang","station_id":"THB","line":1,"transit":true},{"i_lat":-6.20132,"line":1,"distance":2029,"i_long":106.816351,"is_transit":false,"station_id":"KAT","time":5,"station_name":"Karet","transit":false},{"is_transit":false,"station_name":"Sudirman Baru","transit":false,"i_lat":-6.201433,"i_long":106.819881,"distance":471,"line":1,"time":1,"station_id":"SUDB"},{"time":1,"station_id":"SUD","line":1,"transit":false,"distance":280,"i_long":106.822649,"station_name":"Sudirman","is_transit":false,"i_lat":-6.202263},{"line":0,"station_id":"MRI","transit":true,"i_long":106.84912,"time":4,"is_transit":true,"distance":3186,"station_name":"Manggarai","i_lat":-6.209883},{"i_long":106.840169,"time":4,"line":0,"station_id":"CKI","is_transit":false,"i_lat":-6.198556,"transit":false,"station_name":"Cikini","distance":1590},{"is_transit":false,"station_name":"Gondangdia","i_lat":-6.186295,"time":3,"transit":false,"i_long":106.832183,"line":2,"distance":1750,"station_id":"GDD"},{"transit":false,"station_id":"JUA","is_transit":false,"station_name":"Juanda","i_lat":-6.166716,"i_long":106.828284,"distance":2015,"time":4,"line":2},{"line":2,"i_lat":-6.160725,"station_name":"Sawah Besar","is_transit":false,"station_id":"SW","time":2,"distance":1149,"transit":false,"i_long":106.827103},{"is_transit":false,"time":2,"transit":false,"station_id":"MGB","i_long":106.82482,"line":2,"i_lat":-6.149769,"station_name":"Manggabesar","distance":906},{"is_transit":false,"i_long":106.820901,"time":2,"distance":1080,"station_name":"Jayakarta","transit":false,"line":7,"i_lat":-6.141205,"station_id":"JAY"},{"i_lat":-6.137569,"transit":true,"i_long":106.812439,"station_id":"JAKK","line":0,"is_transit":true,"distance":1264,"station_name":"Jakarta Kota","time":4},{"is_transit":true,"distance":1364,"i_long":106.826365,"line":0,"time":3,"station_id":"KPB","transit":true,"station_name":"Kampung Bandan","i_lat":-6.132549},{"is_transit":false,"station_name":"Rajawali","i_lat":-6.14505,"time":3,"transit":false,"line":11,"station_id":"RJW","distance":1444,"i_long":106.836569},{"is_transit":false,"distance":1901,"i_lat":-6.161728,"i_long":106.839204,"transit":false,"time":5,"station_id":"KMO","station_name":"Kemayoran","line":11},{"i_lat":-6.174784,"time":4,"distance":1436,"station_name":"Pasar Senen","is_transit":false,"i_long":106.84368,"transit":false,"line":11,"station_id":"PSE"},{"transit":false,"i_lat":-6.185975,"time":8,"is_transit":false,"station_id":"GST","i_long":106.850107,"line":11,"distance":1567,"station_name":"Gang Sentiong"},{"i_lat":-6.193792,"station_name":"Kramat","distance":973,"transit":false,"line":11,"time":1,"i_long":106.855437,"is_transit":false,"station_id":"KMT"},{"i_long":106.861737,"station_name":"Pondok Jati","i_lat":-6.209188,"transit":false,"time":2,"distance":1829,"is_transit":false,"station_id":"POK","line":11},{"is_transit":true,"transit":true,"i_long":106.86807400000001,"line":0,"station_name":"Jatinegara","time":9,"i_lat":-6.215091,"distance":1236,"station_id":"JNG"},{"transit":false,"i_long":106.858896,"distance":1377,"time":2,"is_transit":false,"station_id":"MTR","i_lat":-6.212485,"station_name":"Matraman","line":1}]]}