{"data":[[{"distance":0,"station_id":"TGS","transit":false,"i_lat":-6.328533,"station_name":"Tigaraksa","is_transit":false,"i_long":106.425991,"line":6,"time":0},{"line":6,"time":5,"station_id":"TEJ","i_lat":-6.327251,"distance":2974,"i_long":106.460812,"transit":false,"station_name":"Tenjo","is_transit":false},{"distance":3902,"station_id":"DAR","line":0,"transit":false,"time":5,"is_transit":false,"station_name":"Daru","i_long":106.491338,"i_lat":-6.338021},{"is_transit":false,"distance":2675,"station_name":"Cilejit","i_lat":-6.354349,"i_long":106.508482,"station_id":"CJT","line":0,"transit":false,"time":6},{"station_id":"PRP","station_name":"Parung Panjang","i_long":106.568863,"is_transit":false,"time":9,"i_lat":-6.3441410000000005,"distance":7025,"transit":false,"line":6},{"is_transit":false,"distance":5968,"time":8,"i_long":106.617853,"line":0,"station_name":"Cicayur","station_id":"CC","transit":false,"i_lat":-6.329547},{"line":0,"station_name":"Cisauk","is_transit":false,"distance":2519,"i_long":106.640411,"station_id":"CSK","time":4,"transit":false,"i_lat":-6.32484},{"station_id":"SRP","i_lat":-6.319871,"is_transit":false,"distance":1784,"time":4,"i_long":106.66566,"transit":false,"line":6,"station_name":"Serpong"},{"time":4,"station_name":"Rawa Buntu","transit":false,"i_long":106.675475,"distance":2413,"station_id":"RU","line":6,"is_transit":false,"i_lat":-6.314823},{"transit":false,"i_long":106.712277,"distance":4566,"i_lat":-6.296963,"is_transit":false,"station_name":"Sudimara","station_id":"SDM","line":6,"time":6},{"i_lat":-6.288927,"line":6,"station_name":"Jurangmangu","station_id":"JMU","distance":1994,"transit":false,"i_long":106.728916,"is_transit":false,"time":4},{"i_long":106.74273,"time":3,"station_name":"Pondokranji","transit":false,"station_id":"PDJ","i_lat":-6.276362,"is_transit":false,"line":6,"distance":2179},{"time":8,"is_transit":false,"station_id":"KBY","line":6,"station_name":"Kebayoran","distance":6218,"i_long":106.780334,"transit":false,"i_lat":-6.237242},{"is_transit":false,"distance":3737,"line":6,"station_name":"Palmerah","time":7,"transit":false,"i_lat":-6.207404,"i_long":106.79689,"station_id":"PLM"},{"i_long":106.811091,"line":1,"is_transit":true,"station_id":"THB","station_name":"Tanah Abang","distance":3191,"time":6,"transit":true,"i_lat":-6.185545},{"i_lat":-6.20132,"distance":2029,"i_long":106.816351,"is_transit":false,"station_name":"Karet","line":1,"station_id":"KAT","transit":false,"time":5},{"station_id":"SUDB","station_name":"Sudirman Baru","is_transit":false,"line":1,"transit":false,"i_long":106.819881,"i_lat":-6.201433,"time":1,"distance":471},{"time":1,"station_name":"Sudirman","transit":false,"i_lat":-6.202263,"line":1,"station_id":"SUD","i_long":106.822649,"is_transit":false,"distance":280},{"distance":3186,"station_name":"Manggarai","line":0,"time":4,"station_id":"MRI","transit":false,"i_long":106.84912,"i_lat":-6.209883,"is_transit":true},{"station_id":"MTR","station_name":"Matraman","is_transit":false,"i_long":106.858896,"transit":false,"distance":1275,"time":2,"line":1,"i_lat":-6.212485},{"distance":1377,"line":0,"station_id":"JNG","is_transit":true,"transit":false,"i_long":106.86807400000001,"station_name":"Jatinegara","time":8,"i_lat":-6.215091},{"line":1,"time":3,"i_long":106.899548,"is_transit":false,"station_name":"Klender","i_lat":-6.2135,"station_id":"KLD","distance":3395,"transit":false}],[{"i_lat":-6.328533,"time":0,"station_name":"Tigaraksa","station_id":"TGS","transit":false,"is_transit":false,"distance":0,"line":6,"i_long":106.425991},{"i_lat":-6.327251,"distance":2974,"transit":false,"station_name":"Tenjo","time":5,"station_id":"TEJ","i_long":106.460812,"line":6,"is_transit":false},{"distance":3902,"is_transit":false,"station_id":"DAR","transit":false,"station_name":"Daru","time":5,"i_lat":-6.338021,"i_long":106.491338,"line":0},{"is_transit":false,"time":6,"station_name":"Cilejit","distance":2675,"station_id":"CJT","transit":false,"i_lat":-6.354349,"i_long":106.508482,"line":0},{"i_lat":-6.3441410000000005,"time":9,"line":6,"station_name":"Parung Panjang","transit":false,"station_id":"PRP","is_transit":false,"i_long":106.568863,"distance":7025},{"distance":5968,"line":0,"station_id":"CC","time":8,"transit":false,"i_lat":-6.329547,"is_transit":false,"station_name":"Cicayur","i_long":106.617853},{"station_name":"Cisauk","time":4,"i_lat":-6.32484,"is_transit":false,"i_long":106.640411,"distance":2519,"station_id":"CSK","transit":false,"line":0},{"station_name":"Serpong","transit":false,"line":6,"i_lat":-6.319871,"station_id":"SRP","distance":1784,"time":4,"i_long":106.66566,"is_transit":false},{"is_transit":false,"time":4,"station_id":"RU","distance":2413,"i_long":106.675475,"transit":false,"station_name":"Rawa Buntu","i_lat":-6.314823,"line":6},{"station_id":"SDM","transit":false,"i_lat":-6.296963,"station_name":"Sudimara","i_long":106.712277,"is_transit":false,"distance":4566,"line":6,"time":6},{"time":4,"distance":1994,"i_long":106.728916,"line":6,"station_name":"Jurangmangu","transit":false,"i_lat":-6.288927,"station_id":"JMU","is_transit":false},{"distance":2179,"time":3,"line":6,"i_lat":-6.276362,"transit":false,"station_id":"PDJ","station_name":"Pondokranji","i_long":106.74273,"is_transit":false},{"i_lat":-6.237242,"distance":6218,"station_id":"KBY","line":6,"transit":false,"station_name":"Kebayoran","i_long":106.780334,"time":8,"is_transit":false},{"distance":3737,"line":6,"station_id":"PLM","i_lat":-6.207404,"station_name":"Palmerah","is_transit":false,"time":7,"transit":false,"i_long":106.79689},{"time":6,"station_id":"THB","transit":true,"i_lat":-6.185545,"i_long":106.811091,"distance":3191,"line":1,"is_transit":true,"station_name":"Tanah Abang"},{"i_long":106.800832,"is_transit":true,"i_lat":-6.155215,"station_name":"Duri","line":1,"station_id":"DU","time":8,"distance":3632,"transit":true},{"line":0,"i_lat":-6.144674,"station_id":"AK","distance":1230,"transit":false,"station_name":"Angke","i_long":106.79867,"time":4,"is_transit":false},{"is_transit":true,"transit":true,"i_lat":-6.132549,"station_id":"KPB","station_name":"Kampung Bandan","i_long":106.826365,"distance":4102,"time":9,"line":0},{"transit":false,"distance":1444,"line":11,"station_id":"RJW","i_lat":-6.14505,"time":3,"is_transit":false,"station_name":"Rajawali","i_long":106.836569},{"transit":false,"station_name":"Kemayoran","distance":1901,"time":5,"i_long":106.839204,"line":11,"is_transit":false,"i_lat":-6.161728,"station_id":"KMO"},{"i_long":106.84368,"i_lat":-6.174784,"distance":1436,"station_id":"PSE","station_name":"Pasar Senen","is_transit":false,"transit":false,"line":11,"time":4},{"transit":false,"station_name":"Gang Sentiong","distance":1567,"time":8,"station_id":"GST","i_lat":-6.185975,"i_long":106.850107,"line":11,"is_transit":false},{"i_long":106.855437,"i_lat":-6.193792,"is_transit":false,"station_name":"Kramat","distance":973,"transit":false,"line":11,"station_id":"KMT","time":1},{"is_transit":false,"distance":1829,"station_id":"POK","station_name":"Pondok Jati","line":11,"i_lat":-6.209188,"time":2,"transit":false,"i_long":106.861737},{"station_id":"JNG","time":9,"transit":true,"is_transit":true,"distance":1236,"i_lat":-6.215091,"line":0,"i_long":106.86807400000001,"station_name":"Jatinegara"},{"distance":3395,"transit":false,"station_id":"KLD","station_name":"Klender","i_long":106.899548,"time":3,"is_transit":false,"i_lat":-6.2135,"line":1}],[{"transit":false,"is_transit":false,"i_lat":-6.328533,"station_id":"TGS","station_name":"Tigaraksa","time":0,"line":6,"i_long":106.425991,"distance":0},{"line":6,"station_id":"TEJ","time":5,"distance":2974,"transit":false,"i_lat":-6.327251,"station_name":"Tenjo","i_long":106.460812,"is_transit":false},{"is_transit":false,"i_long":106.491338,"transit":false,"time":5,"i_lat":-6.338021,"station_name":"Daru","line":0,"distance":3902,"station_id":"DAR"},{"time":6,"i_long":106.508482,"station_id":"CJT","station_name":"Cilejit","is_transit":false,"distance":2675,"i_lat":-6.354349,"transit":false,"line":0},{"line":6,"distance":7025,"time":9,"transit":false,"i_lat":-6.3441410000000005,"station_id":"PRP","station_name":"Parung Panjang","i_long":106.568863,"is_transit":false},{"is_transit":false,"station_id":"CC","station_name":"Cicayur","transit":false,"time":8,"distance":5968,"i_long":106.617853,"i_lat":-6.329547,"line":0},{"station_name":"Cisauk","i_long":106.640411,"transit":false,"distance":2519,"line":0,"station_id":"CSK","time":4,"i_lat":-6.32484,"is_transit":false},{"line":6,"time":4,"transit":false,"distance":1784,"i_long":106.66566,"station_name":"Serpong","station_id":"SRP","is_transit":false,"i_lat":-6.319871},{"line":6,"transit":false,"time":4,"is_transit":false,"i_lat":-6.314823,"station_id":"RU","i_long":106.675475,"distance":2413,"station_name":"Rawa Buntu"},{"station_name":"Sudimara","transit":false,"i_lat":-6.296963,"line":6,"is_transit":false,"distance":4566,"time":6,"station_id":"SDM","i_long":106.712277},{"i_lat":-6.288927,"transit":false,"line":6,"station_name":"Jurangmangu","is_transit":false,"distance":1994,"time":4,"station_id":"JMU","i_long":106.728916},{"station_id":"PDJ","distance":2179,"i_lat":-6.276362,"is_transit":false,"station_name":"Pondokranji","time":3,"i_long":106.74273,"transit":false,"line":6},{"i_long":106.780334,"line":6,"is_transit":false,"time":8,"distance":6218,"station_name":"Kebayoran","i_lat":-6.237242,"transit":false,"station_id":"KBY"},{"station_id":"PLM","is_transit":false,"i_lat":-6.207404,"time":7,"station_name":"Palmerah","i_long":106.79689,"distance":3737,"line":6,"transit":false},{"station_name":"Tanah Abang","i_lat":-6.185545,"line":1,"is_transit":true,"i_long":106.811091,"time":6,"transit":true,"distance":3191,"station_id":"THB"},{"line":1,"i_lat":-6.155215,"time":8,"is_transit":true,"station_name":"Duri","distance":3632,"station_id":"DU","i_long":106.800832,"transit":true},{"is_transit":false,"station_name":"Angke","transit":false,"i_long":106.79867,"time":4,"line":0,"station_id":"AK","i_lat":-6.144674,"distance":1230},{"transit":false,"i_lat":-6.132549,"line":0,"station_id":"KPB","station_name":"Kampung Bandan","time":9,"distance":4102,"i_long":106.826365,"is_transit":true},{"distance":1364,"i_lat":-6.137569,"time":3,"is_transit":true,"station_id":"JAKK","i_long":106.812439,"station_name":"Jakarta Kota","line":0,"transit":true},{"station_id":"JAY","station_name":"Jayakarta","i_long":106.820901,"transit":false,"distance":1264,"time":4,"is_transit":false,"i_lat":-6.141205,"line":7},{"is_transit":false,"station_name":"Manggabesar","line":2,"station_id":"MGB","distance":1080,"i_long":106.82482,"i_lat":-6.149769,"transit":false,"time":2},{"is_transit":false,"i_long":106.827103,"line":2,"station_name":"Sawah Besar","time":2,"transit":false,"distance":906,"i_lat":-6.160725,"station_id":"SW"},{"station_name":"Juanda","transit":false,"is_transit":false,"time":2,"station_id":"JUA","i_long":106.828284,"i_lat":-6.166716,"line":2,"distance":1149},{"distance":2015,"transit":false,"is_transit":false,"station_id":"GDD","station_name":"Gondangdia","i_long":106.832183,"time":4,"line":2,"i_lat":-6.186295},{"transit":false,"i_lat":-6.198556,"i_long":106.840169,"distance":1750,"station_id":"CKI","time":3,"station_name":"Cikini","is_transit":false,"line":0},{"distance":1590,"station_name":"Manggarai","transit":true,"i_lat":-6.209883,"i_long":106.84912,"time":4,"station_id":"MRI","is_transit":true,"line":0},{"line":1,"station_id":"MTR","transit":false,"i_lat":-6.212485,"station_name":"Matraman","i_long":106.858896,"distance":1275,"is_transit":false,"time":2},{"station_name":"Jatinegara","is_transit":true,"distance":1377,"station_id":"JNG","i_lat":-6.215091,"i_long":106.86807400000001,"line":0,"time":8,"transit":false},{"time":3,"is_transit":false,"transit":false,"station_id":"KLD","i_long":106.899548,"station_name":"Klender","i_lat":-6.2135,"distance":3395,"line":1}],[{"distance":0,"is_transit":false,"time":0,"station_name":"Tigaraksa","transit":false,"i_long":106.425991,"line":6,"i_lat":-6.328533,"station_id":"TGS"},{"line":6,"station_name":"Tenjo","transit":false,"distance":2974,"station_id":"TEJ","i_lat":-6.327251,"time":5,"i_long":106.460812,"is_transit":false},{"distance":3902,"line":0,"station_id":"DAR","is_transit":false,"i_lat":-6.338021,"i_long":106.491338,"transit":false,"time":5,"station_name":"Daru"},{"transit":false,"distance":2675,"time":6,"i_long":106.508482,"i_lat":-6.354349,"station_id":"CJT","line":0,"is_transit":false,"station_name":"Cilejit"},{"transit":false,"station_name":"Parung Panjang","i_lat":-6.3441410000000005,"time":9,"line":6,"is_transit":false,"i_long":106.568863,"distance":7025,"station_id":"PRP"},{"line":0,"time":8,"transit":false,"is_transit":false,"i_long":106.617853,"station_id":"CC","i_lat":-6.329547,"station_name":"Cicayur","distance":5968},{"i_lat":-6.32484,"station_id":"CSK","distance":2519,"station_name":"Cisauk","i_long":106.640411,"is_transit":false,"time":4,"line":0,"transit":false},{"time":4,"i_long":106.66566,"station_name":"Serpong","station_id":"SRP","i_lat":-6.319871,"distance":1784,"line":6,"transit":false,"is_transit":false},{"station_name":"Rawa Buntu","line":6,"i_long":106.675475,"transit":false,"distance":2413,"station_id":"RU","is_transit":false,"time":4,"i_lat":-6.314823},{"station_name":"Sudimara","i_long":106.712277,"line":6,"distance":4566,"i_lat":-6.296963,"is_transit":false,"time":6,"station_id":"SDM","transit":false},{"distance":1994,"line":6,"station_name":"Jurangmangu","is_transit":false,"time":4,"station_id":"JMU","transit":false,"i_lat":-6.288927,"i_long":106.728916},{"i_lat":-6.276362,"station_name":"Pondokranji","i_long":106.74273,"transit":false,"station_id":"PDJ","line":6,"distance":2179,"is_transit":false,"time":3},{"distance":6218,"station_name":"Kebayoran","line":6,"i_long":106.780334,"station_id":"KBY","i_lat":-6.237242,"is_transit":false,"time":8,"transit":false},{"distance":3737,"i_lat":-6.207404,"time":7,"station_id":"PLM","is_transit":false,"station_name":"Palmerah","transit":false,"i_long":106.79689,"line":6},{"i_lat":-6.185545,"transit":true,"time":6,"is_transit":true,"station_id":"THB","line":1,"distance":3191,"station_name":"Tanah Abang","i_long":106.811091},{"line":1,"i_long":106.816351,"transit":false,"is_transit":false,"station_name":"Karet","distance":2029,"station_id":"KAT","i_lat":-6.20132,"time":5},{"i_lat":-6.201433,"station_id":"SUDB","is_transit":false,"station_name":"Sudirman Baru","line":1,"distance":471,"transit":false,"i_long":106.819881,"time":1},{"station_name":"Sudirman","transit":false,"i_lat":-6.202263,"time":1,"is_transit":false,"station_id":"SUD","line":1,"distance":280,"i_long":106.822649},{"station_id":"MRI","station_name":"Manggarai","distance":3186,"time":4,"line":0,"i_lat":-6.209883,"transit":true,"is_transit":true,"i_long":106.84912},{"i_long":106.840169,"station_name":"Cikini","transit":false,"distance":1590,"line":0,"is_transit":false,"time":4,"i_lat":-6.198556,"station_id":"CKI"},{"line":2,"i_long":106.832183,"station_id":"GDD","i_lat":-6.186295,"is_transit":false,"station_name":"Gondangdia","transit":false,"time":3,"distance":1750},{"station_name":"Juanda","distance":2015,"line":2,"i_long":106.828284,"transit":false,"time":4,"station_id":"JUA","is_transit":false,"i_lat":-6.166716},{"i_lat":-6.160725,"station_id":"SW","distance":1149,"transit":false,"i_long":106.827103,"station_name":"Sawah Besar","is_transit":false,"time":2,"line":2},{"time":2,"is_transit":false,"station_name":"Manggabesar","line":2,"distance":906,"station_id":"MGB","transit":false,"i_long":106.82482,"i_lat":-6.149769},{"station_id":"JAY","i_lat":-6.141205,"time":2,"is_transit":false,"line":7,"transit":false,"distance":1080,"station_name":"Jayakarta","i_long":106.820901},{"station_id":"JAKK","station_name":"Jakarta Kota","i_long":106.812439,"line":0,"transit":true,"time":4,"distance":1264,"is_transit":true,"i_lat":-6.137569},{"transit":true,"station_id":"KPB","time":3,"station_name":"Kampung Bandan","i_long":106.826365,"line":0,"distance":1364,"i_lat":-6.132549,"is_transit":true},{"time":3,"station_name":"Rajawali","transit":false,"distance":1444,"line":11,"is_transit":false,"station_id":"RJW","i_long":106.836569,"i_lat":-6.14505},{"time":5,"station_name":"Kemayoran","line":11,"i_long":106.839204,"distance":1901,"station_id":"KMO","transit":false,"is_transit":false,"i_lat":-6.161728},{"line":11,"transit":false,"i_lat":-6.174784,"station_id":"PSE","time":4,"is_transit":false,"distance":1436,"i_long":106.84368,"station_name":"Pasar Senen"},{"distance":1567,"i_long":106.850107,"station_id":"GST","line":11,"station_name":"Gang Sentiong","i_lat":-6.185975,"time":8,"transit":false,"is_transit":false},{"transit":false,"station_name":"Kramat","i_lat":-6.193792,"line":11,"distance":973,"station_id":"KMT","time":1,"i_long":106.855437,"is_transit":false},{"line":11,"station_name":"Pondok Jati","time":2,"is_transit":false,"i_long":106.861737,"distance":1829,"station_id":"POK","transit":false,"i_lat":-6.209188},{"transit":true,"i_lat":-6.215091,"time":9,"distance":1236,"i_long":106.86807400000001,"station_id":"JNG","station_name":"Jatinegara","line":0,"is_transit":true},{"distance":3395,"station_name":"Klender","line":1,"transit":false,"i_long":106.899548,"time":3,"i_lat":-6.2135,"is_transit":false,"station_id":"KLD"}]]}