{"data":[[{"transit":false,"is_transit":false,"line":6,"station_id":"TGS","time":0,"i_lat":-6.328533,"distance":0,"i_long":106.425991,"station_name":"Tigaraksa"},{"is_transit":false,"station_id":"TEJ","i_lat":-6.327251,"distance":2974,"transit":false,"line":6,"time":5,"i_long":106.460812,"station_name":"Tenjo"},{"distance":3902,"station_name":"Daru","time":5,"i_lat":-6.338021,"i_long":106.491338,"line":0,"transit":false,"is_transit":false,"station_id":"DAR"},{"station_name":"Cilejit","transit":false,"distance":2675,"i_long":106.508482,"is_transit":false,"time":6,"station_id":"CJT","i_lat":-6.354349,"line":3},{"i_lat":-6.3441410000000005,"i_long":106.568863,"station_name":"Parung Panjang","is_transit":false,"station_id":"PRP","transit":false,"time":9,"distance":7025,"line":6},{"distance":5968,"station_id":"CC","i_lat":-6.329547,"time":8,"i_long":106.617853,"is_transit":false,"station_name":"Cicayur","transit":false,"line":3},{"i_lat":-6.32484,"distance":2519,"time":4,"station_id":"CSK","transit":false,"station_name":"Cisauk","is_transit":false,"i_long":106.640411,"line":3},{"station_name":"Serpong","line":6,"i_long":106.66566,"transit":false,"is_transit":false,"station_id":"SRP","time":4,"i_lat":-6.319871,"distance":1784},{"is_transit":false,"distance":2413,"time":4,"transit":false,"i_lat":-6.314823,"line":6,"station_id":"RU","station_name":"Rawa Buntu","i_long":106.675475},{"station_name":"Sudimara","is_transit":false,"time":6,"station_id":"SDM","distance":4566,"i_lat":-6.296963,"i_long":106.712277,"line":6,"transit":false},{"is_transit":false,"transit":false,"time":4,"line":6,"distance":1994,"i_long":106.728916,"i_lat":-6.288927,"station_name":"Jurangmangu","station_id":"JMU"},{"is_transit":false,"station_name":"Pondokranji","distance":2179,"line":6,"station_id":"PDJ","time":3,"transit":false,"i_lat":-6.276362,"i_long":106.74273},{"time":8,"station_id":"KBY","station_name":"Kebayoran","line":6,"is_transit":false,"distance":6218,"transit":false,"i_long":106.780334,"i_lat":-6.237242},{"transit":false,"i_long":106.79689,"time":7,"line":6,"is_transit":false,"distance":3737,"station_name":"Palmerah","i_lat":-6.207404,"station_id":"PLM"},{"i_lat":-6.185545,"is_transit":true,"station_id":"THB","i_long":106.811091,"time":6,"transit":true,"station_name":"Tanah Abang","line":1,"distance":3191},{"transit":false,"i_lat":-6.20132,"distance":2029,"time":5,"line":1,"is_transit":false,"station_name":"Karet","i_long":106.816351,"station_id":"KAT"},{"is_transit":false,"line":1,"time":1,"i_long":106.819881,"station_name":"Sudirman Baru","distance":471,"i_lat":-6.201433,"station_id":"SUDB","transit":false},{"i_long":106.822649,"line":1,"time":1,"distance":280,"is_transit":false,"station_name":"Sudirman","i_lat":-6.202263,"station_id":"SUD","transit":false},{"is_transit":true,"i_lat":-6.209883,"station_id":"MRI","time":4,"i_long":106.84912,"distance":3186,"transit":true,"line":2,"station_name":"Manggarai"},{"i_lat":-6.226659,"station_id":"TEB","distance":2610,"line":2,"station_name":"Tebet","is_transit":false,"i_long":106.857948,"transit":false,"time":4},{"line":2,"i_long":106.856607,"distance":1230,"time":2,"station_id":"CW","transit":false,"is_transit":false,"i_lat":-6.242512,"station_name":"Cawang"},{"station_name":"Duren Kalibata","time":3,"i_long":106.85449,"distance":1546,"is_transit":false,"line":2,"i_lat":-6.255332,"transit":false,"station_id":"DRN"},{"i_long":106.851577,"distance":824,"transit":false,"station_name":"Pasar Minggu Baru","time":2,"station_id":"PSMB","is_transit":false,"i_lat":-6.263214,"line":2},{"distance":2380,"i_lat":-6.2842400000000005,"is_transit":false,"line":2,"station_name":"Pasar Minggu","i_long":106.843999,"time":2,"station_id":"PSM","transit":false},{"distance":2820,"time":4,"transit":false,"station_name":"Tanjung Barat","station_id":"TNT","i_long":106.838896,"i_lat":-6.3080680000000005,"is_transit":false,"line":2},{"i_long":106.832616,"time":3,"station_name":"Lenteng Agung","transit":false,"line":2,"station_id":"LNA","i_lat":-6.330363,"is_transit":false,"distance":2671},{"i_long":106.834175,"transit":false,"time":2,"line":2,"distance":1029,"i_lat":-6.339291,"station_name":"Univ. Pancasila","station_id":"UP","is_transit":false},{"station_id":"UI","distance":2264,"time":3,"transit":false,"is_transit":false,"i_lat":-6.360749,"i_long":106.831474,"line":2,"station_name":"Univ. Indonesia"},{"transit":false,"i_long":106.831114,"time":2,"is_transit":false,"i_lat":-6.369073,"line":2,"station_name":"Pondok Cina","station_id":"POC","distance":1109},{"i_long":106.819451,"station_id":"DPB","is_transit":false,"line":2,"time":4,"station_name":"Depokbaru","transit":false,"distance":2727,"i_lat":-6.391065},{"distance":1584,"time":3,"i_lat":-6.405256,"station_name":"Depok","i_long":106.816926,"line":2,"station_id":"DP","transit":false,"is_transit":false},{"i_lat":-6.448811,"line":2,"is_transit":true,"distance":5084,"i_long":106.800298,"station_id":"CTA","station_name":"Citayam","transit":true,"time":6},{"i_long":106.824374,"is_transit":false,"station_name":"Pondok Rajeg","station_id":"PDRG","i_lat":-6.460735,"line":21,"transit":false,"distance":0,"time":0}],[{"station_name":"Tigaraksa","is_transit":false,"distance":0,"i_long":106.425991,"i_lat":-6.328533,"station_id":"TGS","transit":false,"time":0,"line":6},{"station_id":"TEJ","station_name":"Tenjo","time":5,"i_long":106.460812,"line":6,"is_transit":false,"distance":2974,"transit":false,"i_lat":-6.327251},{"station_name":"Daru","is_transit":false,"station_id":"DAR","transit":false,"line":0,"i_lat":-6.338021,"i_long":106.491338,"distance":3902,"time":5},{"transit":false,"i_long":106.508482,"i_lat":-6.354349,"station_name":"Cilejit","distance":2675,"line":3,"time":6,"station_id":"CJT","is_transit":false},{"is_transit":false,"time":9,"station_name":"Parung Panjang","transit":false,"station_id":"PRP","distance":7025,"i_long":106.568863,"line":6,"i_lat":-6.3441410000000005},{"i_lat":-6.329547,"station_id":"CC","transit":false,"is_transit":false,"i_long":106.617853,"line":3,"time":8,"station_name":"Cicayur","distance":5968},{"is_transit":false,"time":4,"i_long":106.640411,"transit":false,"i_lat":-6.32484,"line":3,"station_name":"Cisauk","distance":2519,"station_id":"CSK"},{"transit":false,"distance":1784,"i_lat":-6.319871,"line":6,"i_long":106.66566,"is_transit":false,"time":4,"station_name":"Serpong","station_id":"SRP"},{"station_id":"RU","time":4,"station_name":"Rawa Buntu","i_long":106.675475,"i_lat":-6.314823,"line":6,"transit":false,"is_transit":false,"distance":2413},{"station_name":"Sudimara","is_transit":false,"time":6,"transit":false,"station_id":"SDM","line":6,"i_lat":-6.296963,"distance":4566,"i_long":106.712277},{"distance":1994,"time":4,"line":6,"i_lat":-6.288927,"is_transit":false,"i_long":106.728916,"station_id":"JMU","station_name":"Jurangmangu","transit":false},{"time":3,"distance":2179,"i_long":106.74273,"station_name":"Pondokranji","station_id":"PDJ","transit":false,"is_transit":false,"line":6,"i_lat":-6.276362},{"is_transit":false,"transit":false,"i_lat":-6.237242,"line":6,"station_name":"Kebayoran","distance":6218,"time":8,"station_id":"KBY","i_long":106.780334},{"distance":3737,"i_long":106.79689,"line":6,"station_name":"Palmerah","station_id":"PLM","is_transit":false,"time":7,"i_lat":-6.207404,"transit":false},{"i_lat":-6.185545,"time":6,"line":1,"distance":3191,"station_name":"Tanah Abang","is_transit":true,"transit":true,"station_id":"THB","i_long":106.811091},{"i_long":106.800832,"station_id":"DU","station_name":"Duri","transit":false,"distance":3632,"time":8,"i_lat":-6.155215,"line":1,"is_transit":false},{"transit":false,"station_id":"AK","station_name":"Angke","i_lat":-6.144674,"i_long":106.79867,"is_transit":false,"line":1,"distance":1230,"time":4},{"i_lat":-6.132549,"station_name":"Kampung Bandan","distance":4102,"is_transit":true,"i_long":106.826365,"time":9,"line":4,"transit":true,"station_id":"KPB"},{"station_id":"JAKK","time":3,"i_lat":-6.137569,"is_transit":true,"station_name":"Jakarta Kota","line":2,"transit":true,"distance":1364,"i_long":106.812439},{"is_transit":false,"time":4,"station_id":"JAY","line":2,"transit":false,"i_long":106.820901,"station_name":"Jayakarta","i_lat":-6.141205,"distance":1264},{"i_lat":-6.149769,"station_id":"MGB","station_name":"Manggabesar","line":2,"time":2,"transit":false,"i_long":106.82482,"distance":1080,"is_transit":false},{"station_id":"SW","i_lat":-6.160725,"i_long":106.827103,"station_name":"Sawah Besar","is_transit":false,"distance":906,"time":2,"line":2,"transit":false},{"station_id":"JUA","i_long":106.828284,"distance":1149,"transit":false,"is_transit":false,"station_name":"Juanda","time":2,"i_lat":-6.166716,"line":2},{"station_name":"Gondangdia","is_transit":false,"transit":false,"i_lat":-6.186295,"i_long":106.832183,"station_id":"GDD","time":4,"distance":2015,"line":2},{"i_lat":-6.198556,"i_long":106.840169,"station_name":"Cikini","line":2,"time":3,"transit":false,"distance":1750,"is_transit":false,"station_id":"CKI"},{"time":4,"i_long":106.84912,"distance":1590,"line":2,"is_transit":false,"station_id":"MRI","transit":false,"station_name":"Manggarai","i_lat":-6.209883},{"i_long":106.857948,"is_transit":false,"station_id":"TEB","transit":false,"time":4,"line":2,"distance":2610,"station_name":"Tebet","i_lat":-6.226659},{"transit":false,"station_id":"CW","station_name":"Cawang","is_transit":false,"i_lat":-6.242512,"time":2,"i_long":106.856607,"distance":1230,"line":2},{"station_name":"Duren Kalibata","i_lat":-6.255332,"is_transit":false,"distance":1546,"transit":false,"time":3,"station_id":"DRN","line":2,"i_long":106.85449},{"station_id":"PSMB","i_lat":-6.263214,"i_long":106.851577,"is_transit":false,"distance":824,"time":2,"line":2,"transit":false,"station_name":"Pasar Minggu Baru"},{"distance":2380,"is_transit":false,"i_lat":-6.2842400000000005,"station_id":"PSM","transit":false,"i_long":106.843999,"station_name":"Pasar Minggu","line":2,"time":2},{"i_lat":-6.3080680000000005,"time":4,"station_id":"TNT","is_transit":false,"station_name":"Tanjung Barat","distance":2820,"transit":false,"line":2,"i_long":106.838896},{"time":3,"is_transit":false,"station_id":"LNA","station_name":"Lenteng Agung","transit":false,"i_lat":-6.330363,"distance":2671,"line":2,"i_long":106.832616},{"station_id":"UP","i_long":106.834175,"station_name":"Univ. Pancasila","line":2,"i_lat":-6.339291,"is_transit":false,"time":2,"distance":1029,"transit":false},{"line":2,"time":3,"i_lat":-6.360749,"i_long":106.831474,"station_name":"Univ. Indonesia","station_id":"UI","transit":false,"is_transit":false,"distance":2264},{"time":2,"station_name":"Pondok Cina","transit":false,"line":2,"station_id":"POC","i_long":106.831114,"distance":1109,"i_lat":-6.369073,"is_transit":false},{"time":4,"transit":false,"i_long":106.819451,"i_lat":-6.391065,"is_transit":false,"station_id":"DPB","station_name":"Depokbaru","distance":2727,"line":2},{"station_name":"Depok","time":3,"i_lat":-6.405256,"i_long":106.816926,"distance":1584,"line":2,"is_transit":false,"transit":false,"station_id":"DP"},{"station_name":"Citayam","time":6,"distance":5084,"i_lat":-6.448811,"transit":true,"station_id":"CTA","i_long":106.800298,"is_transit":true,"line":2},{"station_id":"PDRG","i_lat":-6.460735,"time":0,"distance":0,"is_transit":false,"station_name":"Pondok Rajeg","i_long":106.824374,"transit":false,"line":21}],[{"is_transit":false,"station_id":"TGS","line":6,"i_lat":-6.328533,"distance":0,"time":0,"i_long":106.425991,"transit":false,"station_name":"Tigaraksa"},{"time":5,"i_lat":-6.327251,"station_id":"TEJ","is_transit":false,"distance":2974,"i_long":106.460812,"transit":false,"line":6,"station_name":"Tenjo"},{"time":5,"station_id":"DAR","i_long":106.491338,"station_name":"Daru","line":0,"i_lat":-6.338021,"is_transit":false,"transit":false,"distance":3902},{"station_id":"CJT","time":6,"line":3,"is_transit":false,"i_long":106.508482,"i_lat":-6.354349,"distance":2675,"transit":false,"station_name":"Cilejit"},{"station_name":"Parung Panjang","transit":false,"line":6,"time":9,"is_transit":false,"i_lat":-6.3441410000000005,"station_id":"PRP","distance":7025,"i_long":106.568863},{"transit":false,"i_long":106.617853,"station_id":"CC","station_name":"Cicayur","time":8,"i_lat":-6.329547,"distance":5968,"line":3,"is_transit":false},{"i_long":106.640411,"station_id":"CSK","transit":false,"is_transit":false,"distance":2519,"time":4,"line":3,"i_lat":-6.32484,"station_name":"Cisauk"},{"line":6,"station_id":"SRP","distance":1784,"i_long":106.66566,"transit":false,"i_lat":-6.319871,"time":4,"is_transit":false,"station_name":"Serpong"},{"i_long":106.675475,"line":6,"station_id":"RU","i_lat":-6.314823,"is_transit":false,"distance":2413,"station_name":"Rawa Buntu","transit":false,"time":4},{"time":6,"is_transit":false,"line":6,"i_long":106.712277,"station_id":"SDM","i_lat":-6.296963,"station_name":"Sudimara","transit":false,"distance":4566},{"line":6,"is_transit":false,"i_long":106.728916,"distance":1994,"transit":false,"time":4,"i_lat":-6.288927,"station_id":"JMU","station_name":"Jurangmangu"},{"i_lat":-6.276362,"time":3,"transit":false,"is_transit":false,"i_long":106.74273,"line":6,"station_id":"PDJ","distance":2179,"station_name":"Pondokranji"},{"station_id":"KBY","transit":false,"distance":6218,"station_name":"Kebayoran","time":8,"i_lat":-6.237242,"i_long":106.780334,"line":6,"is_transit":false},{"time":7,"i_long":106.79689,"transit":false,"line":6,"is_transit":false,"distance":3737,"station_name":"Palmerah","i_lat":-6.207404,"station_id":"PLM"},{"distance":3191,"i_long":106.811091,"time":6,"station_name":"Tanah Abang","is_transit":true,"i_lat":-6.185545,"line":1,"transit":true,"station_id":"THB"},{"station_name":"Duri","transit":false,"station_id":"DU","is_transit":false,"time":8,"i_lat":-6.155215,"i_long":106.800832,"line":1,"distance":3632},{"transit":false,"distance":1230,"i_lat":-6.144674,"i_long":106.79867,"line":1,"time":4,"is_transit":false,"station_id":"AK","station_name":"Angke"},{"station_name":"Kampung Bandan","line":4,"station_id":"KPB","is_transit":true,"transit":true,"distance":4102,"time":9,"i_lat":-6.132549,"i_long":106.826365},{"station_name":"Rajawali","transit":false,"is_transit":false,"i_long":106.836569,"station_id":"RJW","time":3,"distance":1444,"line":11,"i_lat":-6.14505},{"time":5,"i_lat":-6.161728,"i_long":106.839204,"station_name":"Kemayoran","line":11,"distance":1901,"station_id":"KMO","is_transit":false,"transit":false},{"is_transit":false,"i_lat":-6.174784,"time":4,"station_id":"PSE","station_name":"Pasar Senen","distance":1436,"i_long":106.84368,"transit":false,"line":11},{"is_transit":false,"time":8,"transit":false,"station_id":"GST","i_lat":-6.185975,"line":11,"distance":1567,"i_long":106.850107,"station_name":"Gang Sentiong"},{"i_long":106.855437,"distance":973,"is_transit":false,"i_lat":-6.193792,"time":1,"line":11,"transit":false,"station_id":"KMT","station_name":"Kramat"},{"is_transit":false,"line":11,"station_name":"Pondok Jati","i_lat":-6.209188,"transit":false,"time":2,"i_long":106.861737,"station_id":"POK","distance":1829},{"line":1,"time":9,"transit":true,"is_transit":true,"distance":1236,"i_long":106.86807400000001,"station_name":"Jatinegara","station_id":"JNG","i_lat":-6.215091},{"station_id":"MTR","line":1,"distance":1377,"i_long":106.858896,"station_name":"Matraman","i_lat":-6.212485,"transit":false,"time":2,"is_transit":false},{"i_long":106.84912,"line":2,"station_id":"MRI","time":2,"is_transit":true,"distance":1275,"transit":true,"i_lat":-6.209883,"station_name":"Manggarai"},{"i_long":106.857948,"station_id":"TEB","station_name":"Tebet","is_transit":false,"line":2,"i_lat":-6.226659,"transit":false,"distance":2610,"time":4},{"station_id":"CW","station_name":"Cawang","is_transit":false,"transit":false,"distance":1230,"line":2,"i_long":106.856607,"time":2,"i_lat":-6.242512},{"is_transit":false,"i_long":106.85449,"distance":1546,"line":2,"time":3,"i_lat":-6.255332,"station_id":"DRN","station_name":"Duren Kalibata","transit":false},{"transit":false,"time":2,"station_name":"Pasar Minggu Baru","distance":824,"line":2,"i_lat":-6.263214,"is_transit":false,"i_long":106.851577,"station_id":"PSMB"},{"time":2,"line":2,"station_id":"PSM","i_long":106.843999,"i_lat":-6.2842400000000005,"distance":2380,"station_name":"Pasar Minggu","transit":false,"is_transit":false},{"is_transit":false,"distance":2820,"i_long":106.838896,"i_lat":-6.3080680000000005,"station_id":"TNT","station_name":"Tanjung Barat","transit":false,"time":4,"line":2},{"is_transit":false,"i_long":106.832616,"distance":2671,"line":2,"station_id":"LNA","station_name":"Lenteng Agung","transit":false,"time":3,"i_lat":-6.330363},{"station_name":"Univ. Pancasila","i_lat":-6.339291,"time":2,"line":2,"distance":1029,"station_id":"UP","i_long":106.834175,"is_transit":false,"transit":false},{"distance":2264,"station_id":"UI","line":2,"i_lat":-6.360749,"is_transit":false,"i_long":106.831474,"transit":false,"station_name":"Univ. Indonesia","time":3},{"line":2,"transit":false,"station_id":"POC","station_name":"Pondok Cina","is_transit":false,"distance":1109,"time":2,"i_long":106.831114,"i_lat":-6.369073},{"transit":false,"distance":2727,"time":4,"i_lat":-6.391065,"station_name":"Depokbaru","i_long":106.819451,"is_transit":false,"line":2,"station_id":"DPB"},{"distance":1584,"station_id":"DP","i_long":106.816926,"time":3,"line":2,"transit":false,"i_lat":-6.405256,"station_name":"Depok","is_transit":false},{"distance":5084,"station_name":"Citayam","time":6,"i_lat":-6.448811,"i_long":106.800298,"transit":true,"line":2,"station_id":"CTA","is_transit":true},{"distance":0,"time":0,"i_long":106.824374,"line":21,"station_name":"Pondok Rajeg","transit":false,"station_id":"PDRG","i_lat":-6.460735,"is_transit":false}]]}