{"data":[[{"transit":false,"i_lat":-6.328533,"i_long":106.425991,"line":6,"time":0,"station_name":"Tigaraksa","distance":0,"is_transit":false,"station_id":"TGS"},{"i_lat":-6.327251,"station_name":"Tenjo","line":6,"transit":false,"time":5,"distance":2974,"station_id":"TEJ","i_long":106.460812,"is_transit":false},{"line":0,"distance":3902,"time":5,"transit":false,"is_transit":false,"station_id":"DAR","i_lat":-6.338021,"station_name":"Daru","i_long":106.491338},{"time":6,"line":3,"i_long":106.508482,"transit":false,"i_lat":-6.354349,"is_transit":false,"station_name":"Cilejit","distance":2675,"station_id":"CJT"},{"line":6,"is_transit":false,"transit":false,"distance":7025,"station_id":"PRP","station_name":"Parung Panjang","i_lat":-6.3441410000000005,"time":9,"i_long":106.568863},{"transit":false,"line":3,"i_lat":-6.329547,"station_id":"CC","is_transit":false,"station_name":"Cicayur","i_long":106.617853,"distance":5968,"time":8},{"i_long":106.640411,"transit":false,"distance":2519,"is_transit":false,"line":3,"station_id":"CSK","time":4,"station_name":"Cisauk","i_lat":-6.32484},{"is_transit":false,"station_name":"Serpong","i_lat":-6.319871,"time":4,"i_long":106.66566,"station_id":"SRP","line":6,"distance":1784,"transit":false},{"transit":false,"line":6,"i_lat":-6.314823,"distance":2413,"i_long":106.675475,"time":4,"station_name":"Rawa Buntu","station_id":"RU","is_transit":false},{"station_id":"SDM","transit":false,"is_transit":false,"line":6,"i_long":106.712277,"station_name":"Sudimara","distance":4566,"time":6,"i_lat":-6.296963},{"distance":1994,"station_name":"Jurangmangu","station_id":"JMU","time":4,"transit":false,"i_lat":-6.288927,"line":6,"is_transit":false,"i_long":106.728916},{"transit":false,"time":3,"station_id":"PDJ","is_transit":false,"i_lat":-6.276362,"distance":2179,"line":6,"i_long":106.74273,"station_name":"Pondokranji"},{"station_id":"KBY","distance":6218,"i_long":106.780334,"time":8,"i_lat":-6.237242,"is_transit":false,"station_name":"Kebayoran","transit":false,"line":6},{"i_long":106.79689,"station_name":"Palmerah","station_id":"PLM","distance":3737,"transit":false,"line":6,"i_lat":-6.207404,"time":7,"is_transit":false},{"is_transit":true,"station_name":"Tanah Abang","distance":3191,"i_lat":-6.185545,"line":1,"station_id":"THB","transit":true,"i_long":106.811091,"time":6},{"station_name":"Karet","transit":false,"i_lat":-6.20132,"time":5,"distance":2029,"is_transit":false,"i_long":106.816351,"line":1,"station_id":"KAT"},{"time":1,"is_transit":false,"line":1,"distance":471,"station_name":"Sudirman Baru","transit":false,"i_long":106.819881,"station_id":"SUDB","i_lat":-6.201433},{"line":1,"time":1,"transit":false,"is_transit":false,"station_name":"Sudirman","i_lat":-6.202263,"i_long":106.822649,"distance":280,"station_id":"SUD"},{"i_lat":-6.209883,"i_long":106.84912,"time":4,"line":2,"transit":true,"distance":3186,"station_name":"Manggarai","station_id":"MRI","is_transit":true},{"i_long":106.857948,"is_transit":false,"time":4,"station_name":"Tebet","distance":2610,"transit":false,"station_id":"TEB","i_lat":-6.226659,"line":2},{"distance":1230,"transit":false,"i_long":106.856607,"station_name":"Cawang","time":2,"i_lat":-6.242512,"is_transit":false,"station_id":"CW","line":2},{"i_long":106.85449,"time":3,"station_name":"Duren Kalibata","i_lat":-6.255332,"distance":1546,"line":2,"transit":false,"is_transit":false,"station_id":"DRN"},{"station_name":"Pasar Minggu Baru","line":2,"i_long":106.851577,"station_id":"PSMB","i_lat":-6.263214,"time":2,"transit":false,"distance":824,"is_transit":false},{"station_name":"Pasar Minggu","station_id":"PSM","time":2,"i_long":106.843999,"distance":2380,"line":2,"i_lat":-6.2842400000000005,"is_transit":false,"transit":false},{"time":4,"is_transit":false,"transit":false,"station_name":"Tanjung Barat","i_long":106.838896,"distance":2820,"line":2,"station_id":"TNT","i_lat":-6.3080680000000005},{"is_transit":false,"transit":false,"station_name":"Lenteng Agung","time":3,"line":2,"i_long":106.832616,"distance":2671,"station_id":"LNA","i_lat":-6.330363},{"station_name":"Univ. Pancasila","is_transit":false,"time":2,"i_lat":-6.339291,"i_long":106.834175,"distance":1029,"station_id":"UP","transit":false,"line":2},{"time":3,"i_long":106.831474,"station_name":"Univ. Indonesia","i_lat":-6.360749,"transit":false,"distance":2264,"line":2,"is_transit":false,"station_id":"UI"},{"station_id":"POC","i_long":106.831114,"time":2,"distance":1109,"station_name":"Pondok Cina","transit":false,"line":2,"i_lat":-6.369073,"is_transit":false},{"is_transit":false,"time":4,"station_id":"DPB","i_lat":-6.391065,"station_name":"Depokbaru","transit":false,"distance":2727,"i_long":106.819451,"line":2},{"is_transit":false,"transit":false,"line":2,"time":3,"distance":1584,"station_id":"DP","i_lat":-6.405256,"station_name":"Depok","i_long":106.816926},{"i_lat":-6.448811,"is_transit":true,"station_id":"CTA","line":2,"distance":5084,"transit":true,"time":6,"i_long":106.800298,"station_name":"Citayam"},{"time":0,"i_lat":-6.460735,"station_name":"Pondok Rajeg","is_transit":false,"distance":0,"i_long":106.824374,"transit":false,"station_id":"PDRG","line":21}],[{"distance":0,"is_transit":false,"transit":false,"time":0,"station_id":"TGS","i_long":106.425991,"line":6,"station_name":"Tigaraksa","i_lat":-6.328533},{"station_id":"TEJ","i_long":106.460812,"transit":false,"distance":2974,"station_name":"Tenjo","i_lat":-6.327251,"line":6,"time":5,"is_transit":false},{"is_transit":false,"station_name":"Daru","time":5,"line":0,"distance":3902,"transit":false,"i_lat":-6.338021,"i_long":106.491338,"station_id":"DAR"},{"i_lat":-6.354349,"time":6,"station_id":"CJT","distance":2675,"line":3,"station_name":"Cilejit","is_transit":false,"transit":false,"i_long":106.508482},{"station_id":"PRP","time":9,"distance":7025,"station_name":"Parung Panjang","transit":false,"i_long":106.568863,"line":6,"is_transit":false,"i_lat":-6.3441410000000005},{"line":3,"is_transit":false,"station_id":"CC","station_name":"Cicayur","time":8,"transit":false,"i_long":106.617853,"distance":5968,"i_lat":-6.329547},{"distance":2519,"station_id":"CSK","transit":false,"line":3,"i_lat":-6.32484,"station_name":"Cisauk","is_transit":false,"i_long":106.640411,"time":4},{"station_id":"SRP","distance":1784,"time":4,"is_transit":false,"station_name":"Serpong","transit":false,"i_lat":-6.319871,"i_long":106.66566,"line":6},{"distance":2413,"i_lat":-6.314823,"i_long":106.675475,"line":6,"transit":false,"time":4,"station_name":"Rawa Buntu","is_transit":false,"station_id":"RU"},{"station_name":"Sudimara","transit":false,"i_long":106.712277,"station_id":"SDM","i_lat":-6.296963,"time":6,"line":6,"distance":4566,"is_transit":false},{"transit":false,"i_long":106.728916,"distance":1994,"station_name":"Jurangmangu","i_lat":-6.288927,"is_transit":false,"line":6,"station_id":"JMU","time":4},{"is_transit":false,"transit":false,"i_lat":-6.276362,"i_long":106.74273,"line":6,"distance":2179,"time":3,"station_id":"PDJ","station_name":"Pondokranji"},{"station_id":"KBY","station_name":"Kebayoran","is_transit":false,"line":6,"distance":6218,"transit":false,"i_lat":-6.237242,"time":8,"i_long":106.780334},{"is_transit":false,"station_name":"Palmerah","line":6,"distance":3737,"time":7,"station_id":"PLM","transit":false,"i_long":106.79689,"i_lat":-6.207404},{"i_long":106.811091,"distance":3191,"time":6,"line":1,"station_name":"Tanah Abang","transit":true,"station_id":"THB","i_lat":-6.185545,"is_transit":true},{"distance":3632,"i_lat":-6.155215,"line":1,"station_name":"Duri","is_transit":false,"station_id":"DU","time":8,"i_long":106.800832,"transit":false},{"distance":1230,"station_id":"AK","time":4,"line":1,"is_transit":false,"transit":false,"station_name":"Angke","i_long":106.79867,"i_lat":-6.144674},{"time":9,"transit":true,"distance":4102,"is_transit":true,"line":4,"station_id":"KPB","station_name":"Kampung Bandan","i_lat":-6.132549,"i_long":106.826365},{"distance":1364,"transit":true,"i_long":106.812439,"time":3,"i_lat":-6.137569,"line":2,"station_id":"JAKK","station_name":"Jakarta Kota","is_transit":true},{"time":4,"is_transit":false,"distance":1264,"transit":false,"i_lat":-6.141205,"i_long":106.820901,"line":2,"station_id":"JAY","station_name":"Jayakarta"},{"is_transit":false,"line":2,"i_lat":-6.149769,"i_long":106.82482,"time":2,"distance":1080,"transit":false,"station_id":"MGB","station_name":"Manggabesar"},{"station_id":"SW","i_lat":-6.160725,"line":2,"is_transit":false,"distance":906,"time":2,"i_long":106.827103,"station_name":"Sawah Besar","transit":false},{"distance":1149,"station_name":"Juanda","is_transit":false,"i_lat":-6.166716,"i_long":106.828284,"line":2,"transit":false,"time":2,"station_id":"JUA"},{"i_long":106.832183,"station_id":"GDD","distance":2015,"line":2,"is_transit":false,"time":4,"station_name":"Gondangdia","i_lat":-6.186295,"transit":false},{"i_lat":-6.198556,"line":2,"station_name":"Cikini","time":3,"distance":1750,"is_transit":false,"station_id":"CKI","i_long":106.840169,"transit":false},{"station_id":"MRI","time":4,"transit":false,"is_transit":false,"line":2,"distance":1590,"station_name":"Manggarai","i_long":106.84912,"i_lat":-6.209883},{"i_lat":-6.226659,"station_name":"Tebet","line":2,"i_long":106.857948,"time":4,"station_id":"TEB","is_transit":false,"distance":2610,"transit":false},{"distance":1230,"time":2,"station_id":"CW","is_transit":false,"transit":false,"i_lat":-6.242512,"i_long":106.856607,"station_name":"Cawang","line":2},{"time":3,"line":2,"i_long":106.85449,"is_transit":false,"distance":1546,"transit":false,"station_name":"Duren Kalibata","station_id":"DRN","i_lat":-6.255332},{"distance":824,"transit":false,"i_lat":-6.263214,"line":2,"station_id":"PSMB","is_transit":false,"station_name":"Pasar Minggu Baru","i_long":106.851577,"time":2},{"i_lat":-6.2842400000000005,"i_long":106.843999,"line":2,"time":2,"transit":false,"distance":2380,"station_name":"Pasar Minggu","station_id":"PSM","is_transit":false},{"i_lat":-6.3080680000000005,"distance":2820,"station_id":"TNT","time":4,"station_name":"Tanjung Barat","transit":false,"is_transit":false,"line":2,"i_long":106.838896},{"distance":2671,"is_transit":false,"station_id":"LNA","i_lat":-6.330363,"time":3,"station_name":"Lenteng Agung","transit":false,"i_long":106.832616,"line":2},{"distance":1029,"station_name":"Univ. Pancasila","station_id":"UP","i_lat":-6.339291,"i_long":106.834175,"time":2,"is_transit":false,"transit":false,"line":2},{"transit":false,"station_id":"UI","distance":2264,"i_long":106.831474,"station_name":"Univ. Indonesia","is_transit":false,"line":2,"time":3,"i_lat":-6.360749},{"station_name":"Pondok Cina","is_transit":false,"time":2,"transit":false,"i_long":106.831114,"distance":1109,"station_id":"POC","i_lat":-6.369073,"line":2},{"station_name":"Depokbaru","i_lat":-6.391065,"is_transit":false,"station_id":"DPB","distance":2727,"line":2,"transit":false,"i_long":106.819451,"time":4},{"i_lat":-6.405256,"distance":1584,"line":2,"time":3,"transit":false,"is_transit":false,"station_id":"DP","station_name":"Depok","i_long":106.816926},{"time":6,"i_long":106.800298,"distance":5084,"transit":true,"station_id":"CTA","i_lat":-6.448811,"line":2,"is_transit":true,"station_name":"Citayam"},{"time":0,"station_name":"Pondok Rajeg","i_lat":-6.460735,"transit":false,"station_id":"PDRG","i_long":106.824374,"line":21,"is_transit":false,"distance":0}],[{"i_lat":-6.328533,"is_transit":false,"station_id":"TGS","line":6,"station_name":"Tigaraksa","i_long":106.425991,"transit":false,"time":0,"distance":0},{"station_name":"Tenjo","station_id":"TEJ","is_transit":false,"distance":2974,"i_lat":-6.327251,"time":5,"i_long":106.460812,"transit":false,"line":6},{"line":0,"i_long":106.491338,"station_name":"Daru","i_lat":-6.338021,"distance":3902,"transit":false,"station_id":"DAR","is_transit":false,"time":5},{"line":3,"i_lat":-6.354349,"is_transit":false,"distance":2675,"transit":false,"i_long":106.508482,"station_id":"CJT","time":6,"station_name":"Cilejit"},{"is_transit":false,"distance":7025,"station_id":"PRP","i_lat":-6.3441410000000005,"line":6,"station_name":"Parung Panjang","time":9,"transit":false,"i_long":106.568863},{"distance":5968,"station_name":"Cicayur","station_id":"CC","is_transit":false,"transit":false,"i_long":106.617853,"time":8,"line":3,"i_lat":-6.329547},{"transit":false,"station_id":"CSK","distance":2519,"i_lat":-6.32484,"i_long":106.640411,"is_transit":false,"time":4,"line":3,"station_name":"Cisauk"},{"time":4,"station_id":"SRP","transit":false,"i_long":106.66566,"is_transit":false,"distance":1784,"station_name":"Serpong","i_lat":-6.319871,"line":6},{"transit":false,"time":4,"i_long":106.675475,"i_lat":-6.314823,"distance":2413,"is_transit":false,"station_name":"Rawa Buntu","line":6,"station_id":"RU"},{"is_transit":false,"time":6,"line":6,"i_long":106.712277,"i_lat":-6.296963,"transit":false,"distance":4566,"station_id":"SDM","station_name":"Sudimara"},{"station_id":"JMU","time":4,"transit":false,"distance":1994,"station_name":"Jurangmangu","i_long":106.728916,"line":6,"is_transit":false,"i_lat":-6.288927},{"is_transit":false,"i_lat":-6.276362,"line":6,"distance":2179,"time":3,"station_id":"PDJ","i_long":106.74273,"station_name":"Pondokranji","transit":false},{"distance":6218,"station_name":"Kebayoran","station_id":"KBY","time":8,"transit":false,"i_lat":-6.237242,"line":6,"is_transit":false,"i_long":106.780334},{"station_name":"Palmerah","time":7,"transit":false,"line":6,"i_lat":-6.207404,"i_long":106.79689,"station_id":"PLM","distance":3737,"is_transit":false},{"line":1,"time":6,"is_transit":true,"station_id":"THB","distance":3191,"station_name":"Tanah Abang","i_long":106.811091,"i_lat":-6.185545,"transit":true},{"time":8,"i_long":106.800832,"is_transit":false,"station_id":"DU","line":1,"transit":false,"i_lat":-6.155215,"station_name":"Duri","distance":3632},{"line":1,"time":4,"transit":false,"is_transit":false,"station_name":"Angke","distance":1230,"i_long":106.79867,"i_lat":-6.144674,"station_id":"AK"},{"distance":4102,"transit":true,"station_id":"KPB","i_long":106.826365,"i_lat":-6.132549,"time":9,"line":4,"is_transit":true,"station_name":"Kampung Bandan"},{"line":11,"time":3,"transit":false,"distance":1444,"station_id":"RJW","station_name":"Rajawali","i_long":106.836569,"i_lat":-6.14505,"is_transit":false},{"is_transit":false,"distance":1901,"i_long":106.839204,"station_id":"KMO","line":11,"transit":false,"i_lat":-6.161728,"time":5,"station_name":"Kemayoran"},{"transit":false,"station_name":"Pasar Senen","i_lat":-6.174784,"distance":1436,"i_long":106.84368,"line":11,"time":4,"is_transit":false,"station_id":"PSE"},{"time":8,"i_long":106.850107,"line":11,"station_name":"Gang Sentiong","station_id":"GST","distance":1567,"transit":false,"is_transit":false,"i_lat":-6.185975},{"transit":false,"i_long":106.855437,"time":1,"station_name":"Kramat","line":11,"is_transit":false,"station_id":"KMT","i_lat":-6.193792,"distance":973},{"is_transit":false,"station_id":"POK","distance":1829,"i_long":106.861737,"time":2,"station_name":"Pondok Jati","transit":false,"i_lat":-6.209188,"line":11},{"distance":1236,"time":9,"station_id":"JNG","transit":true,"i_long":106.86807400000001,"station_name":"Jatinegara","is_transit":true,"i_lat":-6.215091,"line":1},{"time":2,"transit":false,"i_lat":-6.212485,"is_transit":false,"i_long":106.858896,"distance":1377,"station_id":"MTR","line":1,"station_name":"Matraman"},{"i_long":106.84912,"i_lat":-6.209883,"is_transit":true,"time":2,"line":2,"station_name":"Manggarai","station_id":"MRI","transit":true,"distance":1275},{"station_name":"Tebet","i_lat":-6.226659,"is_transit":false,"time":4,"transit":false,"line":2,"i_long":106.857948,"distance":2610,"station_id":"TEB"},{"i_long":106.856607,"is_transit":false,"station_name":"Cawang","transit":false,"station_id":"CW","i_lat":-6.242512,"line":2,"time":2,"distance":1230},{"distance":1546,"transit":false,"station_name":"Duren Kalibata","station_id":"DRN","time":3,"is_transit":false,"i_lat":-6.255332,"line":2,"i_long":106.85449},{"is_transit":false,"distance":824,"i_lat":-6.263214,"line":2,"station_id":"PSMB","time":2,"transit":false,"station_name":"Pasar Minggu Baru","i_long":106.851577},{"transit":false,"i_long":106.843999,"i_lat":-6.2842400000000005,"line":2,"time":2,"is_transit":false,"distance":2380,"station_id":"PSM","station_name":"Pasar Minggu"},{"transit":false,"i_lat":-6.3080680000000005,"is_transit":false,"station_id":"TNT","distance":2820,"line":2,"station_name":"Tanjung Barat","time":4,"i_long":106.838896},{"station_name":"Lenteng Agung","transit":false,"i_lat":-6.330363,"is_transit":false,"station_id":"LNA","i_long":106.832616,"time":3,"line":2,"distance":2671},{"is_transit":false,"i_long":106.834175,"i_lat":-6.339291,"line":2,"time":2,"transit":false,"station_name":"Univ. Pancasila","distance":1029,"station_id":"UP"},{"line":2,"is_transit":false,"station_name":"Univ. Indonesia","distance":2264,"time":3,"i_lat":-6.360749,"transit":false,"station_id":"UI","i_long":106.831474},{"i_lat":-6.369073,"i_long":106.831114,"station_id":"POC","station_name":"Pondok Cina","is_transit":false,"transit":false,"line":2,"time":2,"distance":1109},{"line":2,"i_lat":-6.391065,"distance":2727,"i_long":106.819451,"station_name":"Depokbaru","station_id":"DPB","time":4,"is_transit":false,"transit":false},{"station_id":"DP","time":3,"transit":false,"station_name":"Depok","i_lat":-6.405256,"distance":1584,"is_transit":false,"i_long":106.816926,"line":2},{"station_name":"Citayam","i_long":106.800298,"time":6,"line":2,"station_id":"CTA","is_transit":true,"i_lat":-6.448811,"distance":5084,"transit":true},{"i_lat":-6.460735,"station_id":"PDRG","transit":false,"time":0,"distance":0,"is_transit":false,"station_name":"Pondok Rajeg","i_long":106.824374,"line":21}]]}