{"data":[[{"station_name":"Tigaraksa","is_transit":false,"station_id":"TGS","transit":false,"i_long":106.425991,"distance":0,"i_lat":-6.328533,"time":0,"line":6},{"transit":false,"i_long":106.460812,"is_transit":false,"station_id":"TEJ","station_name":"Tenjo","distance":2974,"time":5,"i_lat":-6.327251,"line":6},{"i_lat":-6.338021,"distance":3902,"transit":false,"station_name":"Daru","line":0,"i_long":106.491338,"is_transit":false,"time":5,"station_id":"DAR"},{"i_long":106.508482,"i_lat":-6.354349,"is_transit":false,"station_id":"CJT","transit":false,"line":3,"time":6,"distance":2675,"station_name":"Cilejit"},{"station_name":"Parung Panjang","time":9,"station_id":"PRP","is_transit":false,"line":6,"i_lat":-6.3441410000000005,"distance":7025,"transit":false,"i_long":106.568863},{"distance":5968,"time":8,"station_id":"CC","line":3,"transit":false,"is_transit":false,"i_lat":-6.329547,"i_long":106.617853,"station_name":"Cicayur"}]]}