{"data":[[{"time":0,"station_id":"TGS","transit":false,"station_name":"Tigaraksa","distance":0,"line":6,"i_long":106.425991,"i_lat":-6.328533,"is_transit":false},{"time":5,"distance":2974,"station_name":"Tenjo","transit":false,"line":6,"station_id":"TEJ","is_transit":false,"i_lat":-6.327251,"i_long":106.460812},{"station_name":"Daru","distance":3902,"is_transit":false,"line":0,"transit":false,"i_long":106.491338,"station_id":"DAR","time":5,"i_lat":-6.338021},{"distance":2675,"i_long":106.508482,"station_name":"Cilejit","station_id":"CJT","line":3,"is_transit":false,"time":6,"transit":false,"i_lat":-6.354349},{"time":9,"station_name":"Parung Panjang","distance":7025,"transit":false,"i_lat":-6.3441410000000005,"is_transit":false,"station_id":"PRP","line":6,"i_long":106.568863},{"time":8,"distance":5968,"station_id":"CC","is_transit":false,"transit":false,"i_long":106.617853,"i_lat":-6.329547,"line":3,"station_name":"Cicayur"},{"is_transit":false,"time":4,"i_lat":-6.32484,"distance":2519,"station_name":"Cisauk","line":3,"transit":false,"station_id":"CSK","i_long":106.640411},{"station_id":"SRP","is_transit":false,"i_lat":-6.319871,"station_name":"Serpong","transit":false,"line":6,"distance":1784,"time":4,"i_long":106.66566},{"line":6,"time":4,"station_name":"Rawa Buntu","is_transit":false,"transit":false,"station_id":"RU","i_lat":-6.314823,"i_long":106.675475,"distance":2413},{"station_id":"SDM","station_name":"Sudimara","line":6,"transit":false,"time":6,"is_transit":false,"i_lat":-6.296963,"i_long":106.712277,"distance":4566},{"time":4,"station_name":"Jurangmangu","distance":1994,"is_transit":false,"line":6,"station_id":"JMU","transit":false,"i_lat":-6.288927,"i_long":106.728916},{"line":6,"distance":2179,"is_transit":false,"transit":false,"station_name":"Pondokranji","time":3,"i_lat":-6.276362,"i_long":106.74273,"station_id":"PDJ"},{"station_id":"KBY","i_long":106.780334,"distance":6218,"transit":false,"is_transit":false,"time":8,"i_lat":-6.237242,"station_name":"Kebayoran","line":6},{"i_long":106.79689,"station_id":"PLM","station_name":"Palmerah","line":6,"distance":3737,"transit":false,"i_lat":-6.207404,"time":7,"is_transit":false},{"is_transit":true,"station_name":"Tanah Abang","transit":true,"i_long":106.811091,"distance":3191,"station_id":"THB","line":1,"i_lat":-6.185545,"time":6},{"line":1,"time":5,"station_id":"KAT","transit":false,"i_long":106.816351,"is_transit":false,"distance":2029,"station_name":"Karet","i_lat":-6.20132},{"i_long":106.819881,"i_lat":-6.201433,"line":1,"is_transit":false,"station_id":"SUDB","distance":471,"time":1,"station_name":"Sudirman Baru","transit":false},{"i_lat":-6.202263,"station_id":"SUD","i_long":106.822649,"distance":280,"transit":false,"station_name":"Sudirman","is_transit":false,"line":1,"time":1},{"station_id":"MRI","time":4,"distance":3186,"i_lat":-6.209883,"is_transit":true,"transit":true,"station_name":"Manggarai","line":2,"i_long":106.84912},{"is_transit":false,"distance":2610,"station_id":"TEB","i_lat":-6.226659,"station_name":"Tebet","line":2,"transit":false,"i_long":106.857948,"time":4},{"transit":false,"line":2,"is_transit":false,"i_long":106.856607,"station_name":"Cawang","time":2,"station_id":"CW","i_lat":-6.242512,"distance":1230},{"is_transit":false,"station_id":"DRN","time":3,"line":2,"i_lat":-6.255332,"transit":false,"distance":1546,"i_long":106.85449,"station_name":"Duren Kalibata"},{"station_name":"Pasar Minggu Baru","station_id":"PSMB","i_lat":-6.263214,"time":2,"line":2,"transit":false,"is_transit":false,"i_long":106.851577,"distance":824},{"station_id":"PSM","station_name":"Pasar Minggu","time":2,"distance":2380,"i_long":106.843999,"i_lat":-6.2842400000000005,"line":2,"transit":false,"is_transit":false},{"i_long":106.838896,"station_name":"Tanjung Barat","transit":false,"is_transit":false,"station_id":"TNT","i_lat":-6.3080680000000005,"line":2,"distance":2820,"time":4},{"station_name":"Lenteng Agung","station_id":"LNA","transit":false,"distance":2671,"i_long":106.832616,"line":2,"is_transit":false,"time":3,"i_lat":-6.330363},{"i_long":106.834175,"distance":1029,"line":2,"station_id":"UP","time":2,"is_transit":false,"transit":false,"station_name":"Univ. Pancasila","i_lat":-6.339291},{"line":2,"time":3,"i_lat":-6.360749,"station_name":"Univ. Indonesia","transit":false,"station_id":"UI","distance":2264,"i_long":106.831474,"is_transit":false},{"time":2,"i_lat":-6.369073,"is_transit":false,"transit":false,"station_name":"Pondok Cina","station_id":"POC","i_long":106.831114,"distance":1109,"line":2}],[{"station_name":"Tigaraksa","i_long":106.425991,"transit":false,"station_id":"TGS","time":0,"is_transit":false,"line":6,"distance":0,"i_lat":-6.328533},{"i_long":106.460812,"transit":false,"station_id":"TEJ","distance":2974,"time":5,"line":6,"i_lat":-6.327251,"station_name":"Tenjo","is_transit":false},{"i_lat":-6.338021,"distance":3902,"is_transit":false,"transit":false,"station_id":"DAR","i_long":106.491338,"line":0,"time":5,"station_name":"Daru"},{"i_lat":-6.354349,"line":3,"time":6,"station_id":"CJT","i_long":106.508482,"is_transit":false,"station_name":"Cilejit","distance":2675,"transit":false},{"line":6,"distance":7025,"is_transit":false,"station_name":"Parung Panjang","station_id":"PRP","transit":false,"i_lat":-6.3441410000000005,"i_long":106.568863,"time":9},{"distance":5968,"i_lat":-6.329547,"i_long":106.617853,"line":3,"time":8,"transit":false,"is_transit":false,"station_name":"Cicayur","station_id":"CC"},{"distance":2519,"line":3,"i_lat":-6.32484,"station_name":"Cisauk","transit":false,"station_id":"CSK","is_transit":false,"time":4,"i_long":106.640411},{"distance":1784,"transit":false,"station_id":"SRP","i_lat":-6.319871,"i_long":106.66566,"time":4,"line":6,"is_transit":false,"station_name":"Serpong"},{"distance":2413,"i_lat":-6.314823,"station_id":"RU","line":6,"time":4,"station_name":"Rawa Buntu","i_long":106.675475,"transit":false,"is_transit":false},{"i_long":106.712277,"time":6,"station_name":"Sudimara","is_transit":false,"station_id":"SDM","distance":4566,"line":6,"i_lat":-6.296963,"transit":false},{"i_lat":-6.288927,"i_long":106.728916,"time":4,"line":6,"is_transit":false,"transit":false,"station_name":"Jurangmangu","station_id":"JMU","distance":1994},{"distance":2179,"station_name":"Pondokranji","is_transit":false,"transit":false,"i_long":106.74273,"i_lat":-6.276362,"station_id":"PDJ","line":6,"time":3},{"transit":false,"station_id":"KBY","i_long":106.780334,"distance":6218,"i_lat":-6.237242,"time":8,"line":6,"station_name":"Kebayoran","is_transit":false},{"distance":3737,"station_name":"Palmerah","i_lat":-6.207404,"i_long":106.79689,"line":6,"is_transit":false,"transit":false,"station_id":"PLM","time":7},{"time":6,"is_transit":true,"i_long":106.811091,"distance":3191,"station_id":"THB","line":1,"station_name":"Tanah Abang","transit":true,"i_lat":-6.185545},{"is_transit":false,"time":8,"i_lat":-6.155215,"line":1,"transit":false,"station_name":"Duri","distance":3632,"station_id":"DU","i_long":106.800832},{"station_id":"AK","line":1,"i_long":106.79867,"distance":1230,"station_name":"Angke","time":4,"is_transit":false,"transit":false,"i_lat":-6.144674},{"distance":4102,"station_id":"KPB","is_transit":true,"i_long":106.826365,"i_lat":-6.132549,"transit":true,"line":4,"station_name":"Kampung Bandan","time":9},{"i_long":106.812439,"station_id":"JAKK","is_transit":true,"transit":true,"station_name":"Jakarta Kota","line":2,"time":3,"i_lat":-6.137569,"distance":1364},{"distance":1264,"is_transit":false,"i_lat":-6.141205,"transit":false,"station_id":"JAY","station_name":"Jayakarta","i_long":106.820901,"time":4,"line":2},{"i_long":106.82482,"station_id":"MGB","transit":false,"line":2,"is_transit":false,"distance":1080,"i_lat":-6.149769,"station_name":"Manggabesar","time":2},{"is_transit":false,"line":2,"station_id":"SW","transit":false,"i_lat":-6.160725,"i_long":106.827103,"time":2,"distance":906,"station_name":"Sawah Besar"},{"transit":false,"i_lat":-6.166716,"station_name":"Juanda","time":2,"distance":1149,"i_long":106.828284,"line":2,"is_transit":false,"station_id":"JUA"},{"station_name":"Gondangdia","is_transit":false,"station_id":"GDD","i_long":106.832183,"time":4,"distance":2015,"line":2,"transit":false,"i_lat":-6.186295},{"station_name":"Cikini","transit":false,"distance":1750,"is_transit":false,"line":2,"station_id":"CKI","i_lat":-6.198556,"time":3,"i_long":106.840169},{"time":4,"transit":false,"i_long":106.84912,"i_lat":-6.209883,"station_name":"Manggarai","line":2,"is_transit":false,"distance":1590,"station_id":"MRI"},{"station_name":"Tebet","line":2,"time":4,"i_long":106.857948,"is_transit":false,"i_lat":-6.226659,"station_id":"TEB","transit":false,"distance":2610},{"line":2,"i_long":106.856607,"station_name":"Cawang","time":2,"transit":false,"station_id":"CW","is_transit":false,"i_lat":-6.242512,"distance":1230},{"i_lat":-6.255332,"is_transit":false,"distance":1546,"time":3,"station_name":"Duren Kalibata","transit":false,"i_long":106.85449,"line":2,"station_id":"DRN"},{"station_name":"Pasar Minggu Baru","distance":824,"station_id":"PSMB","i_lat":-6.263214,"transit":false,"time":2,"is_transit":false,"i_long":106.851577,"line":2},{"is_transit":false,"station_id":"PSM","time":2,"i_lat":-6.2842400000000005,"transit":false,"i_long":106.843999,"line":2,"distance":2380,"station_name":"Pasar Minggu"},{"i_long":106.838896,"time":4,"station_id":"TNT","i_lat":-6.3080680000000005,"transit":false,"is_transit":false,"station_name":"Tanjung Barat","distance":2820,"line":2},{"station_id":"LNA","is_transit":false,"line":2,"transit":false,"i_long":106.832616,"time":3,"i_lat":-6.330363,"station_name":"Lenteng Agung","distance":2671},{"is_transit":false,"transit":false,"station_id":"UP","station_name":"Univ. Pancasila","i_lat":-6.339291,"i_long":106.834175,"time":2,"distance":1029,"line":2},{"station_name":"Univ. Indonesia","time":3,"transit":false,"i_lat":-6.360749,"i_long":106.831474,"line":2,"station_id":"UI","distance":2264,"is_transit":false},{"distance":1109,"is_transit":false,"station_id":"POC","station_name":"Pondok Cina","i_lat":-6.369073,"i_long":106.831114,"line":2,"time":2,"transit":false}],[{"time":0,"i_long":106.425991,"line":6,"station_name":"Tigaraksa","is_transit":false,"distance":0,"i_lat":-6.328533,"station_id":"TGS","transit":false},{"i_long":106.460812,"station_id":"TEJ","is_transit":false,"station_name":"Tenjo","i_lat":-6.327251,"line":6,"distance":2974,"time":5,"transit":false},{"is_transit":false,"time":5,"transit":false,"distance":3902,"line":0,"i_lat":-6.338021,"station_name":"Daru","i_long":106.491338,"station_id":"DAR"},{"station_id":"CJT","is_transit":false,"transit":false,"i_long":106.508482,"line":3,"station_name":"Cilejit","distance":2675,"time":6,"i_lat":-6.354349},{"i_lat":-6.3441410000000005,"station_id":"PRP","time":9,"station_name":"Parung Panjang","is_transit":false,"line":6,"distance":7025,"i_long":106.568863,"transit":false},{"time":8,"i_lat":-6.329547,"i_long":106.617853,"line":3,"transit":false,"distance":5968,"is_transit":false,"station_name":"Cicayur","station_id":"CC"},{"line":3,"time":4,"transit":false,"is_transit":false,"station_name":"Cisauk","i_long":106.640411,"i_lat":-6.32484,"station_id":"CSK","distance":2519},{"i_lat":-6.319871,"time":4,"station_name":"Serpong","is_transit":false,"station_id":"SRP","i_long":106.66566,"distance":1784,"line":6,"transit":false},{"time":4,"distance":2413,"is_transit":false,"station_name":"Rawa Buntu","i_lat":-6.314823,"station_id":"RU","transit":false,"line":6,"i_long":106.675475},{"transit":false,"is_transit":false,"station_name":"Sudimara","i_lat":-6.296963,"i_long":106.712277,"station_id":"SDM","line":6,"time":6,"distance":4566},{"i_long":106.728916,"time":4,"line":6,"distance":1994,"station_id":"JMU","is_transit":false,"station_name":"Jurangmangu","transit":false,"i_lat":-6.288927},{"time":3,"line":6,"is_transit":false,"i_long":106.74273,"station_id":"PDJ","transit":false,"i_lat":-6.276362,"distance":2179,"station_name":"Pondokranji"},{"station_id":"KBY","line":6,"station_name":"Kebayoran","is_transit":false,"time":8,"transit":false,"distance":6218,"i_long":106.780334,"i_lat":-6.237242},{"is_transit":false,"i_long":106.79689,"time":7,"line":6,"distance":3737,"station_name":"Palmerah","transit":false,"station_id":"PLM","i_lat":-6.207404},{"is_transit":true,"i_long":106.811091,"station_name":"Tanah Abang","transit":true,"distance":3191,"line":1,"time":6,"i_lat":-6.185545,"station_id":"THB"},{"is_transit":false,"i_lat":-6.155215,"transit":false,"i_long":106.800832,"station_id":"DU","distance":3632,"station_name":"Duri","time":8,"line":1},{"station_name":"Angke","station_id":"AK","time":4,"transit":false,"line":1,"is_transit":false,"i_lat":-6.144674,"distance":1230,"i_long":106.79867},{"transit":true,"time":9,"i_long":106.826365,"line":4,"i_lat":-6.132549,"station_name":"Kampung Bandan","distance":4102,"station_id":"KPB","is_transit":true},{"transit":false,"i_lat":-6.14505,"i_long":106.836569,"line":11,"station_name":"Rajawali","station_id":"RJW","is_transit":false,"time":3,"distance":1444},{"station_name":"Kemayoran","station_id":"KMO","line":11,"transit":false,"i_long":106.839204,"is_transit":false,"i_lat":-6.161728,"time":5,"distance":1901},{"i_lat":-6.174784,"line":11,"distance":1436,"i_long":106.84368,"station_name":"Pasar Senen","is_transit":false,"time":4,"transit":false,"station_id":"PSE"},{"distance":1567,"station_name":"Gang Sentiong","time":8,"station_id":"GST","is_transit":false,"line":11,"i_lat":-6.185975,"transit":false,"i_long":106.850107},{"line":11,"station_name":"Kramat","is_transit":false,"time":1,"distance":973,"station_id":"KMT","transit":false,"i_lat":-6.193792,"i_long":106.855437},{"station_id":"POK","station_name":"Pondok Jati","distance":1829,"i_lat":-6.209188,"is_transit":false,"time":2,"i_long":106.861737,"line":11,"transit":false},{"station_id":"JNG","distance":1236,"i_long":106.86807400000001,"time":9,"transit":true,"i_lat":-6.215091,"line":1,"station_name":"Jatinegara","is_transit":true},{"distance":1377,"is_transit":false,"station_id":"MTR","time":2,"i_lat":-6.212485,"line":1,"i_long":106.858896,"station_name":"Matraman","transit":false},{"i_lat":-6.209883,"i_long":106.84912,"line":2,"is_transit":true,"time":2,"distance":1275,"station_name":"Manggarai","transit":true,"station_id":"MRI"},{"line":2,"distance":2610,"station_name":"Tebet","is_transit":false,"transit":false,"i_long":106.857948,"i_lat":-6.226659,"station_id":"TEB","time":4},{"time":2,"transit":false,"line":2,"i_long":106.856607,"station_name":"Cawang","station_id":"CW","is_transit":false,"distance":1230,"i_lat":-6.242512},{"transit":false,"time":3,"i_lat":-6.255332,"line":2,"station_id":"DRN","is_transit":false,"distance":1546,"i_long":106.85449,"station_name":"Duren Kalibata"},{"i_long":106.851577,"i_lat":-6.263214,"line":2,"is_transit":false,"time":2,"distance":824,"station_name":"Pasar Minggu Baru","station_id":"PSMB","transit":false},{"transit":false,"station_id":"PSM","line":2,"station_name":"Pasar Minggu","time":2,"i_lat":-6.2842400000000005,"is_transit":false,"distance":2380,"i_long":106.843999},{"i_long":106.838896,"station_name":"Tanjung Barat","distance":2820,"time":4,"is_transit":false,"transit":false,"line":2,"i_lat":-6.3080680000000005,"station_id":"TNT"},{"station_id":"LNA","time":3,"transit":false,"i_lat":-6.330363,"station_name":"Lenteng Agung","is_transit":false,"i_long":106.832616,"distance":2671,"line":2},{"i_long":106.834175,"is_transit":false,"transit":false,"i_lat":-6.339291,"station_name":"Univ. Pancasila","station_id":"UP","line":2,"distance":1029,"time":2},{"is_transit":false,"i_long":106.831474,"distance":2264,"transit":false,"i_lat":-6.360749,"line":2,"time":3,"station_name":"Univ. Indonesia","station_id":"UI"},{"station_name":"Pondok Cina","time":2,"i_long":106.831114,"line":2,"distance":1109,"is_transit":false,"station_id":"POC","i_lat":-6.369073,"transit":false}]]}