{"data":[[{"time":0,"transit":false,"is_transit":false,"station_id":"TGS","station_name":"Tigaraksa","i_lat":-6.328533,"distance":0,"i_long":106.425991,"line":6},{"transit":false,"i_lat":-6.327251,"line":6,"i_long":106.460812,"station_name":"Tenjo","time":5,"distance":2974,"station_id":"TEJ","is_transit":false},{"time":5,"is_transit":false,"line":0,"station_name":"Daru","i_lat":-6.338021,"station_id":"DAR","transit":false,"distance":3902,"i_long":106.491338},{"time":6,"station_name":"Cilejit","is_transit":false,"distance":2675,"station_id":"CJT","line":3,"i_lat":-6.354349,"transit":false,"i_long":106.508482},{"i_lat":-6.3441410000000005,"line":6,"station_id":"PRP","transit":false,"i_long":106.568863,"time":9,"is_transit":false,"distance":7025,"station_name":"Parung Panjang"},{"transit":false,"station_name":"Cicayur","station_id":"CC","time":8,"i_lat":-6.329547,"is_transit":false,"distance":5968,"i_long":106.617853,"line":3},{"time":4,"station_name":"Cisauk","transit":false,"i_long":106.640411,"line":3,"distance":2519,"station_id":"CSK","i_lat":-6.32484,"is_transit":false},{"i_lat":-6.319871,"time":4,"station_id":"SRP","transit":false,"station_name":"Serpong","i_long":106.66566,"line":6,"distance":1784,"is_transit":false},{"time":4,"station_id":"RU","i_long":106.675475,"transit":false,"is_transit":false,"i_lat":-6.314823,"line":6,"station_name":"Rawa Buntu","distance":2413},{"transit":false,"station_name":"Sudimara","line":6,"distance":4566,"i_lat":-6.296963,"time":6,"is_transit":false,"i_long":106.712277,"station_id":"SDM"},{"i_lat":-6.288927,"transit":false,"is_transit":false,"station_id":"JMU","time":4,"station_name":"Jurangmangu","line":6,"i_long":106.728916,"distance":1994},{"time":3,"station_id":"PDJ","station_name":"Pondokranji","is_transit":false,"i_lat":-6.276362,"line":6,"distance":2179,"transit":false,"i_long":106.74273},{"line":6,"transit":false,"i_long":106.780334,"time":8,"i_lat":-6.237242,"station_id":"KBY","distance":6218,"station_name":"Kebayoran","is_transit":false},{"time":7,"distance":3737,"is_transit":false,"i_long":106.79689,"i_lat":-6.207404,"station_id":"PLM","transit":false,"station_name":"Palmerah","line":6},{"time":6,"i_long":106.811091,"line":1,"station_name":"Tanah Abang","distance":3191,"is_transit":true,"station_id":"THB","transit":true,"i_lat":-6.185545},{"station_id":"DU","is_transit":false,"i_long":106.800832,"time":8,"line":1,"distance":3632,"station_name":"Duri","transit":false,"i_lat":-6.155215},{"time":4,"station_name":"Angke","i_lat":-6.144674,"distance":1230,"line":1,"station_id":"AK","is_transit":false,"transit":false,"i_long":106.79867},{"i_lat":-6.132549,"transit":true,"station_name":"Kampung Bandan","time":9,"line":4,"distance":4102,"station_id":"KPB","i_long":106.826365,"is_transit":true},{"time":3,"is_transit":false,"line":11,"distance":1444,"station_id":"RJW","i_long":106.836569,"i_lat":-6.14505,"transit":false,"station_name":"Rajawali"},{"i_long":106.839204,"line":11,"transit":false,"station_id":"KMO","time":5,"distance":1901,"is_transit":false,"station_name":"Kemayoran","i_lat":-6.161728},{"i_long":106.84368,"time":4,"transit":false,"line":11,"station_name":"Pasar Senen","station_id":"PSE","distance":1436,"i_lat":-6.174784,"is_transit":false},{"time":8,"station_name":"Gang Sentiong","line":11,"i_long":106.850107,"i_lat":-6.185975,"station_id":"GST","distance":1567,"is_transit":false,"transit":false},{"is_transit":false,"station_name":"Kramat","distance":973,"transit":false,"i_lat":-6.193792,"time":1,"i_long":106.855437,"station_id":"KMT","line":11}],[{"transit":false,"i_lat":-6.328533,"is_transit":false,"station_name":"Tigaraksa","i_long":106.425991,"line":6,"distance":0,"station_id":"TGS","time":0},{"station_name":"Tenjo","is_transit":false,"station_id":"TEJ","i_lat":-6.327251,"i_long":106.460812,"line":6,"distance":2974,"time":5,"transit":false},{"i_lat":-6.338021,"i_long":106.491338,"distance":3902,"station_id":"DAR","is_transit":false,"time":5,"station_name":"Daru","line":0,"transit":false},{"transit":false,"station_id":"CJT","line":3,"station_name":"Cilejit","distance":2675,"time":6,"i_lat":-6.354349,"i_long":106.508482,"is_transit":false},{"station_id":"PRP","time":9,"transit":false,"station_name":"Parung Panjang","i_lat":-6.3441410000000005,"is_transit":false,"i_long":106.568863,"line":6,"distance":7025},{"i_long":106.617853,"i_lat":-6.329547,"time":8,"is_transit":false,"line":3,"distance":5968,"transit":false,"station_name":"Cicayur","station_id":"CC"},{"time":4,"is_transit":false,"transit":false,"line":3,"station_name":"Cisauk","station_id":"CSK","i_lat":-6.32484,"i_long":106.640411,"distance":2519},{"line":6,"is_transit":false,"time":4,"transit":false,"station_name":"Serpong","i_lat":-6.319871,"distance":1784,"i_long":106.66566,"station_id":"SRP"},{"is_transit":false,"station_id":"RU","distance":2413,"station_name":"Rawa Buntu","i_lat":-6.314823,"time":4,"i_long":106.675475,"line":6,"transit":false},{"is_transit":false,"station_name":"Sudimara","distance":4566,"transit":false,"i_long":106.712277,"time":6,"i_lat":-6.296963,"line":6,"station_id":"SDM"},{"is_transit":false,"transit":false,"station_id":"JMU","i_long":106.728916,"station_name":"Jurangmangu","distance":1994,"line":6,"i_lat":-6.288927,"time":4},{"is_transit":false,"station_name":"Pondokranji","transit":false,"i_long":106.74273,"i_lat":-6.276362,"distance":2179,"time":3,"station_id":"PDJ","line":6},{"station_name":"Kebayoran","station_id":"KBY","transit":false,"i_lat":-6.237242,"i_long":106.780334,"is_transit":false,"time":8,"distance":6218,"line":6},{"station_name":"Palmerah","i_long":106.79689,"station_id":"PLM","time":7,"transit":false,"is_transit":false,"line":6,"i_lat":-6.207404,"distance":3737},{"station_id":"THB","i_lat":-6.185545,"line":1,"time":6,"transit":true,"i_long":106.811091,"station_name":"Tanah Abang","distance":3191,"is_transit":true},{"distance":2029,"is_transit":false,"station_name":"Karet","line":1,"station_id":"KAT","time":5,"transit":false,"i_lat":-6.20132,"i_long":106.816351},{"is_transit":false,"i_long":106.819881,"distance":471,"time":1,"line":1,"station_name":"Sudirman Baru","transit":false,"station_id":"SUDB","i_lat":-6.201433},{"line":1,"distance":280,"time":1,"i_long":106.822649,"i_lat":-6.202263,"transit":false,"station_name":"Sudirman","is_transit":false,"station_id":"SUD"},{"is_transit":false,"i_lat":-6.209883,"station_name":"Manggarai","time":4,"transit":false,"i_long":106.84912,"station_id":"MRI","line":2,"distance":3186},{"station_name":"Matraman","time":2,"line":1,"transit":false,"station_id":"MTR","is_transit":false,"i_long":106.858896,"distance":1275,"i_lat":-6.212485},{"is_transit":true,"station_id":"JNG","transit":true,"distance":1377,"line":1,"station_name":"Jatinegara","i_lat":-6.215091,"i_long":106.86807400000001,"time":8},{"station_name":"Pondok Jati","distance":1236,"line":11,"is_transit":false,"transit":false,"station_id":"POK","i_lat":-6.209188,"time":2,"i_long":106.861737},{"time":2,"i_lat":-6.193792,"distance":1829,"i_long":106.855437,"station_name":"Kramat","is_transit":false,"transit":false,"station_id":"KMT","line":11}],[{"station_name":"Tigaraksa","distance":0,"is_transit":false,"i_lat":-6.328533,"time":0,"station_id":"TGS","line":6,"transit":false,"i_long":106.425991},{"is_transit":false,"distance":2974,"station_name":"Tenjo","transit":false,"time":5,"line":6,"station_id":"TEJ","i_long":106.460812,"i_lat":-6.327251},{"time":5,"transit":false,"i_lat":-6.338021,"line":0,"is_transit":false,"station_name":"Daru","i_long":106.491338,"distance":3902,"station_id":"DAR"},{"transit":false,"station_id":"CJT","is_transit":false,"time":6,"distance":2675,"i_lat":-6.354349,"station_name":"Cilejit","i_long":106.508482,"line":3},{"distance":7025,"is_transit":false,"station_id":"PRP","time":9,"i_lat":-6.3441410000000005,"transit":false,"line":6,"station_name":"Parung Panjang","i_long":106.568863},{"is_transit":false,"time":8,"station_id":"CC","i_long":106.617853,"i_lat":-6.329547,"line":3,"station_name":"Cicayur","distance":5968,"transit":false},{"is_transit":false,"distance":2519,"line":3,"i_long":106.640411,"time":4,"station_name":"Cisauk","station_id":"CSK","i_lat":-6.32484,"transit":false},{"distance":1784,"is_transit":false,"time":4,"i_long":106.66566,"station_name":"Serpong","line":6,"transit":false,"station_id":"SRP","i_lat":-6.319871},{"i_lat":-6.314823,"time":4,"distance":2413,"line":6,"station_name":"Rawa Buntu","transit":false,"station_id":"RU","i_long":106.675475,"is_transit":false},{"time":6,"station_id":"SDM","i_lat":-6.296963,"line":6,"station_name":"Sudimara","distance":4566,"transit":false,"i_long":106.712277,"is_transit":false},{"line":6,"distance":1994,"is_transit":false,"time":4,"transit":false,"station_name":"Jurangmangu","i_long":106.728916,"station_id":"JMU","i_lat":-6.288927},{"line":6,"is_transit":false,"station_name":"Pondokranji","transit":false,"station_id":"PDJ","i_lat":-6.276362,"i_long":106.74273,"time":3,"distance":2179},{"transit":false,"is_transit":false,"station_name":"Kebayoran","i_lat":-6.237242,"line":6,"time":8,"i_long":106.780334,"station_id":"KBY","distance":6218},{"transit":false,"is_transit":false,"line":6,"station_id":"PLM","i_lat":-6.207404,"station_name":"Palmerah","distance":3737,"time":7,"i_long":106.79689},{"line":1,"station_name":"Tanah Abang","distance":3191,"transit":true,"is_transit":true,"i_long":106.811091,"time":6,"station_id":"THB","i_lat":-6.185545},{"station_id":"DU","i_long":106.800832,"station_name":"Duri","distance":3632,"is_transit":false,"time":8,"i_lat":-6.155215,"transit":false,"line":1},{"i_long":106.79867,"station_name":"Angke","transit":false,"is_transit":false,"distance":1230,"time":4,"station_id":"AK","i_lat":-6.144674,"line":1},{"station_name":"Kampung Bandan","i_long":106.826365,"line":4,"transit":true,"distance":4102,"is_transit":true,"station_id":"KPB","time":9,"i_lat":-6.132549},{"distance":1364,"is_transit":true,"station_id":"JAKK","i_long":106.812439,"i_lat":-6.137569,"transit":true,"line":2,"station_name":"Jakarta Kota","time":3},{"i_long":106.820901,"transit":false,"is_transit":false,"station_id":"JAY","station_name":"Jayakarta","line":2,"time":4,"i_lat":-6.141205,"distance":1264},{"distance":1080,"is_transit":false,"i_lat":-6.149769,"transit":false,"station_id":"MGB","station_name":"Manggabesar","i_long":106.82482,"time":2,"line":2},{"i_long":106.827103,"station_id":"SW","transit":false,"line":2,"is_transit":false,"distance":906,"i_lat":-6.160725,"station_name":"Sawah Besar","time":2},{"is_transit":false,"line":2,"transit":false,"station_id":"JUA","i_lat":-6.166716,"i_long":106.828284,"time":2,"station_name":"Juanda","distance":1149},{"transit":false,"i_lat":-6.186295,"station_name":"Gondangdia","time":4,"distance":2015,"i_long":106.832183,"line":2,"is_transit":false,"station_id":"GDD"},{"station_name":"Cikini","is_transit":false,"station_id":"CKI","i_long":106.840169,"time":3,"distance":1750,"line":2,"transit":false,"i_lat":-6.198556},{"station_name":"Manggarai","transit":true,"distance":1590,"is_transit":true,"line":2,"station_id":"MRI","i_lat":-6.209883,"time":4,"i_long":106.84912},{"time":2,"transit":false,"i_long":106.858896,"i_lat":-6.212485,"station_name":"Matraman","line":1,"is_transit":false,"distance":1275,"station_id":"MTR"},{"station_name":"Jatinegara","line":1,"time":8,"i_long":106.86807400000001,"is_transit":true,"i_lat":-6.215091,"station_id":"JNG","transit":true,"distance":1377},{"line":11,"i_long":106.861737,"station_name":"Pondok Jati","time":2,"transit":false,"is_transit":false,"station_id":"POK","i_lat":-6.209188,"distance":1236},{"i_lat":-6.193792,"is_transit":false,"distance":1829,"time":2,"station_name":"Kramat","transit":false,"i_long":106.855437,"line":11,"station_id":"KMT"}],[{"station_name":"Tigaraksa","distance":0,"station_id":"TGS","i_lat":-6.328533,"transit":false,"time":0,"is_transit":false,"i_long":106.425991,"line":6},{"is_transit":false,"station_id":"TEJ","time":5,"i_lat":-6.327251,"transit":false,"i_long":106.460812,"line":6,"distance":2974,"station_name":"Tenjo"},{"i_long":106.491338,"time":5,"station_id":"DAR","i_lat":-6.338021,"transit":false,"is_transit":false,"station_name":"Daru","distance":3902,"line":0},{"station_id":"CJT","is_transit":false,"line":3,"transit":false,"i_long":106.508482,"time":6,"i_lat":-6.354349,"station_name":"Cilejit","distance":2675},{"time":9,"i_lat":-6.3441410000000005,"station_id":"PRP","line":6,"is_transit":false,"i_long":106.568863,"station_name":"Parung Panjang","distance":7025,"transit":false},{"station_name":"Cicayur","i_long":106.617853,"time":8,"station_id":"CC","transit":false,"line":3,"is_transit":false,"i_lat":-6.329547,"distance":5968},{"station_id":"CSK","is_transit":false,"i_lat":-6.32484,"station_name":"Cisauk","transit":false,"line":3,"i_long":106.640411,"distance":2519,"time":4},{"station_name":"Serpong","is_transit":false,"station_id":"SRP","i_lat":-6.319871,"transit":false,"time":4,"i_long":106.66566,"line":6,"distance":1784},{"distance":2413,"line":6,"i_long":106.675475,"time":4,"station_name":"Rawa Buntu","is_transit":false,"transit":false,"i_lat":-6.314823,"station_id":"RU"},{"station_name":"Sudimara","transit":false,"i_long":106.712277,"time":6,"station_id":"SDM","is_transit":false,"distance":4566,"line":6,"i_lat":-6.296963},{"i_lat":-6.288927,"line":6,"distance":1994,"i_long":106.728916,"time":4,"station_id":"JMU","station_name":"Jurangmangu","transit":false,"is_transit":false},{"time":3,"line":6,"distance":2179,"station_id":"PDJ","i_lat":-6.276362,"transit":false,"is_transit":false,"i_long":106.74273,"station_name":"Pondokranji"},{"distance":6218,"time":8,"i_long":106.780334,"i_lat":-6.237242,"transit":false,"station_id":"KBY","is_transit":false,"line":6,"station_name":"Kebayoran"},{"i_long":106.79689,"time":7,"transit":false,"station_id":"PLM","i_lat":-6.207404,"line":6,"distance":3737,"is_transit":false,"station_name":"Palmerah"},{"station_name":"Tanah Abang","distance":3191,"transit":true,"is_transit":true,"time":6,"station_id":"THB","i_lat":-6.185545,"i_long":106.811091,"line":1},{"time":5,"i_lat":-6.20132,"station_id":"KAT","i_long":106.816351,"transit":false,"line":1,"distance":2029,"station_name":"Karet","is_transit":false},{"time":1,"is_transit":false,"i_long":106.819881,"distance":471,"transit":false,"station_id":"SUDB","i_lat":-6.201433,"line":1,"station_name":"Sudirman Baru"},{"station_name":"Sudirman","i_lat":-6.202263,"i_long":106.822649,"transit":false,"line":1,"distance":280,"is_transit":false,"time":1,"station_id":"SUD"},{"station_name":"Manggarai","distance":3186,"i_long":106.84912,"time":4,"i_lat":-6.209883,"is_transit":true,"transit":true,"station_id":"MRI","line":2},{"time":4,"is_transit":false,"transit":false,"i_long":106.840169,"line":2,"distance":1590,"i_lat":-6.198556,"station_name":"Cikini","station_id":"CKI"},{"i_lat":-6.186295,"distance":1750,"time":3,"transit":false,"station_id":"GDD","line":2,"station_name":"Gondangdia","is_transit":false,"i_long":106.832183},{"i_lat":-6.166716,"is_transit":false,"time":4,"distance":2015,"line":2,"station_name":"Juanda","i_long":106.828284,"transit":false,"station_id":"JUA"},{"station_name":"Sawah Besar","is_transit":false,"transit":false,"station_id":"SW","i_lat":-6.160725,"line":2,"distance":1149,"time":2,"i_long":106.827103},{"i_long":106.82482,"is_transit":false,"transit":false,"station_id":"MGB","i_lat":-6.149769,"station_name":"Manggabesar","line":2,"distance":906,"time":2},{"i_long":106.820901,"transit":false,"i_lat":-6.141205,"distance":1080,"is_transit":false,"station_name":"Jayakarta","time":2,"line":2,"station_id":"JAY"},{"i_long":106.812439,"line":2,"distance":1264,"station_name":"Jakarta Kota","is_transit":true,"time":4,"i_lat":-6.137569,"transit":true,"station_id":"JAKK"},{"time":3,"station_id":"KPB","i_long":106.826365,"distance":1364,"line":4,"transit":true,"station_name":"Kampung Bandan","is_transit":true,"i_lat":-6.132549},{"i_long":106.836569,"station_id":"RJW","distance":1444,"i_lat":-6.14505,"line":11,"transit":false,"is_transit":false,"station_name":"Rajawali","time":3},{"line":11,"station_name":"Kemayoran","time":5,"i_long":106.839204,"distance":1901,"transit":false,"is_transit":false,"i_lat":-6.161728,"station_id":"KMO"},{"is_transit":false,"i_lat":-6.174784,"station_id":"PSE","i_long":106.84368,"transit":false,"distance":1436,"time":4,"station_name":"Pasar Senen","line":11},{"line":11,"distance":1567,"transit":false,"time":8,"station_id":"GST","is_transit":false,"i_long":106.850107,"station_name":"Gang Sentiong","i_lat":-6.185975},{"i_long":106.855437,"line":11,"time":1,"i_lat":-6.193792,"distance":973,"is_transit":false,"station_id":"KMT","station_name":"Kramat","transit":false}]]}