{"data":[[{"time":0,"distance":0,"i_long":106.425991,"line":6,"is_transit":false,"station_id":"TGS","transit":false,"station_name":"Tigaraksa","i_lat":-6.328533},{"station_id":"TEJ","i_lat":-6.327251,"time":5,"transit":false,"is_transit":false,"station_name":"Tenjo","line":6,"distance":2974,"i_long":106.460812},{"station_name":"Daru","transit":false,"i_lat":-6.338021,"time":5,"distance":3902,"i_long":106.491338,"station_id":"DAR","is_transit":false,"line":0},{"is_transit":false,"distance":2675,"i_long":106.508482,"i_lat":-6.354349,"line":3,"transit":false,"station_name":"Cilejit","time":6,"station_id":"CJT"},{"station_id":"PRP","i_lat":-6.3441410000000005,"transit":false,"station_name":"Parung Panjang","is_transit":false,"time":9,"line":6,"i_long":106.568863,"distance":7025},{"transit":false,"distance":5968,"i_long":106.617853,"station_name":"Cicayur","is_transit":false,"station_id":"CC","i_lat":-6.329547,"time":8,"line":3},{"transit":false,"i_lat":-6.32484,"line":3,"station_id":"CSK","i_long":106.640411,"is_transit":false,"distance":2519,"station_name":"Cisauk","time":4},{"station_id":"SRP","transit":false,"station_name":"Serpong","is_transit":false,"time":4,"distance":1784,"i_lat":-6.319871,"i_long":106.66566,"line":6},{"station_id":"RU","transit":false,"is_transit":false,"line":6,"i_long":106.675475,"time":4,"distance":2413,"station_name":"Rawa Buntu","i_lat":-6.314823},{"line":6,"is_transit":false,"station_name":"Sudimara","i_long":106.712277,"time":6,"transit":false,"distance":4566,"i_lat":-6.296963,"station_id":"SDM"},{"station_name":"Jurangmangu","distance":1994,"transit":false,"i_lat":-6.288927,"i_long":106.728916,"is_transit":false,"time":4,"station_id":"JMU","line":6},{"transit":false,"i_lat":-6.276362,"is_transit":false,"i_long":106.74273,"line":6,"distance":2179,"station_id":"PDJ","time":3,"station_name":"Pondokranji"},{"is_transit":false,"transit":false,"station_name":"Kebayoran","i_lat":-6.237242,"time":8,"line":6,"distance":6218,"i_long":106.780334,"station_id":"KBY"},{"i_long":106.79689,"station_id":"PLM","is_transit":false,"time":7,"distance":3737,"i_lat":-6.207404,"line":6,"transit":false,"station_name":"Palmerah"},{"distance":3191,"transit":true,"i_long":106.811091,"time":6,"is_transit":true,"station_name":"Tanah Abang","i_lat":-6.185545,"station_id":"THB","line":1},{"station_id":"KAT","line":1,"time":5,"distance":2029,"transit":false,"station_name":"Karet","i_lat":-6.20132,"i_long":106.816351,"is_transit":false},{"time":1,"line":1,"station_name":"Sudirman Baru","station_id":"SUDB","distance":471,"i_lat":-6.201433,"i_long":106.819881,"is_transit":false,"transit":false},{"station_id":"SUD","distance":280,"i_lat":-6.202263,"station_name":"Sudirman","time":1,"i_long":106.822649,"is_transit":false,"line":1,"transit":false},{"station_name":"Manggarai","distance":3186,"transit":true,"i_lat":-6.209883,"time":4,"station_id":"MRI","i_long":106.84912,"is_transit":true,"line":2},{"i_long":106.857948,"i_lat":-6.226659,"distance":2610,"is_transit":false,"time":4,"station_name":"Tebet","station_id":"TEB","transit":false,"line":2},{"time":2,"line":2,"distance":1230,"i_lat":-6.242512,"transit":false,"station_name":"Cawang","is_transit":false,"station_id":"CW","i_long":106.856607},{"time":3,"i_lat":-6.255332,"i_long":106.85449,"transit":false,"is_transit":false,"line":2,"station_name":"Duren Kalibata","station_id":"DRN","distance":1546},{"distance":824,"station_id":"PSMB","time":2,"station_name":"Pasar Minggu Baru","is_transit":false,"transit":false,"i_lat":-6.263214,"line":2,"i_long":106.851577},{"line":2,"i_long":106.843999,"station_id":"PSM","transit":false,"is_transit":false,"time":2,"distance":2380,"station_name":"Pasar Minggu","i_lat":-6.2842400000000005},{"line":2,"i_long":106.838896,"i_lat":-6.3080680000000005,"transit":false,"distance":2820,"station_name":"Tanjung Barat","time":4,"station_id":"TNT","is_transit":false},{"station_id":"LNA","transit":false,"station_name":"Lenteng Agung","is_transit":false,"distance":2671,"i_long":106.832616,"line":2,"time":3,"i_lat":-6.330363},{"i_long":106.834175,"transit":false,"station_name":"Univ. Pancasila","line":2,"is_transit":false,"distance":1029,"time":2,"station_id":"UP","i_lat":-6.339291},{"transit":false,"is_transit":false,"line":2,"station_name":"Univ. Indonesia","station_id":"UI","time":3,"i_long":106.831474,"distance":2264,"i_lat":-6.360749},{"time":2,"station_id":"POC","i_long":106.831114,"line":2,"transit":false,"i_lat":-6.369073,"distance":1109,"is_transit":false,"station_name":"Pondok Cina"},{"is_transit":false,"line":2,"time":4,"distance":2727,"i_lat":-6.391065,"station_name":"Depokbaru","transit":false,"station_id":"DPB","i_long":106.819451},{"transit":false,"station_name":"Depok","is_transit":false,"distance":1584,"time":3,"i_long":106.816926,"i_lat":-6.405256,"line":2,"station_id":"DP"},{"line":2,"is_transit":true,"transit":true,"station_id":"CTA","time":6,"i_lat":-6.448811,"i_long":106.800298,"distance":5084,"station_name":"Citayam"},{"is_transit":false,"line":21,"time":0,"i_lat":-6.460735,"i_long":106.824374,"station_id":"PDRG","distance":0,"transit":false,"station_name":"Pondok Rajeg"}],[{"station_id":"TGS","station_name":"Tigaraksa","i_lat":-6.328533,"is_transit":false,"i_long":106.425991,"line":6,"transit":false,"distance":0,"time":0},{"line":6,"time":5,"distance":2974,"station_name":"Tenjo","i_lat":-6.327251,"i_long":106.460812,"station_id":"TEJ","is_transit":false,"transit":false},{"line":0,"station_name":"Daru","i_lat":-6.338021,"distance":3902,"is_transit":false,"transit":false,"time":5,"station_id":"DAR","i_long":106.491338},{"i_lat":-6.354349,"is_transit":false,"transit":false,"time":6,"distance":2675,"station_name":"Cilejit","i_long":106.508482,"station_id":"CJT","line":3},{"transit":false,"line":6,"distance":7025,"time":9,"i_long":106.568863,"station_id":"PRP","station_name":"Parung Panjang","i_lat":-6.3441410000000005,"is_transit":false},{"station_name":"Cicayur","time":8,"line":3,"is_transit":false,"transit":false,"station_id":"CC","distance":5968,"i_long":106.617853,"i_lat":-6.329547},{"line":3,"distance":2519,"is_transit":false,"i_long":106.640411,"station_id":"CSK","transit":false,"i_lat":-6.32484,"station_name":"Cisauk","time":4},{"i_lat":-6.319871,"i_long":106.66566,"time":4,"distance":1784,"station_name":"Serpong","line":6,"station_id":"SRP","transit":false,"is_transit":false},{"i_lat":-6.314823,"is_transit":false,"line":6,"time":4,"distance":2413,"transit":false,"station_id":"RU","i_long":106.675475,"station_name":"Rawa Buntu"},{"i_lat":-6.296963,"station_id":"SDM","i_long":106.712277,"time":6,"line":6,"station_name":"Sudimara","transit":false,"distance":4566,"is_transit":false},{"time":4,"station_name":"Jurangmangu","distance":1994,"transit":false,"i_lat":-6.288927,"i_long":106.728916,"station_id":"JMU","is_transit":false,"line":6},{"time":3,"is_transit":false,"station_id":"PDJ","i_lat":-6.276362,"station_name":"Pondokranji","distance":2179,"i_long":106.74273,"line":6,"transit":false},{"i_long":106.780334,"time":8,"distance":6218,"is_transit":false,"station_name":"Kebayoran","station_id":"KBY","i_lat":-6.237242,"line":6,"transit":false},{"is_transit":false,"i_lat":-6.207404,"line":6,"time":7,"transit":false,"station_name":"Palmerah","station_id":"PLM","i_long":106.79689,"distance":3737},{"transit":true,"i_long":106.811091,"station_id":"THB","i_lat":-6.185545,"station_name":"Tanah Abang","is_transit":true,"distance":3191,"line":1,"time":6},{"i_long":106.800832,"transit":false,"distance":3632,"station_id":"DU","is_transit":false,"station_name":"Duri","i_lat":-6.155215,"line":1,"time":8},{"distance":1230,"transit":false,"station_name":"Angke","time":4,"i_lat":-6.144674,"station_id":"AK","i_long":106.79867,"line":1,"is_transit":false},{"station_name":"Kampung Bandan","is_transit":true,"station_id":"KPB","line":4,"transit":true,"i_lat":-6.132549,"time":9,"distance":4102,"i_long":106.826365},{"station_id":"JAKK","station_name":"Jakarta Kota","transit":true,"time":3,"is_transit":true,"distance":1364,"i_lat":-6.137569,"i_long":106.812439,"line":2},{"time":4,"is_transit":false,"transit":false,"i_long":106.820901,"station_name":"Jayakarta","i_lat":-6.141205,"station_id":"JAY","line":2,"distance":1264},{"distance":1080,"station_id":"MGB","i_lat":-6.149769,"station_name":"Manggabesar","time":2,"transit":false,"i_long":106.82482,"is_transit":false,"line":2},{"i_lat":-6.160725,"line":2,"transit":false,"station_name":"Sawah Besar","station_id":"SW","is_transit":false,"distance":906,"i_long":106.827103,"time":2},{"i_long":106.828284,"transit":false,"distance":1149,"station_name":"Juanda","is_transit":false,"time":2,"i_lat":-6.166716,"line":2,"station_id":"JUA"},{"i_lat":-6.186295,"transit":false,"is_transit":false,"station_name":"Gondangdia","time":4,"distance":2015,"line":2,"station_id":"GDD","i_long":106.832183},{"i_lat":-6.198556,"i_long":106.840169,"transit":false,"line":2,"station_name":"Cikini","is_transit":false,"time":3,"station_id":"CKI","distance":1750},{"line":2,"distance":1590,"transit":false,"station_id":"MRI","time":4,"is_transit":false,"i_lat":-6.209883,"i_long":106.84912,"station_name":"Manggarai"},{"i_long":106.857948,"station_id":"TEB","time":4,"station_name":"Tebet","transit":false,"line":2,"i_lat":-6.226659,"is_transit":false,"distance":2610},{"i_lat":-6.242512,"station_id":"CW","station_name":"Cawang","is_transit":false,"time":2,"i_long":106.856607,"transit":false,"line":2,"distance":1230},{"station_name":"Duren Kalibata","time":3,"i_lat":-6.255332,"transit":false,"is_transit":false,"station_id":"DRN","distance":1546,"i_long":106.85449,"line":2},{"transit":false,"time":2,"i_lat":-6.263214,"is_transit":false,"station_name":"Pasar Minggu Baru","i_long":106.851577,"distance":824,"station_id":"PSMB","line":2},{"station_name":"Pasar Minggu","i_lat":-6.2842400000000005,"distance":2380,"transit":false,"i_long":106.843999,"is_transit":false,"station_id":"PSM","line":2,"time":2},{"time":4,"distance":2820,"transit":false,"station_id":"TNT","station_name":"Tanjung Barat","line":2,"is_transit":false,"i_lat":-6.3080680000000005,"i_long":106.838896},{"transit":false,"i_long":106.832616,"line":2,"station_id":"LNA","is_transit":false,"distance":2671,"i_lat":-6.330363,"station_name":"Lenteng Agung","time":3},{"transit":false,"time":2,"distance":1029,"line":2,"i_lat":-6.339291,"station_name":"Univ. Pancasila","station_id":"UP","is_transit":false,"i_long":106.834175},{"station_id":"UI","time":3,"is_transit":false,"distance":2264,"transit":false,"i_long":106.831474,"line":2,"station_name":"Univ. Indonesia","i_lat":-6.360749},{"is_transit":false,"time":2,"i_long":106.831114,"line":2,"station_name":"Pondok Cina","i_lat":-6.369073,"distance":1109,"transit":false,"station_id":"POC"},{"station_name":"Depokbaru","station_id":"DPB","transit":false,"is_transit":false,"time":4,"distance":2727,"i_long":106.819451,"line":2,"i_lat":-6.391065},{"station_name":"Depok","station_id":"DP","i_lat":-6.405256,"line":2,"is_transit":false,"time":3,"i_long":106.816926,"transit":false,"distance":1584},{"i_lat":-6.448811,"line":2,"i_long":106.800298,"station_name":"Citayam","station_id":"CTA","time":6,"distance":5084,"transit":true,"is_transit":true},{"transit":false,"station_name":"Pondok Rajeg","distance":0,"line":21,"i_long":106.824374,"i_lat":-6.460735,"station_id":"PDRG","time":0,"is_transit":false}],[{"i_lat":-6.328533,"distance":0,"station_name":"Tigaraksa","station_id":"TGS","i_long":106.425991,"is_transit":false,"line":6,"transit":false,"time":0},{"station_name":"Tenjo","distance":2974,"station_id":"TEJ","time":5,"i_lat":-6.327251,"i_long":106.460812,"is_transit":false,"transit":false,"line":6},{"line":0,"i_lat":-6.338021,"i_long":106.491338,"transit":false,"station_id":"DAR","is_transit":false,"distance":3902,"station_name":"Daru","time":5},{"i_lat":-6.354349,"distance":2675,"station_id":"CJT","transit":false,"time":6,"line":3,"is_transit":false,"i_long":106.508482,"station_name":"Cilejit"},{"station_id":"PRP","is_transit":false,"i_lat":-6.3441410000000005,"time":9,"station_name":"Parung Panjang","i_long":106.568863,"line":6,"transit":false,"distance":7025},{"distance":5968,"i_long":106.617853,"i_lat":-6.329547,"transit":false,"time":8,"station_name":"Cicayur","station_id":"CC","is_transit":false,"line":3},{"station_name":"Cisauk","distance":2519,"i_lat":-6.32484,"is_transit":false,"station_id":"CSK","transit":false,"line":3,"i_long":106.640411,"time":4},{"is_transit":false,"time":4,"i_lat":-6.319871,"i_long":106.66566,"transit":false,"distance":1784,"station_id":"SRP","line":6,"station_name":"Serpong"},{"time":4,"transit":false,"distance":2413,"i_long":106.675475,"station_name":"Rawa Buntu","station_id":"RU","is_transit":false,"i_lat":-6.314823,"line":6},{"station_name":"Sudimara","is_transit":false,"time":6,"station_id":"SDM","i_long":106.712277,"i_lat":-6.296963,"line":6,"distance":4566,"transit":false},{"time":4,"distance":1994,"i_long":106.728916,"station_name":"Jurangmangu","station_id":"JMU","i_lat":-6.288927,"transit":false,"is_transit":false,"line":6},{"is_transit":false,"i_long":106.74273,"station_name":"Pondokranji","line":6,"distance":2179,"transit":false,"time":3,"station_id":"PDJ","i_lat":-6.276362},{"time":8,"is_transit":false,"line":6,"station_name":"Kebayoran","transit":false,"station_id":"KBY","i_lat":-6.237242,"distance":6218,"i_long":106.780334},{"station_id":"PLM","distance":3737,"i_lat":-6.207404,"i_long":106.79689,"time":7,"line":6,"is_transit":false,"station_name":"Palmerah","transit":false},{"i_lat":-6.185545,"transit":true,"i_long":106.811091,"is_transit":true,"station_id":"THB","line":1,"time":6,"station_name":"Tanah Abang","distance":3191},{"is_transit":false,"station_name":"Duri","station_id":"DU","time":8,"i_lat":-6.155215,"transit":false,"distance":3632,"i_long":106.800832,"line":1},{"transit":false,"distance":1230,"station_id":"AK","is_transit":false,"time":4,"i_lat":-6.144674,"line":1,"i_long":106.79867,"station_name":"Angke"},{"i_lat":-6.132549,"station_id":"KPB","is_transit":true,"i_long":106.826365,"station_name":"Kampung Bandan","time":9,"transit":true,"distance":4102,"line":4},{"station_name":"Rajawali","i_lat":-6.14505,"station_id":"RJW","i_long":106.836569,"transit":false,"is_transit":false,"time":3,"distance":1444,"line":11},{"distance":1901,"is_transit":false,"station_id":"KMO","time":5,"line":11,"transit":false,"i_long":106.839204,"station_name":"Kemayoran","i_lat":-6.161728},{"i_long":106.84368,"station_name":"Pasar Senen","time":4,"transit":false,"distance":1436,"i_lat":-6.174784,"line":11,"is_transit":false,"station_id":"PSE"},{"transit":false,"line":11,"station_id":"GST","i_long":106.850107,"distance":1567,"is_transit":false,"station_name":"Gang Sentiong","time":8,"i_lat":-6.185975},{"transit":false,"time":1,"distance":973,"i_lat":-6.193792,"line":11,"i_long":106.855437,"station_name":"Kramat","is_transit":false,"station_id":"KMT"},{"i_long":106.861737,"is_transit":false,"time":2,"transit":false,"station_id":"POK","distance":1829,"i_lat":-6.209188,"line":11,"station_name":"Pondok Jati"},{"i_long":106.86807400000001,"distance":1236,"time":9,"i_lat":-6.215091,"transit":true,"is_transit":true,"line":1,"station_name":"Jatinegara","station_id":"JNG"},{"transit":false,"i_long":106.858896,"distance":1377,"time":2,"i_lat":-6.212485,"line":1,"is_transit":false,"station_name":"Matraman","station_id":"MTR"},{"is_transit":true,"station_name":"Manggarai","time":2,"transit":true,"station_id":"MRI","i_lat":-6.209883,"line":2,"distance":1275,"i_long":106.84912},{"time":4,"i_lat":-6.226659,"i_long":106.857948,"station_id":"TEB","station_name":"Tebet","is_transit":false,"line":2,"transit":false,"distance":2610},{"i_lat":-6.242512,"distance":1230,"line":2,"time":2,"transit":false,"is_transit":false,"station_name":"Cawang","station_id":"CW","i_long":106.856607},{"station_name":"Duren Kalibata","is_transit":false,"transit":false,"station_id":"DRN","i_long":106.85449,"i_lat":-6.255332,"time":3,"distance":1546,"line":2},{"time":2,"distance":824,"is_transit":false,"i_long":106.851577,"station_id":"PSMB","i_lat":-6.263214,"line":2,"transit":false,"station_name":"Pasar Minggu Baru"},{"distance":2380,"station_id":"PSM","is_transit":false,"station_name":"Pasar Minggu","time":2,"transit":false,"i_long":106.843999,"line":2,"i_lat":-6.2842400000000005},{"is_transit":false,"time":4,"line":2,"station_name":"Tanjung Barat","station_id":"TNT","distance":2820,"i_lat":-6.3080680000000005,"transit":false,"i_long":106.838896},{"station_id":"LNA","line":2,"distance":2671,"time":3,"station_name":"Lenteng Agung","transit":false,"is_transit":false,"i_lat":-6.330363,"i_long":106.832616},{"station_id":"UP","station_name":"Univ. Pancasila","i_long":106.834175,"distance":1029,"transit":false,"is_transit":false,"line":2,"time":2,"i_lat":-6.339291},{"transit":false,"line":2,"time":3,"i_long":106.831474,"distance":2264,"station_name":"Univ. Indonesia","is_transit":false,"station_id":"UI","i_lat":-6.360749},{"time":2,"i_long":106.831114,"transit":false,"station_id":"POC","is_transit":false,"distance":1109,"station_name":"Pondok Cina","i_lat":-6.369073,"line":2},{"station_name":"Depokbaru","station_id":"DPB","transit":false,"distance":2727,"is_transit":false,"i_lat":-6.391065,"line":2,"i_long":106.819451,"time":4},{"distance":1584,"i_long":106.816926,"transit":false,"i_lat":-6.405256,"station_name":"Depok","station_id":"DP","line":2,"time":3,"is_transit":false},{"transit":true,"i_long":106.800298,"distance":5084,"station_id":"CTA","time":6,"line":2,"is_transit":true,"station_name":"Citayam","i_lat":-6.448811},{"distance":0,"time":0,"i_lat":-6.460735,"is_transit":false,"line":21,"station_name":"Pondok Rajeg","transit":false,"station_id":"PDRG","i_long":106.824374}]]}