{"data":[[{"time":0,"line":1,"is_transit":false,"station_name":"Tanah Abang","i_long":106.811091,"i_lat":-6.185545,"distance":0,"transit":false,"station_id":"THB"},{"line":1,"transit":false,"station_name":"Karet","time":5,"distance":2029,"i_lat":-6.20132,"is_transit":false,"i_long":106.816351,"station_id":"KAT"},{"line":1,"station_id":"SUDB","distance":471,"time":1,"is_transit":false,"i_lat":-6.201433,"station_name":"Sudirman Baru","transit":false,"i_long":106.819881},{"i_lat":-6.202263,"i_long":106.822649,"is_transit":false,"distance":280,"line":1,"time":1,"station_id":"SUD","transit":false,"station_name":"Sudirman"},{"is_transit":false,"i_lat":-6.209883,"time":4,"line":2,"transit":false,"station_id":"MRI","i_long":106.84912,"station_name":"Manggarai","distance":3186},{"distance":1275,"station_id":"MTR","station_name":"Matraman","i_lat":-6.212485,"is_transit":false,"time":2,"line":1,"i_long":106.858896,"transit":false},{"transit":false,"i_long":106.86807400000001,"station_id":"JNG","i_lat":-6.215091,"distance":1377,"line":1,"is_transit":false,"station_name":"Jatinegara","time":8},{"time":3,"station_name":"Klender","transit":false,"is_transit":false,"i_lat":-6.2135,"i_long":106.899548,"distance":3395,"station_id":"KLD","line":1},{"transit":false,"station_id":"BUA","line":1,"i_lat":-6.215568,"is_transit":false,"station_name":"Buaran","i_long":106.922662,"time":2,"distance":3100}],[{"time":0,"i_long":106.811091,"i_lat":-6.185545,"transit":false,"is_transit":false,"station_id":"THB","distance":0,"station_name":"Tanah Abang","line":1},{"i_lat":-6.155215,"is_transit":false,"distance":3632,"time":8,"station_id":"DU","transit":false,"i_long":106.800832,"line":1,"station_name":"Duri"},{"time":4,"distance":1230,"line":1,"station_id":"AK","i_lat":-6.144674,"is_transit":false,"transit":false,"i_long":106.79867,"station_name":"Angke"},{"line":4,"time":9,"station_name":"Kampung Bandan","distance":4102,"i_lat":-6.132549,"is_transit":true,"i_long":106.826365,"transit":true,"station_id":"KPB"},{"transit":false,"station_name":"Rajawali","line":11,"i_lat":-6.14505,"time":3,"is_transit":false,"i_long":106.836569,"station_id":"RJW","distance":1444},{"distance":1901,"time":5,"is_transit":false,"transit":false,"line":11,"station_name":"Kemayoran","station_id":"KMO","i_long":106.839204,"i_lat":-6.161728},{"time":4,"distance":1436,"is_transit":false,"transit":false,"station_name":"Pasar Senen","station_id":"PSE","i_lat":-6.174784,"line":11,"i_long":106.84368},{"time":8,"is_transit":false,"i_lat":-6.185975,"distance":1567,"station_id":"GST","station_name":"Gang Sentiong","i_long":106.850107,"transit":false,"line":11},{"i_long":106.855437,"distance":973,"station_id":"KMT","i_lat":-6.193792,"line":11,"time":1,"is_transit":false,"station_name":"Kramat","transit":false},{"time":2,"i_lat":-6.209188,"i_long":106.861737,"station_id":"POK","is_transit":false,"station_name":"Pondok Jati","distance":1829,"line":11,"transit":false},{"is_transit":true,"i_long":106.86807400000001,"station_name":"Jatinegara","i_lat":-6.215091,"distance":1236,"time":9,"transit":true,"line":1,"station_id":"JNG"},{"station_name":"Klender","i_long":106.899548,"is_transit":false,"transit":false,"time":3,"i_lat":-6.2135,"line":1,"station_id":"KLD","distance":3395},{"station_name":"Buaran","i_lat":-6.215568,"i_long":106.922662,"distance":3100,"line":1,"transit":false,"time":2,"station_id":"BUA","is_transit":false}],[{"time":0,"station_id":"THB","transit":false,"is_transit":false,"station_name":"Tanah Abang","i_lat":-6.185545,"i_long":106.811091,"line":1,"distance":0},{"line":1,"time":8,"station_id":"DU","station_name":"Duri","transit":false,"distance":3632,"i_lat":-6.155215,"is_transit":false,"i_long":106.800832},{"station_id":"AK","transit":false,"station_name":"Angke","i_long":106.79867,"time":4,"i_lat":-6.144674,"line":1,"is_transit":false,"distance":1230},{"transit":true,"station_id":"KPB","i_lat":-6.132549,"distance":4102,"is_transit":true,"line":4,"time":9,"station_name":"Kampung Bandan","i_long":106.826365},{"is_transit":true,"station_id":"JAKK","transit":true,"line":2,"distance":1364,"i_lat":-6.137569,"time":3,"station_name":"Jakarta Kota","i_long":106.812439},{"station_id":"JAY","station_name":"Jayakarta","i_lat":-6.141205,"time":4,"is_transit":false,"distance":1264,"transit":false,"i_long":106.820901,"line":2},{"time":2,"i_lat":-6.149769,"i_long":106.82482,"line":2,"station_name":"Manggabesar","distance":1080,"station_id":"MGB","is_transit":false,"transit":false},{"is_transit":false,"station_name":"Sawah Besar","station_id":"SW","distance":906,"transit":false,"i_long":106.827103,"i_lat":-6.160725,"time":2,"line":2},{"is_transit":false,"station_id":"JUA","station_name":"Juanda","transit":false,"time":2,"i_lat":-6.166716,"line":2,"distance":1149,"i_long":106.828284},{"station_id":"GDD","distance":2015,"i_lat":-6.186295,"line":2,"station_name":"Gondangdia","is_transit":false,"i_long":106.832183,"transit":false,"time":4},{"i_lat":-6.198556,"distance":1750,"is_transit":false,"station_name":"Cikini","i_long":106.840169,"line":2,"transit":false,"time":3,"station_id":"CKI"},{"i_long":106.84912,"line":2,"distance":1590,"station_id":"MRI","is_transit":true,"transit":true,"time":4,"station_name":"Manggarai","i_lat":-6.209883},{"distance":1275,"transit":false,"line":1,"station_id":"MTR","is_transit":false,"station_name":"Matraman","time":2,"i_long":106.858896,"i_lat":-6.212485},{"time":8,"distance":1377,"transit":false,"station_id":"JNG","line":1,"i_lat":-6.215091,"i_long":106.86807400000001,"is_transit":false,"station_name":"Jatinegara"},{"transit":false,"is_transit":false,"station_id":"KLD","i_lat":-6.2135,"i_long":106.899548,"distance":3395,"time":3,"station_name":"Klender","line":1},{"is_transit":false,"time":2,"transit":false,"i_lat":-6.215568,"i_long":106.922662,"line":1,"distance":3100,"station_id":"BUA","station_name":"Buaran"}],[{"transit":false,"distance":0,"station_id":"THB","i_lat":-6.185545,"is_transit":false,"station_name":"Tanah Abang","time":0,"line":1,"i_long":106.811091},{"is_transit":false,"station_name":"Karet","distance":2029,"time":5,"transit":false,"i_long":106.816351,"line":1,"i_lat":-6.20132,"station_id":"KAT"},{"time":1,"line":1,"transit":false,"i_lat":-6.201433,"is_transit":false,"distance":471,"station_name":"Sudirman Baru","station_id":"SUDB","i_long":106.819881},{"i_long":106.822649,"station_name":"Sudirman","distance":280,"line":1,"is_transit":false,"transit":false,"i_lat":-6.202263,"station_id":"SUD","time":1},{"i_lat":-6.209883,"distance":3186,"station_name":"Manggarai","station_id":"MRI","i_long":106.84912,"line":2,"is_transit":true,"time":4,"transit":true},{"distance":1590,"station_id":"CKI","transit":false,"time":4,"i_lat":-6.198556,"is_transit":false,"station_name":"Cikini","i_long":106.840169,"line":2},{"is_transit":false,"transit":false,"i_lat":-6.186295,"distance":1750,"time":3,"station_id":"GDD","line":2,"i_long":106.832183,"station_name":"Gondangdia"},{"transit":false,"i_long":106.828284,"is_transit":false,"station_id":"JUA","distance":2015,"time":4,"station_name":"Juanda","line":2,"i_lat":-6.166716},{"distance":1149,"is_transit":false,"i_lat":-6.160725,"time":2,"station_id":"SW","transit":false,"station_name":"Sawah Besar","i_long":106.827103,"line":2},{"is_transit":false,"station_id":"MGB","time":2,"transit":false,"distance":906,"line":2,"i_lat":-6.149769,"station_name":"Manggabesar","i_long":106.82482},{"is_transit":false,"i_long":106.820901,"station_id":"JAY","transit":false,"distance":1080,"line":2,"station_name":"Jayakarta","i_lat":-6.141205,"time":2},{"distance":1264,"transit":true,"is_transit":true,"i_lat":-6.137569,"i_long":106.812439,"line":2,"time":4,"station_id":"JAKK","station_name":"Jakarta Kota"},{"time":3,"is_transit":true,"transit":true,"i_long":106.826365,"station_id":"KPB","distance":1364,"line":4,"station_name":"Kampung Bandan","i_lat":-6.132549},{"line":11,"time":3,"distance":1444,"transit":false,"station_name":"Rajawali","station_id":"RJW","i_long":106.836569,"is_transit":false,"i_lat":-6.14505},{"transit":false,"i_lat":-6.161728,"i_long":106.839204,"line":11,"is_transit":false,"station_name":"Kemayoran","station_id":"KMO","time":5,"distance":1901},{"is_transit":false,"time":4,"i_lat":-6.174784,"transit":false,"line":11,"station_id":"PSE","i_long":106.84368,"station_name":"Pasar Senen","distance":1436},{"station_id":"GST","i_lat":-6.185975,"transit":false,"distance":1567,"is_transit":false,"station_name":"Gang Sentiong","i_long":106.850107,"line":11,"time":8},{"station_id":"KMT","i_long":106.855437,"time":1,"station_name":"Kramat","distance":973,"transit":false,"i_lat":-6.193792,"is_transit":false,"line":11},{"station_name":"Pondok Jati","line":11,"i_lat":-6.209188,"time":2,"distance":1829,"i_long":106.861737,"station_id":"POK","is_transit":false,"transit":false},{"distance":1236,"line":1,"station_name":"Jatinegara","time":9,"transit":true,"is_transit":true,"i_lat":-6.215091,"i_long":106.86807400000001,"station_id":"JNG"},{"station_name":"Klender","station_id":"KLD","time":3,"distance":3395,"transit":false,"line":1,"i_lat":-6.2135,"i_long":106.899548,"is_transit":false},{"station_id":"BUA","time":2,"transit":false,"distance":3100,"line":1,"is_transit":false,"i_long":106.922662,"i_lat":-6.215568,"station_name":"Buaran"}]]}