{"data":[[{"i_long":106.811091,"transit":false,"station_id":"THB","station_name":"Tanah Abang","distance":0,"is_transit":false,"line":1,"i_lat":-6.185545,"time":0},{"is_transit":false,"station_id":"KAT","transit":false,"time":5,"i_lat":-6.20132,"i_long":106.816351,"distance":2029,"line":1,"station_name":"Karet"},{"station_name":"Sudirman Baru","is_transit":false,"i_long":106.819881,"transit":false,"time":1,"line":1,"distance":471,"i_lat":-6.201433,"station_id":"SUDB"},{"transit":false,"distance":280,"is_transit":false,"time":1,"line":1,"station_id":"SUD","station_name":"Sudirman","i_long":106.822649,"i_lat":-6.202263},{"station_id":"MRI","station_name":"Manggarai","time":4,"i_lat":-6.209883,"transit":true,"is_transit":true,"distance":3186,"i_long":106.84912,"line":2},{"line":2,"time":4,"i_lat":-6.226659,"is_transit":false,"distance":2610,"i_long":106.857948,"transit":false,"station_name":"Tebet","station_id":"TEB"},{"i_lat":-6.242512,"distance":1230,"i_long":106.856607,"time":2,"line":2,"is_transit":false,"transit":false,"station_name":"Cawang","station_id":"CW"},{"station_name":"Duren Kalibata","time":3,"distance":1546,"line":2,"i_lat":-6.255332,"transit":false,"station_id":"DRN","is_transit":false,"i_long":106.85449},{"distance":824,"station_name":"Pasar Minggu Baru","line":2,"i_lat":-6.263214,"transit":false,"is_transit":false,"i_long":106.851577,"time":2,"station_id":"PSMB"},{"i_long":106.843999,"line":2,"distance":2380,"station_id":"PSM","time":2,"i_lat":-6.2842400000000005,"transit":false,"station_name":"Pasar Minggu","is_transit":false},{"station_id":"TNT","distance":2820,"i_lat":-6.3080680000000005,"transit":false,"time":4,"is_transit":false,"line":2,"i_long":106.838896,"station_name":"Tanjung Barat"},{"i_lat":-6.330363,"time":3,"distance":2671,"line":2,"station_id":"LNA","i_long":106.832616,"is_transit":false,"transit":false,"station_name":"Lenteng Agung"},{"station_name":"Univ. Pancasila","i_lat":-6.339291,"distance":1029,"time":2,"transit":false,"i_long":106.834175,"station_id":"UP","line":2,"is_transit":false},{"distance":2264,"line":2,"station_name":"Univ. Indonesia","transit":false,"station_id":"UI","i_long":106.831474,"i_lat":-6.360749,"time":3,"is_transit":false},{"station_id":"POC","i_long":106.831114,"time":2,"transit":false,"i_lat":-6.369073,"is_transit":false,"distance":1109,"line":2,"station_name":"Pondok Cina"},{"transit":false,"time":4,"line":2,"i_lat":-6.391065,"station_name":"Depokbaru","distance":2727,"i_long":106.819451,"is_transit":false,"station_id":"DPB"}],[{"transit":false,"i_lat":-6.185545,"station_name":"Tanah Abang","line":1,"is_transit":false,"i_long":106.811091,"distance":0,"station_id":"THB","time":0},{"line":1,"i_long":106.800832,"i_lat":-6.155215,"station_id":"DU","distance":3632,"is_transit":false,"time":8,"station_name":"Duri","transit":false},{"time":4,"line":1,"station_name":"Angke","i_lat":-6.144674,"transit":false,"station_id":"AK","is_transit":false,"i_long":106.79867,"distance":1230},{"transit":true,"distance":4102,"i_lat":-6.132549,"line":4,"station_id":"KPB","i_long":106.826365,"is_transit":true,"station_name":"Kampung Bandan","time":9},{"is_transit":true,"i_lat":-6.137569,"transit":true,"station_id":"JAKK","time":3,"line":2,"distance":1364,"i_long":106.812439,"station_name":"Jakarta Kota"},{"station_id":"JAY","transit":false,"station_name":"Jayakarta","is_transit":false,"distance":1264,"i_lat":-6.141205,"time":4,"i_long":106.820901,"line":2},{"i_lat":-6.149769,"station_id":"MGB","time":2,"distance":1080,"line":2,"i_long":106.82482,"transit":false,"station_name":"Manggabesar","is_transit":false},{"i_lat":-6.160725,"i_long":106.827103,"is_transit":false,"station_name":"Sawah Besar","time":2,"distance":906,"line":2,"transit":false,"station_id":"SW"},{"station_name":"Juanda","distance":1149,"i_lat":-6.166716,"i_long":106.828284,"transit":false,"is_transit":false,"time":2,"line":2,"station_id":"JUA"},{"distance":2015,"transit":false,"i_lat":-6.186295,"station_id":"GDD","station_name":"Gondangdia","is_transit":false,"time":4,"line":2,"i_long":106.832183},{"i_lat":-6.198556,"is_transit":false,"station_id":"CKI","station_name":"Cikini","time":3,"transit":false,"distance":1750,"line":2,"i_long":106.840169},{"distance":1590,"i_lat":-6.209883,"line":2,"transit":false,"station_id":"MRI","i_long":106.84912,"time":4,"station_name":"Manggarai","is_transit":false},{"station_name":"Tebet","i_long":106.857948,"distance":2610,"time":4,"is_transit":false,"station_id":"TEB","line":2,"i_lat":-6.226659,"transit":false},{"time":2,"is_transit":false,"i_long":106.856607,"line":2,"transit":false,"distance":1230,"station_name":"Cawang","station_id":"CW","i_lat":-6.242512},{"distance":1546,"i_lat":-6.255332,"i_long":106.85449,"station_id":"DRN","is_transit":false,"line":2,"station_name":"Duren Kalibata","transit":false,"time":3},{"distance":824,"station_id":"PSMB","transit":false,"i_lat":-6.263214,"i_long":106.851577,"is_transit":false,"station_name":"Pasar Minggu Baru","time":2,"line":2},{"station_name":"Pasar Minggu","transit":false,"time":2,"i_lat":-6.2842400000000005,"distance":2380,"line":2,"station_id":"PSM","i_long":106.843999,"is_transit":false},{"i_lat":-6.3080680000000005,"line":2,"i_long":106.838896,"station_name":"Tanjung Barat","station_id":"TNT","time":4,"distance":2820,"transit":false,"is_transit":false},{"transit":false,"station_name":"Lenteng Agung","distance":2671,"line":2,"i_long":106.832616,"i_lat":-6.330363,"station_id":"LNA","time":3,"is_transit":false},{"i_lat":-6.339291,"distance":1029,"station_name":"Univ. Pancasila","station_id":"UP","i_long":106.834175,"is_transit":false,"line":2,"transit":false,"time":2},{"station_name":"Univ. Indonesia","distance":2264,"station_id":"UI","time":3,"i_lat":-6.360749,"i_long":106.831474,"is_transit":false,"transit":false,"line":2},{"line":2,"i_lat":-6.369073,"i_long":106.831114,"transit":false,"station_id":"POC","is_transit":false,"distance":1109,"station_name":"Pondok Cina","time":2},{"i_lat":-6.391065,"distance":2727,"station_id":"DPB","transit":false,"time":4,"line":2,"is_transit":false,"i_long":106.819451,"station_name":"Depokbaru"}],[{"station_id":"THB","is_transit":false,"i_lat":-6.185545,"time":0,"station_name":"Tanah Abang","i_long":106.811091,"line":1,"transit":false,"distance":0},{"distance":3632,"i_long":106.800832,"i_lat":-6.155215,"transit":false,"time":8,"station_name":"Duri","station_id":"DU","is_transit":false,"line":1},{"station_name":"Angke","distance":1230,"i_lat":-6.144674,"is_transit":false,"station_id":"AK","transit":false,"line":1,"i_long":106.79867,"time":4},{"is_transit":true,"time":9,"i_lat":-6.132549,"i_long":106.826365,"transit":true,"distance":4102,"station_id":"KPB","line":4,"station_name":"Kampung Bandan"},{"time":3,"transit":false,"distance":1444,"i_long":106.836569,"station_name":"Rajawali","station_id":"RJW","is_transit":false,"i_lat":-6.14505,"line":11},{"station_name":"Kemayoran","is_transit":false,"time":5,"station_id":"KMO","i_long":106.839204,"i_lat":-6.161728,"line":11,"distance":1901,"transit":false},{"time":4,"distance":1436,"i_long":106.84368,"station_name":"Pasar Senen","station_id":"PSE","i_lat":-6.174784,"transit":false,"is_transit":false,"line":11},{"is_transit":false,"i_long":106.850107,"station_name":"Gang Sentiong","line":11,"distance":1567,"transit":false,"time":8,"station_id":"GST","i_lat":-6.185975},{"time":1,"is_transit":false,"line":11,"station_name":"Kramat","transit":false,"station_id":"KMT","i_lat":-6.193792,"distance":973,"i_long":106.855437},{"station_id":"POK","distance":1829,"i_lat":-6.209188,"i_long":106.861737,"time":2,"line":11,"is_transit":false,"station_name":"Pondok Jati","transit":false},{"i_lat":-6.215091,"transit":true,"i_long":106.86807400000001,"is_transit":true,"station_id":"JNG","line":1,"time":9,"station_name":"Jatinegara","distance":1236},{"is_transit":false,"station_name":"Matraman","station_id":"MTR","time":2,"i_lat":-6.212485,"transit":false,"distance":1377,"i_long":106.858896,"line":1},{"transit":true,"distance":1275,"station_id":"MRI","is_transit":true,"time":2,"i_lat":-6.209883,"line":2,"i_long":106.84912,"station_name":"Manggarai"},{"i_lat":-6.226659,"station_id":"TEB","is_transit":false,"i_long":106.857948,"station_name":"Tebet","time":4,"transit":false,"distance":2610,"line":2},{"station_name":"Cawang","i_lat":-6.242512,"station_id":"CW","i_long":106.856607,"transit":false,"is_transit":false,"time":2,"distance":1230,"line":2},{"distance":1546,"is_transit":false,"station_id":"DRN","time":3,"line":2,"transit":false,"i_long":106.85449,"station_name":"Duren Kalibata","i_lat":-6.255332},{"i_long":106.851577,"station_name":"Pasar Minggu Baru","time":2,"transit":false,"distance":824,"i_lat":-6.263214,"line":2,"is_transit":false,"station_id":"PSMB"},{"is_transit":false,"i_lat":-6.2842400000000005,"i_long":106.843999,"station_name":"Pasar Minggu","transit":false,"station_id":"PSM","line":2,"distance":2380,"time":2},{"is_transit":false,"i_lat":-6.3080680000000005,"station_name":"Tanjung Barat","line":2,"transit":false,"station_id":"TNT","distance":2820,"i_long":106.838896,"time":4},{"station_name":"Lenteng Agung","is_transit":false,"i_lat":-6.330363,"station_id":"LNA","distance":2671,"i_long":106.832616,"transit":false,"line":2,"time":3},{"is_transit":false,"transit":false,"i_long":106.834175,"line":2,"station_id":"UP","distance":1029,"i_lat":-6.339291,"time":2,"station_name":"Univ. Pancasila"},{"transit":false,"is_transit":false,"station_name":"Univ. Indonesia","distance":2264,"i_lat":-6.360749,"station_id":"UI","time":3,"i_long":106.831474,"line":2},{"time":2,"station_name":"Pondok Cina","i_lat":-6.369073,"transit":false,"is_transit":false,"distance":1109,"station_id":"POC","line":2,"i_long":106.831114},{"transit":false,"distance":2727,"time":4,"station_id":"DPB","station_name":"Depokbaru","line":2,"i_lat":-6.391065,"i_long":106.819451,"is_transit":false}]]}