{"data":[[{"station_name":"Tanah Abang","is_transit":false,"transit":false,"i_long":106.811091,"distance":0,"time":0,"i_lat":-6.185545,"station_id":"THB","line":1},{"time":5,"is_transit":false,"station_name":"Karet","distance":2029,"line":1,"station_id":"KAT","i_long":106.816351,"transit":false,"i_lat":-6.20132},{"line":1,"station_id":"SUDB","distance":471,"transit":false,"time":1,"i_long":106.819881,"station_name":"Sudirman Baru","i_lat":-6.201433,"is_transit":false},{"station_id":"SUD","line":1,"i_long":106.822649,"time":1,"station_name":"Sudirman","distance":280,"transit":false,"i_lat":-6.202263,"is_transit":false},{"line":2,"is_transit":false,"time":4,"transit":false,"distance":3186,"i_lat":-6.209883,"station_id":"MRI","station_name":"Manggarai","i_long":106.84912},{"line":1,"station_name":"Matraman","distance":1275,"time":2,"is_transit":false,"transit":false,"station_id":"MTR","i_lat":-6.212485,"i_long":106.858896},{"station_id":"JNG","i_long":106.86807400000001,"line":1,"is_transit":false,"time":8,"station_name":"Jatinegara","i_lat":-6.215091,"transit":false,"distance":1377}],[{"time":0,"station_name":"Tanah Abang","line":1,"transit":false,"distance":0,"station_id":"THB","i_long":106.811091,"is_transit":false,"i_lat":-6.185545},{"is_transit":false,"time":8,"i_long":106.800832,"station_id":"DU","transit":false,"station_name":"Duri","i_lat":-6.155215,"distance":3632,"line":1},{"distance":1230,"station_id":"AK","line":1,"is_transit":false,"i_lat":-6.144674,"time":4,"transit":false,"i_long":106.79867,"station_name":"Angke"},{"i_lat":-6.132549,"distance":4102,"i_long":106.826365,"time":9,"station_id":"KPB","transit":true,"station_name":"Kampung Bandan","is_transit":true,"line":4},{"line":11,"is_transit":false,"station_id":"RJW","station_name":"Rajawali","distance":1444,"i_lat":-6.14505,"time":3,"transit":false,"i_long":106.836569},{"is_transit":false,"i_long":106.839204,"station_id":"KMO","transit":false,"i_lat":-6.161728,"distance":1901,"time":5,"station_name":"Kemayoran","line":11},{"station_name":"Pasar Senen","transit":false,"line":11,"i_lat":-6.174784,"station_id":"PSE","time":4,"i_long":106.84368,"is_transit":false,"distance":1436},{"is_transit":false,"transit":false,"i_lat":-6.185975,"time":8,"line":11,"i_long":106.850107,"station_name":"Gang Sentiong","station_id":"GST","distance":1567},{"transit":false,"distance":973,"line":11,"i_long":106.855437,"time":1,"station_name":"Kramat","i_lat":-6.193792,"is_transit":false,"station_id":"KMT"},{"station_id":"POK","station_name":"Pondok Jati","distance":1829,"time":2,"is_transit":false,"i_long":106.861737,"transit":false,"i_lat":-6.209188,"line":11},{"distance":1236,"station_name":"Jatinegara","i_lat":-6.215091,"station_id":"JNG","transit":false,"time":9,"i_long":106.86807400000001,"line":1,"is_transit":false}],[{"transit":false,"i_lat":-6.185545,"time":0,"i_long":106.811091,"is_transit":false,"distance":0,"station_id":"THB","station_name":"Tanah Abang","line":1},{"distance":3632,"transit":false,"station_name":"Duri","line":1,"time":8,"is_transit":false,"i_lat":-6.155215,"i_long":106.800832,"station_id":"DU"},{"i_long":106.79867,"time":4,"station_name":"Angke","i_lat":-6.144674,"is_transit":false,"station_id":"AK","transit":false,"line":1,"distance":1230},{"distance":4102,"i_long":106.826365,"time":9,"line":4,"station_name":"Kampung Bandan","is_transit":true,"transit":true,"station_id":"KPB","i_lat":-6.132549},{"i_long":106.812439,"is_transit":true,"station_name":"Jakarta Kota","time":3,"i_lat":-6.137569,"distance":1364,"line":2,"transit":true,"station_id":"JAKK"},{"transit":false,"station_id":"JAY","time":4,"is_transit":false,"i_long":106.820901,"i_lat":-6.141205,"line":2,"distance":1264,"station_name":"Jayakarta"},{"station_name":"Manggabesar","i_long":106.82482,"i_lat":-6.149769,"line":2,"is_transit":false,"station_id":"MGB","distance":1080,"transit":false,"time":2},{"station_name":"Sawah Besar","line":2,"time":2,"is_transit":false,"station_id":"SW","i_lat":-6.160725,"i_long":106.827103,"distance":906,"transit":false},{"time":2,"station_id":"JUA","is_transit":false,"station_name":"Juanda","line":2,"i_lat":-6.166716,"distance":1149,"transit":false,"i_long":106.828284},{"station_name":"Gondangdia","i_lat":-6.186295,"line":2,"transit":false,"is_transit":false,"i_long":106.832183,"station_id":"GDD","distance":2015,"time":4},{"station_id":"CKI","transit":false,"distance":1750,"is_transit":false,"time":3,"i_lat":-6.198556,"line":2,"station_name":"Cikini","i_long":106.840169},{"distance":1590,"i_long":106.84912,"station_name":"Manggarai","line":2,"station_id":"MRI","time":4,"i_lat":-6.209883,"transit":true,"is_transit":true},{"i_lat":-6.212485,"time":2,"transit":false,"i_long":106.858896,"station_name":"Matraman","line":1,"distance":1275,"station_id":"MTR","is_transit":false},{"is_transit":false,"distance":1377,"time":8,"transit":false,"station_name":"Jatinegara","station_id":"JNG","i_lat":-6.215091,"i_long":106.86807400000001,"line":1}],[{"line":1,"distance":0,"time":0,"is_transit":false,"i_lat":-6.185545,"station_name":"Tanah Abang","i_long":106.811091,"station_id":"THB","transit":false},{"i_lat":-6.20132,"station_name":"Karet","i_long":106.816351,"is_transit":false,"line":1,"distance":2029,"time":5,"transit":false,"station_id":"KAT"},{"is_transit":false,"i_lat":-6.201433,"station_name":"Sudirman Baru","station_id":"SUDB","i_long":106.819881,"transit":false,"time":1,"line":1,"distance":471},{"station_id":"SUD","is_transit":false,"i_long":106.822649,"i_lat":-6.202263,"time":1,"transit":false,"line":1,"distance":280,"station_name":"Sudirman"},{"time":4,"station_id":"MRI","distance":3186,"station_name":"Manggarai","is_transit":true,"transit":true,"line":2,"i_long":106.84912,"i_lat":-6.209883},{"line":2,"distance":1590,"transit":false,"i_long":106.840169,"is_transit":false,"station_name":"Cikini","station_id":"CKI","i_lat":-6.198556,"time":4},{"line":2,"i_long":106.832183,"distance":1750,"transit":false,"is_transit":false,"time":3,"station_name":"Gondangdia","i_lat":-6.186295,"station_id":"GDD"},{"time":4,"line":2,"i_lat":-6.166716,"station_name":"Juanda","is_transit":false,"i_long":106.828284,"distance":2015,"transit":false,"station_id":"JUA"},{"i_long":106.827103,"time":2,"transit":false,"i_lat":-6.160725,"station_id":"SW","is_transit":false,"line":2,"distance":1149,"station_name":"Sawah Besar"},{"distance":906,"time":2,"transit":false,"i_lat":-6.149769,"is_transit":false,"station_name":"Manggabesar","i_long":106.82482,"station_id":"MGB","line":2},{"is_transit":false,"station_id":"JAY","station_name":"Jayakarta","transit":false,"i_lat":-6.141205,"distance":1080,"line":2,"i_long":106.820901,"time":2},{"transit":true,"line":2,"station_name":"Jakarta Kota","station_id":"JAKK","time":4,"i_long":106.812439,"distance":1264,"is_transit":true,"i_lat":-6.137569},{"station_name":"Kampung Bandan","distance":1364,"i_lat":-6.132549,"i_long":106.826365,"is_transit":true,"transit":true,"line":4,"station_id":"KPB","time":3},{"is_transit":false,"distance":1444,"transit":false,"i_long":106.836569,"line":11,"station_name":"Rajawali","i_lat":-6.14505,"station_id":"RJW","time":3},{"i_lat":-6.161728,"time":5,"i_long":106.839204,"is_transit":false,"distance":1901,"station_name":"Kemayoran","transit":false,"line":11,"station_id":"KMO"},{"station_id":"PSE","station_name":"Pasar Senen","is_transit":false,"i_long":106.84368,"time":4,"transit":false,"line":11,"distance":1436,"i_lat":-6.174784},{"i_long":106.850107,"transit":false,"is_transit":false,"i_lat":-6.185975,"station_name":"Gang Sentiong","time":8,"distance":1567,"station_id":"GST","line":11},{"distance":973,"time":1,"i_long":106.855437,"transit":false,"i_lat":-6.193792,"is_transit":false,"line":11,"station_name":"Kramat","station_id":"KMT"},{"i_long":106.861737,"i_lat":-6.209188,"station_id":"POK","transit":false,"station_name":"Pondok Jati","is_transit":false,"line":11,"distance":1829,"time":2},{"time":9,"station_id":"JNG","distance":1236,"transit":false,"i_lat":-6.215091,"station_name":"Jatinegara","i_long":106.86807400000001,"line":1,"is_transit":false}]]}