{"data":[[{"i_long":106.811091,"transit":false,"station_name":"Tanah Abang","time":0,"i_lat":-6.185545,"line":1,"distance":0,"station_id":"THB","is_transit":false},{"time":6,"i_long":106.79689,"station_name":"Palmerah","transit":false,"distance":3191,"is_transit":false,"i_lat":-6.207404,"line":6,"station_id":"PLM"},{"is_transit":false,"i_lat":-6.237242,"time":7,"station_id":"KBY","i_long":106.780334,"line":6,"station_name":"Kebayoran","distance":3737,"transit":false},{"distance":6218,"station_name":"Pondokranji","i_lat":-6.276362,"transit":false,"is_transit":false,"time":8,"line":6,"station_id":"PDJ","i_long":106.74273},{"station_name":"Jurangmangu","is_transit":false,"station_id":"JMU","time":3,"distance":2179,"i_lat":-6.288927,"i_long":106.728916,"line":6,"transit":false}]]}