{"data":[[{"line":1,"distance":0,"time":0,"i_long":106.811091,"is_transit":false,"station_name":"Tanah Abang","transit":false,"station_id":"THB","i_lat":-6.185545},{"time":6,"i_lat":-6.207404,"station_name":"Palmerah","distance":3191,"i_long":106.79689,"station_id":"PLM","is_transit":false,"line":6,"transit":false},{"i_long":106.780334,"distance":3737,"station_id":"KBY","station_name":"Kebayoran","is_transit":false,"line":6,"time":7,"transit":false,"i_lat":-6.237242},{"time":8,"is_transit":false,"i_lat":-6.276362,"station_name":"Pondokranji","station_id":"PDJ","i_long":106.74273,"distance":6218,"transit":false,"line":6},{"station_id":"JMU","is_transit":false,"i_lat":-6.288927,"i_long":106.728916,"distance":2179,"transit":false,"station_name":"Jurangmangu","time":3,"line":6},{"transit":false,"distance":1994,"is_transit":false,"i_long":106.712277,"line":6,"i_lat":-6.296963,"station_name":"Sudimara","station_id":"SDM","time":4},{"i_long":106.675475,"station_name":"Rawa Buntu","time":6,"transit":false,"station_id":"RU","distance":4566,"is_transit":false,"line":6,"i_lat":-6.314823},{"i_lat":-6.319871,"station_id":"SRP","is_transit":false,"distance":2413,"i_long":106.66566,"station_name":"Serpong","transit":false,"time":4,"line":6},{"time":4,"i_lat":-6.32484,"transit":false,"station_name":"Cisauk","station_id":"CSK","is_transit":false,"distance":1784,"i_long":106.640411,"line":3},{"distance":2519,"transit":false,"time":4,"station_id":"CC","is_transit":false,"station_name":"Cicayur","line":3,"i_lat":-6.329547,"i_long":106.617853},{"time":8,"line":6,"station_name":"Parung Panjang","is_transit":false,"distance":5968,"i_lat":-6.3441410000000005,"transit":false,"i_long":106.568863,"station_id":"PRP"},{"station_name":"Cilejit","station_id":"CJT","distance":7025,"transit":false,"line":3,"is_transit":false,"time":9,"i_long":106.508482,"i_lat":-6.354349},{"i_lat":-6.338021,"station_name":"Daru","time":6,"distance":2675,"is_transit":false,"i_long":106.491338,"line":0,"transit":false,"station_id":"DAR"},{"station_id":"TEJ","station_name":"Tenjo","time":5,"i_lat":-6.327251,"i_long":106.460812,"line":6,"is_transit":false,"distance":3902,"transit":false},{"i_lat":-6.328533,"i_long":106.425991,"station_id":"TGS","line":6,"is_transit":false,"station_name":"Tigaraksa","transit":false,"time":5,"distance":2974},{"distance":2651,"is_transit":false,"i_lat":-6.33561,"station_id":"CKY","line":3,"transit":false,"station_name":"Cikoya","time":3,"i_long":106.411216},{"station_id":"MJ","is_transit":false,"station_name":"Maja","time":4,"distance":1853,"transit":false,"i_lat":-6.332307,"i_long":106.394373,"line":6},{"line":3,"station_name":"Citeras","i_long":106.332092,"time":10,"distance":7293,"i_lat":-6.334892,"transit":false,"station_id":"CTR","is_transit":false}]]}