{"data":[[{"line":1,"station_name":"Tanah Abang","i_long":106.811091,"time":0,"i_lat":-6.185545,"transit":false,"station_id":"THB","is_transit":false,"distance":0},{"i_long":106.816351,"station_id":"KAT","transit":false,"is_transit":false,"station_name":"Karet","distance":2029,"i_lat":-6.20132,"line":1,"time":5},{"line":1,"time":1,"i_lat":-6.201433,"transit":false,"distance":471,"i_long":106.819881,"is_transit":false,"station_name":"Sudirman Baru","station_id":"SUDB"},{"station_name":"Sudirman","distance":280,"station_id":"SUD","time":1,"line":1,"transit":false,"is_transit":false,"i_lat":-6.202263,"i_long":106.822649},{"distance":3186,"time":4,"transit":true,"station_id":"MRI","i_long":106.84912,"is_transit":true,"i_lat":-6.209883,"line":2,"station_name":"Manggarai"},{"is_transit":false,"station_name":"Tebet","station_id":"TEB","transit":false,"i_lat":-6.226659,"i_long":106.857948,"time":4,"distance":2610,"line":2},{"i_long":106.856607,"transit":false,"distance":1230,"time":2,"is_transit":false,"line":2,"i_lat":-6.242512,"station_id":"CW","station_name":"Cawang"},{"i_long":106.85449,"station_id":"DRN","time":3,"station_name":"Duren Kalibata","line":2,"is_transit":false,"distance":1546,"i_lat":-6.255332,"transit":false},{"time":2,"station_name":"Pasar Minggu Baru","station_id":"PSMB","distance":824,"line":2,"transit":false,"i_lat":-6.263214,"i_long":106.851577,"is_transit":false},{"is_transit":false,"line":2,"station_id":"PSM","time":2,"i_lat":-6.2842400000000005,"transit":false,"i_long":106.843999,"distance":2380,"station_name":"Pasar Minggu"},{"station_id":"TNT","distance":2820,"i_lat":-6.3080680000000005,"i_long":106.838896,"line":2,"transit":false,"station_name":"Tanjung Barat","time":4,"is_transit":false},{"i_long":106.832616,"is_transit":false,"transit":false,"station_name":"Lenteng Agung","i_lat":-6.330363,"distance":2671,"station_id":"LNA","line":2,"time":3},{"is_transit":false,"i_long":106.834175,"line":2,"time":2,"station_name":"Univ. Pancasila","distance":1029,"transit":false,"station_id":"UP","i_lat":-6.339291},{"time":3,"line":2,"is_transit":false,"station_name":"Univ. Indonesia","i_lat":-6.360749,"i_long":106.831474,"distance":2264,"transit":false,"station_id":"UI"},{"i_long":106.831114,"distance":1109,"transit":false,"line":2,"station_name":"Pondok Cina","station_id":"POC","is_transit":false,"i_lat":-6.369073,"time":2},{"distance":2727,"line":2,"transit":false,"station_name":"Depokbaru","i_lat":-6.391065,"i_long":106.819451,"time":4,"is_transit":false,"station_id":"DPB"},{"station_id":"DP","transit":false,"line":2,"i_long":106.816926,"distance":1584,"is_transit":false,"i_lat":-6.405256,"time":3,"station_name":"Depok"},{"time":6,"distance":5084,"i_lat":-6.448811,"transit":false,"station_id":"CTA","line":2,"station_name":"Citayam","i_long":106.800298,"is_transit":false},{"i_lat":-6.493243,"station_name":"Bojonggede","station_id":"BJD","time":5,"distance":5197,"i_long":106.792719,"line":2,"is_transit":false,"transit":false},{"transit":false,"i_long":106.800016,"time":5,"is_transit":false,"i_lat":-6.530544,"station_name":"Cilebut","station_id":"CLT","distance":4331,"line":2},{"i_lat":-6.594596,"station_id":"BOO","time":9,"distance":7514,"is_transit":false,"transit":false,"i_long":106.790574,"station_name":"Bogor","line":2}],[{"is_transit":false,"distance":0,"time":0,"i_long":106.811091,"transit":false,"line":1,"station_id":"THB","station_name":"Tanah Abang","i_lat":-6.185545},{"distance":3632,"station_name":"Duri","station_id":"DU","line":1,"is_transit":false,"i_lat":-6.155215,"i_long":106.800832,"transit":false,"time":8},{"is_transit":false,"station_id":"AK","time":4,"station_name":"Angke","distance":1230,"transit":false,"i_lat":-6.144674,"line":1,"i_long":106.79867},{"transit":true,"line":4,"is_transit":true,"i_long":106.826365,"distance":4102,"i_lat":-6.132549,"time":9,"station_id":"KPB","station_name":"Kampung Bandan"},{"station_name":"Jakarta Kota","time":3,"i_long":106.812439,"transit":true,"i_lat":-6.137569,"station_id":"JAKK","line":2,"is_transit":true,"distance":1364},{"distance":1264,"station_name":"Jayakarta","transit":false,"time":4,"i_lat":-6.141205,"i_long":106.820901,"line":2,"station_id":"JAY","is_transit":false},{"transit":false,"line":2,"i_lat":-6.149769,"i_long":106.82482,"time":2,"station_name":"Manggabesar","distance":1080,"station_id":"MGB","is_transit":false},{"i_long":106.827103,"transit":false,"time":2,"i_lat":-6.160725,"station_name":"Sawah Besar","is_transit":false,"station_id":"SW","distance":906,"line":2},{"transit":false,"is_transit":false,"distance":1149,"line":2,"station_id":"JUA","i_lat":-6.166716,"time":2,"station_name":"Juanda","i_long":106.828284},{"is_transit":false,"transit":false,"i_lat":-6.186295,"station_id":"GDD","distance":2015,"i_long":106.832183,"time":4,"line":2,"station_name":"Gondangdia"},{"is_transit":false,"i_lat":-6.198556,"time":3,"i_long":106.840169,"distance":1750,"line":2,"transit":false,"station_name":"Cikini","station_id":"CKI"},{"is_transit":false,"distance":1590,"i_lat":-6.209883,"i_long":106.84912,"line":2,"transit":false,"station_id":"MRI","station_name":"Manggarai","time":4},{"time":4,"i_long":106.857948,"station_id":"TEB","distance":2610,"is_transit":false,"i_lat":-6.226659,"line":2,"station_name":"Tebet","transit":false},{"line":2,"station_name":"Cawang","distance":1230,"transit":false,"station_id":"CW","is_transit":false,"time":2,"i_lat":-6.242512,"i_long":106.856607},{"i_long":106.85449,"time":3,"station_name":"Duren Kalibata","station_id":"DRN","is_transit":false,"transit":false,"distance":1546,"i_lat":-6.255332,"line":2},{"is_transit":false,"station_name":"Pasar Minggu Baru","station_id":"PSMB","time":2,"distance":824,"i_lat":-6.263214,"transit":false,"i_long":106.851577,"line":2},{"i_lat":-6.2842400000000005,"i_long":106.843999,"line":2,"transit":false,"is_transit":false,"station_id":"PSM","station_name":"Pasar Minggu","distance":2380,"time":2},{"is_transit":false,"station_id":"TNT","distance":2820,"transit":false,"time":4,"i_long":106.838896,"station_name":"Tanjung Barat","i_lat":-6.3080680000000005,"line":2},{"station_name":"Lenteng Agung","time":3,"distance":2671,"line":2,"transit":false,"i_long":106.832616,"station_id":"LNA","is_transit":false,"i_lat":-6.330363},{"transit":false,"i_lat":-6.339291,"line":2,"distance":1029,"station_id":"UP","station_name":"Univ. Pancasila","i_long":106.834175,"is_transit":false,"time":2},{"line":2,"time":3,"transit":false,"station_name":"Univ. Indonesia","i_lat":-6.360749,"distance":2264,"is_transit":false,"station_id":"UI","i_long":106.831474},{"i_long":106.831114,"transit":false,"is_transit":false,"station_name":"Pondok Cina","time":2,"distance":1109,"i_lat":-6.369073,"line":2,"station_id":"POC"},{"line":2,"distance":2727,"is_transit":false,"time":4,"station_name":"Depokbaru","station_id":"DPB","i_lat":-6.391065,"i_long":106.819451,"transit":false},{"is_transit":false,"i_long":106.816926,"station_id":"DP","station_name":"Depok","distance":1584,"time":3,"i_lat":-6.405256,"transit":false,"line":2},{"station_id":"CTA","transit":false,"station_name":"Citayam","i_long":106.800298,"is_transit":false,"time":6,"line":2,"distance":5084,"i_lat":-6.448811},{"distance":5197,"station_name":"Bojonggede","time":5,"station_id":"BJD","is_transit":false,"i_long":106.792719,"transit":false,"i_lat":-6.493243,"line":2},{"transit":false,"station_name":"Cilebut","distance":4331,"is_transit":false,"line":2,"station_id":"CLT","time":5,"i_lat":-6.530544,"i_long":106.800016},{"time":9,"transit":false,"distance":7514,"i_lat":-6.594596,"station_name":"Bogor","line":2,"is_transit":false,"i_long":106.790574,"station_id":"BOO"}],[{"station_name":"Tanah Abang","time":0,"line":1,"i_lat":-6.185545,"i_long":106.811091,"station_id":"THB","is_transit":false,"distance":0,"transit":false},{"time":8,"i_long":106.800832,"line":1,"i_lat":-6.155215,"is_transit":false,"station_name":"Duri","distance":3632,"station_id":"DU","transit":false},{"line":1,"is_transit":false,"transit":false,"distance":1230,"i_lat":-6.144674,"i_long":106.79867,"station_id":"AK","time":4,"station_name":"Angke"},{"transit":true,"station_name":"Kampung Bandan","time":9,"station_id":"KPB","is_transit":true,"i_long":106.826365,"distance":4102,"i_lat":-6.132549,"line":4},{"time":3,"line":11,"transit":false,"i_long":106.836569,"station_id":"RJW","i_lat":-6.14505,"distance":1444,"station_name":"Rajawali","is_transit":false},{"station_name":"Kemayoran","station_id":"KMO","time":5,"is_transit":false,"i_long":106.839204,"line":11,"transit":false,"distance":1901,"i_lat":-6.161728},{"line":11,"i_long":106.84368,"station_id":"PSE","i_lat":-6.174784,"transit":false,"distance":1436,"time":4,"station_name":"Pasar Senen","is_transit":false},{"i_lat":-6.185975,"transit":false,"station_name":"Gang Sentiong","station_id":"GST","is_transit":false,"time":8,"distance":1567,"i_long":106.850107,"line":11},{"station_id":"KMT","station_name":"Kramat","line":11,"transit":false,"i_lat":-6.193792,"i_long":106.855437,"distance":973,"is_transit":false,"time":1},{"line":11,"i_long":106.861737,"time":2,"transit":false,"distance":1829,"i_lat":-6.209188,"station_name":"Pondok Jati","station_id":"POK","is_transit":false},{"i_long":106.86807400000001,"line":1,"station_id":"JNG","i_lat":-6.215091,"station_name":"Jatinegara","is_transit":true,"transit":true,"time":9,"distance":1236},{"distance":1377,"i_long":106.858896,"transit":false,"i_lat":-6.212485,"line":1,"time":2,"is_transit":false,"station_id":"MTR","station_name":"Matraman"},{"i_lat":-6.209883,"i_long":106.84912,"station_id":"MRI","station_name":"Manggarai","transit":true,"distance":1275,"is_transit":true,"line":2,"time":2},{"transit":false,"is_transit":false,"i_lat":-6.226659,"time":4,"i_long":106.857948,"distance":2610,"line":2,"station_id":"TEB","station_name":"Tebet"},{"station_id":"CW","is_transit":false,"i_long":106.856607,"transit":false,"distance":1230,"time":2,"i_lat":-6.242512,"station_name":"Cawang","line":2},{"distance":1546,"line":2,"station_id":"DRN","is_transit":false,"transit":false,"i_lat":-6.255332,"time":3,"i_long":106.85449,"station_name":"Duren Kalibata"},{"i_long":106.851577,"line":2,"distance":824,"station_name":"Pasar Minggu Baru","i_lat":-6.263214,"station_id":"PSMB","time":2,"is_transit":false,"transit":false},{"station_name":"Pasar Minggu","i_long":106.843999,"line":2,"station_id":"PSM","i_lat":-6.2842400000000005,"time":2,"distance":2380,"transit":false,"is_transit":false},{"distance":2820,"line":2,"time":4,"is_transit":false,"i_long":106.838896,"station_id":"TNT","station_name":"Tanjung Barat","transit":false,"i_lat":-6.3080680000000005},{"distance":2671,"i_long":106.832616,"station_id":"LNA","time":3,"i_lat":-6.330363,"station_name":"Lenteng Agung","line":2,"is_transit":false,"transit":false},{"station_id":"UP","transit":false,"line":2,"i_lat":-6.339291,"is_transit":false,"station_name":"Univ. Pancasila","time":2,"i_long":106.834175,"distance":1029},{"line":2,"distance":2264,"station_name":"Univ. Indonesia","i_lat":-6.360749,"i_long":106.831474,"station_id":"UI","is_transit":false,"time":3,"transit":false},{"station_name":"Pondok Cina","time":2,"i_lat":-6.369073,"i_long":106.831114,"distance":1109,"transit":false,"is_transit":false,"station_id":"POC","line":2},{"distance":2727,"i_long":106.819451,"station_id":"DPB","line":2,"time":4,"i_lat":-6.391065,"transit":false,"station_name":"Depokbaru","is_transit":false},{"distance":1584,"line":2,"station_id":"DP","i_lat":-6.405256,"is_transit":false,"station_name":"Depok","i_long":106.816926,"transit":false,"time":3},{"transit":false,"i_lat":-6.448811,"time":6,"distance":5084,"station_name":"Citayam","i_long":106.800298,"station_id":"CTA","is_transit":false,"line":2},{"i_long":106.792719,"line":2,"i_lat":-6.493243,"transit":false,"station_name":"Bojonggede","time":5,"is_transit":false,"station_id":"BJD","distance":5197},{"distance":4331,"line":2,"station_id":"CLT","station_name":"Cilebut","i_lat":-6.530544,"i_long":106.800016,"transit":false,"time":5,"is_transit":false},{"station_name":"Bogor","line":2,"is_transit":false,"time":9,"i_long":106.790574,"station_id":"BOO","distance":7514,"transit":false,"i_lat":-6.594596}]]}