{"data":[[{"time":0,"is_transit":false,"distance":0,"station_name":"Tanah Abang","i_long":106.811091,"line":1,"station_id":"THB","i_lat":-6.185545,"transit":false},{"station_name":"Karet","is_transit":false,"distance":2029,"transit":false,"station_id":"KAT","i_long":106.816351,"line":1,"time":5,"i_lat":-6.20132},{"i_long":106.819881,"time":1,"line":1,"is_transit":false,"i_lat":-6.201433,"station_name":"Sudirman Baru","station_id":"SUDB","distance":471,"transit":false},{"station_id":"SUD","i_long":106.822649,"line":1,"distance":280,"transit":false,"is_transit":false,"i_lat":-6.202263,"time":1,"station_name":"Sudirman"},{"station_name":"Manggarai","is_transit":true,"distance":3186,"transit":true,"station_id":"MRI","line":2,"i_long":106.84912,"i_lat":-6.209883,"time":4},{"transit":false,"station_id":"TEB","station_name":"Tebet","is_transit":false,"time":4,"i_lat":-6.226659,"line":2,"distance":2610,"i_long":106.857948},{"i_lat":-6.242512,"distance":1230,"is_transit":false,"time":2,"transit":false,"station_name":"Cawang","station_id":"CW","i_long":106.856607,"line":2},{"distance":1546,"i_lat":-6.255332,"time":3,"station_id":"DRN","i_long":106.85449,"line":2,"station_name":"Duren Kalibata","is_transit":false,"transit":false},{"line":2,"station_id":"PSMB","transit":false,"time":2,"distance":824,"station_name":"Pasar Minggu Baru","is_transit":false,"i_lat":-6.263214,"i_long":106.851577},{"i_long":106.843999,"distance":2380,"transit":false,"is_transit":false,"station_name":"Pasar Minggu","station_id":"PSM","time":2,"i_lat":-6.2842400000000005,"line":2},{"i_long":106.838896,"station_id":"TNT","i_lat":-6.3080680000000005,"station_name":"Tanjung Barat","line":2,"transit":false,"time":4,"distance":2820,"is_transit":false},{"time":3,"distance":2671,"station_name":"Lenteng Agung","line":2,"is_transit":false,"i_long":106.832616,"transit":false,"station_id":"LNA","i_lat":-6.330363},{"is_transit":false,"station_name":"Univ. Pancasila","time":2,"line":2,"transit":false,"i_long":106.834175,"i_lat":-6.339291,"distance":1029,"station_id":"UP"},{"time":3,"transit":false,"station_id":"UI","i_long":106.831474,"distance":2264,"i_lat":-6.360749,"line":2,"is_transit":false,"station_name":"Univ. Indonesia"},{"distance":1109,"transit":false,"station_name":"Pondok Cina","is_transit":false,"line":2,"time":2,"i_lat":-6.369073,"station_id":"POC","i_long":106.831114},{"i_long":106.819451,"is_transit":false,"station_id":"DPB","station_name":"Depokbaru","time":4,"i_lat":-6.391065,"line":2,"distance":2727,"transit":false},{"distance":1584,"i_long":106.816926,"station_name":"Depok","time":3,"i_lat":-6.405256,"line":2,"station_id":"DP","is_transit":false,"transit":false},{"i_lat":-6.448811,"transit":true,"i_long":106.800298,"station_id":"CTA","time":6,"line":2,"station_name":"Citayam","is_transit":true,"distance":5084},{"transit":false,"i_lat":-6.460735,"station_id":"PDRG","time":0,"station_name":"Pondok Rajeg","is_transit":false,"distance":0,"line":21,"i_long":106.824374},{"line":21,"distance":0,"station_name":"Cibinong","i_long":106.851978,"station_id":"CBN","transit":false,"is_transit":false,"i_lat":-6.46424,"time":0},{"is_transit":false,"i_lat":-6.466285,"station_id":"NMO","distance":6527,"i_long":106.905196,"transit":false,"line":21,"time":10,"station_name":"Nambo"}],[{"i_long":106.811091,"station_name":"Tanah Abang","station_id":"THB","transit":false,"line":1,"distance":0,"time":0,"i_lat":-6.185545,"is_transit":false},{"transit":false,"is_transit":false,"i_long":106.800832,"line":1,"time":8,"station_name":"Duri","station_id":"DU","distance":3632,"i_lat":-6.155215},{"station_id":"AK","i_long":106.79867,"line":1,"is_transit":false,"transit":false,"i_lat":-6.144674,"time":4,"station_name":"Angke","distance":1230},{"i_lat":-6.132549,"transit":true,"time":9,"is_transit":true,"i_long":106.826365,"station_id":"KPB","line":4,"station_name":"Kampung Bandan","distance":4102},{"i_long":106.812439,"line":2,"station_name":"Jakarta Kota","i_lat":-6.137569,"transit":true,"distance":1364,"time":3,"is_transit":true,"station_id":"JAKK"},{"i_lat":-6.141205,"station_id":"JAY","is_transit":false,"i_long":106.820901,"station_name":"Jayakarta","line":2,"distance":1264,"transit":false,"time":4},{"transit":false,"station_id":"MGB","i_lat":-6.149769,"i_long":106.82482,"line":2,"distance":1080,"station_name":"Manggabesar","is_transit":false,"time":2},{"station_name":"Sawah Besar","i_long":106.827103,"line":2,"time":2,"transit":false,"distance":906,"station_id":"SW","is_transit":false,"i_lat":-6.160725},{"transit":false,"distance":1149,"station_name":"Juanda","is_transit":false,"time":2,"station_id":"JUA","i_lat":-6.166716,"line":2,"i_long":106.828284},{"i_lat":-6.186295,"station_name":"Gondangdia","distance":2015,"i_long":106.832183,"station_id":"GDD","line":2,"time":4,"is_transit":false,"transit":false},{"line":2,"time":3,"transit":false,"station_name":"Cikini","station_id":"CKI","i_long":106.840169,"i_lat":-6.198556,"is_transit":false,"distance":1750},{"i_long":106.84912,"line":2,"is_transit":false,"time":4,"distance":1590,"i_lat":-6.209883,"transit":false,"station_name":"Manggarai","station_id":"MRI"},{"distance":2610,"line":2,"time":4,"transit":false,"station_id":"TEB","is_transit":false,"i_lat":-6.226659,"station_name":"Tebet","i_long":106.857948},{"station_name":"Cawang","is_transit":false,"distance":1230,"station_id":"CW","i_lat":-6.242512,"line":2,"transit":false,"time":2,"i_long":106.856607},{"i_long":106.85449,"time":3,"i_lat":-6.255332,"line":2,"is_transit":false,"distance":1546,"station_id":"DRN","station_name":"Duren Kalibata","transit":false},{"distance":824,"station_id":"PSMB","time":2,"line":2,"station_name":"Pasar Minggu Baru","is_transit":false,"i_lat":-6.263214,"transit":false,"i_long":106.851577},{"i_lat":-6.2842400000000005,"i_long":106.843999,"time":2,"station_name":"Pasar Minggu","transit":false,"station_id":"PSM","is_transit":false,"line":2,"distance":2380},{"distance":2820,"is_transit":false,"time":4,"i_lat":-6.3080680000000005,"i_long":106.838896,"station_id":"TNT","transit":false,"station_name":"Tanjung Barat","line":2},{"station_id":"LNA","time":3,"i_lat":-6.330363,"line":2,"i_long":106.832616,"station_name":"Lenteng Agung","distance":2671,"transit":false,"is_transit":false},{"station_name":"Univ. Pancasila","distance":1029,"line":2,"is_transit":false,"i_long":106.834175,"transit":false,"time":2,"station_id":"UP","i_lat":-6.339291},{"station_id":"UI","distance":2264,"i_lat":-6.360749,"transit":false,"i_long":106.831474,"time":3,"station_name":"Univ. Indonesia","is_transit":false,"line":2},{"time":2,"distance":1109,"i_long":106.831114,"transit":false,"station_id":"POC","line":2,"is_transit":false,"station_name":"Pondok Cina","i_lat":-6.369073},{"station_id":"DPB","time":4,"station_name":"Depokbaru","i_long":106.819451,"is_transit":false,"i_lat":-6.391065,"distance":2727,"transit":false,"line":2},{"transit":false,"distance":1584,"i_long":106.816926,"i_lat":-6.405256,"station_name":"Depok","time":3,"station_id":"DP","line":2,"is_transit":false},{"i_long":106.800298,"line":2,"transit":true,"station_id":"CTA","time":6,"distance":5084,"i_lat":-6.448811,"is_transit":true,"station_name":"Citayam"},{"transit":false,"distance":0,"is_transit":false,"station_id":"PDRG","station_name":"Pondok Rajeg","time":0,"i_lat":-6.460735,"i_long":106.824374,"line":21},{"station_id":"CBN","distance":0,"is_transit":false,"i_lat":-6.46424,"i_long":106.851978,"line":21,"station_name":"Cibinong","time":0,"transit":false},{"station_name":"Nambo","station_id":"NMO","time":10,"distance":6527,"i_long":106.905196,"line":21,"i_lat":-6.466285,"is_transit":false,"transit":false}],[{"time":0,"i_long":106.811091,"is_transit":false,"distance":0,"i_lat":-6.185545,"station_id":"THB","station_name":"Tanah Abang","line":1,"transit":false},{"station_id":"DU","i_lat":-6.155215,"station_name":"Duri","is_transit":false,"i_long":106.800832,"distance":3632,"line":1,"time":8,"transit":false},{"line":1,"station_name":"Angke","distance":1230,"is_transit":false,"transit":false,"i_long":106.79867,"time":4,"i_lat":-6.144674,"station_id":"AK"},{"transit":true,"is_transit":true,"station_id":"KPB","time":9,"i_lat":-6.132549,"i_long":106.826365,"distance":4102,"line":4,"station_name":"Kampung Bandan"},{"station_id":"RJW","i_long":106.836569,"station_name":"Rajawali","i_lat":-6.14505,"time":3,"line":11,"is_transit":false,"distance":1444,"transit":false},{"i_lat":-6.161728,"is_transit":false,"i_long":106.839204,"line":11,"station_id":"KMO","distance":1901,"transit":false,"station_name":"Kemayoran","time":5},{"distance":1436,"station_id":"PSE","is_transit":false,"line":11,"station_name":"Pasar Senen","i_lat":-6.174784,"i_long":106.84368,"time":4,"transit":false},{"transit":false,"time":8,"distance":1567,"i_lat":-6.185975,"station_name":"Gang Sentiong","station_id":"GST","is_transit":false,"line":11,"i_long":106.850107},{"station_id":"KMT","is_transit":false,"transit":false,"station_name":"Kramat","i_long":106.855437,"time":1,"i_lat":-6.193792,"distance":973,"line":11},{"station_name":"Pondok Jati","distance":1829,"is_transit":false,"station_id":"POK","i_long":106.861737,"line":11,"i_lat":-6.209188,"time":2,"transit":false},{"time":9,"station_id":"JNG","station_name":"Jatinegara","i_lat":-6.215091,"transit":true,"distance":1236,"i_long":106.86807400000001,"is_transit":true,"line":1},{"line":1,"i_lat":-6.212485,"transit":false,"is_transit":false,"i_long":106.858896,"station_id":"MTR","station_name":"Matraman","distance":1377,"time":2},{"station_name":"Manggarai","station_id":"MRI","i_long":106.84912,"is_transit":true,"line":2,"transit":true,"distance":1275,"i_lat":-6.209883,"time":2},{"station_id":"TEB","time":4,"line":2,"transit":false,"distance":2610,"i_lat":-6.226659,"i_long":106.857948,"station_name":"Tebet","is_transit":false},{"station_id":"CW","distance":1230,"transit":false,"is_transit":false,"i_long":106.856607,"time":2,"i_lat":-6.242512,"line":2,"station_name":"Cawang"},{"distance":1546,"is_transit":false,"i_lat":-6.255332,"line":2,"i_long":106.85449,"time":3,"station_id":"DRN","transit":false,"station_name":"Duren Kalibata"},{"station_name":"Pasar Minggu Baru","line":2,"is_transit":false,"i_long":106.851577,"transit":false,"station_id":"PSMB","time":2,"distance":824,"i_lat":-6.263214},{"transit":false,"i_lat":-6.2842400000000005,"i_long":106.843999,"station_id":"PSM","is_transit":false,"time":2,"distance":2380,"station_name":"Pasar Minggu","line":2},{"i_long":106.838896,"transit":false,"line":2,"station_name":"Tanjung Barat","station_id":"TNT","is_transit":false,"time":4,"i_lat":-6.3080680000000005,"distance":2820},{"time":3,"transit":false,"station_id":"LNA","i_lat":-6.330363,"is_transit":false,"distance":2671,"i_long":106.832616,"station_name":"Lenteng Agung","line":2},{"i_lat":-6.339291,"station_id":"UP","is_transit":false,"distance":1029,"i_long":106.834175,"line":2,"time":2,"station_name":"Univ. Pancasila","transit":false},{"is_transit":false,"time":3,"i_lat":-6.360749,"station_name":"Univ. Indonesia","distance":2264,"i_long":106.831474,"transit":false,"station_id":"UI","line":2},{"station_id":"POC","i_lat":-6.369073,"i_long":106.831114,"station_name":"Pondok Cina","line":2,"time":2,"transit":false,"is_transit":false,"distance":1109},{"time":4,"transit":false,"line":2,"distance":2727,"station_name":"Depokbaru","station_id":"DPB","i_lat":-6.391065,"i_long":106.819451,"is_transit":false},{"time":3,"transit":false,"station_id":"DP","i_lat":-6.405256,"line":2,"is_transit":false,"station_name":"Depok","distance":1584,"i_long":106.816926},{"transit":true,"station_name":"Citayam","station_id":"CTA","is_transit":true,"i_lat":-6.448811,"i_long":106.800298,"time":6,"line":2,"distance":5084},{"station_name":"Pondok Rajeg","is_transit":false,"time":0,"line":21,"distance":0,"i_long":106.824374,"i_lat":-6.460735,"station_id":"PDRG","transit":false},{"time":0,"line":21,"station_name":"Cibinong","distance":0,"i_long":106.851978,"i_lat":-6.46424,"transit":false,"is_transit":false,"station_id":"CBN"},{"station_id":"NMO","line":21,"i_lat":-6.466285,"transit":false,"distance":6527,"is_transit":false,"time":10,"i_long":106.905196,"station_name":"Nambo"}]]}