{"data":[[{"is_transit":false,"station_id":"THB","transit":false,"time":0,"station_name":"Tanah Abang","i_long":106.811091,"line":1,"i_lat":-6.185545,"distance":0},{"is_transit":false,"transit":false,"i_lat":-6.20132,"time":5,"i_long":106.816351,"line":1,"distance":2029,"station_name":"Karet","station_id":"KAT"},{"station_name":"Sudirman Baru","distance":471,"is_transit":false,"time":1,"i_long":106.819881,"i_lat":-6.201433,"line":1,"station_id":"SUDB","transit":false},{"i_lat":-6.202263,"is_transit":false,"station_id":"SUD","station_name":"Sudirman","i_long":106.822649,"transit":false,"line":1,"time":1,"distance":280},{"transit":true,"station_name":"Manggarai","i_long":106.84912,"is_transit":true,"time":4,"station_id":"MRI","distance":3186,"i_lat":-6.209883,"line":2},{"transit":false,"time":4,"station_name":"Tebet","line":2,"is_transit":false,"i_long":106.857948,"i_lat":-6.226659,"distance":2610,"station_id":"TEB"},{"is_transit":false,"station_id":"CW","i_long":106.856607,"distance":1230,"time":2,"i_lat":-6.242512,"line":2,"transit":false,"station_name":"Cawang"},{"line":2,"station_id":"DRN","transit":false,"i_lat":-6.255332,"time":3,"distance":1546,"is_transit":false,"i_long":106.85449,"station_name":"Duren Kalibata"},{"station_id":"PSMB","i_lat":-6.263214,"transit":false,"time":2,"is_transit":false,"line":2,"distance":824,"station_name":"Pasar Minggu Baru","i_long":106.851577},{"time":2,"i_long":106.843999,"i_lat":-6.2842400000000005,"distance":2380,"station_id":"PSM","transit":false,"station_name":"Pasar Minggu","is_transit":false,"line":2},{"time":4,"line":2,"transit":false,"distance":2820,"is_transit":false,"i_lat":-6.3080680000000005,"station_id":"TNT","i_long":106.838896,"station_name":"Tanjung Barat"},{"station_id":"LNA","time":3,"is_transit":false,"transit":false,"i_long":106.832616,"i_lat":-6.330363,"station_name":"Lenteng Agung","distance":2671,"line":2},{"transit":false,"time":2,"distance":1029,"station_name":"Univ. Pancasila","i_lat":-6.339291,"i_long":106.834175,"is_transit":false,"line":2,"station_id":"UP"},{"line":2,"i_lat":-6.360749,"station_id":"UI","transit":false,"is_transit":false,"time":3,"station_name":"Univ. Indonesia","i_long":106.831474,"distance":2264},{"distance":1109,"station_id":"POC","transit":false,"i_lat":-6.369073,"is_transit":false,"time":2,"station_name":"Pondok Cina","line":2,"i_long":106.831114},{"station_id":"DPB","i_lat":-6.391065,"is_transit":false,"distance":2727,"station_name":"Depokbaru","i_long":106.819451,"line":2,"transit":false,"time":4}],[{"time":0,"i_long":106.811091,"station_id":"THB","distance":0,"transit":false,"station_name":"Tanah Abang","i_lat":-6.185545,"line":1,"is_transit":false},{"is_transit":false,"i_lat":-6.155215,"i_long":106.800832,"station_id":"DU","station_name":"Duri","distance":3632,"time":8,"line":1,"transit":false},{"station_id":"AK","distance":1230,"i_long":106.79867,"is_transit":false,"i_lat":-6.144674,"station_name":"Angke","transit":false,"time":4,"line":1},{"line":4,"time":9,"station_id":"KPB","distance":4102,"station_name":"Kampung Bandan","is_transit":true,"i_long":106.826365,"transit":true,"i_lat":-6.132549},{"time":3,"station_id":"JAKK","station_name":"Jakarta Kota","i_lat":-6.137569,"i_long":106.812439,"distance":1364,"is_transit":true,"transit":true,"line":2},{"i_lat":-6.141205,"time":4,"station_id":"JAY","is_transit":false,"station_name":"Jayakarta","i_long":106.820901,"line":2,"distance":1264,"transit":false},{"line":2,"time":2,"distance":1080,"transit":false,"station_name":"Manggabesar","is_transit":false,"i_lat":-6.149769,"station_id":"MGB","i_long":106.82482},{"i_long":106.827103,"line":2,"transit":false,"distance":906,"station_name":"Sawah Besar","is_transit":false,"i_lat":-6.160725,"station_id":"SW","time":2},{"i_lat":-6.166716,"is_transit":false,"time":2,"station_name":"Juanda","i_long":106.828284,"line":2,"station_id":"JUA","transit":false,"distance":1149},{"station_id":"GDD","i_lat":-6.186295,"line":2,"time":4,"i_long":106.832183,"is_transit":false,"station_name":"Gondangdia","distance":2015,"transit":false},{"station_id":"CKI","time":3,"station_name":"Cikini","i_long":106.840169,"distance":1750,"is_transit":false,"transit":false,"i_lat":-6.198556,"line":2},{"is_transit":false,"i_lat":-6.209883,"line":2,"time":4,"i_long":106.84912,"station_id":"MRI","transit":false,"station_name":"Manggarai","distance":1590},{"time":4,"is_transit":false,"transit":false,"distance":2610,"i_long":106.857948,"station_id":"TEB","station_name":"Tebet","i_lat":-6.226659,"line":2},{"distance":1230,"transit":false,"is_transit":false,"time":2,"station_name":"Cawang","i_lat":-6.242512,"line":2,"i_long":106.856607,"station_id":"CW"},{"line":2,"station_name":"Duren Kalibata","distance":1546,"time":3,"transit":false,"i_long":106.85449,"i_lat":-6.255332,"station_id":"DRN","is_transit":false},{"is_transit":false,"i_lat":-6.263214,"line":2,"station_name":"Pasar Minggu Baru","station_id":"PSMB","time":2,"transit":false,"distance":824,"i_long":106.851577},{"is_transit":false,"transit":false,"i_lat":-6.2842400000000005,"i_long":106.843999,"line":2,"station_id":"PSM","time":2,"station_name":"Pasar Minggu","distance":2380},{"distance":2820,"station_name":"Tanjung Barat","station_id":"TNT","is_transit":false,"i_lat":-6.3080680000000005,"i_long":106.838896,"transit":false,"time":4,"line":2},{"station_id":"LNA","transit":false,"distance":2671,"station_name":"Lenteng Agung","i_long":106.832616,"time":3,"i_lat":-6.330363,"line":2,"is_transit":false},{"distance":1029,"station_name":"Univ. Pancasila","line":2,"i_lat":-6.339291,"i_long":106.834175,"transit":false,"is_transit":false,"time":2,"station_id":"UP"},{"line":2,"i_lat":-6.360749,"i_long":106.831474,"time":3,"station_name":"Univ. Indonesia","is_transit":false,"station_id":"UI","distance":2264,"transit":false},{"station_name":"Pondok Cina","distance":1109,"i_long":106.831114,"is_transit":false,"time":2,"transit":false,"station_id":"POC","line":2,"i_lat":-6.369073},{"station_id":"DPB","distance":2727,"station_name":"Depokbaru","is_transit":false,"i_lat":-6.391065,"i_long":106.819451,"time":4,"line":2,"transit":false}],[{"line":1,"time":0,"station_id":"THB","distance":0,"i_long":106.811091,"station_name":"Tanah Abang","is_transit":false,"i_lat":-6.185545,"transit":false},{"line":1,"transit":false,"distance":3632,"station_id":"DU","time":8,"is_transit":false,"i_long":106.800832,"i_lat":-6.155215,"station_name":"Duri"},{"i_lat":-6.144674,"line":1,"station_id":"AK","distance":1230,"station_name":"Angke","transit":false,"time":4,"is_transit":false,"i_long":106.79867},{"is_transit":true,"time":9,"i_lat":-6.132549,"transit":true,"line":4,"station_id":"KPB","distance":4102,"i_long":106.826365,"station_name":"Kampung Bandan"},{"line":11,"station_name":"Rajawali","is_transit":false,"transit":false,"i_lat":-6.14505,"time":3,"distance":1444,"i_long":106.836569,"station_id":"RJW"},{"station_name":"Kemayoran","i_lat":-6.161728,"line":11,"i_long":106.839204,"is_transit":false,"station_id":"KMO","transit":false,"time":5,"distance":1901},{"time":4,"line":11,"i_long":106.84368,"transit":false,"distance":1436,"is_transit":false,"i_lat":-6.174784,"station_id":"PSE","station_name":"Pasar Senen"},{"station_id":"GST","transit":false,"distance":1567,"i_lat":-6.185975,"station_name":"Gang Sentiong","line":11,"time":8,"is_transit":false,"i_long":106.850107},{"i_lat":-6.193792,"time":1,"distance":973,"transit":false,"is_transit":false,"station_name":"Kramat","i_long":106.855437,"line":11,"station_id":"KMT"},{"time":2,"is_transit":false,"i_lat":-6.209188,"distance":1829,"i_long":106.861737,"transit":false,"station_name":"Pondok Jati","line":11,"station_id":"POK"},{"distance":1236,"time":9,"transit":true,"i_long":106.86807400000001,"station_name":"Jatinegara","line":1,"is_transit":true,"i_lat":-6.215091,"station_id":"JNG"},{"station_id":"MTR","i_lat":-6.212485,"line":1,"is_transit":false,"station_name":"Matraman","i_long":106.858896,"distance":1377,"transit":false,"time":2},{"time":2,"i_lat":-6.209883,"is_transit":true,"station_id":"MRI","transit":true,"line":2,"distance":1275,"station_name":"Manggarai","i_long":106.84912},{"station_id":"TEB","transit":false,"i_long":106.857948,"station_name":"Tebet","i_lat":-6.226659,"is_transit":false,"line":2,"distance":2610,"time":4},{"i_lat":-6.242512,"i_long":106.856607,"station_name":"Cawang","time":2,"transit":false,"station_id":"CW","is_transit":false,"line":2,"distance":1230},{"station_name":"Duren Kalibata","is_transit":false,"station_id":"DRN","distance":1546,"i_lat":-6.255332,"i_long":106.85449,"time":3,"line":2,"transit":false},{"transit":false,"time":2,"distance":824,"station_name":"Pasar Minggu Baru","station_id":"PSMB","line":2,"is_transit":false,"i_lat":-6.263214,"i_long":106.851577},{"station_id":"PSM","station_name":"Pasar Minggu","time":2,"i_lat":-6.2842400000000005,"line":2,"transit":false,"i_long":106.843999,"is_transit":false,"distance":2380},{"distance":2820,"i_lat":-6.3080680000000005,"is_transit":false,"station_name":"Tanjung Barat","station_id":"TNT","time":4,"i_long":106.838896,"transit":false,"line":2},{"distance":2671,"i_lat":-6.330363,"i_long":106.832616,"time":3,"station_name":"Lenteng Agung","is_transit":false,"line":2,"station_id":"LNA","transit":false},{"station_id":"UP","is_transit":false,"station_name":"Univ. Pancasila","distance":1029,"line":2,"time":2,"i_lat":-6.339291,"i_long":106.834175,"transit":false},{"i_long":106.831474,"station_id":"UI","station_name":"Univ. Indonesia","is_transit":false,"time":3,"transit":false,"distance":2264,"i_lat":-6.360749,"line":2},{"distance":1109,"transit":false,"i_lat":-6.369073,"station_name":"Pondok Cina","station_id":"POC","i_long":106.831114,"time":2,"line":2,"is_transit":false},{"line":2,"station_name":"Depokbaru","time":4,"station_id":"DPB","i_lat":-6.391065,"i_long":106.819451,"distance":2727,"transit":false,"is_transit":false}]]}