{"data":[[{"i_long":106.811091,"station_name":"Tanah Abang","is_transit":false,"time":0,"station_id":"THB","i_lat":-6.185545,"distance":0,"line":1,"transit":false},{"is_transit":false,"transit":false,"station_name":"Duri","station_id":"DU","i_long":106.800832,"distance":3632,"line":1,"i_lat":-6.155215,"time":8},{"i_long":106.79867,"i_lat":-6.144674,"transit":false,"time":4,"is_transit":false,"line":1,"distance":1230,"station_id":"AK","station_name":"Angke"},{"station_id":"KPB","i_lat":-6.132549,"station_name":"Kampung Bandan","time":9,"distance":4102,"i_long":106.826365,"transit":true,"is_transit":true,"line":4},{"i_long":106.836569,"station_name":"Rajawali","line":11,"station_id":"RJW","transit":false,"distance":1444,"time":3,"is_transit":false,"i_lat":-6.14505},{"i_long":106.839204,"transit":false,"line":11,"station_id":"KMO","time":5,"distance":1901,"station_name":"Kemayoran","is_transit":false,"i_lat":-6.161728},{"time":4,"i_lat":-6.174784,"transit":false,"station_name":"Pasar Senen","distance":1436,"is_transit":false,"i_long":106.84368,"station_id":"PSE","line":11},{"station_id":"GST","station_name":"Gang Sentiong","distance":1567,"transit":false,"i_long":106.850107,"i_lat":-6.185975,"is_transit":false,"line":11,"time":8},{"i_long":106.855437,"station_name":"Kramat","distance":973,"transit":false,"time":1,"line":11,"i_lat":-6.193792,"station_id":"KMT","is_transit":false}],[{"time":0,"station_id":"THB","i_long":106.811091,"line":1,"station_name":"Tanah Abang","distance":0,"is_transit":false,"transit":false,"i_lat":-6.185545},{"station_id":"KAT","line":1,"distance":2029,"station_name":"Karet","time":5,"transit":false,"i_lat":-6.20132,"i_long":106.816351,"is_transit":false},{"i_lat":-6.201433,"time":1,"distance":471,"transit":false,"station_id":"SUDB","line":1,"is_transit":false,"station_name":"Sudirman Baru","i_long":106.819881},{"is_transit":false,"station_name":"Sudirman","line":1,"distance":280,"i_lat":-6.202263,"time":1,"transit":false,"i_long":106.822649,"station_id":"SUD"},{"line":2,"time":4,"station_id":"MRI","is_transit":false,"transit":false,"i_long":106.84912,"distance":3186,"station_name":"Manggarai","i_lat":-6.209883},{"is_transit":false,"i_long":106.858896,"station_id":"MTR","transit":false,"station_name":"Matraman","i_lat":-6.212485,"line":1,"time":2,"distance":1275},{"distance":1377,"i_lat":-6.215091,"station_id":"JNG","station_name":"Jatinegara","is_transit":true,"line":1,"time":8,"transit":true,"i_long":106.86807400000001},{"station_id":"POK","line":11,"is_transit":false,"distance":1236,"station_name":"Pondok Jati","time":2,"transit":false,"i_long":106.861737,"i_lat":-6.209188},{"time":2,"i_lat":-6.193792,"transit":false,"distance":1829,"station_id":"KMT","is_transit":false,"i_long":106.855437,"line":11,"station_name":"Kramat"}],[{"i_long":106.811091,"distance":0,"line":1,"transit":false,"is_transit":false,"i_lat":-6.185545,"station_name":"Tanah Abang","time":0,"station_id":"THB"},{"time":8,"i_lat":-6.155215,"station_id":"DU","is_transit":false,"distance":3632,"transit":false,"line":1,"station_name":"Duri","i_long":106.800832},{"station_name":"Angke","distance":1230,"time":4,"i_lat":-6.144674,"line":1,"i_long":106.79867,"transit":false,"station_id":"AK","is_transit":false},{"station_id":"KPB","station_name":"Kampung Bandan","time":9,"i_lat":-6.132549,"line":4,"transit":true,"i_long":106.826365,"distance":4102,"is_transit":true},{"station_id":"JAKK","distance":1364,"i_lat":-6.137569,"transit":true,"line":2,"station_name":"Jakarta Kota","is_transit":true,"time":3,"i_long":106.812439},{"is_transit":false,"station_name":"Jayakarta","distance":1264,"transit":false,"time":4,"station_id":"JAY","i_long":106.820901,"i_lat":-6.141205,"line":2},{"line":2,"i_lat":-6.149769,"transit":false,"station_id":"MGB","is_transit":false,"distance":1080,"station_name":"Manggabesar","i_long":106.82482,"time":2},{"is_transit":false,"distance":906,"station_name":"Sawah Besar","transit":false,"i_lat":-6.160725,"i_long":106.827103,"line":2,"station_id":"SW","time":2},{"time":2,"station_id":"JUA","distance":1149,"i_lat":-6.166716,"i_long":106.828284,"station_name":"Juanda","line":2,"transit":false,"is_transit":false},{"i_long":106.832183,"distance":2015,"time":4,"station_id":"GDD","is_transit":false,"transit":false,"station_name":"Gondangdia","i_lat":-6.186295,"line":2},{"i_lat":-6.198556,"line":2,"is_transit":false,"transit":false,"i_long":106.840169,"time":3,"distance":1750,"station_id":"CKI","station_name":"Cikini"},{"station_id":"MRI","i_long":106.84912,"line":2,"transit":true,"time":4,"i_lat":-6.209883,"distance":1590,"is_transit":true,"station_name":"Manggarai"},{"station_id":"MTR","line":1,"time":2,"distance":1275,"is_transit":false,"transit":false,"station_name":"Matraman","i_long":106.858896,"i_lat":-6.212485},{"time":8,"transit":true,"line":1,"i_lat":-6.215091,"i_long":106.86807400000001,"distance":1377,"station_id":"JNG","is_transit":true,"station_name":"Jatinegara"},{"station_name":"Pondok Jati","is_transit":false,"transit":false,"i_long":106.861737,"line":11,"distance":1236,"station_id":"POK","i_lat":-6.209188,"time":2},{"station_name":"Kramat","i_lat":-6.193792,"line":11,"time":2,"i_long":106.855437,"station_id":"KMT","transit":false,"distance":1829,"is_transit":false}],[{"station_id":"THB","i_long":106.811091,"line":1,"station_name":"Tanah Abang","distance":0,"transit":false,"time":0,"is_transit":false,"i_lat":-6.185545},{"time":5,"station_id":"KAT","transit":false,"line":1,"i_long":106.816351,"distance":2029,"is_transit":false,"i_lat":-6.20132,"station_name":"Karet"},{"transit":false,"i_long":106.819881,"time":1,"i_lat":-6.201433,"is_transit":false,"line":1,"station_id":"SUDB","distance":471,"station_name":"Sudirman Baru"},{"i_long":106.822649,"line":1,"time":1,"distance":280,"is_transit":false,"station_name":"Sudirman","i_lat":-6.202263,"transit":false,"station_id":"SUD"},{"station_id":"MRI","is_transit":true,"i_long":106.84912,"distance":3186,"line":2,"time":4,"station_name":"Manggarai","i_lat":-6.209883,"transit":true},{"station_name":"Cikini","distance":1590,"transit":false,"time":4,"station_id":"CKI","i_lat":-6.198556,"i_long":106.840169,"is_transit":false,"line":2},{"station_id":"GDD","time":3,"distance":1750,"station_name":"Gondangdia","i_long":106.832183,"line":2,"is_transit":false,"transit":false,"i_lat":-6.186295},{"distance":2015,"transit":false,"time":4,"is_transit":false,"i_lat":-6.166716,"station_id":"JUA","station_name":"Juanda","line":2,"i_long":106.828284},{"time":2,"is_transit":false,"station_name":"Sawah Besar","transit":false,"station_id":"SW","distance":1149,"i_lat":-6.160725,"line":2,"i_long":106.827103},{"station_name":"Manggabesar","distance":906,"station_id":"MGB","i_lat":-6.149769,"is_transit":false,"time":2,"transit":false,"i_long":106.82482,"line":2},{"transit":false,"distance":1080,"time":2,"station_id":"JAY","is_transit":false,"i_lat":-6.141205,"station_name":"Jayakarta","i_long":106.820901,"line":2},{"i_lat":-6.137569,"line":2,"transit":true,"is_transit":true,"distance":1264,"time":4,"station_id":"JAKK","station_name":"Jakarta Kota","i_long":106.812439},{"is_transit":true,"station_id":"KPB","time":3,"i_lat":-6.132549,"i_long":106.826365,"distance":1364,"station_name":"Kampung Bandan","transit":true,"line":4},{"line":11,"i_lat":-6.14505,"time":3,"i_long":106.836569,"distance":1444,"station_id":"RJW","is_transit":false,"transit":false,"station_name":"Rajawali"},{"i_long":106.839204,"i_lat":-6.161728,"transit":false,"line":11,"is_transit":false,"station_id":"KMO","distance":1901,"station_name":"Kemayoran","time":5},{"is_transit":false,"time":4,"station_id":"PSE","transit":false,"i_long":106.84368,"line":11,"station_name":"Pasar Senen","distance":1436,"i_lat":-6.174784},{"station_id":"GST","station_name":"Gang Sentiong","transit":false,"i_lat":-6.185975,"line":11,"is_transit":false,"i_long":106.850107,"distance":1567,"time":8},{"distance":973,"i_lat":-6.193792,"i_long":106.855437,"line":11,"time":1,"is_transit":false,"transit":false,"station_name":"Kramat","station_id":"KMT"}]]}