{"data":[[{"time":0,"station_id":"THB","is_transit":false,"line":1,"station_name":"Tanah Abang","i_lat":-6.185545,"transit":false,"distance":0,"i_long":106.811091},{"time":5,"i_long":106.816351,"is_transit":false,"line":1,"distance":2029,"station_id":"KAT","transit":false,"station_name":"Karet","i_lat":-6.20132},{"is_transit":false,"transit":false,"station_id":"SUDB","time":1,"i_lat":-6.201433,"station_name":"Sudirman Baru","i_long":106.819881,"line":1,"distance":471},{"transit":false,"is_transit":false,"station_id":"SUD","i_long":106.822649,"station_name":"Sudirman","time":1,"distance":280,"i_lat":-6.202263,"line":1},{"i_long":106.84912,"transit":true,"time":4,"is_transit":true,"i_lat":-6.209883,"distance":3186,"station_name":"Manggarai","station_id":"MRI","line":2},{"i_long":106.857948,"line":2,"is_transit":false,"distance":2610,"transit":false,"time":4,"station_name":"Tebet","station_id":"TEB","i_lat":-6.226659},{"station_id":"CW","line":2,"station_name":"Cawang","transit":false,"i_lat":-6.242512,"distance":1230,"time":2,"is_transit":false,"i_long":106.856607},{"transit":false,"line":2,"i_lat":-6.255332,"time":3,"station_name":"Duren Kalibata","is_transit":false,"distance":1546,"station_id":"DRN","i_long":106.85449},{"i_long":106.851577,"station_id":"PSMB","transit":false,"is_transit":false,"i_lat":-6.263214,"time":2,"station_name":"Pasar Minggu Baru","distance":824,"line":2},{"is_transit":false,"distance":2380,"station_name":"Pasar Minggu","transit":false,"station_id":"PSM","i_lat":-6.2842400000000005,"i_long":106.843999,"line":2,"time":2},{"transit":false,"i_long":106.838896,"line":2,"time":4,"distance":2820,"station_id":"TNT","station_name":"Tanjung Barat","is_transit":false,"i_lat":-6.3080680000000005},{"distance":2671,"time":3,"i_long":106.832616,"station_id":"LNA","is_transit":false,"i_lat":-6.330363,"station_name":"Lenteng Agung","transit":false,"line":2},{"time":2,"i_lat":-6.339291,"station_id":"UP","station_name":"Univ. Pancasila","is_transit":false,"distance":1029,"transit":false,"i_long":106.834175,"line":2},{"distance":2264,"station_id":"UI","station_name":"Univ. Indonesia","is_transit":false,"transit":false,"time":3,"i_lat":-6.360749,"line":2,"i_long":106.831474},{"is_transit":false,"time":2,"i_long":106.831114,"transit":false,"line":2,"distance":1109,"station_id":"POC","i_lat":-6.369073,"station_name":"Pondok Cina"},{"time":4,"is_transit":false,"station_id":"DPB","i_lat":-6.391065,"i_long":106.819451,"distance":2727,"line":2,"transit":false,"station_name":"Depokbaru"},{"transit":false,"is_transit":false,"line":2,"i_long":106.816926,"distance":1584,"station_id":"DP","time":3,"station_name":"Depok","i_lat":-6.405256},{"transit":true,"time":6,"station_name":"Citayam","i_lat":-6.448811,"line":2,"i_long":106.800298,"station_id":"CTA","is_transit":true,"distance":5084},{"is_transit":false,"station_id":"PDRG","i_long":106.824374,"line":21,"time":0,"distance":0,"station_name":"Pondok Rajeg","transit":false,"i_lat":-6.460735},{"line":21,"is_transit":false,"time":0,"transit":false,"station_id":"CBN","station_name":"Cibinong","i_lat":-6.46424,"distance":0,"i_long":106.851978},{"i_lat":-6.466285,"i_long":106.905196,"station_name":"Nambo","transit":false,"station_id":"NMO","distance":6527,"is_transit":false,"time":10,"line":21}],[{"transit":false,"i_long":106.811091,"station_id":"THB","line":1,"station_name":"Tanah Abang","time":0,"distance":0,"is_transit":false,"i_lat":-6.185545},{"station_id":"DU","transit":false,"time":8,"distance":3632,"i_lat":-6.155215,"station_name":"Duri","i_long":106.800832,"line":1,"is_transit":false},{"i_lat":-6.144674,"time":4,"i_long":106.79867,"station_id":"AK","transit":false,"station_name":"Angke","line":1,"distance":1230,"is_transit":false},{"line":4,"is_transit":true,"station_id":"KPB","distance":4102,"station_name":"Kampung Bandan","i_lat":-6.132549,"time":9,"transit":true,"i_long":106.826365},{"i_long":106.812439,"line":2,"is_transit":true,"station_id":"JAKK","station_name":"Jakarta Kota","i_lat":-6.137569,"time":3,"distance":1364,"transit":true},{"station_name":"Jayakarta","i_lat":-6.141205,"time":4,"i_long":106.820901,"distance":1264,"station_id":"JAY","line":2,"is_transit":false,"transit":false},{"line":2,"station_id":"MGB","i_lat":-6.149769,"is_transit":false,"time":2,"transit":false,"station_name":"Manggabesar","distance":1080,"i_long":106.82482},{"transit":false,"station_id":"SW","i_lat":-6.160725,"is_transit":false,"station_name":"Sawah Besar","i_long":106.827103,"distance":906,"line":2,"time":2},{"i_long":106.828284,"is_transit":false,"time":2,"distance":1149,"station_name":"Juanda","transit":false,"station_id":"JUA","i_lat":-6.166716,"line":2},{"station_id":"GDD","distance":2015,"i_lat":-6.186295,"i_long":106.832183,"station_name":"Gondangdia","transit":false,"time":4,"is_transit":false,"line":2},{"i_long":106.840169,"station_id":"CKI","i_lat":-6.198556,"transit":false,"is_transit":false,"line":2,"time":3,"distance":1750,"station_name":"Cikini"},{"transit":false,"is_transit":false,"i_lat":-6.209883,"distance":1590,"line":2,"station_id":"MRI","station_name":"Manggarai","time":4,"i_long":106.84912},{"transit":false,"i_lat":-6.226659,"is_transit":false,"station_id":"TEB","line":2,"station_name":"Tebet","distance":2610,"i_long":106.857948,"time":4},{"transit":false,"i_long":106.856607,"distance":1230,"i_lat":-6.242512,"station_id":"CW","time":2,"line":2,"is_transit":false,"station_name":"Cawang"},{"is_transit":false,"transit":false,"distance":1546,"i_long":106.85449,"station_id":"DRN","time":3,"station_name":"Duren Kalibata","line":2,"i_lat":-6.255332},{"distance":824,"station_name":"Pasar Minggu Baru","i_long":106.851577,"time":2,"i_lat":-6.263214,"transit":false,"station_id":"PSMB","is_transit":false,"line":2},{"station_name":"Pasar Minggu","line":2,"transit":false,"is_transit":false,"station_id":"PSM","time":2,"i_lat":-6.2842400000000005,"distance":2380,"i_long":106.843999},{"distance":2820,"i_lat":-6.3080680000000005,"i_long":106.838896,"line":2,"time":4,"station_name":"Tanjung Barat","is_transit":false,"transit":false,"station_id":"TNT"},{"is_transit":false,"distance":2671,"station_name":"Lenteng Agung","station_id":"LNA","i_long":106.832616,"time":3,"transit":false,"i_lat":-6.330363,"line":2},{"line":2,"is_transit":false,"transit":false,"distance":1029,"time":2,"i_long":106.834175,"station_name":"Univ. Pancasila","i_lat":-6.339291,"station_id":"UP"},{"station_id":"UI","distance":2264,"time":3,"station_name":"Univ. Indonesia","i_long":106.831474,"transit":false,"is_transit":false,"line":2,"i_lat":-6.360749},{"is_transit":false,"i_long":106.831114,"line":2,"time":2,"distance":1109,"station_name":"Pondok Cina","transit":false,"station_id":"POC","i_lat":-6.369073},{"station_name":"Depokbaru","time":4,"transit":false,"line":2,"is_transit":false,"station_id":"DPB","i_lat":-6.391065,"i_long":106.819451,"distance":2727},{"transit":false,"i_lat":-6.405256,"i_long":106.816926,"station_name":"Depok","is_transit":false,"line":2,"distance":1584,"station_id":"DP","time":3},{"station_id":"CTA","line":2,"station_name":"Citayam","time":6,"i_lat":-6.448811,"i_long":106.800298,"is_transit":true,"distance":5084,"transit":true},{"transit":false,"is_transit":false,"station_id":"PDRG","time":0,"i_lat":-6.460735,"i_long":106.824374,"line":21,"distance":0,"station_name":"Pondok Rajeg"},{"distance":0,"line":21,"is_transit":false,"transit":false,"time":0,"station_name":"Cibinong","station_id":"CBN","i_long":106.851978,"i_lat":-6.46424},{"transit":false,"time":10,"station_id":"NMO","is_transit":false,"i_long":106.905196,"station_name":"Nambo","i_lat":-6.466285,"line":21,"distance":6527}],[{"line":1,"station_id":"THB","time":0,"i_lat":-6.185545,"distance":0,"is_transit":false,"station_name":"Tanah Abang","transit":false,"i_long":106.811091},{"line":1,"station_name":"Duri","time":8,"is_transit":false,"i_lat":-6.155215,"station_id":"DU","i_long":106.800832,"distance":3632,"transit":false},{"time":4,"i_long":106.79867,"station_id":"AK","station_name":"Angke","i_lat":-6.144674,"line":1,"is_transit":false,"distance":1230,"transit":false},{"station_name":"Kampung Bandan","is_transit":true,"i_long":106.826365,"station_id":"KPB","i_lat":-6.132549,"transit":true,"distance":4102,"line":4,"time":9},{"transit":false,"station_id":"RJW","distance":1444,"line":11,"i_lat":-6.14505,"i_long":106.836569,"is_transit":false,"station_name":"Rajawali","time":3},{"i_long":106.839204,"transit":false,"is_transit":false,"distance":1901,"station_id":"KMO","i_lat":-6.161728,"line":11,"station_name":"Kemayoran","time":5},{"is_transit":false,"time":4,"transit":false,"station_name":"Pasar Senen","distance":1436,"station_id":"PSE","i_long":106.84368,"i_lat":-6.174784,"line":11},{"station_name":"Gang Sentiong","is_transit":false,"station_id":"GST","distance":1567,"i_long":106.850107,"i_lat":-6.185975,"line":11,"transit":false,"time":8},{"line":11,"distance":973,"i_lat":-6.193792,"i_long":106.855437,"time":1,"transit":false,"station_name":"Kramat","is_transit":false,"station_id":"KMT"},{"is_transit":false,"line":11,"i_lat":-6.209188,"station_id":"POK","distance":1829,"time":2,"transit":false,"station_name":"Pondok Jati","i_long":106.861737},{"line":1,"i_long":106.86807400000001,"station_name":"Jatinegara","is_transit":true,"time":9,"distance":1236,"transit":true,"i_lat":-6.215091,"station_id":"JNG"},{"i_lat":-6.212485,"time":2,"station_name":"Matraman","distance":1377,"station_id":"MTR","line":1,"i_long":106.858896,"transit":false,"is_transit":false},{"station_name":"Manggarai","i_long":106.84912,"time":2,"is_transit":true,"transit":true,"line":2,"station_id":"MRI","distance":1275,"i_lat":-6.209883},{"transit":false,"time":4,"station_id":"TEB","i_long":106.857948,"distance":2610,"line":2,"station_name":"Tebet","is_transit":false,"i_lat":-6.226659},{"time":2,"i_long":106.856607,"i_lat":-6.242512,"station_name":"Cawang","is_transit":false,"line":2,"station_id":"CW","distance":1230,"transit":false},{"line":2,"distance":1546,"station_id":"DRN","i_lat":-6.255332,"i_long":106.85449,"time":3,"station_name":"Duren Kalibata","is_transit":false,"transit":false},{"is_transit":false,"station_name":"Pasar Minggu Baru","time":2,"transit":false,"distance":824,"station_id":"PSMB","i_lat":-6.263214,"i_long":106.851577,"line":2},{"i_lat":-6.2842400000000005,"station_id":"PSM","i_long":106.843999,"transit":false,"line":2,"time":2,"is_transit":false,"station_name":"Pasar Minggu","distance":2380},{"distance":2820,"is_transit":false,"station_id":"TNT","i_lat":-6.3080680000000005,"transit":false,"i_long":106.838896,"time":4,"line":2,"station_name":"Tanjung Barat"},{"transit":false,"i_long":106.832616,"station_name":"Lenteng Agung","distance":2671,"i_lat":-6.330363,"is_transit":false,"time":3,"station_id":"LNA","line":2},{"i_lat":-6.339291,"station_id":"UP","distance":1029,"time":2,"is_transit":false,"transit":false,"i_long":106.834175,"line":2,"station_name":"Univ. Pancasila"},{"station_name":"Univ. Indonesia","i_long":106.831474,"distance":2264,"station_id":"UI","time":3,"i_lat":-6.360749,"line":2,"transit":false,"is_transit":false},{"i_lat":-6.369073,"is_transit":false,"line":2,"distance":1109,"time":2,"station_id":"POC","transit":false,"i_long":106.831114,"station_name":"Pondok Cina"},{"distance":2727,"is_transit":false,"i_lat":-6.391065,"station_id":"DPB","line":2,"time":4,"transit":false,"i_long":106.819451,"station_name":"Depokbaru"},{"is_transit":false,"line":2,"station_id":"DP","station_name":"Depok","time":3,"distance":1584,"transit":false,"i_lat":-6.405256,"i_long":106.816926},{"station_name":"Citayam","i_long":106.800298,"i_lat":-6.448811,"time":6,"station_id":"CTA","line":2,"is_transit":true,"transit":true,"distance":5084},{"station_name":"Pondok Rajeg","distance":0,"transit":false,"station_id":"PDRG","is_transit":false,"time":0,"line":21,"i_lat":-6.460735,"i_long":106.824374},{"i_long":106.851978,"station_name":"Cibinong","line":21,"time":0,"station_id":"CBN","is_transit":false,"transit":false,"distance":0,"i_lat":-6.46424},{"i_lat":-6.466285,"i_long":106.905196,"distance":6527,"station_name":"Nambo","time":10,"station_id":"NMO","transit":false,"is_transit":false,"line":21}]]}