{"data":[[{"i_lat":-6.185545,"i_long":106.811091,"line":1,"station_id":"THB","station_name":"Tanah Abang","distance":0,"transit":false,"time":0,"is_transit":false},{"time":8,"i_long":106.800832,"is_transit":false,"station_id":"DU","line":1,"distance":3632,"i_lat":-6.155215,"transit":false,"station_name":"Duri"},{"station_id":"AK","i_long":106.79867,"is_transit":false,"i_lat":-6.144674,"transit":false,"time":4,"distance":1230,"line":1,"station_name":"Angke"},{"transit":true,"station_name":"Kampung Bandan","distance":4102,"station_id":"KPB","time":9,"i_long":106.826365,"is_transit":true,"i_lat":-6.132549,"line":4},{"i_lat":-6.14505,"distance":1444,"transit":false,"time":3,"is_transit":false,"station_name":"Rajawali","line":11,"i_long":106.836569,"station_id":"RJW"},{"i_lat":-6.161728,"transit":false,"station_id":"KMO","time":5,"distance":1901,"i_long":106.839204,"station_name":"Kemayoran","is_transit":false,"line":11},{"i_long":106.84368,"station_name":"Pasar Senen","distance":1436,"station_id":"PSE","is_transit":false,"time":4,"i_lat":-6.174784,"line":11,"transit":false},{"transit":false,"i_long":106.850107,"distance":1567,"line":11,"station_id":"GST","is_transit":false,"station_name":"Gang Sentiong","time":8,"i_lat":-6.185975},{"station_name":"Kramat","line":11,"is_transit":false,"i_long":106.855437,"distance":973,"transit":false,"time":1,"i_lat":-6.193792,"station_id":"KMT"}],[{"station_name":"Tanah Abang","distance":0,"i_lat":-6.185545,"station_id":"THB","time":0,"transit":false,"line":1,"i_long":106.811091,"is_transit":false},{"i_lat":-6.20132,"i_long":106.816351,"station_id":"KAT","time":5,"line":1,"is_transit":false,"transit":false,"station_name":"Karet","distance":2029},{"station_name":"Sudirman Baru","transit":false,"is_transit":false,"i_long":106.819881,"line":1,"i_lat":-6.201433,"station_id":"SUDB","time":1,"distance":471},{"transit":false,"is_transit":false,"i_lat":-6.202263,"i_long":106.822649,"time":1,"line":1,"distance":280,"station_id":"SUD","station_name":"Sudirman"},{"time":4,"i_lat":-6.209883,"distance":3186,"i_long":106.84912,"station_id":"MRI","transit":false,"station_name":"Manggarai","is_transit":false,"line":2},{"station_id":"MTR","time":2,"is_transit":false,"i_long":106.858896,"distance":1275,"i_lat":-6.212485,"line":1,"transit":false,"station_name":"Matraman"},{"i_long":106.86807400000001,"transit":true,"station_name":"Jatinegara","distance":1377,"time":8,"station_id":"JNG","i_lat":-6.215091,"line":1,"is_transit":true},{"line":11,"is_transit":false,"distance":1236,"i_lat":-6.209188,"i_long":106.861737,"station_name":"Pondok Jati","transit":false,"station_id":"POK","time":2},{"station_name":"Kramat","station_id":"KMT","time":2,"i_long":106.855437,"is_transit":false,"distance":1829,"i_lat":-6.193792,"transit":false,"line":11}],[{"station_id":"THB","time":0,"station_name":"Tanah Abang","is_transit":false,"distance":0,"i_lat":-6.185545,"i_long":106.811091,"line":1,"transit":false},{"station_name":"Duri","time":8,"line":1,"station_id":"DU","is_transit":false,"i_long":106.800832,"distance":3632,"i_lat":-6.155215,"transit":false},{"station_name":"Angke","transit":false,"time":4,"distance":1230,"i_lat":-6.144674,"i_long":106.79867,"line":1,"is_transit":false,"station_id":"AK"},{"station_name":"Kampung Bandan","time":9,"line":4,"station_id":"KPB","i_lat":-6.132549,"transit":true,"is_transit":true,"distance":4102,"i_long":106.826365},{"time":3,"station_id":"JAKK","distance":1364,"i_long":106.812439,"transit":true,"line":2,"station_name":"Jakarta Kota","is_transit":true,"i_lat":-6.137569},{"station_id":"JAY","time":4,"distance":1264,"is_transit":false,"i_long":106.820901,"transit":false,"i_lat":-6.141205,"station_name":"Jayakarta","line":2},{"time":2,"is_transit":false,"line":2,"i_lat":-6.149769,"station_id":"MGB","transit":false,"station_name":"Manggabesar","distance":1080,"i_long":106.82482},{"transit":false,"station_id":"SW","is_transit":false,"i_lat":-6.160725,"time":2,"i_long":106.827103,"distance":906,"line":2,"station_name":"Sawah Besar"},{"i_long":106.828284,"transit":false,"line":2,"time":2,"station_name":"Juanda","station_id":"JUA","distance":1149,"is_transit":false,"i_lat":-6.166716},{"is_transit":false,"time":4,"i_lat":-6.186295,"transit":false,"station_name":"Gondangdia","distance":2015,"i_long":106.832183,"line":2,"station_id":"GDD"},{"is_transit":false,"distance":1750,"station_id":"CKI","i_lat":-6.198556,"i_long":106.840169,"transit":false,"line":2,"time":3,"station_name":"Cikini"},{"transit":true,"time":4,"distance":1590,"station_name":"Manggarai","line":2,"is_transit":true,"station_id":"MRI","i_long":106.84912,"i_lat":-6.209883},{"station_name":"Matraman","transit":false,"station_id":"MTR","is_transit":false,"line":1,"distance":1275,"time":2,"i_lat":-6.212485,"i_long":106.858896},{"transit":true,"line":1,"is_transit":true,"station_id":"JNG","distance":1377,"i_long":106.86807400000001,"station_name":"Jatinegara","i_lat":-6.215091,"time":8},{"station_name":"Pondok Jati","station_id":"POK","is_transit":false,"i_long":106.861737,"distance":1236,"line":11,"transit":false,"time":2,"i_lat":-6.209188},{"is_transit":false,"i_lat":-6.193792,"transit":false,"station_id":"KMT","time":2,"distance":1829,"i_long":106.855437,"line":11,"station_name":"Kramat"}],[{"i_lat":-6.185545,"line":1,"is_transit":false,"i_long":106.811091,"station_id":"THB","transit":false,"time":0,"distance":0,"station_name":"Tanah Abang"},{"station_id":"KAT","i_long":106.816351,"is_transit":false,"line":1,"time":5,"i_lat":-6.20132,"station_name":"Karet","distance":2029,"transit":false},{"station_id":"SUDB","time":1,"is_transit":false,"distance":471,"i_lat":-6.201433,"line":1,"i_long":106.819881,"transit":false,"station_name":"Sudirman Baru"},{"i_lat":-6.202263,"station_name":"Sudirman","i_long":106.822649,"line":1,"is_transit":false,"distance":280,"transit":false,"time":1,"station_id":"SUD"},{"is_transit":true,"time":4,"distance":3186,"i_lat":-6.209883,"transit":true,"station_id":"MRI","line":2,"i_long":106.84912,"station_name":"Manggarai"},{"i_lat":-6.198556,"i_long":106.840169,"distance":1590,"line":2,"station_id":"CKI","station_name":"Cikini","is_transit":false,"time":4,"transit":false},{"is_transit":false,"line":2,"station_name":"Gondangdia","station_id":"GDD","i_long":106.832183,"distance":1750,"time":3,"i_lat":-6.186295,"transit":false},{"transit":false,"i_lat":-6.166716,"station_name":"Juanda","time":4,"station_id":"JUA","is_transit":false,"distance":2015,"i_long":106.828284,"line":2},{"transit":false,"station_id":"SW","time":2,"station_name":"Sawah Besar","i_lat":-6.160725,"i_long":106.827103,"is_transit":false,"line":2,"distance":1149},{"i_lat":-6.149769,"line":2,"station_name":"Manggabesar","transit":false,"time":2,"station_id":"MGB","i_long":106.82482,"distance":906,"is_transit":false},{"station_name":"Jayakarta","time":2,"i_long":106.820901,"line":2,"station_id":"JAY","is_transit":false,"i_lat":-6.141205,"transit":false,"distance":1080},{"distance":1264,"station_id":"JAKK","transit":true,"i_lat":-6.137569,"i_long":106.812439,"line":2,"time":4,"station_name":"Jakarta Kota","is_transit":true},{"i_lat":-6.132549,"transit":true,"i_long":106.826365,"is_transit":true,"station_id":"KPB","time":3,"line":4,"station_name":"Kampung Bandan","distance":1364},{"line":11,"i_lat":-6.14505,"time":3,"is_transit":false,"station_id":"RJW","i_long":106.836569,"distance":1444,"transit":false,"station_name":"Rajawali"},{"i_lat":-6.161728,"line":11,"distance":1901,"is_transit":false,"i_long":106.839204,"transit":false,"time":5,"station_name":"Kemayoran","station_id":"KMO"},{"transit":false,"i_lat":-6.174784,"distance":1436,"i_long":106.84368,"station_id":"PSE","line":11,"is_transit":false,"time":4,"station_name":"Pasar Senen"},{"distance":1567,"transit":false,"line":11,"station_name":"Gang Sentiong","station_id":"GST","time":8,"is_transit":false,"i_lat":-6.185975,"i_long":106.850107},{"station_id":"KMT","line":11,"distance":973,"station_name":"Kramat","transit":false,"is_transit":false,"i_lat":-6.193792,"i_long":106.855437,"time":1}]]}