{"data":[[{"time":0,"station_name":"Tanah Abang","is_transit":false,"i_lat":-6.185545,"transit":false,"station_id":"THB","distance":0,"i_long":106.811091,"line":1},{"transit":false,"line":1,"station_name":"Karet","station_id":"KAT","time":5,"i_lat":-6.20132,"i_long":106.816351,"distance":2029,"is_transit":false},{"line":1,"transit":false,"station_name":"Sudirman Baru","is_transit":false,"distance":471,"time":1,"i_lat":-6.201433,"i_long":106.819881,"station_id":"SUDB"},{"station_name":"Sudirman","station_id":"SUD","i_long":106.822649,"time":1,"i_lat":-6.202263,"is_transit":false,"line":1,"distance":280,"transit":false},{"time":4,"line":2,"i_long":106.84912,"station_id":"MRI","distance":3186,"is_transit":true,"station_name":"Manggarai","i_lat":-6.209883,"transit":true},{"is_transit":false,"i_lat":-6.226659,"station_id":"TEB","station_name":"Tebet","i_long":106.857948,"line":2,"transit":false,"time":4,"distance":2610},{"line":2,"is_transit":false,"i_lat":-6.242512,"time":2,"station_id":"CW","station_name":"Cawang","i_long":106.856607,"transit":false,"distance":1230},{"distance":1546,"transit":false,"station_name":"Duren Kalibata","time":3,"line":2,"is_transit":false,"i_long":106.85449,"station_id":"DRN","i_lat":-6.255332},{"distance":824,"i_long":106.851577,"time":2,"line":2,"transit":false,"station_name":"Pasar Minggu Baru","station_id":"PSMB","is_transit":false,"i_lat":-6.263214},{"line":2,"i_lat":-6.2842400000000005,"station_id":"PSM","time":2,"station_name":"Pasar Minggu","transit":false,"is_transit":false,"distance":2380,"i_long":106.843999},{"station_name":"Tanjung Barat","time":4,"transit":false,"is_transit":false,"distance":2820,"i_long":106.838896,"line":2,"station_id":"TNT","i_lat":-6.3080680000000005},{"station_id":"LNA","i_long":106.832616,"line":2,"time":3,"distance":2671,"station_name":"Lenteng Agung","is_transit":false,"transit":false,"i_lat":-6.330363}],[{"is_transit":false,"station_id":"THB","time":0,"distance":0,"i_long":106.811091,"station_name":"Tanah Abang","i_lat":-6.185545,"transit":false,"line":1},{"line":1,"i_long":106.800832,"transit":false,"is_transit":false,"distance":3632,"i_lat":-6.155215,"time":8,"station_name":"Duri","station_id":"DU"},{"station_name":"Angke","is_transit":false,"time":4,"line":1,"station_id":"AK","transit":false,"distance":1230,"i_lat":-6.144674,"i_long":106.79867},{"i_lat":-6.132549,"station_name":"Kampung Bandan","i_long":106.826365,"transit":true,"distance":4102,"station_id":"KPB","is_transit":true,"time":9,"line":4},{"i_lat":-6.137569,"time":3,"is_transit":true,"line":2,"transit":true,"distance":1364,"i_long":106.812439,"station_name":"Jakarta Kota","station_id":"JAKK"},{"time":4,"transit":false,"station_name":"Jayakarta","station_id":"JAY","distance":1264,"i_lat":-6.141205,"i_long":106.820901,"is_transit":false,"line":2},{"line":2,"station_id":"MGB","station_name":"Manggabesar","i_lat":-6.149769,"transit":false,"distance":1080,"time":2,"is_transit":false,"i_long":106.82482},{"time":2,"station_id":"SW","is_transit":false,"i_long":106.827103,"line":2,"transit":false,"distance":906,"i_lat":-6.160725,"station_name":"Sawah Besar"},{"is_transit":false,"transit":false,"station_id":"JUA","i_lat":-6.166716,"i_long":106.828284,"time":2,"line":2,"distance":1149,"station_name":"Juanda"},{"i_long":106.832183,"time":4,"is_transit":false,"station_id":"GDD","line":2,"distance":2015,"transit":false,"i_lat":-6.186295,"station_name":"Gondangdia"},{"i_long":106.840169,"line":2,"station_id":"CKI","time":3,"distance":1750,"i_lat":-6.198556,"station_name":"Cikini","transit":false,"is_transit":false},{"station_name":"Manggarai","line":2,"station_id":"MRI","i_long":106.84912,"time":4,"is_transit":false,"i_lat":-6.209883,"distance":1590,"transit":false},{"transit":false,"i_lat":-6.226659,"distance":2610,"station_name":"Tebet","is_transit":false,"time":4,"line":2,"station_id":"TEB","i_long":106.857948},{"distance":1230,"i_long":106.856607,"line":2,"i_lat":-6.242512,"station_id":"CW","transit":false,"time":2,"is_transit":false,"station_name":"Cawang"},{"i_long":106.85449,"line":2,"station_name":"Duren Kalibata","is_transit":false,"i_lat":-6.255332,"station_id":"DRN","time":3,"transit":false,"distance":1546},{"i_long":106.851577,"transit":false,"is_transit":false,"line":2,"i_lat":-6.263214,"station_id":"PSMB","time":2,"distance":824,"station_name":"Pasar Minggu Baru"},{"time":2,"transit":false,"i_long":106.843999,"line":2,"is_transit":false,"i_lat":-6.2842400000000005,"station_id":"PSM","station_name":"Pasar Minggu","distance":2380},{"station_id":"TNT","is_transit":false,"station_name":"Tanjung Barat","i_long":106.838896,"time":4,"line":2,"transit":false,"i_lat":-6.3080680000000005,"distance":2820},{"i_lat":-6.330363,"station_name":"Lenteng Agung","transit":false,"i_long":106.832616,"station_id":"LNA","is_transit":false,"time":3,"line":2,"distance":2671}],[{"station_name":"Tanah Abang","i_long":106.811091,"distance":0,"station_id":"THB","time":0,"is_transit":false,"i_lat":-6.185545,"line":1,"transit":false},{"transit":false,"is_transit":false,"i_lat":-6.155215,"i_long":106.800832,"station_name":"Duri","station_id":"DU","time":8,"line":1,"distance":3632},{"i_long":106.79867,"time":4,"i_lat":-6.144674,"line":1,"station_name":"Angke","is_transit":false,"transit":false,"distance":1230,"station_id":"AK"},{"distance":4102,"station_id":"KPB","i_long":106.826365,"is_transit":true,"time":9,"i_lat":-6.132549,"line":4,"station_name":"Kampung Bandan","transit":true},{"time":3,"i_lat":-6.14505,"distance":1444,"transit":false,"i_long":106.836569,"line":11,"station_name":"Rajawali","station_id":"RJW","is_transit":false},{"i_lat":-6.161728,"time":5,"station_id":"KMO","i_long":106.839204,"transit":false,"is_transit":false,"distance":1901,"station_name":"Kemayoran","line":11},{"is_transit":false,"line":11,"transit":false,"station_id":"PSE","station_name":"Pasar Senen","i_lat":-6.174784,"distance":1436,"i_long":106.84368,"time":4},{"i_long":106.850107,"station_name":"Gang Sentiong","time":8,"transit":false,"station_id":"GST","i_lat":-6.185975,"is_transit":false,"distance":1567,"line":11},{"time":1,"distance":973,"transit":false,"station_id":"KMT","station_name":"Kramat","i_long":106.855437,"i_lat":-6.193792,"is_transit":false,"line":11},{"station_id":"POK","transit":false,"distance":1829,"line":11,"station_name":"Pondok Jati","i_long":106.861737,"time":2,"i_lat":-6.209188,"is_transit":false},{"i_long":106.86807400000001,"station_name":"Jatinegara","i_lat":-6.215091,"distance":1236,"time":9,"station_id":"JNG","line":1,"is_transit":true,"transit":true},{"line":1,"station_id":"MTR","time":2,"transit":false,"i_lat":-6.212485,"is_transit":false,"distance":1377,"i_long":106.858896,"station_name":"Matraman"},{"is_transit":true,"i_long":106.84912,"time":2,"distance":1275,"station_name":"Manggarai","station_id":"MRI","line":2,"i_lat":-6.209883,"transit":true},{"station_name":"Tebet","station_id":"TEB","i_lat":-6.226659,"distance":2610,"i_long":106.857948,"time":4,"is_transit":false,"line":2,"transit":false},{"is_transit":false,"i_lat":-6.242512,"transit":false,"station_name":"Cawang","station_id":"CW","distance":1230,"line":2,"time":2,"i_long":106.856607},{"time":3,"line":2,"i_long":106.85449,"i_lat":-6.255332,"transit":false,"station_name":"Duren Kalibata","is_transit":false,"station_id":"DRN","distance":1546},{"i_lat":-6.263214,"is_transit":false,"time":2,"i_long":106.851577,"line":2,"station_name":"Pasar Minggu Baru","transit":false,"distance":824,"station_id":"PSMB"},{"is_transit":false,"i_long":106.843999,"distance":2380,"transit":false,"station_id":"PSM","i_lat":-6.2842400000000005,"line":2,"time":2,"station_name":"Pasar Minggu"},{"distance":2820,"i_lat":-6.3080680000000005,"time":4,"line":2,"station_id":"TNT","is_transit":false,"station_name":"Tanjung Barat","i_long":106.838896,"transit":false},{"transit":false,"distance":2671,"i_lat":-6.330363,"station_name":"Lenteng Agung","station_id":"LNA","time":3,"is_transit":false,"i_long":106.832616,"line":2}]]}