{"data":[[{"station_id":"THB","distance":0,"station_name":"Tanah Abang","line":1,"i_lat":-6.185545,"transit":false,"is_transit":false,"time":0,"i_long":106.811091},{"time":8,"is_transit":false,"transit":false,"station_name":"Duri","i_lat":-6.155215,"station_id":"DU","distance":3632,"i_long":106.800832,"line":1},{"time":4,"is_transit":false,"i_lat":-6.144674,"i_long":106.79867,"station_id":"AK","distance":1230,"line":1,"transit":false,"station_name":"Angke"},{"station_id":"KPB","i_lat":-6.132549,"i_long":106.826365,"distance":4102,"transit":false,"line":4,"is_transit":false,"time":9,"station_name":"Kampung Bandan"}],[{"station_name":"Tanah Abang","i_long":106.811091,"transit":false,"station_id":"THB","is_transit":false,"distance":0,"i_lat":-6.185545,"line":1,"time":0},{"i_long":106.816351,"distance":2029,"time":5,"transit":false,"station_name":"Karet","i_lat":-6.20132,"line":1,"station_id":"KAT","is_transit":false},{"station_name":"Sudirman Baru","line":1,"is_transit":false,"time":1,"distance":471,"i_long":106.819881,"transit":false,"station_id":"SUDB","i_lat":-6.201433},{"i_long":106.822649,"line":1,"station_name":"Sudirman","is_transit":false,"station_id":"SUD","distance":280,"transit":false,"time":1,"i_lat":-6.202263},{"distance":3186,"station_name":"Manggarai","station_id":"MRI","transit":true,"is_transit":true,"time":4,"i_lat":-6.209883,"i_long":106.84912,"line":2},{"distance":1590,"station_name":"Cikini","time":4,"i_lat":-6.198556,"i_long":106.840169,"line":2,"station_id":"CKI","is_transit":false,"transit":false},{"distance":1750,"transit":false,"line":2,"i_long":106.832183,"is_transit":false,"station_id":"GDD","i_lat":-6.186295,"time":3,"station_name":"Gondangdia"},{"distance":2015,"i_long":106.828284,"is_transit":false,"transit":false,"station_id":"JUA","i_lat":-6.166716,"time":4,"station_name":"Juanda","line":2},{"station_name":"Sawah Besar","i_long":106.827103,"line":2,"station_id":"SW","i_lat":-6.160725,"time":2,"distance":1149,"transit":false,"is_transit":false},{"distance":906,"line":2,"time":2,"is_transit":false,"i_long":106.82482,"station_id":"MGB","station_name":"Manggabesar","transit":false,"i_lat":-6.149769},{"distance":1080,"i_long":106.820901,"station_id":"JAY","time":2,"i_lat":-6.141205,"station_name":"Jayakarta","line":2,"is_transit":false,"transit":false},{"station_id":"JAKK","transit":true,"line":2,"i_lat":-6.137569,"is_transit":true,"station_name":"Jakarta Kota","time":4,"i_long":106.812439,"distance":1264},{"line":4,"distance":1364,"station_name":"Kampung Bandan","i_lat":-6.132549,"i_long":106.826365,"station_id":"KPB","is_transit":false,"time":3,"transit":false}],[{"station_name":"Tanah Abang","time":0,"i_lat":-6.185545,"i_long":106.811091,"distance":0,"transit":false,"is_transit":false,"station_id":"THB","line":1},{"distance":2029,"i_long":106.816351,"station_id":"KAT","line":1,"time":5,"i_lat":-6.20132,"transit":false,"station_name":"Karet","is_transit":false},{"distance":471,"line":1,"station_id":"SUDB","i_lat":-6.201433,"is_transit":false,"station_name":"Sudirman Baru","i_long":106.819881,"transit":false,"time":1},{"transit":false,"i_lat":-6.202263,"time":1,"distance":280,"station_name":"Sudirman","i_long":106.822649,"station_id":"SUD","is_transit":false,"line":1},{"i_long":106.84912,"line":2,"i_lat":-6.209883,"transit":false,"station_name":"Manggarai","time":4,"is_transit":false,"station_id":"MRI","distance":3186},{"distance":1275,"line":1,"station_id":"MTR","station_name":"Matraman","i_lat":-6.212485,"i_long":106.858896,"transit":false,"time":2,"is_transit":false},{"station_name":"Jatinegara","line":1,"is_transit":true,"time":8,"i_long":106.86807400000001,"station_id":"JNG","distance":1377,"transit":true,"i_lat":-6.215091},{"distance":1236,"station_name":"Pondok Jati","i_lat":-6.209188,"is_transit":false,"i_long":106.861737,"line":11,"station_id":"POK","transit":false,"time":2},{"time":2,"is_transit":false,"transit":false,"station_id":"KMT","distance":1829,"i_lat":-6.193792,"station_name":"Kramat","i_long":106.855437,"line":11},{"i_long":106.850107,"i_lat":-6.185975,"distance":973,"is_transit":false,"line":11,"station_name":"Gang Sentiong","station_id":"GST","time":1,"transit":false},{"station_name":"Pasar Senen","transit":false,"station_id":"PSE","line":11,"is_transit":false,"i_lat":-6.174784,"distance":1567,"i_long":106.84368,"time":8},{"station_id":"KMO","time":4,"transit":false,"i_long":106.839204,"station_name":"Kemayoran","distance":1436,"line":11,"is_transit":false,"i_lat":-6.161728},{"is_transit":false,"i_lat":-6.14505,"station_name":"Rajawali","i_long":106.836569,"line":11,"distance":1901,"station_id":"RJW","time":5,"transit":false},{"i_long":106.826365,"line":4,"station_name":"Kampung Bandan","station_id":"KPB","transit":false,"distance":1444,"i_lat":-6.132549,"time":3,"is_transit":false}]]}