{"data":[[{"time":0,"transit":false,"i_long":106.811091,"line":1,"station_name":"Tanah Abang","station_id":"THB","distance":0,"is_transit":false,"i_lat":-6.185545},{"i_lat":-6.20132,"transit":false,"is_transit":false,"distance":2029,"station_name":"Karet","time":5,"line":1,"i_long":106.816351,"station_id":"KAT"},{"i_long":106.819881,"i_lat":-6.201433,"station_name":"Sudirman Baru","time":1,"distance":471,"is_transit":false,"transit":false,"line":1,"station_id":"SUDB"},{"i_lat":-6.202263,"i_long":106.822649,"station_name":"Sudirman","is_transit":false,"time":1,"distance":280,"station_id":"SUD","transit":false,"line":1},{"line":2,"station_id":"MRI","i_long":106.84912,"station_name":"Manggarai","time":4,"is_transit":false,"transit":false,"distance":3186,"i_lat":-6.209883},{"i_lat":-6.212485,"station_name":"Matraman","distance":1275,"is_transit":false,"i_long":106.858896,"time":2,"line":1,"station_id":"MTR","transit":false},{"station_name":"Jatinegara","is_transit":false,"station_id":"JNG","i_long":106.86807400000001,"time":8,"distance":1377,"i_lat":-6.215091,"transit":false,"line":1}],[{"is_transit":false,"i_long":106.811091,"i_lat":-6.185545,"station_name":"Tanah Abang","distance":0,"station_id":"THB","transit":false,"line":1,"time":0},{"distance":3632,"is_transit":false,"i_long":106.800832,"line":1,"station_name":"Duri","i_lat":-6.155215,"station_id":"DU","transit":false,"time":8},{"time":4,"transit":false,"station_id":"AK","distance":1230,"i_lat":-6.144674,"i_long":106.79867,"station_name":"Angke","is_transit":false,"line":1},{"time":9,"i_lat":-6.132549,"distance":4102,"station_name":"Kampung Bandan","is_transit":true,"line":4,"station_id":"KPB","transit":true,"i_long":106.826365},{"is_transit":false,"distance":1444,"time":3,"line":11,"station_name":"Rajawali","i_lat":-6.14505,"i_long":106.836569,"station_id":"RJW","transit":false},{"i_lat":-6.161728,"station_id":"KMO","transit":false,"is_transit":false,"distance":1901,"i_long":106.839204,"station_name":"Kemayoran","line":11,"time":5},{"transit":false,"time":4,"i_lat":-6.174784,"distance":1436,"is_transit":false,"station_id":"PSE","station_name":"Pasar Senen","i_long":106.84368,"line":11},{"is_transit":false,"i_long":106.850107,"line":11,"i_lat":-6.185975,"station_id":"GST","station_name":"Gang Sentiong","transit":false,"time":8,"distance":1567},{"i_lat":-6.193792,"distance":973,"is_transit":false,"transit":false,"line":11,"station_id":"KMT","i_long":106.855437,"time":1,"station_name":"Kramat"},{"time":2,"station_name":"Pondok Jati","station_id":"POK","transit":false,"line":11,"is_transit":false,"distance":1829,"i_lat":-6.209188,"i_long":106.861737},{"distance":1236,"transit":false,"i_long":106.86807400000001,"line":1,"station_id":"JNG","station_name":"Jatinegara","is_transit":false,"i_lat":-6.215091,"time":9}],[{"time":0,"station_name":"Tanah Abang","i_long":106.811091,"transit":false,"is_transit":false,"station_id":"THB","distance":0,"i_lat":-6.185545,"line":1},{"is_transit":false,"line":1,"distance":3632,"transit":false,"i_lat":-6.155215,"station_id":"DU","time":8,"station_name":"Duri","i_long":106.800832},{"time":4,"station_id":"AK","station_name":"Angke","is_transit":false,"transit":false,"i_lat":-6.144674,"line":1,"distance":1230,"i_long":106.79867},{"distance":4102,"line":4,"station_name":"Kampung Bandan","is_transit":true,"station_id":"KPB","transit":true,"time":9,"i_long":106.826365,"i_lat":-6.132549},{"transit":true,"station_id":"JAKK","distance":1364,"is_transit":true,"i_lat":-6.137569,"i_long":106.812439,"time":3,"station_name":"Jakarta Kota","line":2},{"station_id":"JAY","line":2,"i_lat":-6.141205,"station_name":"Jayakarta","distance":1264,"i_long":106.820901,"time":4,"is_transit":false,"transit":false},{"i_long":106.82482,"transit":false,"is_transit":false,"distance":1080,"time":2,"line":2,"station_name":"Manggabesar","i_lat":-6.149769,"station_id":"MGB"},{"line":2,"transit":false,"time":2,"i_lat":-6.160725,"distance":906,"station_id":"SW","is_transit":false,"station_name":"Sawah Besar","i_long":106.827103},{"station_name":"Juanda","transit":false,"is_transit":false,"i_lat":-6.166716,"time":2,"station_id":"JUA","distance":1149,"i_long":106.828284,"line":2},{"i_lat":-6.186295,"transit":false,"line":2,"is_transit":false,"station_name":"Gondangdia","time":4,"i_long":106.832183,"distance":2015,"station_id":"GDD"},{"station_id":"CKI","station_name":"Cikini","transit":false,"is_transit":false,"i_lat":-6.198556,"time":3,"i_long":106.840169,"line":2,"distance":1750},{"time":4,"station_id":"MRI","distance":1590,"is_transit":true,"transit":true,"i_lat":-6.209883,"line":2,"station_name":"Manggarai","i_long":106.84912},{"station_name":"Matraman","time":2,"is_transit":false,"i_long":106.858896,"i_lat":-6.212485,"station_id":"MTR","distance":1275,"line":1,"transit":false},{"i_long":106.86807400000001,"distance":1377,"i_lat":-6.215091,"station_name":"Jatinegara","is_transit":false,"time":8,"line":1,"station_id":"JNG","transit":false}],[{"is_transit":false,"station_id":"THB","i_long":106.811091,"i_lat":-6.185545,"time":0,"station_name":"Tanah Abang","line":1,"transit":false,"distance":0},{"is_transit":false,"line":1,"i_long":106.816351,"station_id":"KAT","distance":2029,"time":5,"station_name":"Karet","transit":false,"i_lat":-6.20132},{"is_transit":false,"station_id":"SUDB","line":1,"i_long":106.819881,"i_lat":-6.201433,"station_name":"Sudirman Baru","distance":471,"time":1,"transit":false},{"time":1,"distance":280,"transit":false,"i_lat":-6.202263,"i_long":106.822649,"station_name":"Sudirman","station_id":"SUD","line":1,"is_transit":false},{"time":4,"i_lat":-6.209883,"transit":true,"is_transit":true,"station_id":"MRI","station_name":"Manggarai","distance":3186,"i_long":106.84912,"line":2},{"transit":false,"station_id":"CKI","distance":1590,"i_long":106.840169,"is_transit":false,"line":2,"i_lat":-6.198556,"station_name":"Cikini","time":4},{"is_transit":false,"time":3,"i_long":106.832183,"transit":false,"station_id":"GDD","line":2,"i_lat":-6.186295,"station_name":"Gondangdia","distance":1750},{"time":4,"distance":2015,"station_name":"Juanda","is_transit":false,"i_long":106.828284,"transit":false,"line":2,"station_id":"JUA","i_lat":-6.166716},{"station_name":"Sawah Besar","station_id":"SW","i_lat":-6.160725,"time":2,"distance":1149,"transit":false,"i_long":106.827103,"line":2,"is_transit":false},{"is_transit":false,"i_lat":-6.149769,"distance":906,"station_id":"MGB","transit":false,"line":2,"i_long":106.82482,"station_name":"Manggabesar","time":2},{"line":2,"i_lat":-6.141205,"i_long":106.820901,"transit":false,"station_id":"JAY","time":2,"is_transit":false,"station_name":"Jayakarta","distance":1080},{"transit":true,"time":4,"i_long":106.812439,"station_id":"JAKK","is_transit":true,"station_name":"Jakarta Kota","line":2,"distance":1264,"i_lat":-6.137569},{"distance":1364,"is_transit":true,"station_name":"Kampung Bandan","station_id":"KPB","i_long":106.826365,"line":4,"transit":true,"time":3,"i_lat":-6.132549},{"transit":false,"distance":1444,"time":3,"station_id":"RJW","i_lat":-6.14505,"station_name":"Rajawali","i_long":106.836569,"line":11,"is_transit":false},{"i_lat":-6.161728,"transit":false,"i_long":106.839204,"station_name":"Kemayoran","time":5,"distance":1901,"is_transit":false,"station_id":"KMO","line":11},{"station_name":"Pasar Senen","i_lat":-6.174784,"distance":1436,"station_id":"PSE","transit":false,"time":4,"is_transit":false,"i_long":106.84368,"line":11},{"station_name":"Gang Sentiong","distance":1567,"i_lat":-6.185975,"transit":false,"time":8,"station_id":"GST","is_transit":false,"i_long":106.850107,"line":11},{"time":1,"line":11,"distance":973,"transit":false,"station_name":"Kramat","i_long":106.855437,"i_lat":-6.193792,"is_transit":false,"station_id":"KMT"},{"station_id":"POK","station_name":"Pondok Jati","transit":false,"i_lat":-6.209188,"line":11,"time":2,"distance":1829,"is_transit":false,"i_long":106.861737},{"is_transit":false,"line":1,"station_name":"Jatinegara","distance":1236,"transit":false,"time":9,"station_id":"JNG","i_lat":-6.215091,"i_long":106.86807400000001}]]}