{"data":[[{"time":0,"line":1,"is_transit":false,"i_lat":-6.185545,"distance":0,"station_id":"THB","station_name":"Tanah Abang","i_long":106.811091,"transit":false},{"time":5,"station_name":"Karet","line":1,"transit":false,"is_transit":false,"station_id":"KAT","i_long":106.816351,"distance":2029,"i_lat":-6.20132},{"i_lat":-6.201433,"distance":471,"time":1,"i_long":106.819881,"is_transit":false,"transit":false,"station_id":"SUDB","station_name":"Sudirman Baru","line":1},{"transit":false,"distance":280,"line":1,"station_id":"SUD","i_lat":-6.202263,"is_transit":false,"i_long":106.822649,"time":1,"station_name":"Sudirman"},{"i_lat":-6.209883,"line":2,"is_transit":true,"transit":true,"station_name":"Manggarai","i_long":106.84912,"station_id":"MRI","distance":3186,"time":4},{"i_long":106.857948,"is_transit":false,"line":2,"station_id":"TEB","time":4,"transit":false,"distance":2610,"station_name":"Tebet","i_lat":-6.226659},{"distance":1230,"transit":false,"i_lat":-6.242512,"station_name":"Cawang","time":2,"line":2,"i_long":106.856607,"is_transit":false,"station_id":"CW"},{"line":2,"i_long":106.85449,"time":3,"station_id":"DRN","station_name":"Duren Kalibata","is_transit":false,"transit":false,"i_lat":-6.255332,"distance":1546},{"station_name":"Pasar Minggu Baru","transit":false,"i_lat":-6.263214,"station_id":"PSMB","i_long":106.851577,"distance":824,"is_transit":false,"line":2,"time":2},{"station_id":"PSM","station_name":"Pasar Minggu","i_long":106.843999,"i_lat":-6.2842400000000005,"line":2,"distance":2380,"transit":false,"time":2,"is_transit":false},{"i_lat":-6.3080680000000005,"distance":2820,"transit":false,"station_id":"TNT","line":2,"is_transit":false,"time":4,"station_name":"Tanjung Barat","i_long":106.838896},{"is_transit":false,"i_lat":-6.330363,"distance":2671,"i_long":106.832616,"time":3,"station_id":"LNA","line":2,"station_name":"Lenteng Agung","transit":false}],[{"transit":false,"time":0,"distance":0,"station_name":"Tanah Abang","line":1,"i_long":106.811091,"i_lat":-6.185545,"station_id":"THB","is_transit":false},{"station_id":"DU","is_transit":false,"transit":false,"i_lat":-6.155215,"i_long":106.800832,"time":8,"station_name":"Duri","line":1,"distance":3632},{"is_transit":false,"i_long":106.79867,"transit":false,"distance":1230,"station_name":"Angke","time":4,"station_id":"AK","i_lat":-6.144674,"line":1},{"distance":4102,"time":9,"i_long":106.826365,"i_lat":-6.132549,"station_id":"KPB","is_transit":true,"station_name":"Kampung Bandan","transit":true,"line":4},{"is_transit":true,"i_lat":-6.137569,"line":2,"transit":true,"time":3,"station_name":"Jakarta Kota","i_long":106.812439,"distance":1364,"station_id":"JAKK"},{"time":4,"station_id":"JAY","line":2,"distance":1264,"is_transit":false,"station_name":"Jayakarta","transit":false,"i_long":106.820901,"i_lat":-6.141205},{"is_transit":false,"i_long":106.82482,"distance":1080,"transit":false,"station_name":"Manggabesar","i_lat":-6.149769,"line":2,"time":2,"station_id":"MGB"},{"i_long":106.827103,"distance":906,"station_id":"SW","i_lat":-6.160725,"line":2,"transit":false,"time":2,"is_transit":false,"station_name":"Sawah Besar"},{"line":2,"i_lat":-6.166716,"i_long":106.828284,"is_transit":false,"transit":false,"time":2,"station_name":"Juanda","distance":1149,"station_id":"JUA"},{"i_long":106.832183,"line":2,"distance":2015,"is_transit":false,"transit":false,"i_lat":-6.186295,"station_id":"GDD","station_name":"Gondangdia","time":4},{"station_id":"CKI","is_transit":false,"station_name":"Cikini","i_lat":-6.198556,"line":2,"time":3,"transit":false,"distance":1750,"i_long":106.840169},{"station_name":"Manggarai","transit":false,"station_id":"MRI","i_lat":-6.209883,"distance":1590,"time":4,"is_transit":false,"i_long":106.84912,"line":2},{"i_long":106.857948,"station_name":"Tebet","line":2,"distance":2610,"is_transit":false,"time":4,"station_id":"TEB","transit":false,"i_lat":-6.226659},{"distance":1230,"station_name":"Cawang","i_lat":-6.242512,"is_transit":false,"i_long":106.856607,"station_id":"CW","transit":false,"line":2,"time":2},{"is_transit":false,"i_lat":-6.255332,"i_long":106.85449,"line":2,"time":3,"distance":1546,"station_name":"Duren Kalibata","transit":false,"station_id":"DRN"},{"i_lat":-6.263214,"line":2,"time":2,"is_transit":false,"station_name":"Pasar Minggu Baru","i_long":106.851577,"distance":824,"transit":false,"station_id":"PSMB"},{"time":2,"distance":2380,"is_transit":false,"transit":false,"station_name":"Pasar Minggu","i_lat":-6.2842400000000005,"i_long":106.843999,"line":2,"station_id":"PSM"},{"station_id":"TNT","line":2,"time":4,"i_long":106.838896,"station_name":"Tanjung Barat","i_lat":-6.3080680000000005,"transit":false,"is_transit":false,"distance":2820},{"station_id":"LNA","i_long":106.832616,"time":3,"i_lat":-6.330363,"distance":2671,"transit":false,"station_name":"Lenteng Agung","line":2,"is_transit":false}],[{"line":1,"i_long":106.811091,"station_name":"Tanah Abang","distance":0,"transit":false,"is_transit":false,"time":0,"station_id":"THB","i_lat":-6.185545},{"distance":3632,"is_transit":false,"transit":false,"station_id":"DU","i_lat":-6.155215,"station_name":"Duri","line":1,"i_long":106.800832,"time":8},{"transit":false,"station_name":"Angke","is_transit":false,"time":4,"i_lat":-6.144674,"station_id":"AK","i_long":106.79867,"line":1,"distance":1230},{"i_lat":-6.132549,"transit":true,"station_id":"KPB","distance":4102,"time":9,"line":4,"station_name":"Kampung Bandan","i_long":106.826365,"is_transit":true},{"line":11,"time":3,"station_id":"RJW","is_transit":false,"distance":1444,"i_lat":-6.14505,"transit":false,"station_name":"Rajawali","i_long":106.836569},{"transit":false,"i_long":106.839204,"i_lat":-6.161728,"station_id":"KMO","is_transit":false,"station_name":"Kemayoran","line":11,"time":5,"distance":1901},{"is_transit":false,"transit":false,"station_id":"PSE","i_lat":-6.174784,"i_long":106.84368,"line":11,"station_name":"Pasar Senen","distance":1436,"time":4},{"time":8,"station_name":"Gang Sentiong","line":11,"station_id":"GST","i_lat":-6.185975,"i_long":106.850107,"is_transit":false,"distance":1567,"transit":false},{"is_transit":false,"distance":973,"station_name":"Kramat","time":1,"transit":false,"station_id":"KMT","line":11,"i_lat":-6.193792,"i_long":106.855437},{"line":11,"station_id":"POK","transit":false,"i_lat":-6.209188,"i_long":106.861737,"distance":1829,"is_transit":false,"time":2,"station_name":"Pondok Jati"},{"transit":true,"line":1,"time":9,"i_long":106.86807400000001,"is_transit":true,"distance":1236,"station_name":"Jatinegara","station_id":"JNG","i_lat":-6.215091},{"distance":1377,"is_transit":false,"station_name":"Matraman","transit":false,"station_id":"MTR","time":2,"i_lat":-6.212485,"line":1,"i_long":106.858896},{"station_id":"MRI","distance":1275,"i_lat":-6.209883,"time":2,"is_transit":true,"transit":true,"station_name":"Manggarai","i_long":106.84912,"line":2},{"station_name":"Tebet","i_lat":-6.226659,"station_id":"TEB","transit":false,"is_transit":false,"line":2,"i_long":106.857948,"time":4,"distance":2610},{"station_name":"Cawang","line":2,"time":2,"i_lat":-6.242512,"station_id":"CW","transit":false,"is_transit":false,"distance":1230,"i_long":106.856607},{"station_name":"Duren Kalibata","station_id":"DRN","time":3,"line":2,"i_lat":-6.255332,"transit":false,"distance":1546,"is_transit":false,"i_long":106.85449},{"is_transit":false,"line":2,"distance":824,"time":2,"transit":false,"station_id":"PSMB","i_lat":-6.263214,"station_name":"Pasar Minggu Baru","i_long":106.851577},{"station_name":"Pasar Minggu","time":2,"transit":false,"is_transit":false,"line":2,"i_long":106.843999,"i_lat":-6.2842400000000005,"distance":2380,"station_id":"PSM"},{"time":4,"i_long":106.838896,"line":2,"transit":false,"is_transit":false,"distance":2820,"station_id":"TNT","station_name":"Tanjung Barat","i_lat":-6.3080680000000005},{"time":3,"i_lat":-6.330363,"is_transit":false,"distance":2671,"line":2,"transit":false,"station_name":"Lenteng Agung","i_long":106.832616,"station_id":"LNA"}]]}