{"data":[[{"distance":0,"time":0,"line":1,"i_lat":-6.185545,"transit":false,"station_id":"THB","station_name":"Tanah Abang","i_long":106.811091,"is_transit":true},{"i_lat":-6.20132,"distance":2029,"station_id":"KAT","line":1,"transit":false,"station_name":"Karet","i_long":106.816351,"time":5,"is_transit":false},{"distance":471,"line":1,"station_id":"SUDB","i_lat":-6.201433,"station_name":"Sudirman Baru","transit":false,"time":1,"is_transit":false,"i_long":106.819881},{"transit":false,"time":1,"station_id":"SUD","i_lat":-6.202263,"i_long":106.822649,"distance":280,"line":1,"is_transit":false,"station_name":"Sudirman"},{"i_long":106.84912,"is_transit":true,"i_lat":-6.209883,"station_name":"Manggarai","line":0,"station_id":"MRI","time":4,"distance":3186,"transit":true},{"line":2,"i_lat":-6.226659,"station_id":"TEB","transit":false,"distance":2610,"station_name":"Tebet","i_long":106.857948,"time":4,"is_transit":false},{"is_transit":false,"distance":1230,"i_long":106.856607,"transit":false,"station_id":"CW","station_name":"Cawang","time":2,"i_lat":-6.242512,"line":0},{"station_name":"Duren Kalibata","transit":false,"is_transit":false,"distance":1546,"time":3,"station_id":"DRN","i_lat":-6.255332,"i_long":106.85449,"line":0},{"station_name":"Pasar Minggu Baru","transit":false,"distance":824,"is_transit":false,"station_id":"PSMB","line":2,"i_lat":-6.263214,"i_long":106.851577,"time":2},{"station_name":"Pasar Minggu","distance":2380,"transit":false,"line":2,"i_long":106.843999,"station_id":"PSM","time":2,"is_transit":false,"i_lat":-6.2842400000000005},{"i_lat":-6.3080680000000005,"distance":2820,"station_id":"TNT","line":2,"i_long":106.838896,"transit":false,"station_name":"Tanjung Barat","time":4,"is_transit":false},{"is_transit":false,"i_lat":-6.330363,"line":2,"i_long":106.832616,"station_name":"Lenteng Agung","time":3,"distance":2671,"station_id":"LNA","transit":false},{"distance":1029,"transit":false,"is_transit":false,"station_name":"Univ. Pancasila","i_long":106.834175,"station_id":"UP","time":2,"i_lat":-6.339291,"line":2},{"transit":false,"time":3,"is_transit":false,"station_name":"Univ. Indonesia","distance":2264,"station_id":"UI","i_lat":-6.360749,"i_long":106.831474,"line":2},{"station_name":"Pondok Cina","transit":false,"time":2,"i_long":106.831114,"is_transit":false,"i_lat":-6.369073,"distance":1109,"line":2,"station_id":"POC"},{"i_lat":-6.391065,"transit":false,"distance":2727,"station_id":"DPB","is_transit":false,"i_long":106.819451,"line":0,"time":4,"station_name":"Depokbaru"},{"station_name":"Depok","distance":1584,"i_long":106.816926,"is_transit":false,"transit":false,"time":3,"station_id":"DP","i_lat":-6.405256,"line":0}],[{"is_transit":true,"i_long":106.811091,"transit":false,"time":0,"i_lat":-6.185545,"station_name":"Tanah Abang","line":1,"distance":0,"station_id":"THB"},{"time":8,"i_long":106.800832,"station_id":"DU","station_name":"Duri","distance":3632,"is_transit":true,"i_lat":-6.155215,"transit":true,"line":1},{"line":0,"transit":false,"distance":1230,"time":4,"i_lat":-6.144674,"station_id":"AK","station_name":"Angke","i_long":106.79867,"is_transit":false},{"is_transit":true,"station_id":"KPB","station_name":"Kampung Bandan","transit":false,"time":9,"distance":4102,"i_long":106.826365,"i_lat":-6.132549,"line":0},{"is_transit":true,"i_long":106.812439,"transit":true,"distance":1364,"line":0,"station_id":"JAKK","time":3,"i_lat":-6.137569,"station_name":"Jakarta Kota"},{"line":7,"time":4,"transit":false,"distance":1264,"i_long":106.820901,"station_name":"Jayakarta","station_id":"JAY","is_transit":false,"i_lat":-6.141205},{"line":2,"transit":false,"time":2,"is_transit":false,"i_lat":-6.149769,"station_id":"MGB","i_long":106.82482,"distance":1080,"station_name":"Manggabesar"},{"station_name":"Sawah Besar","transit":false,"i_lat":-6.160725,"line":2,"station_id":"SW","distance":906,"time":2,"is_transit":false,"i_long":106.827103},{"i_lat":-6.166716,"transit":false,"line":2,"station_name":"Juanda","distance":1149,"time":2,"is_transit":false,"station_id":"JUA","i_long":106.828284},{"station_id":"GDD","distance":2015,"i_lat":-6.186295,"is_transit":false,"station_name":"Gondangdia","time":4,"i_long":106.832183,"transit":false,"line":2},{"i_long":106.840169,"line":0,"time":3,"is_transit":false,"distance":1750,"station_name":"Cikini","i_lat":-6.198556,"transit":false,"station_id":"CKI"},{"station_id":"MRI","is_transit":true,"i_lat":-6.209883,"time":4,"station_name":"Manggarai","i_long":106.84912,"distance":1590,"line":0,"transit":true},{"station_id":"TEB","i_lat":-6.226659,"line":2,"is_transit":false,"i_long":106.857948,"transit":false,"time":4,"distance":2610,"station_name":"Tebet"},{"line":0,"i_lat":-6.242512,"time":2,"station_name":"Cawang","is_transit":false,"distance":1230,"station_id":"CW","i_long":106.856607,"transit":false},{"is_transit":false,"station_name":"Duren Kalibata","transit":false,"i_long":106.85449,"time":3,"line":0,"station_id":"DRN","i_lat":-6.255332,"distance":1546},{"distance":824,"time":2,"station_id":"PSMB","i_lat":-6.263214,"i_long":106.851577,"line":2,"is_transit":false,"station_name":"Pasar Minggu Baru","transit":false},{"i_lat":-6.2842400000000005,"time":2,"station_id":"PSM","station_name":"Pasar Minggu","is_transit":false,"line":2,"i_long":106.843999,"transit":false,"distance":2380},{"station_id":"TNT","station_name":"Tanjung Barat","i_long":106.838896,"transit":false,"distance":2820,"time":4,"is_transit":false,"i_lat":-6.3080680000000005,"line":2},{"is_transit":false,"station_name":"Lenteng Agung","line":2,"station_id":"LNA","distance":2671,"i_long":106.832616,"i_lat":-6.330363,"transit":false,"time":3},{"is_transit":false,"i_long":106.834175,"line":2,"station_name":"Univ. Pancasila","time":2,"transit":false,"distance":1029,"i_lat":-6.339291,"station_id":"UP"},{"station_name":"Univ. Indonesia","transit":false,"is_transit":false,"time":3,"station_id":"UI","i_long":106.831474,"i_lat":-6.360749,"line":2,"distance":2264},{"distance":1109,"transit":false,"station_id":"POC","is_transit":false,"station_name":"Pondok Cina","i_long":106.831114,"time":2,"line":2,"i_lat":-6.369073},{"transit":false,"i_lat":-6.391065,"i_long":106.819451,"distance":2727,"station_id":"DPB","time":4,"station_name":"Depokbaru","is_transit":false,"line":0},{"station_name":"Depok","transit":false,"distance":1584,"i_lat":-6.405256,"i_long":106.816926,"time":3,"station_id":"DP","is_transit":false,"line":0}],[{"line":1,"station_id":"THB","transit":false,"i_lat":-6.185545,"station_name":"Tanah Abang","i_long":106.811091,"distance":0,"time":0,"is_transit":true},{"station_name":"Duri","is_transit":true,"distance":3632,"station_id":"DU","i_lat":-6.155215,"i_long":106.800832,"line":1,"time":8,"transit":true},{"time":4,"transit":false,"is_transit":false,"station_id":"AK","i_long":106.79867,"station_name":"Angke","i_lat":-6.144674,"distance":1230,"line":0},{"distance":4102,"is_transit":true,"transit":true,"station_name":"Kampung Bandan","time":9,"i_long":106.826365,"line":0,"i_lat":-6.132549,"station_id":"KPB"},{"line":11,"station_name":"Rajawali","transit":false,"distance":1444,"station_id":"RJW","i_lat":-6.14505,"time":3,"i_long":106.836569,"is_transit":false},{"distance":1901,"line":11,"station_id":"KMO","is_transit":false,"i_lat":-6.161728,"i_long":106.839204,"transit":false,"station_name":"Kemayoran","time":5},{"transit":false,"distance":1436,"time":4,"i_long":106.84368,"i_lat":-6.174784,"station_id":"PSE","line":11,"is_transit":false,"station_name":"Pasar Senen"},{"station_id":"GST","station_name":"Gang Sentiong","i_lat":-6.185975,"time":8,"line":11,"is_transit":false,"i_long":106.850107,"distance":1567,"transit":false},{"line":11,"transit":false,"time":1,"is_transit":false,"i_long":106.855437,"station_id":"KMT","i_lat":-6.193792,"station_name":"Kramat","distance":973},{"i_lat":-6.209188,"station_id":"POK","distance":1829,"station_name":"Pondok Jati","i_long":106.861737,"time":2,"is_transit":false,"line":11,"transit":false},{"time":9,"i_long":106.86807400000001,"station_name":"Jatinegara","station_id":"JNG","i_lat":-6.215091,"distance":1236,"line":0,"transit":true,"is_transit":true},{"station_name":"Matraman","line":1,"i_long":106.858896,"transit":false,"distance":1377,"station_id":"MTR","is_transit":false,"time":2,"i_lat":-6.212485},{"station_name":"Manggarai","i_long":106.84912,"line":0,"distance":1275,"i_lat":-6.209883,"time":2,"station_id":"MRI","transit":true,"is_transit":true},{"distance":2610,"line":2,"station_name":"Tebet","is_transit":false,"time":4,"station_id":"TEB","transit":false,"i_lat":-6.226659,"i_long":106.857948},{"i_lat":-6.242512,"station_name":"Cawang","i_long":106.856607,"transit":false,"station_id":"CW","line":0,"distance":1230,"is_transit":false,"time":2},{"station_name":"Duren Kalibata","distance":1546,"line":0,"i_long":106.85449,"station_id":"DRN","i_lat":-6.255332,"time":3,"transit":false,"is_transit":false},{"distance":824,"i_lat":-6.263214,"transit":false,"time":2,"station_name":"Pasar Minggu Baru","station_id":"PSMB","is_transit":false,"i_long":106.851577,"line":2},{"distance":2380,"is_transit":false,"i_lat":-6.2842400000000005,"i_long":106.843999,"line":2,"station_id":"PSM","station_name":"Pasar Minggu","time":2,"transit":false},{"is_transit":false,"i_lat":-6.3080680000000005,"station_id":"TNT","time":4,"station_name":"Tanjung Barat","transit":false,"distance":2820,"i_long":106.838896,"line":2},{"distance":2671,"i_lat":-6.330363,"time":3,"i_long":106.832616,"station_id":"LNA","is_transit":false,"line":2,"transit":false,"station_name":"Lenteng Agung"},{"station_name":"Univ. Pancasila","transit":false,"i_lat":-6.339291,"time":2,"station_id":"UP","is_transit":false,"line":2,"distance":1029,"i_long":106.834175},{"station_id":"UI","station_name":"Univ. Indonesia","distance":2264,"time":3,"line":2,"i_lat":-6.360749,"transit":false,"is_transit":false,"i_long":106.831474},{"i_long":106.831114,"station_name":"Pondok Cina","transit":false,"distance":1109,"line":2,"is_transit":false,"time":2,"i_lat":-6.369073,"station_id":"POC"},{"line":0,"i_long":106.819451,"station_id":"DPB","i_lat":-6.391065,"is_transit":false,"station_name":"Depokbaru","transit":false,"time":4,"distance":2727},{"station_name":"Depok","distance":1584,"line":0,"i_long":106.816926,"transit":false,"time":3,"station_id":"DP","is_transit":false,"i_lat":-6.405256}]]}