{"data":[[{"i_lat":-6.185545,"distance":0,"is_transit":true,"i_long":106.811091,"transit":false,"station_name":"Tanah Abang","station_id":"THB","time":0,"line":1},{"station_id":"DU","is_transit":true,"distance":3632,"transit":true,"station_name":"Duri","time":8,"i_long":106.800832,"i_lat":-6.155215,"line":1},{"is_transit":false,"transit":false,"time":3,"line":5,"i_long":106.788277,"distance":1700,"station_id":"GGL","i_lat":-6.162021,"station_name":"Grogol"},{"transit":false,"time":2,"i_long":106.771379,"distance":2036,"station_id":"PSG","line":5,"is_transit":false,"i_lat":-6.161433,"station_name":"Pesing"},{"station_name":"Taman Kota","time":2,"i_lat":-6.1587309999999995,"line":5,"is_transit":false,"distance":1614,"i_long":106.756522,"station_id":"TKO","transit":false},{"i_lat":-6.159876,"distance":2334,"time":2,"i_long":106.737035,"station_name":"Bojongindah","is_transit":false,"station_id":"BOI","line":0,"transit":false},{"station_id":"RW","i_lat":-6.162758,"transit":false,"line":5,"station_name":"Rawa Buaya","i_long":106.723064,"time":4,"distance":1152,"is_transit":false},{"transit":false,"is_transit":false,"line":5,"i_long":106.701612,"station_id":"KDS","time":3,"distance":2504,"station_name":"Kalideres","i_lat":-6.166068},{"distance":2548,"station_id":"PI","is_transit":false,"station_name":"Poris","transit":false,"time":3,"i_lat":-6.169933,"i_long":106.679458,"line":5}],[{"distance":0,"i_lat":-6.185545,"station_id":"THB","transit":false,"i_long":106.811091,"station_name":"Tanah Abang","line":1,"is_transit":true,"time":0},{"i_lat":-6.20132,"time":5,"i_long":106.816351,"line":1,"station_id":"KAT","station_name":"Karet","is_transit":false,"distance":2029,"transit":false},{"station_name":"Sudirman Baru","distance":471,"i_lat":-6.201433,"line":1,"transit":false,"station_id":"SUDB","time":1,"is_transit":false,"i_long":106.819881},{"transit":false,"time":1,"line":1,"is_transit":false,"station_id":"SUD","i_lat":-6.202263,"station_name":"Sudirman","i_long":106.822649,"distance":280},{"station_id":"MRI","i_lat":-6.209883,"distance":3186,"transit":true,"time":4,"line":0,"station_name":"Manggarai","is_transit":true,"i_long":106.84912},{"time":4,"transit":false,"station_id":"CKI","distance":1590,"is_transit":false,"i_lat":-6.198556,"i_long":106.840169,"line":0,"station_name":"Cikini"},{"station_name":"Gondangdia","distance":1750,"time":3,"i_long":106.832183,"station_id":"GDD","line":2,"i_lat":-6.186295,"is_transit":false,"transit":false},{"station_id":"JUA","transit":false,"line":2,"station_name":"Juanda","i_long":106.828284,"distance":2015,"time":4,"i_lat":-6.166716,"is_transit":false},{"transit":false,"time":2,"is_transit":false,"i_lat":-6.160725,"line":2,"distance":1149,"i_long":106.827103,"station_id":"SW","station_name":"Sawah Besar"},{"distance":906,"i_long":106.82482,"transit":false,"i_lat":-6.149769,"station_name":"Manggabesar","line":2,"station_id":"MGB","time":2,"is_transit":false},{"station_id":"JAY","i_long":106.820901,"transit":false,"station_name":"Jayakarta","line":7,"time":2,"is_transit":false,"distance":1080,"i_lat":-6.141205},{"i_long":106.812439,"station_id":"JAKK","time":4,"i_lat":-6.137569,"transit":true,"line":0,"station_name":"Jakarta Kota","is_transit":true,"distance":1264},{"i_long":106.826365,"line":0,"station_name":"Kampung Bandan","time":3,"transit":false,"is_transit":true,"distance":1364,"station_id":"KPB","i_lat":-6.132549},{"distance":4102,"i_long":106.79867,"time":9,"station_name":"Angke","i_lat":-6.144674,"station_id":"AK","line":0,"transit":false,"is_transit":false},{"transit":true,"is_transit":true,"i_lat":-6.155215,"line":1,"time":4,"i_long":106.800832,"station_id":"DU","distance":1230,"station_name":"Duri"},{"i_lat":-6.162021,"i_long":106.788277,"distance":1700,"time":3,"line":5,"is_transit":false,"station_id":"GGL","station_name":"Grogol","transit":false},{"station_name":"Pesing","transit":false,"i_long":106.771379,"line":5,"distance":2036,"time":2,"i_lat":-6.161433,"is_transit":false,"station_id":"PSG"},{"station_name":"Taman Kota","station_id":"TKO","transit":false,"i_lat":-6.1587309999999995,"is_transit":false,"time":2,"distance":1614,"i_long":106.756522,"line":5},{"is_transit":false,"i_long":106.737035,"i_lat":-6.159876,"transit":false,"station_name":"Bojongindah","line":0,"station_id":"BOI","time":2,"distance":2334},{"station_id":"RW","i_lat":-6.162758,"distance":1152,"time":4,"station_name":"Rawa Buaya","transit":false,"i_long":106.723064,"is_transit":false,"line":5},{"distance":2504,"transit":false,"is_transit":false,"i_lat":-6.166068,"line":5,"i_long":106.701612,"time":3,"station_id":"KDS","station_name":"Kalideres"},{"time":3,"station_id":"PI","i_lat":-6.169933,"line":5,"distance":2548,"is_transit":false,"transit":false,"station_name":"Poris","i_long":106.679458}],[{"station_name":"Tanah Abang","distance":0,"time":0,"i_long":106.811091,"line":1,"is_transit":true,"station_id":"THB","transit":false,"i_lat":-6.185545},{"i_long":106.816351,"transit":false,"station_name":"Karet","is_transit":false,"time":5,"line":1,"distance":2029,"station_id":"KAT","i_lat":-6.20132},{"time":1,"station_name":"Sudirman Baru","distance":471,"transit":false,"is_transit":false,"line":1,"i_lat":-6.201433,"i_long":106.819881,"station_id":"SUDB"},{"time":1,"distance":280,"station_id":"SUD","transit":false,"i_long":106.822649,"is_transit":false,"station_name":"Sudirman","line":1,"i_lat":-6.202263},{"line":0,"station_id":"MRI","distance":3186,"station_name":"Manggarai","i_lat":-6.209883,"transit":false,"i_long":106.84912,"is_transit":true,"time":4},{"station_id":"MTR","distance":1275,"i_long":106.858896,"is_transit":false,"line":1,"i_lat":-6.212485,"station_name":"Matraman","time":2,"transit":false},{"is_transit":true,"distance":1377,"time":8,"line":0,"station_name":"Jatinegara","transit":true,"i_long":106.86807400000001,"i_lat":-6.215091,"station_id":"JNG"},{"time":2,"transit":false,"station_id":"POK","station_name":"Pondok Jati","i_lat":-6.209188,"line":11,"distance":1236,"is_transit":false,"i_long":106.861737},{"distance":1829,"i_lat":-6.193792,"station_id":"KMT","station_name":"Kramat","is_transit":false,"time":2,"line":11,"i_long":106.855437,"transit":false},{"time":1,"station_id":"GST","station_name":"Gang Sentiong","i_lat":-6.185975,"i_long":106.850107,"line":11,"distance":973,"is_transit":false,"transit":false},{"time":8,"line":11,"station_id":"PSE","station_name":"Pasar Senen","i_lat":-6.174784,"is_transit":false,"transit":false,"i_long":106.84368,"distance":1567},{"time":4,"i_lat":-6.161728,"station_id":"KMO","distance":1436,"station_name":"Kemayoran","transit":false,"line":11,"i_long":106.839204,"is_transit":false},{"station_id":"RJW","i_long":106.836569,"is_transit":false,"transit":false,"line":11,"station_name":"Rajawali","time":5,"i_lat":-6.14505,"distance":1901},{"distance":1444,"is_transit":true,"time":3,"i_long":106.826365,"station_id":"KPB","i_lat":-6.132549,"transit":true,"station_name":"Kampung Bandan","line":0},{"is_transit":false,"station_name":"Angke","i_long":106.79867,"transit":false,"time":9,"i_lat":-6.144674,"station_id":"AK","distance":4102,"line":0},{"station_id":"DU","distance":1230,"is_transit":true,"time":4,"transit":true,"i_long":106.800832,"station_name":"Duri","line":1,"i_lat":-6.155215},{"transit":false,"i_long":106.788277,"time":3,"distance":1700,"station_id":"GGL","station_name":"Grogol","is_transit":false,"line":5,"i_lat":-6.162021},{"line":5,"i_long":106.771379,"station_name":"Pesing","time":2,"distance":2036,"is_transit":false,"station_id":"PSG","transit":false,"i_lat":-6.161433},{"i_long":106.756522,"station_name":"Taman Kota","station_id":"TKO","line":5,"distance":1614,"transit":false,"is_transit":false,"i_lat":-6.1587309999999995,"time":2},{"i_lat":-6.159876,"transit":false,"distance":2334,"station_id":"BOI","is_transit":false,"time":2,"i_long":106.737035,"station_name":"Bojongindah","line":0},{"i_lat":-6.162758,"is_transit":false,"time":4,"station_name":"Rawa Buaya","transit":false,"station_id":"RW","distance":1152,"line":5,"i_long":106.723064},{"station_name":"Kalideres","time":3,"is_transit":false,"i_long":106.701612,"line":5,"i_lat":-6.166068,"distance":2504,"transit":false,"station_id":"KDS"},{"i_lat":-6.169933,"i_long":106.679458,"station_name":"Poris","distance":2548,"station_id":"PI","transit":false,"line":5,"is_transit":false,"time":3}]]}