{"data":[[{"line":1,"i_long":106.811091,"station_name":"Tanah Abang","time":0,"transit":false,"is_transit":true,"i_lat":-6.185545,"distance":0,"station_id":"THB"},{"station_name":"Karet","distance":2029,"time":5,"i_lat":-6.20132,"transit":false,"i_long":106.816351,"line":1,"is_transit":false,"station_id":"KAT"},{"station_id":"SUDB","line":1,"transit":false,"i_lat":-6.201433,"i_long":106.819881,"time":1,"is_transit":false,"distance":471,"station_name":"Sudirman Baru"},{"transit":false,"distance":280,"is_transit":false,"i_lat":-6.202263,"station_id":"SUD","i_long":106.822649,"station_name":"Sudirman","time":1,"line":1},{"station_name":"Manggarai","transit":false,"time":4,"is_transit":true,"line":0,"i_long":106.84912,"i_lat":-6.209883,"station_id":"MRI","distance":3186},{"distance":1275,"station_id":"MTR","is_transit":false,"time":2,"line":1,"i_lat":-6.212485,"station_name":"Matraman","transit":false,"i_long":106.858896},{"time":8,"transit":false,"station_id":"JNG","station_name":"Jatinegara","i_long":106.86807400000001,"i_lat":-6.215091,"line":0,"distance":1377,"is_transit":true},{"is_transit":false,"transit":false,"station_id":"KLD","i_lat":-6.2135,"line":1,"time":3,"station_name":"Klender","distance":3395,"i_long":106.899548},{"transit":false,"distance":3100,"station_name":"Buaran","line":0,"i_long":106.922662,"is_transit":false,"station_id":"BUA","i_lat":-6.215568,"time":2},{"line":1,"station_id":"KLDB","transit":false,"station_name":"Klenderbaru","i_long":106.939679,"distance":1305,"is_transit":false,"time":1,"i_lat":-6.217455},{"station_name":"Cakung","transit":false,"time":8,"line":0,"is_transit":false,"i_long":106.951283,"distance":1385,"station_id":"CUK","i_lat":-6.219053},{"time":3,"i_lat":-6.224515,"is_transit":false,"distance":3097,"i_long":106.977657,"station_name":"Kranji","line":1,"station_id":"KRI","transit":false}],[{"line":1,"transit":false,"station_id":"THB","i_long":106.811091,"distance":0,"time":0,"station_name":"Tanah Abang","i_lat":-6.185545,"is_transit":true},{"time":8,"line":1,"i_long":106.800832,"is_transit":true,"station_id":"DU","station_name":"Duri","i_lat":-6.155215,"distance":3632,"transit":true},{"time":4,"is_transit":false,"line":0,"station_id":"AK","station_name":"Angke","i_long":106.79867,"transit":false,"i_lat":-6.144674,"distance":1230},{"line":0,"is_transit":true,"station_id":"KPB","distance":4102,"station_name":"Kampung Bandan","i_lat":-6.132549,"i_long":106.826365,"time":9,"transit":true},{"i_long":106.836569,"station_id":"RJW","i_lat":-6.14505,"station_name":"Rajawali","transit":false,"line":11,"distance":1444,"is_transit":false,"time":3},{"time":5,"station_id":"KMO","i_long":106.839204,"i_lat":-6.161728,"distance":1901,"station_name":"Kemayoran","is_transit":false,"transit":false,"line":11},{"transit":false,"time":4,"i_long":106.84368,"is_transit":false,"distance":1436,"station_name":"Pasar Senen","station_id":"PSE","line":11,"i_lat":-6.174784},{"distance":1567,"transit":false,"time":8,"i_long":106.850107,"station_name":"Gang Sentiong","is_transit":false,"i_lat":-6.185975,"station_id":"GST","line":11},{"i_long":106.855437,"time":1,"distance":973,"line":11,"i_lat":-6.193792,"is_transit":false,"station_name":"Kramat","station_id":"KMT","transit":false},{"distance":1829,"transit":false,"i_long":106.861737,"time":2,"is_transit":false,"station_id":"POK","station_name":"Pondok Jati","line":11,"i_lat":-6.209188},{"distance":1236,"i_lat":-6.215091,"is_transit":true,"time":9,"station_name":"Jatinegara","transit":true,"station_id":"JNG","line":0,"i_long":106.86807400000001},{"distance":3395,"is_transit":false,"station_id":"KLD","transit":false,"time":3,"station_name":"Klender","i_lat":-6.2135,"i_long":106.899548,"line":1},{"time":2,"distance":3100,"i_lat":-6.215568,"transit":false,"is_transit":false,"i_long":106.922662,"station_name":"Buaran","line":0,"station_id":"BUA"},{"line":1,"station_id":"KLDB","transit":false,"is_transit":false,"distance":1305,"i_long":106.939679,"i_lat":-6.217455,"station_name":"Klenderbaru","time":1},{"is_transit":false,"station_id":"CUK","distance":1385,"station_name":"Cakung","i_lat":-6.219053,"time":8,"i_long":106.951283,"line":0,"transit":false},{"line":1,"is_transit":false,"transit":false,"i_lat":-6.224515,"station_name":"Kranji","distance":3097,"station_id":"KRI","time":3,"i_long":106.977657}],[{"transit":false,"station_name":"Tanah Abang","station_id":"THB","distance":0,"time":0,"i_lat":-6.185545,"line":1,"i_long":106.811091,"is_transit":true},{"distance":3632,"is_transit":true,"time":8,"station_name":"Duri","transit":true,"i_long":106.800832,"line":1,"i_lat":-6.155215,"station_id":"DU"},{"distance":1230,"is_transit":false,"i_lat":-6.144674,"station_name":"Angke","station_id":"AK","transit":false,"time":4,"line":0,"i_long":106.79867},{"transit":false,"i_lat":-6.132549,"station_id":"KPB","is_transit":true,"i_long":106.826365,"station_name":"Kampung Bandan","distance":4102,"line":0,"time":9},{"line":0,"distance":1364,"i_lat":-6.137569,"station_name":"Jakarta Kota","i_long":106.812439,"time":3,"station_id":"JAKK","is_transit":true,"transit":true},{"line":7,"distance":1264,"is_transit":false,"time":4,"transit":false,"i_lat":-6.141205,"i_long":106.820901,"station_id":"JAY","station_name":"Jayakarta"},{"time":2,"station_id":"MGB","station_name":"Manggabesar","is_transit":false,"i_long":106.82482,"transit":false,"i_lat":-6.149769,"line":2,"distance":1080},{"is_transit":false,"time":2,"line":2,"station_name":"Sawah Besar","distance":906,"station_id":"SW","i_lat":-6.160725,"i_long":106.827103,"transit":false},{"i_lat":-6.166716,"distance":1149,"transit":false,"is_transit":false,"station_id":"JUA","station_name":"Juanda","time":2,"i_long":106.828284,"line":2},{"distance":2015,"i_long":106.832183,"transit":false,"station_name":"Gondangdia","line":2,"i_lat":-6.186295,"is_transit":false,"station_id":"GDD","time":4},{"transit":false,"i_long":106.840169,"is_transit":false,"time":3,"line":0,"i_lat":-6.198556,"distance":1750,"station_id":"CKI","station_name":"Cikini"},{"i_long":106.84912,"transit":true,"station_name":"Manggarai","station_id":"MRI","i_lat":-6.209883,"line":0,"distance":1590,"time":4,"is_transit":true},{"time":2,"i_lat":-6.212485,"line":1,"is_transit":false,"transit":false,"distance":1275,"station_name":"Matraman","station_id":"MTR","i_long":106.858896},{"i_lat":-6.215091,"distance":1377,"i_long":106.86807400000001,"line":0,"station_id":"JNG","time":8,"station_name":"Jatinegara","is_transit":true,"transit":false},{"station_name":"Klender","i_long":106.899548,"line":1,"time":3,"distance":3395,"transit":false,"is_transit":false,"station_id":"KLD","i_lat":-6.2135},{"i_long":106.922662,"is_transit":false,"distance":3100,"station_name":"Buaran","i_lat":-6.215568,"line":0,"station_id":"BUA","time":2,"transit":false},{"station_name":"Klenderbaru","transit":false,"i_long":106.939679,"line":1,"station_id":"KLDB","i_lat":-6.217455,"is_transit":false,"distance":1305,"time":1},{"distance":1385,"station_name":"Cakung","i_lat":-6.219053,"i_long":106.951283,"transit":false,"time":8,"line":0,"is_transit":false,"station_id":"CUK"},{"line":1,"i_long":106.977657,"transit":false,"station_id":"KRI","i_lat":-6.224515,"time":3,"is_transit":false,"distance":3097,"station_name":"Kranji"}],[{"transit":false,"is_transit":true,"line":1,"station_name":"Tanah Abang","time":0,"i_long":106.811091,"i_lat":-6.185545,"station_id":"THB","distance":0},{"distance":2029,"transit":false,"i_lat":-6.20132,"i_long":106.816351,"line":1,"station_name":"Karet","time":5,"is_transit":false,"station_id":"KAT"},{"is_transit":false,"distance":471,"transit":false,"station_name":"Sudirman Baru","station_id":"SUDB","time":1,"i_lat":-6.201433,"line":1,"i_long":106.819881},{"i_lat":-6.202263,"is_transit":false,"i_long":106.822649,"time":1,"station_name":"Sudirman","station_id":"SUD","line":1,"transit":false,"distance":280},{"line":0,"distance":3186,"station_name":"Manggarai","time":4,"i_lat":-6.209883,"is_transit":true,"i_long":106.84912,"station_id":"MRI","transit":true},{"line":0,"i_lat":-6.198556,"station_id":"CKI","distance":1590,"transit":false,"time":4,"is_transit":false,"station_name":"Cikini","i_long":106.840169},{"i_lat":-6.186295,"station_name":"Gondangdia","station_id":"GDD","is_transit":false,"line":2,"distance":1750,"time":3,"transit":false,"i_long":106.832183},{"station_id":"JUA","is_transit":false,"transit":false,"time":4,"station_name":"Juanda","i_lat":-6.166716,"i_long":106.828284,"line":2,"distance":2015},{"station_name":"Sawah Besar","line":2,"station_id":"SW","distance":1149,"is_transit":false,"time":2,"transit":false,"i_lat":-6.160725,"i_long":106.827103},{"transit":false,"i_lat":-6.149769,"time":2,"station_name":"Manggabesar","i_long":106.82482,"distance":906,"is_transit":false,"station_id":"MGB","line":2},{"i_long":106.820901,"is_transit":false,"station_id":"JAY","time":2,"distance":1080,"line":7,"transit":false,"i_lat":-6.141205,"station_name":"Jayakarta"},{"station_id":"JAKK","line":0,"time":4,"i_lat":-6.137569,"distance":1264,"i_long":106.812439,"is_transit":true,"station_name":"Jakarta Kota","transit":true},{"i_lat":-6.132549,"time":3,"is_transit":true,"distance":1364,"line":0,"transit":true,"station_id":"KPB","station_name":"Kampung Bandan","i_long":106.826365},{"distance":1444,"station_id":"RJW","transit":false,"is_transit":false,"time":3,"i_lat":-6.14505,"line":11,"station_name":"Rajawali","i_long":106.836569},{"transit":false,"time":5,"distance":1901,"station_id":"KMO","station_name":"Kemayoran","i_lat":-6.161728,"i_long":106.839204,"is_transit":false,"line":11},{"i_long":106.84368,"line":11,"station_id":"PSE","transit":false,"time":4,"i_lat":-6.174784,"is_transit":false,"distance":1436,"station_name":"Pasar Senen"},{"line":11,"distance":1567,"station_id":"GST","transit":false,"time":8,"is_transit":false,"station_name":"Gang Sentiong","i_lat":-6.185975,"i_long":106.850107},{"station_id":"KMT","line":11,"time":1,"is_transit":false,"distance":973,"transit":false,"i_lat":-6.193792,"station_name":"Kramat","i_long":106.855437},{"distance":1829,"is_transit":false,"transit":false,"i_lat":-6.209188,"line":11,"station_name":"Pondok Jati","i_long":106.861737,"time":2,"station_id":"POK"},{"distance":1236,"time":9,"transit":true,"line":0,"i_lat":-6.215091,"i_long":106.86807400000001,"station_id":"JNG","is_transit":true,"station_name":"Jatinegara"},{"i_long":106.899548,"i_lat":-6.2135,"line":1,"transit":false,"station_name":"Klender","station_id":"KLD","is_transit":false,"distance":3395,"time":3},{"i_lat":-6.215568,"is_transit":false,"station_name":"Buaran","transit":false,"time":2,"distance":3100,"station_id":"BUA","i_long":106.922662,"line":0},{"distance":1305,"transit":false,"is_transit":false,"i_long":106.939679,"line":1,"time":1,"station_name":"Klenderbaru","station_id":"KLDB","i_lat":-6.217455},{"time":8,"i_long":106.951283,"transit":false,"station_name":"Cakung","is_transit":false,"distance":1385,"i_lat":-6.219053,"line":0,"station_id":"CUK"},{"distance":3097,"is_transit":false,"i_long":106.977657,"i_lat":-6.224515,"line":1,"station_id":"KRI","station_name":"Kranji","transit":false,"time":3}]]}