{"data":[[{"i_long":106.811091,"station_id":"THB","i_lat":-6.185545,"station_name":"Tanah Abang","line":1,"distance":0,"time":0,"is_transit":false,"transit":false},{"distance":3191,"is_transit":false,"station_id":"PLM","line":6,"station_name":"Palmerah","transit":false,"time":6,"i_long":106.79689,"i_lat":-6.207404},{"station_name":"Kebayoran","time":7,"distance":3737,"station_id":"KBY","is_transit":false,"transit":false,"i_lat":-6.237242,"i_long":106.780334,"line":6},{"distance":6218,"station_name":"Pondokranji","station_id":"PDJ","i_long":106.74273,"line":6,"is_transit":false,"transit":false,"i_lat":-6.276362,"time":8},{"station_id":"JMU","i_lat":-6.288927,"i_long":106.728916,"time":3,"station_name":"Jurangmangu","is_transit":false,"distance":2179,"transit":false,"line":6},{"is_transit":false,"transit":false,"i_lat":-6.296963,"distance":1994,"i_long":106.712277,"line":6,"station_name":"Sudimara","time":4,"station_id":"SDM"},{"station_name":"Rawa Buntu","distance":4566,"i_lat":-6.314823,"i_long":106.675475,"time":6,"line":6,"is_transit":false,"station_id":"RU","transit":false},{"is_transit":false,"i_long":106.66566,"line":6,"time":4,"station_id":"SRP","station_name":"Serpong","transit":false,"distance":2413,"i_lat":-6.319871},{"time":4,"i_lat":-6.32484,"distance":1784,"transit":false,"station_name":"Cisauk","station_id":"CSK","is_transit":false,"i_long":106.640411,"line":3},{"is_transit":false,"transit":false,"i_lat":-6.329547,"station_name":"Cicayur","distance":2519,"i_long":106.617853,"line":3,"station_id":"CC","time":4},{"distance":5968,"station_name":"Parung Panjang","i_lat":-6.3441410000000005,"station_id":"PRP","i_long":106.568863,"transit":false,"line":6,"is_transit":false,"time":8},{"is_transit":false,"transit":false,"time":9,"station_id":"CJT","i_lat":-6.354349,"i_long":106.508482,"distance":7025,"line":3,"station_name":"Cilejit"},{"station_name":"Daru","transit":false,"i_long":106.491338,"distance":2675,"line":0,"time":6,"i_lat":-6.338021,"station_id":"DAR","is_transit":false},{"station_name":"Tenjo","is_transit":false,"distance":3902,"time":5,"line":6,"transit":false,"station_id":"TEJ","i_lat":-6.327251,"i_long":106.460812},{"i_lat":-6.328533,"station_name":"Tigaraksa","is_transit":false,"i_long":106.425991,"distance":2974,"time":5,"line":6,"station_id":"TGS","transit":false},{"is_transit":false,"station_id":"CKY","transit":false,"station_name":"Cikoya","i_lat":-6.33561,"line":3,"time":3,"distance":2651,"i_long":106.411216},{"station_id":"MJ","time":4,"transit":false,"i_lat":-6.332307,"line":6,"distance":1853,"is_transit":false,"station_name":"Maja","i_long":106.394373},{"i_long":106.332092,"is_transit":false,"line":3,"distance":7293,"i_lat":-6.334892,"station_id":"CTR","time":10,"transit":false,"station_name":"Citeras"}]]}