{"data":[[{"station_name":"Tanah Abang","i_lat":-6.185545,"i_long":106.811091,"is_transit":true,"transit":false,"distance":0,"station_id":"THB","time":0,"line":1},{"distance":3191,"station_name":"Palmerah","i_long":106.79689,"line":6,"station_id":"PLM","transit":false,"is_transit":false,"time":6,"i_lat":-6.207404},{"time":7,"i_lat":-6.237242,"is_transit":false,"distance":3737,"transit":false,"station_id":"KBY","i_long":106.780334,"station_name":"Kebayoran","line":6},{"time":8,"i_lat":-6.276362,"is_transit":false,"station_name":"Pondokranji","transit":false,"distance":6218,"line":6,"i_long":106.74273,"station_id":"PDJ"},{"transit":false,"station_name":"Jurangmangu","time":3,"i_lat":-6.288927,"station_id":"JMU","distance":2179,"is_transit":false,"i_long":106.728916,"line":6},{"distance":1994,"time":4,"i_lat":-6.296963,"station_id":"SDM","i_long":106.712277,"line":6,"is_transit":false,"transit":false,"station_name":"Sudimara"},{"line":6,"distance":4566,"is_transit":false,"transit":false,"time":6,"station_id":"RU","station_name":"Rawa Buntu","i_long":106.675475,"i_lat":-6.314823},{"station_id":"SRP","i_long":106.66566,"station_name":"Serpong","i_lat":-6.319871,"transit":false,"distance":2413,"line":6,"is_transit":false,"time":4},{"time":4,"line":0,"distance":1784,"station_name":"Cisauk","i_long":106.640411,"transit":false,"i_lat":-6.32484,"is_transit":false,"station_id":"CSK"},{"time":4,"i_lat":-6.329547,"i_long":106.617853,"station_name":"Cicayur","station_id":"CC","distance":2519,"line":0,"transit":false,"is_transit":false},{"transit":false,"line":6,"station_id":"PRP","station_name":"Parung Panjang","i_long":106.568863,"is_transit":false,"i_lat":-6.3441410000000005,"time":8,"distance":5968},{"station_id":"CJT","is_transit":false,"distance":7025,"station_name":"Cilejit","time":9,"transit":false,"line":0,"i_lat":-6.354349,"i_long":106.508482},{"is_transit":false,"transit":false,"distance":2675,"station_id":"DAR","i_lat":-6.338021,"i_long":106.491338,"time":6,"line":0,"station_name":"Daru"},{"distance":3902,"is_transit":false,"i_long":106.460812,"line":6,"station_name":"Tenjo","transit":false,"station_id":"TEJ","time":5,"i_lat":-6.327251},{"distance":2974,"time":5,"is_transit":false,"station_id":"TGS","i_lat":-6.328533,"line":6,"station_name":"Tigaraksa","i_long":106.425991,"transit":false},{"transit":false,"i_lat":-6.33561,"is_transit":false,"station_name":"Cikoya","distance":2651,"time":3,"line":0,"station_id":"CKY","i_long":106.411216}]]}