{"data":[[{"transit":false,"station_id":"THB","is_transit":true,"distance":0,"i_lat":-6.185545,"i_long":106.811091,"line":1,"station_name":"Tanah Abang","time":0},{"is_transit":false,"transit":false,"distance":2029,"time":5,"station_id":"KAT","station_name":"Karet","i_long":106.816351,"i_lat":-6.20132,"line":1},{"station_name":"Sudirman Baru","distance":471,"is_transit":false,"i_lat":-6.201433,"i_long":106.819881,"line":1,"station_id":"SUDB","time":1,"transit":false},{"line":1,"station_name":"Sudirman","transit":false,"station_id":"SUD","time":1,"i_long":106.822649,"is_transit":false,"i_lat":-6.202263,"distance":280},{"station_name":"Manggarai","line":0,"time":4,"station_id":"MRI","distance":3186,"is_transit":true,"transit":true,"i_lat":-6.209883,"i_long":106.84912},{"is_transit":false,"line":2,"distance":2610,"station_name":"Tebet","i_long":106.857948,"station_id":"TEB","time":4,"i_lat":-6.226659,"transit":false},{"time":2,"transit":false,"distance":1230,"i_lat":-6.242512,"i_long":106.856607,"line":0,"is_transit":false,"station_name":"Cawang","station_id":"CW"},{"is_transit":false,"station_id":"DRN","time":3,"transit":false,"i_lat":-6.255332,"distance":1546,"station_name":"Duren Kalibata","line":0,"i_long":106.85449},{"time":2,"distance":824,"station_id":"PSMB","i_long":106.851577,"station_name":"Pasar Minggu Baru","line":2,"i_lat":-6.263214,"is_transit":false,"transit":false},{"is_transit":false,"station_id":"PSM","time":2,"i_lat":-6.2842400000000005,"i_long":106.843999,"transit":false,"station_name":"Pasar Minggu","line":2,"distance":2380},{"distance":2820,"i_long":106.838896,"time":4,"station_id":"TNT","line":2,"is_transit":false,"transit":false,"station_name":"Tanjung Barat","i_lat":-6.3080680000000005},{"line":2,"is_transit":false,"transit":false,"distance":2671,"station_id":"LNA","station_name":"Lenteng Agung","i_lat":-6.330363,"i_long":106.832616,"time":3},{"station_name":"Univ. Pancasila","i_lat":-6.339291,"station_id":"UP","i_long":106.834175,"distance":1029,"transit":false,"is_transit":false,"time":2,"line":2},{"line":2,"station_name":"Univ. Indonesia","transit":false,"time":3,"station_id":"UI","i_lat":-6.360749,"i_long":106.831474,"distance":2264,"is_transit":false},{"is_transit":false,"time":2,"station_id":"POC","station_name":"Pondok Cina","transit":false,"i_lat":-6.369073,"line":2,"distance":1109,"i_long":106.831114},{"transit":false,"i_lat":-6.391065,"distance":2727,"line":0,"station_name":"Depokbaru","is_transit":false,"i_long":106.819451,"time":4,"station_id":"DPB"}],[{"distance":0,"i_long":106.811091,"line":1,"time":0,"is_transit":true,"station_name":"Tanah Abang","i_lat":-6.185545,"transit":false,"station_id":"THB"},{"i_lat":-6.155215,"line":1,"time":8,"is_transit":true,"transit":true,"i_long":106.800832,"station_id":"DU","distance":3632,"station_name":"Duri"},{"is_transit":false,"transit":false,"i_long":106.79867,"time":4,"line":0,"distance":1230,"station_id":"AK","i_lat":-6.144674,"station_name":"Angke"},{"distance":4102,"is_transit":true,"transit":false,"i_long":106.826365,"i_lat":-6.132549,"station_id":"KPB","time":9,"line":0,"station_name":"Kampung Bandan"},{"time":3,"i_long":106.812439,"is_transit":true,"transit":true,"station_name":"Jakarta Kota","line":0,"i_lat":-6.137569,"station_id":"JAKK","distance":1364},{"station_name":"Jayakarta","is_transit":false,"distance":1264,"station_id":"JAY","i_lat":-6.141205,"i_long":106.820901,"transit":false,"time":4,"line":7},{"station_name":"Manggabesar","station_id":"MGB","time":2,"transit":false,"line":2,"distance":1080,"is_transit":false,"i_lat":-6.149769,"i_long":106.82482},{"station_id":"SW","i_long":106.827103,"time":2,"distance":906,"transit":false,"i_lat":-6.160725,"line":2,"is_transit":false,"station_name":"Sawah Besar"},{"station_name":"Juanda","station_id":"JUA","i_lat":-6.166716,"transit":false,"i_long":106.828284,"line":2,"distance":1149,"time":2,"is_transit":false},{"distance":2015,"is_transit":false,"i_lat":-6.186295,"time":4,"station_name":"Gondangdia","line":2,"station_id":"GDD","transit":false,"i_long":106.832183},{"i_lat":-6.198556,"distance":1750,"is_transit":false,"station_id":"CKI","transit":false,"i_long":106.840169,"time":3,"station_name":"Cikini","line":0},{"station_name":"Manggarai","time":4,"station_id":"MRI","transit":true,"i_long":106.84912,"line":0,"distance":1590,"i_lat":-6.209883,"is_transit":true},{"i_long":106.857948,"distance":2610,"transit":false,"is_transit":false,"i_lat":-6.226659,"station_name":"Tebet","time":4,"line":2,"station_id":"TEB"},{"i_long":106.856607,"station_id":"CW","i_lat":-6.242512,"time":2,"distance":1230,"is_transit":false,"transit":false,"line":0,"station_name":"Cawang"},{"station_id":"DRN","i_long":106.85449,"line":0,"distance":1546,"station_name":"Duren Kalibata","is_transit":false,"i_lat":-6.255332,"transit":false,"time":3},{"is_transit":false,"line":2,"time":2,"distance":824,"transit":false,"station_id":"PSMB","i_lat":-6.263214,"i_long":106.851577,"station_name":"Pasar Minggu Baru"},{"transit":false,"line":2,"time":2,"station_name":"Pasar Minggu","i_long":106.843999,"station_id":"PSM","distance":2380,"is_transit":false,"i_lat":-6.2842400000000005},{"station_name":"Tanjung Barat","line":2,"i_lat":-6.3080680000000005,"station_id":"TNT","time":4,"is_transit":false,"transit":false,"i_long":106.838896,"distance":2820},{"transit":false,"time":3,"i_long":106.832616,"line":2,"i_lat":-6.330363,"station_id":"LNA","distance":2671,"station_name":"Lenteng Agung","is_transit":false},{"distance":1029,"station_id":"UP","i_lat":-6.339291,"i_long":106.834175,"transit":false,"line":2,"time":2,"station_name":"Univ. Pancasila","is_transit":false},{"i_lat":-6.360749,"station_name":"Univ. Indonesia","is_transit":false,"distance":2264,"time":3,"station_id":"UI","transit":false,"line":2,"i_long":106.831474},{"station_name":"Pondok Cina","i_lat":-6.369073,"line":2,"distance":1109,"transit":false,"i_long":106.831114,"station_id":"POC","is_transit":false,"time":2},{"line":0,"station_name":"Depokbaru","time":4,"i_long":106.819451,"transit":false,"is_transit":false,"distance":2727,"station_id":"DPB","i_lat":-6.391065}],[{"station_id":"THB","station_name":"Tanah Abang","time":0,"i_long":106.811091,"transit":false,"i_lat":-6.185545,"is_transit":true,"distance":0,"line":1},{"line":1,"i_long":106.800832,"distance":3632,"station_name":"Duri","time":8,"i_lat":-6.155215,"is_transit":true,"station_id":"DU","transit":true},{"i_lat":-6.144674,"distance":1230,"transit":false,"line":0,"station_id":"AK","station_name":"Angke","i_long":106.79867,"is_transit":false,"time":4},{"i_lat":-6.132549,"i_long":106.826365,"station_id":"KPB","station_name":"Kampung Bandan","distance":4102,"transit":true,"time":9,"line":0,"is_transit":true},{"transit":false,"time":3,"i_long":106.836569,"distance":1444,"line":11,"i_lat":-6.14505,"station_name":"Rajawali","is_transit":false,"station_id":"RJW"},{"station_id":"KMO","time":5,"i_long":106.839204,"is_transit":false,"line":11,"transit":false,"station_name":"Kemayoran","distance":1901,"i_lat":-6.161728},{"station_id":"PSE","transit":false,"i_long":106.84368,"line":11,"is_transit":false,"time":4,"i_lat":-6.174784,"station_name":"Pasar Senen","distance":1436},{"line":11,"i_lat":-6.185975,"time":8,"station_id":"GST","transit":false,"distance":1567,"station_name":"Gang Sentiong","i_long":106.850107,"is_transit":false},{"station_id":"KMT","station_name":"Kramat","transit":false,"time":1,"i_lat":-6.193792,"is_transit":false,"line":11,"i_long":106.855437,"distance":973},{"time":2,"i_long":106.861737,"i_lat":-6.209188,"is_transit":false,"distance":1829,"station_name":"Pondok Jati","station_id":"POK","transit":false,"line":11},{"time":9,"is_transit":true,"line":0,"transit":true,"i_lat":-6.215091,"station_name":"Jatinegara","i_long":106.86807400000001,"station_id":"JNG","distance":1236},{"time":2,"station_name":"Matraman","station_id":"MTR","line":1,"distance":1377,"i_lat":-6.212485,"i_long":106.858896,"is_transit":false,"transit":false},{"i_long":106.84912,"line":0,"distance":1275,"time":2,"is_transit":true,"station_name":"Manggarai","i_lat":-6.209883,"station_id":"MRI","transit":true},{"is_transit":false,"line":2,"i_lat":-6.226659,"i_long":106.857948,"station_name":"Tebet","time":4,"transit":false,"distance":2610,"station_id":"TEB"},{"station_name":"Cawang","transit":false,"i_lat":-6.242512,"is_transit":false,"time":2,"distance":1230,"i_long":106.856607,"line":0,"station_id":"CW"},{"station_name":"Duren Kalibata","i_long":106.85449,"i_lat":-6.255332,"station_id":"DRN","time":3,"is_transit":false,"line":0,"distance":1546,"transit":false},{"station_id":"PSMB","i_lat":-6.263214,"time":2,"i_long":106.851577,"distance":824,"line":2,"transit":false,"station_name":"Pasar Minggu Baru","is_transit":false},{"i_long":106.843999,"i_lat":-6.2842400000000005,"time":2,"distance":2380,"is_transit":false,"transit":false,"station_name":"Pasar Minggu","station_id":"PSM","line":2},{"distance":2820,"station_name":"Tanjung Barat","i_lat":-6.3080680000000005,"station_id":"TNT","is_transit":false,"i_long":106.838896,"line":2,"transit":false,"time":4},{"is_transit":false,"transit":false,"time":3,"line":2,"station_id":"LNA","i_long":106.832616,"distance":2671,"station_name":"Lenteng Agung","i_lat":-6.330363},{"i_lat":-6.339291,"line":2,"station_id":"UP","transit":false,"is_transit":false,"i_long":106.834175,"distance":1029,"time":2,"station_name":"Univ. Pancasila"},{"station_name":"Univ. Indonesia","time":3,"is_transit":false,"i_long":106.831474,"transit":false,"line":2,"i_lat":-6.360749,"station_id":"UI","distance":2264},{"station_name":"Pondok Cina","distance":1109,"time":2,"is_transit":false,"transit":false,"i_long":106.831114,"i_lat":-6.369073,"station_id":"POC","line":2},{"i_long":106.819451,"time":4,"i_lat":-6.391065,"transit":false,"is_transit":false,"line":0,"distance":2727,"station_name":"Depokbaru","station_id":"DPB"}]]}