{"data":[[{"distance":0,"station_id":"THB","time":0,"station_name":"Tanah Abang","line":1,"is_transit":false,"transit":false,"i_lat":-6.185545,"i_long":106.811091},{"is_transit":true,"distance":3632,"i_lat":-6.155215,"time":8,"transit":true,"station_id":"DU","i_long":106.800832,"line":1,"station_name":"Duri"},{"station_name":"Grogol","distance":1700,"i_lat":-6.162021,"i_long":106.788277,"line":5,"is_transit":false,"time":3,"transit":false,"station_id":"GGL"},{"i_long":106.771379,"station_name":"Pesing","is_transit":false,"distance":2036,"i_lat":-6.161433,"line":5,"station_id":"PSG","transit":false,"time":2},{"station_name":"Taman Kota","i_lat":-6.1587309999999995,"is_transit":false,"distance":1614,"transit":false,"time":2,"station_id":"TKO","i_long":106.756522,"line":5},{"line":5,"station_id":"BOI","distance":2334,"time":2,"is_transit":false,"station_name":"Bojongindah","transit":false,"i_long":106.737035,"i_lat":-6.159876},{"line":5,"i_lat":-6.162758,"is_transit":false,"transit":false,"station_id":"RW","station_name":"Rawa Buaya","distance":1152,"i_long":106.723064,"time":4},{"distance":2504,"is_transit":false,"station_name":"Kalideres","line":5,"station_id":"KDS","time":3,"i_long":106.701612,"transit":false,"i_lat":-6.166068},{"is_transit":false,"distance":2548,"time":3,"i_lat":-6.169933,"station_id":"PI","transit":false,"i_long":106.679458,"line":5,"station_name":"Poris"}],[{"line":1,"i_lat":-6.185545,"station_id":"THB","distance":0,"i_long":106.811091,"transit":false,"is_transit":false,"station_name":"Tanah Abang","time":0},{"i_long":106.816351,"station_name":"Karet","is_transit":false,"time":5,"station_id":"KAT","i_lat":-6.20132,"line":1,"distance":2029,"transit":false},{"station_name":"Sudirman Baru","line":1,"i_lat":-6.201433,"transit":false,"distance":471,"station_id":"SUDB","i_long":106.819881,"is_transit":false,"time":1},{"i_long":106.822649,"station_name":"Sudirman","line":1,"transit":false,"is_transit":false,"time":1,"station_id":"SUD","i_lat":-6.202263,"distance":280},{"station_name":"Manggarai","i_lat":-6.209883,"station_id":"MRI","is_transit":true,"time":4,"distance":3186,"line":2,"transit":true,"i_long":106.84912},{"station_id":"CKI","transit":false,"is_transit":false,"station_name":"Cikini","i_lat":-6.198556,"i_long":106.840169,"time":4,"line":2,"distance":1590},{"time":3,"i_long":106.832183,"distance":1750,"line":2,"is_transit":false,"transit":false,"station_name":"Gondangdia","station_id":"GDD","i_lat":-6.186295},{"transit":false,"line":2,"i_lat":-6.166716,"time":4,"is_transit":false,"station_name":"Juanda","station_id":"JUA","i_long":106.828284,"distance":2015},{"i_lat":-6.160725,"transit":false,"line":2,"is_transit":false,"time":2,"i_long":106.827103,"station_id":"SW","station_name":"Sawah Besar","distance":1149},{"station_id":"MGB","is_transit":false,"i_lat":-6.149769,"station_name":"Manggabesar","line":2,"transit":false,"time":2,"distance":906,"i_long":106.82482},{"station_name":"Jayakarta","time":2,"transit":false,"i_lat":-6.141205,"i_long":106.820901,"station_id":"JAY","is_transit":false,"line":2,"distance":1080},{"is_transit":true,"line":2,"i_long":106.812439,"transit":true,"station_id":"JAKK","distance":1264,"time":4,"station_name":"Jakarta Kota","i_lat":-6.137569},{"station_name":"Kampung Bandan","distance":1364,"time":3,"i_lat":-6.132549,"transit":true,"station_id":"KPB","line":4,"i_long":106.826365,"is_transit":true},{"time":9,"transit":false,"is_transit":false,"distance":4102,"i_lat":-6.144674,"station_name":"Angke","i_long":106.79867,"line":1,"station_id":"AK"},{"i_long":106.800832,"is_transit":true,"i_lat":-6.155215,"distance":1230,"station_id":"DU","transit":true,"time":4,"line":1,"station_name":"Duri"},{"i_long":106.788277,"distance":1700,"i_lat":-6.162021,"station_name":"Grogol","transit":false,"line":5,"time":3,"is_transit":false,"station_id":"GGL"},{"station_name":"Pesing","is_transit":false,"time":2,"line":5,"transit":false,"station_id":"PSG","distance":2036,"i_lat":-6.161433,"i_long":106.771379},{"is_transit":false,"line":5,"distance":1614,"time":2,"station_name":"Taman Kota","transit":false,"station_id":"TKO","i_long":106.756522,"i_lat":-6.1587309999999995},{"time":2,"station_name":"Bojongindah","transit":false,"distance":2334,"is_transit":false,"i_lat":-6.159876,"line":5,"i_long":106.737035,"station_id":"BOI"},{"station_name":"Rawa Buaya","line":5,"transit":false,"distance":1152,"i_long":106.723064,"time":4,"is_transit":false,"station_id":"RW","i_lat":-6.162758},{"i_long":106.701612,"line":5,"time":3,"distance":2504,"i_lat":-6.166068,"transit":false,"is_transit":false,"station_id":"KDS","station_name":"Kalideres"},{"time":3,"is_transit":false,"station_id":"PI","transit":false,"station_name":"Poris","i_long":106.679458,"distance":2548,"line":5,"i_lat":-6.169933}],[{"is_transit":false,"i_lat":-6.185545,"time":0,"station_name":"Tanah Abang","i_long":106.811091,"line":1,"station_id":"THB","transit":false,"distance":0},{"time":5,"transit":false,"i_lat":-6.20132,"station_id":"KAT","station_name":"Karet","i_long":106.816351,"distance":2029,"line":1,"is_transit":false},{"transit":false,"time":1,"is_transit":false,"distance":471,"i_lat":-6.201433,"station_id":"SUDB","line":1,"station_name":"Sudirman Baru","i_long":106.819881},{"time":1,"i_long":106.822649,"is_transit":false,"i_lat":-6.202263,"transit":false,"station_id":"SUD","distance":280,"line":1,"station_name":"Sudirman"},{"i_lat":-6.209883,"is_transit":false,"transit":false,"time":4,"station_name":"Manggarai","i_long":106.84912,"distance":3186,"line":2,"station_id":"MRI"},{"distance":1275,"transit":false,"station_id":"MTR","is_transit":false,"time":2,"station_name":"Matraman","i_lat":-6.212485,"line":1,"i_long":106.858896},{"i_long":106.86807400000001,"time":8,"line":1,"distance":1377,"station_id":"JNG","station_name":"Jatinegara","is_transit":true,"transit":true,"i_lat":-6.215091},{"transit":false,"i_lat":-6.209188,"i_long":106.861737,"time":2,"station_id":"POK","distance":1236,"station_name":"Pondok Jati","line":11,"is_transit":false},{"transit":false,"station_id":"KMT","i_long":106.855437,"station_name":"Kramat","time":2,"i_lat":-6.193792,"line":11,"distance":1829,"is_transit":false},{"i_lat":-6.185975,"transit":false,"is_transit":false,"station_id":"GST","station_name":"Gang Sentiong","time":1,"line":11,"distance":973,"i_long":106.850107},{"station_name":"Pasar Senen","time":8,"i_lat":-6.174784,"distance":1567,"is_transit":false,"line":11,"transit":false,"station_id":"PSE","i_long":106.84368},{"transit":false,"i_long":106.839204,"station_id":"KMO","is_transit":false,"line":11,"station_name":"Kemayoran","time":4,"distance":1436,"i_lat":-6.161728},{"station_name":"Rajawali","transit":false,"station_id":"RJW","line":11,"distance":1901,"time":5,"i_lat":-6.14505,"is_transit":false,"i_long":106.836569},{"distance":1444,"i_lat":-6.132549,"time":3,"is_transit":true,"station_id":"KPB","transit":true,"line":4,"station_name":"Kampung Bandan","i_long":106.826365},{"i_lat":-6.144674,"transit":false,"distance":4102,"i_long":106.79867,"is_transit":false,"line":1,"station_id":"AK","station_name":"Angke","time":9},{"time":4,"is_transit":true,"line":1,"distance":1230,"i_lat":-6.155215,"i_long":106.800832,"transit":true,"station_name":"Duri","station_id":"DU"},{"i_long":106.788277,"i_lat":-6.162021,"transit":false,"line":5,"time":3,"is_transit":false,"distance":1700,"station_name":"Grogol","station_id":"GGL"},{"is_transit":false,"station_name":"Pesing","transit":false,"distance":2036,"i_long":106.771379,"station_id":"PSG","time":2,"i_lat":-6.161433,"line":5},{"station_id":"TKO","time":2,"distance":1614,"i_lat":-6.1587309999999995,"i_long":106.756522,"line":5,"transit":false,"is_transit":false,"station_name":"Taman Kota"},{"station_id":"BOI","time":2,"is_transit":false,"distance":2334,"i_lat":-6.159876,"station_name":"Bojongindah","i_long":106.737035,"line":5,"transit":false},{"station_id":"RW","distance":1152,"station_name":"Rawa Buaya","line":5,"i_lat":-6.162758,"transit":false,"is_transit":false,"i_long":106.723064,"time":4},{"i_long":106.701612,"distance":2504,"station_id":"KDS","i_lat":-6.166068,"line":5,"station_name":"Kalideres","transit":false,"time":3,"is_transit":false},{"is_transit":false,"i_long":106.679458,"distance":2548,"station_id":"PI","time":3,"line":5,"i_lat":-6.169933,"station_name":"Poris","transit":false}]]}