{"data":[[{"line":1,"station_id":"THB","i_lat":-6.185545,"i_long":106.811091,"station_name":"Tanah Abang","time":0,"distance":0,"transit":false,"is_transit":false},{"distance":3632,"time":8,"station_id":"DU","station_name":"Duri","is_transit":true,"transit":true,"line":1,"i_lat":-6.155215,"i_long":106.800832},{"line":5,"station_id":"GRG","transit":false,"is_transit":false,"i_lat":-6.162021,"i_long":106.788277,"station_name":"Grogol","distance":1700,"time":3},{"station_id":"PSG","is_transit":false,"i_long":106.771379,"line":5,"time":2,"station_name":"Pesing","distance":2036,"i_lat":-6.161433,"transit":false},{"time":2,"line":5,"i_lat":-6.1587309999999995,"distance":1614,"i_long":106.756522,"station_id":"TKO","is_transit":false,"station_name":"Taman Kota","transit":false},{"i_long":106.737035,"time":2,"distance":2334,"station_id":"BOI","i_lat":-6.159876,"line":5,"station_name":"Bojongindah","transit":false,"is_transit":false},{"is_transit":false,"i_lat":-6.162758,"line":5,"i_long":106.723064,"station_id":"RW","distance":1152,"station_name":"Rawa Buaya","transit":false,"time":4},{"line":5,"station_id":"KDS","is_transit":false,"station_name":"Kalideres","i_long":106.701612,"distance":2504,"i_lat":-6.166068,"transit":false,"time":3},{"distance":2548,"line":5,"station_name":"Poris","is_transit":false,"i_long":106.679458,"transit":false,"station_id":"PI","time":3,"i_lat":-6.169933}],[{"is_transit":false,"i_long":106.811091,"station_name":"Tanah Abang","i_lat":-6.185545,"time":0,"line":1,"transit":false,"station_id":"THB","distance":0},{"i_lat":-6.20132,"transit":false,"station_id":"KAT","is_transit":false,"station_name":"Karet","line":1,"time":5,"distance":2029,"i_long":106.816351},{"line":1,"transit":false,"time":1,"i_long":106.819881,"i_lat":-6.201433,"is_transit":false,"distance":471,"station_id":"SUDB","station_name":"Sudirman Baru"},{"line":1,"time":1,"station_name":"Sudirman","distance":280,"i_long":106.822649,"is_transit":false,"i_lat":-6.202263,"transit":false,"station_id":"SUD"},{"station_id":"MRI","is_transit":true,"transit":true,"i_lat":-6.209883,"distance":3186,"i_long":106.84912,"line":2,"station_name":"Manggarai","time":4},{"i_lat":-6.198556,"line":2,"distance":1590,"time":4,"station_name":"Cikini","is_transit":false,"transit":false,"station_id":"CKI","i_long":106.840169},{"station_name":"Gondangdia","distance":1750,"transit":false,"i_long":106.832183,"line":2,"is_transit":false,"i_lat":-6.186295,"station_id":"GDD","time":3},{"i_long":106.828284,"i_lat":-6.166716,"time":4,"line":2,"distance":2015,"station_name":"Juanda","is_transit":false,"transit":false,"station_id":"JUA"},{"line":2,"is_transit":false,"station_name":"Sawah Besar","transit":false,"i_lat":-6.160725,"time":2,"station_id":"SW","i_long":106.827103,"distance":1149},{"distance":906,"is_transit":false,"station_id":"MGB","i_long":106.82482,"station_name":"Manggabesar","transit":false,"line":2,"i_lat":-6.149769,"time":2},{"i_lat":-6.141205,"distance":1080,"station_id":"JAY","time":2,"i_long":106.820901,"transit":false,"station_name":"Jayakarta","line":2,"is_transit":false},{"line":2,"is_transit":true,"i_lat":-6.137569,"time":4,"station_name":"Jakarta Kota","transit":true,"i_long":106.812439,"distance":1264,"station_id":"JAKK"},{"distance":1364,"station_name":"Kampung Bandan","transit":true,"is_transit":true,"i_lat":-6.132549,"i_long":106.826365,"line":4,"time":3,"station_id":"KPB"},{"station_id":"AK","station_name":"Angke","transit":false,"i_lat":-6.144674,"line":1,"time":9,"is_transit":false,"i_long":106.79867,"distance":4102},{"distance":1230,"station_id":"DU","time":4,"station_name":"Duri","transit":true,"i_lat":-6.155215,"i_long":106.800832,"line":1,"is_transit":true},{"station_name":"Grogol","is_transit":false,"line":5,"distance":1700,"transit":false,"station_id":"GRG","time":3,"i_lat":-6.162021,"i_long":106.788277},{"distance":2036,"transit":false,"line":5,"station_id":"PSG","is_transit":false,"i_long":106.771379,"i_lat":-6.161433,"station_name":"Pesing","time":2},{"station_id":"TKO","i_lat":-6.1587309999999995,"i_long":106.756522,"line":5,"time":2,"station_name":"Taman Kota","is_transit":false,"distance":1614,"transit":false},{"station_name":"Bojongindah","time":2,"line":5,"distance":2334,"is_transit":false,"station_id":"BOI","i_lat":-6.159876,"i_long":106.737035,"transit":false},{"distance":1152,"time":4,"i_long":106.723064,"line":5,"transit":false,"station_id":"RW","i_lat":-6.162758,"station_name":"Rawa Buaya","is_transit":false},{"line":5,"transit":false,"time":3,"station_id":"KDS","distance":2504,"i_lat":-6.166068,"i_long":106.701612,"is_transit":false,"station_name":"Kalideres"},{"i_long":106.679458,"station_id":"PI","line":5,"i_lat":-6.169933,"time":3,"station_name":"Poris","distance":2548,"is_transit":false,"transit":false}],[{"distance":0,"station_name":"Tanah Abang","i_long":106.811091,"i_lat":-6.185545,"line":1,"is_transit":false,"time":0,"transit":false,"station_id":"THB"},{"time":5,"is_transit":false,"transit":false,"station_name":"Karet","station_id":"KAT","i_long":106.816351,"line":1,"i_lat":-6.20132,"distance":2029},{"line":1,"transit":false,"station_name":"Sudirman Baru","station_id":"SUDB","i_lat":-6.201433,"distance":471,"is_transit":false,"i_long":106.819881,"time":1},{"i_lat":-6.202263,"time":1,"station_name":"Sudirman","line":1,"distance":280,"transit":false,"is_transit":false,"station_id":"SUD","i_long":106.822649},{"transit":false,"station_name":"Manggarai","is_transit":false,"distance":3186,"i_lat":-6.209883,"line":2,"i_long":106.84912,"station_id":"MRI","time":4},{"i_lat":-6.212485,"i_long":106.858896,"distance":1275,"time":2,"is_transit":false,"line":1,"transit":false,"station_name":"Matraman","station_id":"MTR"},{"distance":1377,"transit":true,"station_id":"JNG","time":8,"i_lat":-6.215091,"i_long":106.86807400000001,"station_name":"Jatinegara","line":1,"is_transit":true},{"time":2,"is_transit":false,"station_name":"Pondok Jati","i_lat":-6.209188,"i_long":106.861737,"line":11,"transit":false,"distance":1236,"station_id":"POK"},{"is_transit":false,"station_name":"Kramat","i_lat":-6.193792,"station_id":"KMT","distance":1829,"transit":false,"i_long":106.855437,"line":11,"time":2},{"i_lat":-6.185975,"line":11,"i_long":106.850107,"is_transit":false,"distance":973,"station_name":"Gang Sentiong","time":1,"transit":false,"station_id":"GST"},{"station_name":"Pasar Senen","i_long":106.84368,"line":11,"station_id":"PSE","i_lat":-6.174784,"time":8,"distance":1567,"is_transit":false,"transit":false},{"transit":false,"i_long":106.839204,"line":11,"i_lat":-6.161728,"time":4,"station_id":"KMO","station_name":"Kemayoran","is_transit":false,"distance":1436},{"station_id":"RJW","i_lat":-6.14505,"line":11,"distance":1901,"time":5,"station_name":"Rajawali","is_transit":false,"transit":false,"i_long":106.836569},{"line":4,"time":3,"is_transit":true,"transit":true,"i_long":106.826365,"distance":1444,"station_id":"KPB","i_lat":-6.132549,"station_name":"Kampung Bandan"},{"line":1,"i_long":106.79867,"is_transit":false,"station_name":"Angke","transit":false,"time":9,"i_lat":-6.144674,"distance":4102,"station_id":"AK"},{"transit":true,"time":4,"station_id":"DU","distance":1230,"line":1,"i_long":106.800832,"is_transit":true,"station_name":"Duri","i_lat":-6.155215},{"is_transit":false,"i_long":106.788277,"transit":false,"station_name":"Grogol","station_id":"GRG","line":5,"distance":1700,"time":3,"i_lat":-6.162021},{"station_name":"Pesing","station_id":"PSG","distance":2036,"i_lat":-6.161433,"line":5,"is_transit":false,"i_long":106.771379,"transit":false,"time":2},{"distance":1614,"i_long":106.756522,"is_transit":false,"i_lat":-6.1587309999999995,"transit":false,"time":2,"station_name":"Taman Kota","line":5,"station_id":"TKO"},{"station_name":"Bojongindah","station_id":"BOI","is_transit":false,"i_lat":-6.159876,"i_long":106.737035,"time":2,"line":5,"transit":false,"distance":2334},{"time":4,"i_lat":-6.162758,"station_id":"RW","i_long":106.723064,"line":5,"station_name":"Rawa Buaya","distance":1152,"is_transit":false,"transit":false},{"i_long":106.701612,"transit":false,"i_lat":-6.166068,"distance":2504,"station_name":"Kalideres","time":3,"is_transit":false,"line":5,"station_id":"KDS"},{"station_id":"PI","i_lat":-6.169933,"transit":false,"time":3,"i_long":106.679458,"station_name":"Poris","distance":2548,"is_transit":false,"line":5}]]}