{"data":[[{"distance":0,"transit":false,"i_lat":-6.185545,"i_long":106.811091,"station_name":"Tanah Abang","time":0,"line":1,"is_transit":false,"station_id":"THB"},{"station_id":"KAT","station_name":"Karet","line":1,"transit":false,"i_long":106.816351,"distance":2029,"is_transit":false,"i_lat":-6.20132,"time":5},{"i_long":106.819881,"transit":false,"line":1,"is_transit":false,"station_id":"SUDB","time":1,"i_lat":-6.201433,"distance":471,"station_name":"Sudirman Baru"},{"time":1,"line":1,"i_long":106.822649,"is_transit":false,"station_name":"Sudirman","i_lat":-6.202263,"transit":false,"distance":280,"station_id":"SUD"},{"i_lat":-6.209883,"is_transit":true,"line":2,"time":4,"station_name":"Manggarai","i_long":106.84912,"distance":3186,"station_id":"MRI","transit":true},{"line":2,"is_transit":false,"station_name":"Tebet","station_id":"TEB","distance":2610,"transit":false,"time":4,"i_long":106.857948,"i_lat":-6.226659},{"i_lat":-6.242512,"is_transit":false,"transit":false,"distance":1230,"time":2,"station_id":"CW","station_name":"Cawang","i_long":106.856607,"line":2},{"line":2,"transit":false,"station_id":"DRN","is_transit":false,"i_long":106.85449,"time":3,"distance":1546,"station_name":"Duren Kalibata","i_lat":-6.255332}],[{"transit":false,"distance":0,"i_long":106.811091,"line":1,"station_name":"Tanah Abang","i_lat":-6.185545,"station_id":"THB","time":0,"is_transit":false},{"time":8,"distance":3632,"transit":false,"line":1,"station_id":"DU","station_name":"Duri","i_long":106.800832,"is_transit":false,"i_lat":-6.155215},{"time":4,"line":1,"station_id":"AK","distance":1230,"is_transit":false,"transit":false,"i_lat":-6.144674,"i_long":106.79867,"station_name":"Angke"},{"station_id":"KPB","line":4,"is_transit":true,"i_long":106.826365,"time":9,"station_name":"Kampung Bandan","distance":4102,"transit":true,"i_lat":-6.132549},{"i_lat":-6.137569,"time":3,"i_long":106.812439,"is_transit":true,"line":2,"station_id":"JAKK","station_name":"Jakarta Kota","transit":true,"distance":1364},{"station_id":"JAY","time":4,"distance":1264,"line":2,"transit":false,"station_name":"Jayakarta","i_lat":-6.141205,"is_transit":false,"i_long":106.820901},{"transit":false,"i_lat":-6.149769,"distance":1080,"i_long":106.82482,"station_name":"Manggabesar","is_transit":false,"time":2,"line":2,"station_id":"MGB"},{"transit":false,"i_long":106.827103,"is_transit":false,"station_id":"SW","distance":906,"station_name":"Sawah Besar","i_lat":-6.160725,"time":2,"line":2},{"station_name":"Juanda","distance":1149,"station_id":"JUA","transit":false,"line":2,"is_transit":false,"i_long":106.828284,"time":2,"i_lat":-6.166716},{"time":4,"station_id":"GDD","station_name":"Gondangdia","is_transit":false,"transit":false,"line":2,"i_long":106.832183,"distance":2015,"i_lat":-6.186295},{"i_long":106.840169,"station_name":"Cikini","time":3,"distance":1750,"transit":false,"line":2,"is_transit":false,"station_id":"CKI","i_lat":-6.198556},{"station_id":"MRI","distance":1590,"time":4,"station_name":"Manggarai","transit":false,"i_long":106.84912,"line":2,"is_transit":false,"i_lat":-6.209883},{"station_id":"TEB","distance":2610,"transit":false,"line":2,"is_transit":false,"station_name":"Tebet","time":4,"i_lat":-6.226659,"i_long":106.857948},{"i_long":106.856607,"station_name":"Cawang","distance":1230,"is_transit":false,"line":2,"i_lat":-6.242512,"time":2,"transit":false,"station_id":"CW"},{"transit":false,"time":3,"line":2,"distance":1546,"station_name":"Duren Kalibata","is_transit":false,"station_id":"DRN","i_long":106.85449,"i_lat":-6.255332}],[{"station_id":"THB","time":0,"i_long":106.811091,"line":1,"station_name":"Tanah Abang","is_transit":false,"distance":0,"transit":false,"i_lat":-6.185545},{"is_transit":false,"line":1,"station_id":"DU","station_name":"Duri","time":8,"i_long":106.800832,"distance":3632,"i_lat":-6.155215,"transit":false},{"distance":1230,"transit":false,"i_long":106.79867,"time":4,"station_name":"Angke","is_transit":false,"line":1,"station_id":"AK","i_lat":-6.144674},{"station_name":"Kampung Bandan","line":4,"time":9,"transit":true,"is_transit":true,"station_id":"KPB","i_lat":-6.132549,"i_long":106.826365,"distance":4102},{"time":3,"i_lat":-6.14505,"transit":false,"line":11,"i_long":106.836569,"station_id":"RJW","distance":1444,"station_name":"Rajawali","is_transit":false},{"i_lat":-6.161728,"i_long":106.839204,"time":5,"line":11,"station_id":"KMO","station_name":"Kemayoran","transit":false,"distance":1901,"is_transit":false},{"transit":false,"station_id":"PSE","i_long":106.84368,"line":11,"station_name":"Pasar Senen","distance":1436,"is_transit":false,"i_lat":-6.174784,"time":4},{"time":8,"i_lat":-6.185975,"line":11,"distance":1567,"transit":false,"station_name":"Gang Sentiong","i_long":106.850107,"is_transit":false,"station_id":"GST"},{"distance":973,"transit":false,"is_transit":false,"station_name":"Kramat","time":1,"station_id":"KMT","line":11,"i_lat":-6.193792,"i_long":106.855437},{"is_transit":false,"distance":1829,"line":11,"station_name":"Pondok Jati","time":2,"station_id":"POK","i_long":106.861737,"transit":false,"i_lat":-6.209188},{"i_long":106.86807400000001,"distance":1236,"i_lat":-6.215091,"line":1,"station_id":"JNG","station_name":"Jatinegara","is_transit":true,"transit":true,"time":9},{"station_name":"Matraman","transit":false,"is_transit":false,"line":1,"i_lat":-6.212485,"distance":1377,"time":2,"station_id":"MTR","i_long":106.858896},{"is_transit":true,"transit":true,"distance":1275,"station_id":"MRI","station_name":"Manggarai","time":2,"i_long":106.84912,"line":2,"i_lat":-6.209883},{"time":4,"station_name":"Tebet","i_lat":-6.226659,"line":2,"distance":2610,"i_long":106.857948,"is_transit":false,"station_id":"TEB","transit":false},{"i_lat":-6.242512,"is_transit":false,"line":2,"transit":false,"station_name":"Cawang","i_long":106.856607,"time":2,"distance":1230,"station_id":"CW"},{"i_long":106.85449,"line":2,"is_transit":false,"station_id":"DRN","i_lat":-6.255332,"time":3,"station_name":"Duren Kalibata","transit":false,"distance":1546}]]}