{"data":[[{"i_long":106.811091,"line":1,"station_name":"Tanah Abang","transit":false,"station_id":"THB","time":0,"is_transit":false,"i_lat":-6.185545,"distance":0},{"distance":3632,"station_name":"Duri","is_transit":true,"transit":true,"i_long":106.800832,"station_id":"DU","line":1,"time":8,"i_lat":-6.155215},{"transit":false,"i_lat":-6.162021,"station_id":"GGL","i_long":106.788277,"station_name":"Grogol","is_transit":false,"line":5,"distance":1700,"time":3}],[{"distance":0,"station_name":"Tanah Abang","station_id":"THB","is_transit":false,"i_lat":-6.185545,"time":0,"i_long":106.811091,"line":1,"transit":false},{"transit":false,"distance":2029,"is_transit":false,"station_name":"Karet","line":1,"i_long":106.816351,"time":5,"station_id":"KAT","i_lat":-6.20132},{"time":1,"station_id":"SUDB","i_long":106.819881,"line":1,"transit":false,"distance":471,"station_name":"Sudirman Baru","is_transit":false,"i_lat":-6.201433},{"station_name":"Sudirman","time":1,"station_id":"SUD","transit":false,"i_long":106.822649,"line":1,"distance":280,"i_lat":-6.202263,"is_transit":false},{"distance":3186,"is_transit":true,"line":2,"station_name":"Manggarai","station_id":"MRI","transit":true,"i_lat":-6.209883,"time":4,"i_long":106.84912},{"i_long":106.840169,"station_id":"CKI","i_lat":-6.198556,"time":4,"distance":1590,"line":2,"station_name":"Cikini","transit":false,"is_transit":false},{"i_lat":-6.186295,"transit":false,"line":2,"is_transit":false,"station_id":"GDD","distance":1750,"station_name":"Gondangdia","i_long":106.832183,"time":3},{"i_long":106.828284,"station_name":"Juanda","station_id":"JUA","i_lat":-6.166716,"transit":false,"distance":2015,"is_transit":false,"line":2,"time":4},{"transit":false,"line":2,"i_lat":-6.160725,"i_long":106.827103,"station_id":"SW","station_name":"Sawah Besar","distance":1149,"is_transit":false,"time":2},{"transit":false,"station_name":"Manggabesar","station_id":"MGB","distance":906,"i_long":106.82482,"line":2,"time":2,"is_transit":false,"i_lat":-6.149769},{"distance":1080,"station_id":"JAY","i_long":106.820901,"line":2,"i_lat":-6.141205,"time":2,"is_transit":false,"station_name":"Jayakarta","transit":false},{"distance":1264,"is_transit":true,"station_name":"Jakarta Kota","line":2,"i_lat":-6.137569,"time":4,"station_id":"JAKK","transit":true,"i_long":106.812439},{"i_long":106.826365,"station_id":"KPB","is_transit":true,"transit":true,"i_lat":-6.132549,"distance":1364,"line":4,"time":3,"station_name":"Kampung Bandan"},{"transit":false,"i_lat":-6.144674,"i_long":106.79867,"time":9,"station_id":"AK","station_name":"Angke","line":1,"distance":4102,"is_transit":false},{"time":4,"station_id":"DU","line":1,"distance":1230,"transit":true,"i_long":106.800832,"is_transit":true,"station_name":"Duri","i_lat":-6.155215},{"station_name":"Grogol","distance":1700,"time":3,"i_long":106.788277,"transit":false,"is_transit":false,"line":5,"station_id":"GGL","i_lat":-6.162021}],[{"transit":false,"station_name":"Tanah Abang","line":1,"i_long":106.811091,"distance":0,"i_lat":-6.185545,"station_id":"THB","time":0,"is_transit":false},{"station_id":"KAT","transit":false,"is_transit":false,"distance":2029,"i_long":106.816351,"line":1,"i_lat":-6.20132,"time":5,"station_name":"Karet"},{"i_long":106.819881,"is_transit":false,"i_lat":-6.201433,"station_id":"SUDB","line":1,"time":1,"station_name":"Sudirman Baru","transit":false,"distance":471},{"line":1,"distance":280,"station_name":"Sudirman","is_transit":false,"i_lat":-6.202263,"time":1,"transit":false,"station_id":"SUD","i_long":106.822649},{"distance":3186,"is_transit":false,"station_id":"MRI","line":2,"transit":false,"i_lat":-6.209883,"time":4,"station_name":"Manggarai","i_long":106.84912},{"i_lat":-6.212485,"is_transit":false,"station_id":"MTR","time":2,"i_long":106.858896,"line":1,"distance":1275,"transit":false,"station_name":"Matraman"},{"transit":true,"line":1,"station_id":"JNG","i_lat":-6.215091,"time":8,"station_name":"Jatinegara","is_transit":true,"distance":1377,"i_long":106.86807400000001},{"station_id":"POK","line":11,"time":2,"i_long":106.861737,"i_lat":-6.209188,"distance":1236,"station_name":"Pondok Jati","transit":false,"is_transit":false},{"i_lat":-6.193792,"time":2,"transit":false,"is_transit":false,"station_id":"KMT","line":11,"distance":1829,"station_name":"Kramat","i_long":106.855437},{"i_long":106.850107,"distance":973,"station_name":"Gang Sentiong","time":1,"station_id":"GST","is_transit":false,"transit":false,"line":11,"i_lat":-6.185975},{"distance":1567,"station_name":"Pasar Senen","i_lat":-6.174784,"time":8,"transit":false,"is_transit":false,"i_long":106.84368,"line":11,"station_id":"PSE"},{"station_id":"KMO","is_transit":false,"station_name":"Kemayoran","time":4,"i_lat":-6.161728,"transit":false,"i_long":106.839204,"line":11,"distance":1436},{"i_lat":-6.14505,"station_name":"Rajawali","is_transit":false,"distance":1901,"time":5,"station_id":"RJW","line":11,"transit":false,"i_long":106.836569},{"is_transit":true,"station_name":"Kampung Bandan","line":4,"station_id":"KPB","transit":true,"i_long":106.826365,"i_lat":-6.132549,"distance":1444,"time":3},{"is_transit":false,"transit":false,"station_id":"AK","i_lat":-6.144674,"i_long":106.79867,"time":9,"station_name":"Angke","distance":4102,"line":1},{"station_id":"DU","i_long":106.800832,"distance":1230,"line":1,"time":4,"transit":true,"is_transit":true,"i_lat":-6.155215,"station_name":"Duri"},{"time":3,"station_name":"Grogol","station_id":"GGL","line":5,"is_transit":false,"i_long":106.788277,"distance":1700,"i_lat":-6.162021,"transit":false}]]}