{"data":[[{"station_name":"Tanah Abang","line":1,"is_transit":true,"distance":0,"station_id":"THB","i_lat":-6.185545,"time":0,"transit":false,"i_long":106.811091},{"transit":false,"line":6,"time":6,"i_lat":-6.207404,"station_name":"Palmerah","distance":3191,"station_id":"PLM","is_transit":false,"i_long":106.79689},{"distance":3737,"time":7,"station_name":"Kebayoran","is_transit":false,"i_lat":-6.237242,"line":6,"transit":false,"i_long":106.780334,"station_id":"KBY"},{"transit":false,"station_name":"Pondokranji","distance":6218,"i_lat":-6.276362,"time":8,"i_long":106.74273,"station_id":"PDJ","line":6,"is_transit":false},{"time":3,"line":6,"is_transit":false,"distance":2179,"i_lat":-6.288927,"transit":false,"i_long":106.728916,"station_name":"Jurangmangu","station_id":"JMU"},{"time":4,"transit":false,"i_lat":-6.296963,"i_long":106.712277,"station_name":"Sudimara","distance":1994,"line":6,"is_transit":false,"station_id":"SDM"},{"transit":false,"distance":4566,"station_name":"Rawa Buntu","time":6,"is_transit":false,"i_lat":-6.314823,"i_long":106.675475,"line":6,"station_id":"RU"},{"station_id":"SRP","is_transit":false,"station_name":"Serpong","i_lat":-6.319871,"line":6,"transit":false,"distance":2413,"i_long":106.66566,"time":4},{"station_name":"Cisauk","time":4,"is_transit":false,"station_id":"CSK","distance":1784,"line":0,"i_long":106.640411,"transit":false,"i_lat":-6.32484},{"transit":false,"is_transit":false,"line":0,"station_name":"Cicayur","station_id":"CC","distance":2519,"i_long":106.617853,"i_lat":-6.329547,"time":4},{"i_lat":-6.3441410000000005,"station_name":"Parung Panjang","distance":5968,"i_long":106.568863,"is_transit":false,"time":8,"transit":false,"line":6,"station_id":"PRP"},{"distance":7025,"station_name":"Cilejit","line":0,"is_transit":false,"time":9,"i_long":106.508482,"transit":false,"station_id":"CJT","i_lat":-6.354349},{"time":6,"station_name":"Daru","station_id":"DAR","distance":2675,"is_transit":false,"i_long":106.491338,"i_lat":-6.338021,"transit":false,"line":0}]]}