{"data":[[{"i_lat":-6.185545,"i_long":106.811091,"transit":false,"time":0,"distance":0,"station_name":"Tanah Abang","line":1,"is_transit":true,"station_id":"THB"},{"line":1,"i_long":106.816351,"is_transit":false,"transit":false,"distance":2029,"station_name":"Karet","i_lat":-6.20132,"station_id":"KAT","time":5},{"distance":471,"i_lat":-6.201433,"i_long":106.819881,"line":1,"station_id":"SUDB","transit":false,"time":1,"station_name":"Sudirman Baru","is_transit":false},{"station_id":"SUD","transit":false,"is_transit":false,"line":1,"time":1,"i_long":106.822649,"station_name":"Sudirman","distance":280,"i_lat":-6.202263},{"line":0,"station_name":"Manggarai","time":4,"i_lat":-6.209883,"transit":false,"station_id":"MRI","is_transit":true,"distance":3186,"i_long":106.84912},{"i_lat":-6.212485,"is_transit":false,"distance":1275,"transit":false,"i_long":106.858896,"station_id":"MTR","line":1,"station_name":"Matraman","time":2},{"transit":false,"i_lat":-6.215091,"i_long":106.86807400000001,"time":8,"is_transit":true,"station_name":"Jatinegara","distance":1377,"line":0,"station_id":"JNG"},{"transit":false,"time":3,"distance":3395,"i_long":106.899548,"station_name":"Klender","i_lat":-6.2135,"station_id":"KLD","line":1,"is_transit":false},{"time":2,"i_lat":-6.215568,"line":0,"distance":3100,"i_long":106.922662,"station_name":"Buaran","transit":false,"station_id":"BUA","is_transit":false},{"transit":false,"is_transit":false,"i_long":106.939679,"station_name":"Klenderbaru","time":1,"line":1,"i_lat":-6.217455,"station_id":"KLDB","distance":1305},{"time":8,"station_name":"Cakung","i_lat":-6.219053,"distance":1385,"transit":false,"is_transit":false,"i_long":106.951283,"line":0,"station_id":"CUK"},{"is_transit":false,"i_long":106.977657,"transit":false,"distance":3097,"station_id":"KRI","time":3,"i_lat":-6.224515,"line":1,"station_name":"Kranji"},{"station_name":"Bekasi","time":4,"line":0,"distance":2520,"transit":false,"i_lat":-6.236616,"i_long":106.997013,"is_transit":false,"station_id":"BKS"}],[{"transit":false,"station_id":"THB","i_long":106.811091,"distance":0,"line":1,"is_transit":true,"station_name":"Tanah Abang","time":0,"i_lat":-6.185545},{"i_lat":-6.155215,"distance":3632,"i_long":106.800832,"transit":true,"station_id":"DU","time":8,"station_name":"Duri","line":1,"is_transit":true},{"i_long":106.79867,"time":4,"station_id":"AK","line":0,"distance":1230,"is_transit":false,"station_name":"Angke","transit":false,"i_lat":-6.144674},{"transit":true,"station_name":"Kampung Bandan","is_transit":true,"line":0,"i_lat":-6.132549,"distance":4102,"station_id":"KPB","time":9,"i_long":106.826365},{"is_transit":false,"distance":1444,"time":3,"station_name":"Rajawali","i_lat":-6.14505,"line":11,"station_id":"RJW","transit":false,"i_long":106.836569},{"is_transit":false,"i_lat":-6.161728,"line":11,"distance":1901,"station_id":"KMO","time":5,"transit":false,"station_name":"Kemayoran","i_long":106.839204},{"transit":false,"station_name":"Pasar Senen","is_transit":false,"i_lat":-6.174784,"time":4,"station_id":"PSE","i_long":106.84368,"line":11,"distance":1436},{"transit":false,"station_name":"Gang Sentiong","is_transit":false,"i_lat":-6.185975,"i_long":106.850107,"time":8,"line":11,"distance":1567,"station_id":"GST"},{"station_id":"KMT","line":11,"distance":973,"transit":false,"time":1,"i_long":106.855437,"is_transit":false,"station_name":"Kramat","i_lat":-6.193792},{"time":2,"distance":1829,"i_long":106.861737,"station_id":"POK","is_transit":false,"transit":false,"station_name":"Pondok Jati","i_lat":-6.209188,"line":11},{"station_id":"JNG","i_lat":-6.215091,"i_long":106.86807400000001,"time":9,"is_transit":true,"transit":true,"station_name":"Jatinegara","line":0,"distance":1236},{"transit":false,"i_lat":-6.2135,"line":1,"station_id":"KLD","i_long":106.899548,"distance":3395,"time":3,"station_name":"Klender","is_transit":false},{"station_name":"Buaran","time":2,"i_long":106.922662,"distance":3100,"is_transit":false,"station_id":"BUA","transit":false,"i_lat":-6.215568,"line":0},{"line":1,"station_name":"Klenderbaru","time":1,"i_long":106.939679,"distance":1305,"transit":false,"is_transit":false,"i_lat":-6.217455,"station_id":"KLDB"},{"i_lat":-6.219053,"i_long":106.951283,"transit":false,"station_id":"CUK","station_name":"Cakung","time":8,"line":0,"distance":1385,"is_transit":false},{"is_transit":false,"i_long":106.977657,"distance":3097,"station_name":"Kranji","i_lat":-6.224515,"time":3,"line":1,"station_id":"KRI","transit":false},{"station_id":"BKS","time":4,"line":0,"station_name":"Bekasi","is_transit":false,"i_lat":-6.236616,"transit":false,"i_long":106.997013,"distance":2520}],[{"i_long":106.811091,"distance":0,"line":1,"station_name":"Tanah Abang","station_id":"THB","transit":false,"is_transit":true,"time":0,"i_lat":-6.185545},{"line":1,"is_transit":true,"transit":true,"time":8,"station_name":"Duri","i_lat":-6.155215,"i_long":106.800832,"distance":3632,"station_id":"DU"},{"line":0,"distance":1230,"station_id":"AK","station_name":"Angke","transit":false,"is_transit":false,"i_long":106.79867,"time":4,"i_lat":-6.144674},{"i_long":106.826365,"is_transit":true,"transit":false,"distance":4102,"station_name":"Kampung Bandan","line":0,"station_id":"KPB","time":9,"i_lat":-6.132549},{"station_name":"Jakarta Kota","distance":1364,"is_transit":true,"station_id":"JAKK","i_long":106.812439,"transit":true,"i_lat":-6.137569,"time":3,"line":0},{"i_long":106.820901,"distance":1264,"time":4,"i_lat":-6.141205,"is_transit":false,"transit":false,"station_id":"JAY","station_name":"Jayakarta","line":7},{"transit":false,"i_long":106.82482,"is_transit":false,"distance":1080,"station_name":"Manggabesar","line":2,"station_id":"MGB","i_lat":-6.149769,"time":2},{"i_long":106.827103,"i_lat":-6.160725,"station_id":"SW","time":2,"distance":906,"station_name":"Sawah Besar","transit":false,"line":2,"is_transit":false},{"station_id":"JUA","i_long":106.828284,"line":2,"transit":false,"distance":1149,"time":2,"is_transit":false,"station_name":"Juanda","i_lat":-6.166716},{"station_id":"GDD","transit":false,"i_lat":-6.186295,"distance":2015,"is_transit":false,"i_long":106.832183,"line":2,"station_name":"Gondangdia","time":4},{"i_lat":-6.198556,"line":0,"station_name":"Cikini","time":3,"is_transit":false,"station_id":"CKI","distance":1750,"transit":false,"i_long":106.840169},{"station_id":"MRI","line":0,"time":4,"is_transit":true,"i_lat":-6.209883,"station_name":"Manggarai","distance":1590,"transit":true,"i_long":106.84912},{"time":2,"i_long":106.858896,"i_lat":-6.212485,"station_name":"Matraman","station_id":"MTR","line":1,"transit":false,"distance":1275,"is_transit":false},{"is_transit":true,"time":8,"i_long":106.86807400000001,"distance":1377,"station_name":"Jatinegara","line":0,"transit":false,"station_id":"JNG","i_lat":-6.215091},{"time":3,"i_lat":-6.2135,"line":1,"station_name":"Klender","transit":false,"distance":3395,"i_long":106.899548,"is_transit":false,"station_id":"KLD"},{"station_name":"Buaran","is_transit":false,"i_long":106.922662,"station_id":"BUA","line":0,"i_lat":-6.215568,"transit":false,"time":2,"distance":3100},{"station_id":"KLDB","is_transit":false,"i_long":106.939679,"transit":false,"station_name":"Klenderbaru","time":1,"i_lat":-6.217455,"distance":1305,"line":1},{"time":8,"line":0,"transit":false,"i_long":106.951283,"is_transit":false,"station_id":"CUK","station_name":"Cakung","distance":1385,"i_lat":-6.219053},{"is_transit":false,"transit":false,"i_lat":-6.224515,"i_long":106.977657,"distance":3097,"time":3,"line":1,"station_name":"Kranji","station_id":"KRI"},{"distance":2520,"is_transit":false,"time":4,"i_lat":-6.236616,"station_id":"BKS","transit":false,"i_long":106.997013,"station_name":"Bekasi","line":0}],[{"time":0,"station_name":"Tanah Abang","i_lat":-6.185545,"line":1,"is_transit":true,"distance":0,"station_id":"THB","transit":false,"i_long":106.811091},{"station_name":"Karet","station_id":"KAT","time":5,"distance":2029,"i_lat":-6.20132,"i_long":106.816351,"transit":false,"is_transit":false,"line":1},{"is_transit":false,"distance":471,"line":1,"transit":false,"i_lat":-6.201433,"station_id":"SUDB","i_long":106.819881,"station_name":"Sudirman Baru","time":1},{"station_id":"SUD","distance":280,"i_lat":-6.202263,"line":1,"is_transit":false,"transit":false,"time":1,"i_long":106.822649,"station_name":"Sudirman"},{"transit":true,"i_lat":-6.209883,"station_id":"MRI","is_transit":true,"station_name":"Manggarai","i_long":106.84912,"time":4,"distance":3186,"line":0},{"i_long":106.840169,"transit":false,"time":4,"is_transit":false,"line":0,"station_id":"CKI","distance":1590,"station_name":"Cikini","i_lat":-6.198556},{"distance":1750,"i_lat":-6.186295,"transit":false,"line":2,"i_long":106.832183,"is_transit":false,"station_id":"GDD","time":3,"station_name":"Gondangdia"},{"distance":2015,"transit":false,"is_transit":false,"i_lat":-6.166716,"station_id":"JUA","station_name":"Juanda","i_long":106.828284,"time":4,"line":2},{"i_long":106.827103,"line":2,"transit":false,"time":2,"distance":1149,"i_lat":-6.160725,"is_transit":false,"station_name":"Sawah Besar","station_id":"SW"},{"station_name":"Manggabesar","time":2,"i_lat":-6.149769,"line":2,"i_long":106.82482,"distance":906,"is_transit":false,"station_id":"MGB","transit":false},{"i_lat":-6.141205,"i_long":106.820901,"is_transit":false,"time":2,"distance":1080,"station_id":"JAY","station_name":"Jayakarta","line":7,"transit":false},{"station_name":"Jakarta Kota","distance":1264,"transit":true,"line":0,"station_id":"JAKK","i_long":106.812439,"i_lat":-6.137569,"time":4,"is_transit":true},{"is_transit":true,"i_lat":-6.132549,"line":0,"time":3,"distance":1364,"station_name":"Kampung Bandan","station_id":"KPB","i_long":106.826365,"transit":true},{"is_transit":false,"distance":1444,"station_name":"Rajawali","line":11,"station_id":"RJW","i_lat":-6.14505,"transit":false,"time":3,"i_long":106.836569},{"station_id":"KMO","i_long":106.839204,"line":11,"time":5,"distance":1901,"station_name":"Kemayoran","transit":false,"i_lat":-6.161728,"is_transit":false},{"transit":false,"time":4,"line":11,"station_name":"Pasar Senen","station_id":"PSE","i_long":106.84368,"is_transit":false,"distance":1436,"i_lat":-6.174784},{"is_transit":false,"station_id":"GST","i_lat":-6.185975,"distance":1567,"transit":false,"i_long":106.850107,"station_name":"Gang Sentiong","line":11,"time":8},{"time":1,"i_lat":-6.193792,"i_long":106.855437,"station_id":"KMT","transit":false,"distance":973,"is_transit":false,"station_name":"Kramat","line":11},{"station_name":"Pondok Jati","i_lat":-6.209188,"i_long":106.861737,"line":11,"time":2,"transit":false,"distance":1829,"is_transit":false,"station_id":"POK"},{"station_id":"JNG","i_long":106.86807400000001,"is_transit":true,"time":9,"line":0,"transit":true,"distance":1236,"station_name":"Jatinegara","i_lat":-6.215091},{"is_transit":false,"station_id":"KLD","time":3,"distance":3395,"i_lat":-6.2135,"i_long":106.899548,"line":1,"transit":false,"station_name":"Klender"},{"distance":3100,"station_name":"Buaran","transit":false,"time":2,"station_id":"BUA","i_lat":-6.215568,"i_long":106.922662,"is_transit":false,"line":0},{"line":1,"i_lat":-6.217455,"station_id":"KLDB","transit":false,"station_name":"Klenderbaru","is_transit":false,"time":1,"distance":1305,"i_long":106.939679},{"station_id":"CUK","line":0,"is_transit":false,"i_lat":-6.219053,"i_long":106.951283,"time":8,"distance":1385,"transit":false,"station_name":"Cakung"},{"i_long":106.977657,"station_id":"KRI","i_lat":-6.224515,"distance":3097,"is_transit":false,"transit":false,"time":3,"station_name":"Kranji","line":1},{"station_name":"Bekasi","distance":2520,"i_long":106.997013,"time":4,"line":0,"is_transit":false,"station_id":"BKS","i_lat":-6.236616,"transit":false}]]}