{"data":[[{"is_transit":false,"station_name":"Tanah Abang","distance":0,"time":0,"transit":false,"i_long":106.811091,"line":1,"i_lat":-6.185545,"station_id":"THB"},{"time":5,"line":1,"transit":false,"i_lat":-6.20132,"is_transit":false,"distance":2029,"station_name":"Karet","station_id":"KAT","i_long":106.816351},{"i_long":106.819881,"station_name":"Sudirman Baru","distance":471,"line":1,"is_transit":false,"transit":false,"i_lat":-6.201433,"station_id":"SUDB","time":1},{"i_lat":-6.202263,"distance":280,"station_name":"Sudirman","station_id":"SUD","i_long":106.822649,"line":1,"is_transit":false,"time":1,"transit":false},{"distance":3186,"station_id":"MRI","transit":false,"time":4,"i_lat":-6.209883,"is_transit":false,"station_name":"Manggarai","i_long":106.84912,"line":2},{"is_transit":false,"transit":false,"i_lat":-6.212485,"distance":1275,"time":2,"station_id":"MTR","line":1,"i_long":106.858896,"station_name":"Matraman"},{"transit":false,"i_long":106.86807400000001,"is_transit":false,"station_id":"JNG","distance":1377,"time":8,"station_name":"Jatinegara","line":1,"i_lat":-6.215091},{"distance":3395,"is_transit":false,"i_lat":-6.2135,"time":3,"station_id":"KLD","transit":false,"station_name":"Klender","i_long":106.899548,"line":1},{"is_transit":false,"station_id":"BUA","time":2,"transit":false,"distance":3100,"line":1,"i_lat":-6.215568,"station_name":"Buaran","i_long":106.922662},{"is_transit":false,"i_long":106.939679,"station_id":"KLDB","transit":false,"distance":1305,"line":1,"station_name":"Klenderbaru","i_lat":-6.217455,"time":1},{"distance":1385,"transit":false,"is_transit":false,"i_lat":-6.219053,"i_long":106.951283,"line":1,"time":8,"station_id":"CUK","station_name":"Cakung"},{"time":3,"is_transit":false,"transit":false,"i_long":106.977657,"station_id":"KRI","distance":3097,"line":1,"station_name":"Kranji","i_lat":-6.224515}],[{"line":1,"time":0,"distance":0,"transit":false,"station_name":"Tanah Abang","station_id":"THB","i_long":106.811091,"is_transit":false,"i_lat":-6.185545},{"transit":false,"i_lat":-6.155215,"i_long":106.800832,"line":1,"is_transit":false,"station_name":"Duri","station_id":"DU","time":8,"distance":3632},{"is_transit":false,"time":4,"i_lat":-6.144674,"transit":false,"line":1,"station_id":"AK","i_long":106.79867,"station_name":"Angke","distance":1230},{"station_id":"KPB","i_lat":-6.132549,"transit":true,"distance":4102,"is_transit":true,"station_name":"Kampung Bandan","i_long":106.826365,"line":4,"time":9},{"station_name":"Rajawali","time":3,"i_long":106.836569,"i_lat":-6.14505,"is_transit":false,"distance":1444,"transit":false,"line":11,"station_id":"RJW"},{"transit":false,"distance":1901,"is_transit":false,"time":5,"station_name":"Kemayoran","station_id":"KMO","i_lat":-6.161728,"i_long":106.839204,"line":11},{"distance":1436,"time":4,"is_transit":false,"i_lat":-6.174784,"transit":false,"station_name":"Pasar Senen","i_long":106.84368,"station_id":"PSE","line":11},{"i_lat":-6.185975,"line":11,"distance":1567,"is_transit":false,"i_long":106.850107,"time":8,"station_id":"GST","transit":false,"station_name":"Gang Sentiong"},{"i_lat":-6.193792,"i_long":106.855437,"line":11,"is_transit":false,"station_name":"Kramat","station_id":"KMT","distance":973,"transit":false,"time":1},{"distance":1829,"transit":false,"i_lat":-6.209188,"station_name":"Pondok Jati","line":11,"is_transit":false,"time":2,"station_id":"POK","i_long":106.861737},{"station_name":"Jatinegara","time":9,"transit":true,"i_lat":-6.215091,"line":1,"distance":1236,"is_transit":true,"station_id":"JNG","i_long":106.86807400000001},{"line":1,"time":3,"distance":3395,"is_transit":false,"station_name":"Klender","transit":false,"i_lat":-6.2135,"station_id":"KLD","i_long":106.899548},{"station_id":"BUA","transit":false,"is_transit":false,"time":2,"station_name":"Buaran","i_lat":-6.215568,"line":1,"i_long":106.922662,"distance":3100},{"station_id":"KLDB","is_transit":false,"transit":false,"i_long":106.939679,"distance":1305,"time":1,"station_name":"Klenderbaru","i_lat":-6.217455,"line":1},{"is_transit":false,"station_name":"Cakung","i_long":106.951283,"line":1,"distance":1385,"transit":false,"time":8,"i_lat":-6.219053,"station_id":"CUK"},{"station_name":"Kranji","i_long":106.977657,"transit":false,"i_lat":-6.224515,"time":3,"is_transit":false,"distance":3097,"line":1,"station_id":"KRI"}],[{"transit":false,"station_id":"THB","time":0,"distance":0,"station_name":"Tanah Abang","is_transit":false,"line":1,"i_lat":-6.185545,"i_long":106.811091},{"distance":3632,"station_id":"DU","is_transit":false,"station_name":"Duri","i_lat":-6.155215,"transit":false,"line":1,"i_long":106.800832,"time":8},{"station_name":"Angke","line":1,"i_lat":-6.144674,"transit":false,"i_long":106.79867,"distance":1230,"time":4,"is_transit":false,"station_id":"AK"},{"line":4,"station_name":"Kampung Bandan","i_lat":-6.132549,"distance":4102,"station_id":"KPB","is_transit":true,"time":9,"transit":true,"i_long":106.826365},{"i_lat":-6.137569,"i_long":106.812439,"time":3,"is_transit":true,"station_name":"Jakarta Kota","distance":1364,"line":2,"station_id":"JAKK","transit":true},{"station_id":"JAY","distance":1264,"i_lat":-6.141205,"transit":false,"time":4,"station_name":"Jayakarta","i_long":106.820901,"line":2,"is_transit":false},{"i_long":106.82482,"line":2,"station_name":"Manggabesar","i_lat":-6.149769,"distance":1080,"time":2,"station_id":"MGB","transit":false,"is_transit":false},{"transit":false,"i_long":106.827103,"time":2,"station_name":"Sawah Besar","distance":906,"is_transit":false,"line":2,"station_id":"SW","i_lat":-6.160725},{"station_id":"JUA","transit":false,"i_lat":-6.166716,"time":2,"i_long":106.828284,"line":2,"distance":1149,"station_name":"Juanda","is_transit":false},{"i_long":106.832183,"line":2,"distance":2015,"time":4,"is_transit":false,"station_name":"Gondangdia","station_id":"GDD","transit":false,"i_lat":-6.186295},{"is_transit":false,"station_id":"CKI","station_name":"Cikini","i_lat":-6.198556,"time":3,"i_long":106.840169,"distance":1750,"line":2,"transit":false},{"distance":1590,"is_transit":true,"time":4,"transit":true,"station_id":"MRI","station_name":"Manggarai","i_long":106.84912,"i_lat":-6.209883,"line":2},{"line":1,"time":2,"station_id":"MTR","transit":false,"station_name":"Matraman","i_long":106.858896,"is_transit":false,"distance":1275,"i_lat":-6.212485},{"line":1,"station_name":"Jatinegara","i_lat":-6.215091,"i_long":106.86807400000001,"distance":1377,"time":8,"transit":false,"station_id":"JNG","is_transit":false},{"station_name":"Klender","i_long":106.899548,"time":3,"is_transit":false,"i_lat":-6.2135,"line":1,"distance":3395,"station_id":"KLD","transit":false},{"i_long":106.922662,"station_name":"Buaran","station_id":"BUA","line":1,"i_lat":-6.215568,"distance":3100,"time":2,"transit":false,"is_transit":false},{"transit":false,"i_long":106.939679,"distance":1305,"station_id":"KLDB","i_lat":-6.217455,"time":1,"is_transit":false,"station_name":"Klenderbaru","line":1},{"i_long":106.951283,"time":8,"line":1,"transit":false,"station_id":"CUK","station_name":"Cakung","distance":1385,"i_lat":-6.219053,"is_transit":false},{"time":3,"station_name":"Kranji","is_transit":false,"station_id":"KRI","i_long":106.977657,"line":1,"distance":3097,"i_lat":-6.224515,"transit":false}],[{"is_transit":false,"station_name":"Tanah Abang","transit":false,"time":0,"i_lat":-6.185545,"distance":0,"i_long":106.811091,"line":1,"station_id":"THB"},{"line":1,"i_lat":-6.20132,"transit":false,"time":5,"is_transit":false,"station_name":"Karet","station_id":"KAT","distance":2029,"i_long":106.816351},{"time":1,"line":1,"is_transit":false,"transit":false,"station_id":"SUDB","distance":471,"station_name":"Sudirman Baru","i_lat":-6.201433,"i_long":106.819881},{"time":1,"station_id":"SUD","transit":false,"i_long":106.822649,"line":1,"station_name":"Sudirman","is_transit":false,"i_lat":-6.202263,"distance":280},{"time":4,"station_name":"Manggarai","station_id":"MRI","line":2,"transit":true,"is_transit":true,"i_lat":-6.209883,"distance":3186,"i_long":106.84912},{"transit":false,"time":4,"is_transit":false,"station_id":"CKI","distance":1590,"i_long":106.840169,"line":2,"station_name":"Cikini","i_lat":-6.198556},{"transit":false,"time":3,"i_long":106.832183,"is_transit":false,"i_lat":-6.186295,"distance":1750,"station_name":"Gondangdia","station_id":"GDD","line":2},{"is_transit":false,"transit":false,"station_id":"JUA","i_long":106.828284,"line":2,"i_lat":-6.166716,"station_name":"Juanda","distance":2015,"time":4},{"transit":false,"i_long":106.827103,"time":2,"station_id":"SW","i_lat":-6.160725,"line":2,"station_name":"Sawah Besar","is_transit":false,"distance":1149},{"i_lat":-6.149769,"transit":false,"i_long":106.82482,"station_name":"Manggabesar","distance":906,"time":2,"is_transit":false,"station_id":"MGB","line":2},{"line":2,"distance":1080,"time":2,"transit":false,"is_transit":false,"i_lat":-6.141205,"i_long":106.820901,"station_name":"Jayakarta","station_id":"JAY"},{"station_id":"JAKK","i_long":106.812439,"transit":true,"line":2,"station_name":"Jakarta Kota","is_transit":true,"distance":1264,"i_lat":-6.137569,"time":4},{"is_transit":true,"i_lat":-6.132549,"line":4,"station_name":"Kampung Bandan","i_long":106.826365,"time":3,"distance":1364,"station_id":"KPB","transit":true},{"time":3,"i_lat":-6.14505,"station_name":"Rajawali","i_long":106.836569,"station_id":"RJW","is_transit":false,"transit":false,"line":11,"distance":1444},{"distance":1901,"line":11,"transit":false,"is_transit":false,"station_name":"Kemayoran","i_lat":-6.161728,"i_long":106.839204,"station_id":"KMO","time":5},{"i_long":106.84368,"distance":1436,"transit":false,"station_name":"Pasar Senen","is_transit":false,"time":4,"i_lat":-6.174784,"station_id":"PSE","line":11},{"transit":false,"i_lat":-6.185975,"line":11,"distance":1567,"station_name":"Gang Sentiong","is_transit":false,"station_id":"GST","i_long":106.850107,"time":8},{"transit":false,"i_lat":-6.193792,"station_name":"Kramat","time":1,"distance":973,"is_transit":false,"station_id":"KMT","i_long":106.855437,"line":11},{"i_lat":-6.209188,"distance":1829,"station_name":"Pondok Jati","is_transit":false,"time":2,"i_long":106.861737,"transit":false,"line":11,"station_id":"POK"},{"transit":true,"station_name":"Jatinegara","is_transit":true,"i_lat":-6.215091,"time":9,"i_long":106.86807400000001,"station_id":"JNG","line":1,"distance":1236},{"is_transit":false,"transit":false,"station_id":"KLD","line":1,"station_name":"Klender","distance":3395,"time":3,"i_long":106.899548,"i_lat":-6.2135},{"is_transit":false,"transit":false,"time":2,"i_lat":-6.215568,"i_long":106.922662,"station_id":"BUA","line":1,"station_name":"Buaran","distance":3100},{"station_id":"KLDB","is_transit":false,"distance":1305,"time":1,"line":1,"station_name":"Klenderbaru","i_lat":-6.217455,"i_long":106.939679,"transit":false},{"distance":1385,"station_id":"CUK","i_lat":-6.219053,"i_long":106.951283,"line":1,"time":8,"is_transit":false,"station_name":"Cakung","transit":false},{"i_long":106.977657,"distance":3097,"station_name":"Kranji","is_transit":false,"time":3,"station_id":"KRI","transit":false,"i_lat":-6.224515,"line":1}]]}