{"data":[[{"line":1,"station_id":"THB","is_transit":false,"i_lat":-6.185545,"time":0,"transit":false,"station_name":"Tanah Abang","distance":0,"i_long":106.811091},{"is_transit":false,"line":6,"transit":false,"station_id":"PLM","i_lat":-6.207404,"i_long":106.79689,"distance":3191,"station_name":"Palmerah","time":6},{"transit":false,"time":7,"i_long":106.780334,"station_id":"KBY","is_transit":false,"i_lat":-6.237242,"line":6,"distance":3737,"station_name":"Kebayoran"},{"i_long":106.74273,"station_name":"Pondokranji","station_id":"PDJ","is_transit":false,"time":8,"distance":6218,"i_lat":-6.276362,"transit":false,"line":6},{"i_long":106.728916,"transit":false,"line":6,"is_transit":false,"i_lat":-6.288927,"time":3,"station_id":"JMU","distance":2179,"station_name":"Jurangmangu"}]]}