{"data":[[{"i_long":106.811091,"is_transit":false,"transit":false,"station_name":"Tanah Abang","distance":0,"i_lat":-6.185545,"line":1,"time":0,"station_id":"THB"},{"distance":3632,"time":8,"i_long":106.800832,"line":1,"i_lat":-6.155215,"station_id":"DU","is_transit":false,"transit":false,"station_name":"Duri"},{"i_long":106.79867,"is_transit":false,"line":1,"distance":1230,"station_name":"Angke","time":4,"station_id":"AK","transit":false,"i_lat":-6.144674}],[{"station_id":"THB","distance":0,"time":0,"i_long":106.811091,"i_lat":-6.185545,"is_transit":false,"line":1,"transit":false,"station_name":"Tanah Abang"},{"i_long":106.816351,"time":5,"station_name":"Karet","distance":2029,"is_transit":false,"station_id":"KAT","transit":false,"i_lat":-6.20132,"line":1},{"distance":471,"i_long":106.819881,"station_id":"SUDB","time":1,"is_transit":false,"transit":false,"station_name":"Sudirman Baru","i_lat":-6.201433,"line":1},{"station_id":"SUD","distance":280,"is_transit":false,"station_name":"Sudirman","i_long":106.822649,"i_lat":-6.202263,"time":1,"line":1,"transit":false},{"station_id":"MRI","is_transit":true,"i_long":106.84912,"distance":3186,"i_lat":-6.209883,"time":4,"station_name":"Manggarai","line":2,"transit":true},{"distance":1590,"i_lat":-6.198556,"i_long":106.840169,"line":2,"station_name":"Cikini","time":4,"station_id":"CKI","transit":false,"is_transit":false},{"distance":1750,"transit":false,"time":3,"is_transit":false,"station_id":"GDD","i_lat":-6.186295,"station_name":"Gondangdia","i_long":106.832183,"line":2},{"transit":false,"i_lat":-6.166716,"distance":2015,"time":4,"line":2,"is_transit":false,"station_name":"Juanda","i_long":106.828284,"station_id":"JUA"},{"i_long":106.827103,"transit":false,"station_id":"SW","line":2,"i_lat":-6.160725,"is_transit":false,"station_name":"Sawah Besar","time":2,"distance":1149},{"distance":906,"time":2,"i_lat":-6.149769,"line":2,"station_id":"MGB","is_transit":false,"station_name":"Manggabesar","i_long":106.82482,"transit":false},{"i_long":106.820901,"station_name":"Jayakarta","distance":1080,"transit":false,"line":2,"station_id":"JAY","is_transit":false,"time":2,"i_lat":-6.141205},{"line":2,"distance":1264,"time":4,"i_lat":-6.137569,"station_id":"JAKK","i_long":106.812439,"is_transit":true,"transit":true,"station_name":"Jakarta Kota"},{"station_id":"KPB","time":3,"i_lat":-6.132549,"i_long":106.826365,"transit":true,"distance":1364,"line":4,"station_name":"Kampung Bandan","is_transit":true},{"is_transit":false,"distance":4102,"transit":false,"time":9,"station_name":"Angke","i_lat":-6.144674,"line":1,"station_id":"AK","i_long":106.79867}],[{"time":0,"i_lat":-6.185545,"line":1,"station_id":"THB","station_name":"Tanah Abang","is_transit":false,"i_long":106.811091,"transit":false,"distance":0},{"is_transit":false,"station_name":"Karet","station_id":"KAT","time":5,"distance":2029,"i_lat":-6.20132,"i_long":106.816351,"transit":false,"line":1},{"is_transit":false,"i_lat":-6.201433,"station_id":"SUDB","line":1,"distance":471,"time":1,"transit":false,"station_name":"Sudirman Baru","i_long":106.819881},{"station_name":"Sudirman","i_lat":-6.202263,"station_id":"SUD","line":1,"is_transit":false,"distance":280,"transit":false,"i_long":106.822649,"time":1},{"station_name":"Manggarai","is_transit":false,"i_long":106.84912,"line":2,"time":4,"transit":false,"i_lat":-6.209883,"distance":3186,"station_id":"MRI"},{"i_lat":-6.212485,"line":1,"distance":1275,"station_id":"MTR","station_name":"Matraman","is_transit":false,"transit":false,"i_long":106.858896,"time":2},{"time":8,"i_lat":-6.215091,"station_name":"Jatinegara","i_long":106.86807400000001,"line":1,"transit":true,"is_transit":true,"station_id":"JNG","distance":1377},{"i_lat":-6.209188,"station_name":"Pondok Jati","time":2,"distance":1236,"is_transit":false,"transit":false,"i_long":106.861737,"line":11,"station_id":"POK"},{"i_lat":-6.193792,"station_name":"Kramat","station_id":"KMT","distance":1829,"time":2,"is_transit":false,"i_long":106.855437,"line":11,"transit":false},{"distance":973,"time":1,"is_transit":false,"line":11,"i_lat":-6.185975,"station_id":"GST","station_name":"Gang Sentiong","i_long":106.850107,"transit":false},{"station_name":"Pasar Senen","time":8,"transit":false,"is_transit":false,"i_long":106.84368,"distance":1567,"station_id":"PSE","line":11,"i_lat":-6.174784},{"is_transit":false,"i_lat":-6.161728,"station_name":"Kemayoran","time":4,"distance":1436,"line":11,"transit":false,"i_long":106.839204,"station_id":"KMO"},{"is_transit":false,"distance":1901,"i_lat":-6.14505,"time":5,"transit":false,"station_name":"Rajawali","i_long":106.836569,"line":11,"station_id":"RJW"},{"station_id":"KPB","line":4,"transit":true,"i_lat":-6.132549,"time":3,"distance":1444,"i_long":106.826365,"station_name":"Kampung Bandan","is_transit":true},{"i_lat":-6.144674,"station_name":"Angke","station_id":"AK","distance":4102,"transit":false,"is_transit":false,"i_long":106.79867,"line":1,"time":9}]]}