{"data":[[{"line":1,"distance":0,"station_id":"THB","i_lat":-6.185545,"station_name":"Tanah Abang","time":0,"is_transit":false,"i_long":106.811091,"transit":false},{"time":5,"distance":2029,"station_id":"KAT","line":1,"station_name":"Karet","transit":false,"i_long":106.816351,"is_transit":false,"i_lat":-6.20132},{"is_transit":false,"distance":471,"line":1,"time":1,"transit":false,"station_id":"SUDB","station_name":"Sudirman Baru","i_lat":-6.201433,"i_long":106.819881},{"station_id":"SUD","line":1,"time":1,"i_long":106.822649,"distance":280,"is_transit":false,"station_name":"Sudirman","transit":false,"i_lat":-6.202263},{"station_id":"MRI","time":4,"line":2,"distance":3186,"i_long":106.84912,"i_lat":-6.209883,"is_transit":false,"transit":false,"station_name":"Manggarai"},{"station_id":"MTR","is_transit":false,"i_lat":-6.212485,"transit":false,"i_long":106.858896,"station_name":"Matraman","time":2,"distance":1275,"line":1},{"station_name":"Jatinegara","i_lat":-6.215091,"station_id":"JNG","line":1,"i_long":106.86807400000001,"distance":1377,"transit":false,"time":8,"is_transit":false},{"station_id":"KLD","is_transit":false,"line":1,"station_name":"Klender","distance":3395,"transit":false,"i_long":106.899548,"i_lat":-6.2135,"time":3},{"line":1,"i_lat":-6.215568,"time":2,"distance":3100,"station_name":"Buaran","transit":false,"i_long":106.922662,"station_id":"BUA","is_transit":false}],[{"station_id":"THB","i_long":106.811091,"distance":0,"station_name":"Tanah Abang","i_lat":-6.185545,"line":1,"time":0,"is_transit":false,"transit":false},{"i_lat":-6.155215,"line":1,"distance":3632,"station_name":"Duri","station_id":"DU","time":8,"is_transit":false,"transit":false,"i_long":106.800832},{"time":4,"transit":false,"station_id":"AK","i_long":106.79867,"station_name":"Angke","is_transit":false,"line":1,"i_lat":-6.144674,"distance":1230},{"station_id":"KPB","transit":true,"i_long":106.826365,"is_transit":true,"i_lat":-6.132549,"time":9,"station_name":"Kampung Bandan","line":4,"distance":4102},{"distance":1444,"station_id":"RJW","i_long":106.836569,"line":11,"time":3,"i_lat":-6.14505,"is_transit":false,"station_name":"Rajawali","transit":false},{"time":5,"line":11,"station_id":"KMO","transit":false,"is_transit":false,"i_long":106.839204,"station_name":"Kemayoran","i_lat":-6.161728,"distance":1901},{"station_id":"PSE","distance":1436,"i_long":106.84368,"time":4,"station_name":"Pasar Senen","i_lat":-6.174784,"transit":false,"is_transit":false,"line":11},{"station_id":"GST","line":11,"distance":1567,"i_long":106.850107,"is_transit":false,"time":8,"station_name":"Gang Sentiong","i_lat":-6.185975,"transit":false},{"time":1,"station_id":"KMT","station_name":"Kramat","is_transit":false,"i_lat":-6.193792,"i_long":106.855437,"transit":false,"distance":973,"line":11},{"distance":1829,"station_id":"POK","transit":false,"is_transit":false,"station_name":"Pondok Jati","time":2,"i_lat":-6.209188,"i_long":106.861737,"line":11},{"is_transit":true,"station_name":"Jatinegara","i_lat":-6.215091,"station_id":"JNG","distance":1236,"transit":true,"line":1,"i_long":106.86807400000001,"time":9},{"i_long":106.899548,"distance":3395,"station_name":"Klender","i_lat":-6.2135,"time":3,"is_transit":false,"station_id":"KLD","transit":false,"line":1},{"line":1,"station_name":"Buaran","time":2,"station_id":"BUA","is_transit":false,"i_lat":-6.215568,"i_long":106.922662,"distance":3100,"transit":false}],[{"is_transit":false,"i_long":106.811091,"time":0,"distance":0,"transit":false,"station_id":"THB","line":1,"i_lat":-6.185545,"station_name":"Tanah Abang"},{"station_name":"Duri","time":8,"is_transit":false,"i_lat":-6.155215,"line":1,"transit":false,"distance":3632,"station_id":"DU","i_long":106.800832},{"transit":false,"i_lat":-6.144674,"station_name":"Angke","is_transit":false,"station_id":"AK","i_long":106.79867,"line":1,"distance":1230,"time":4},{"station_id":"KPB","is_transit":true,"i_long":106.826365,"i_lat":-6.132549,"time":9,"transit":true,"distance":4102,"station_name":"Kampung Bandan","line":4},{"time":3,"i_lat":-6.137569,"line":2,"station_name":"Jakarta Kota","distance":1364,"is_transit":true,"i_long":106.812439,"station_id":"JAKK","transit":true},{"i_lat":-6.141205,"distance":1264,"i_long":106.820901,"station_id":"JAY","transit":false,"station_name":"Jayakarta","line":2,"time":4,"is_transit":false},{"time":2,"station_name":"Manggabesar","is_transit":false,"i_lat":-6.149769,"i_long":106.82482,"line":2,"distance":1080,"station_id":"MGB","transit":false},{"i_long":106.827103,"time":2,"transit":false,"i_lat":-6.160725,"distance":906,"line":2,"is_transit":false,"station_name":"Sawah Besar","station_id":"SW"},{"station_name":"Juanda","transit":false,"line":2,"time":2,"station_id":"JUA","distance":1149,"i_long":106.828284,"is_transit":false,"i_lat":-6.166716},{"i_long":106.832183,"time":4,"distance":2015,"station_name":"Gondangdia","transit":false,"is_transit":false,"i_lat":-6.186295,"line":2,"station_id":"GDD"},{"time":3,"distance":1750,"station_id":"CKI","i_long":106.840169,"station_name":"Cikini","transit":false,"i_lat":-6.198556,"line":2,"is_transit":false},{"station_id":"MRI","is_transit":true,"transit":true,"i_lat":-6.209883,"time":4,"line":2,"distance":1590,"station_name":"Manggarai","i_long":106.84912},{"distance":1275,"is_transit":false,"time":2,"station_id":"MTR","station_name":"Matraman","transit":false,"i_lat":-6.212485,"i_long":106.858896,"line":1},{"i_lat":-6.215091,"station_id":"JNG","distance":1377,"transit":false,"is_transit":false,"station_name":"Jatinegara","time":8,"i_long":106.86807400000001,"line":1},{"is_transit":false,"i_long":106.899548,"station_id":"KLD","transit":false,"line":1,"time":3,"distance":3395,"i_lat":-6.2135,"station_name":"Klender"},{"station_name":"Buaran","distance":3100,"station_id":"BUA","time":2,"is_transit":false,"transit":false,"i_long":106.922662,"i_lat":-6.215568,"line":1}],[{"transit":false,"is_transit":false,"station_name":"Tanah Abang","distance":0,"i_long":106.811091,"station_id":"THB","time":0,"i_lat":-6.185545,"line":1},{"distance":2029,"station_id":"KAT","line":1,"time":5,"i_lat":-6.20132,"is_transit":false,"station_name":"Karet","transit":false,"i_long":106.816351},{"station_name":"Sudirman Baru","station_id":"SUDB","distance":471,"is_transit":false,"transit":false,"time":1,"i_lat":-6.201433,"i_long":106.819881,"line":1},{"station_id":"SUD","station_name":"Sudirman","line":1,"transit":false,"i_lat":-6.202263,"distance":280,"time":1,"is_transit":false,"i_long":106.822649},{"is_transit":true,"distance":3186,"station_id":"MRI","transit":true,"time":4,"station_name":"Manggarai","i_lat":-6.209883,"line":2,"i_long":106.84912},{"line":2,"i_long":106.840169,"station_id":"CKI","station_name":"Cikini","i_lat":-6.198556,"is_transit":false,"time":4,"transit":false,"distance":1590},{"time":3,"line":2,"station_name":"Gondangdia","i_lat":-6.186295,"is_transit":false,"transit":false,"i_long":106.832183,"distance":1750,"station_id":"GDD"},{"station_id":"JUA","station_name":"Juanda","i_long":106.828284,"line":2,"transit":false,"distance":2015,"is_transit":false,"time":4,"i_lat":-6.166716},{"i_lat":-6.160725,"distance":1149,"is_transit":false,"station_name":"Sawah Besar","transit":false,"line":2,"time":2,"i_long":106.827103,"station_id":"SW"},{"time":2,"station_id":"MGB","distance":906,"station_name":"Manggabesar","i_lat":-6.149769,"is_transit":false,"transit":false,"i_long":106.82482,"line":2},{"line":2,"transit":false,"time":2,"i_long":106.820901,"station_id":"JAY","distance":1080,"i_lat":-6.141205,"is_transit":false,"station_name":"Jayakarta"},{"station_id":"JAKK","is_transit":true,"i_long":106.812439,"line":2,"distance":1264,"time":4,"transit":true,"i_lat":-6.137569,"station_name":"Jakarta Kota"},{"station_name":"Kampung Bandan","i_lat":-6.132549,"i_long":106.826365,"time":3,"distance":1364,"line":4,"station_id":"KPB","is_transit":true,"transit":true},{"time":3,"station_id":"RJW","i_lat":-6.14505,"i_long":106.836569,"distance":1444,"transit":false,"station_name":"Rajawali","line":11,"is_transit":false},{"time":5,"i_lat":-6.161728,"is_transit":false,"station_name":"Kemayoran","line":11,"i_long":106.839204,"distance":1901,"station_id":"KMO","transit":false},{"line":11,"is_transit":false,"time":4,"i_lat":-6.174784,"station_id":"PSE","distance":1436,"station_name":"Pasar Senen","transit":false,"i_long":106.84368},{"station_name":"Gang Sentiong","i_lat":-6.185975,"is_transit":false,"station_id":"GST","transit":false,"line":11,"time":8,"i_long":106.850107,"distance":1567},{"distance":973,"is_transit":false,"i_lat":-6.193792,"line":11,"time":1,"transit":false,"station_id":"KMT","i_long":106.855437,"station_name":"Kramat"},{"transit":false,"time":2,"line":11,"station_name":"Pondok Jati","station_id":"POK","distance":1829,"is_transit":false,"i_lat":-6.209188,"i_long":106.861737},{"is_transit":true,"i_long":106.86807400000001,"distance":1236,"transit":true,"station_id":"JNG","line":1,"station_name":"Jatinegara","time":9,"i_lat":-6.215091},{"time":3,"transit":false,"is_transit":false,"station_name":"Klender","distance":3395,"i_lat":-6.2135,"station_id":"KLD","line":1,"i_long":106.899548},{"distance":3100,"i_lat":-6.215568,"station_id":"BUA","transit":false,"i_long":106.922662,"time":2,"line":1,"station_name":"Buaran","is_transit":false}]]}