{"data":[[{"time":0,"is_transit":false,"transit":false,"station_name":"Tanah Abang","i_lat":-6.185545,"line":1,"station_id":"THB","distance":0,"i_long":106.811091},{"station_name":"Karet","is_transit":false,"transit":false,"i_lat":-6.20132,"line":1,"distance":2029,"time":5,"station_id":"KAT","i_long":106.816351},{"transit":false,"distance":471,"station_id":"SUDB","station_name":"Sudirman Baru","time":1,"i_long":106.819881,"is_transit":false,"line":1,"i_lat":-6.201433},{"i_long":106.822649,"distance":280,"is_transit":false,"station_id":"SUD","transit":false,"line":1,"time":1,"station_name":"Sudirman","i_lat":-6.202263},{"time":4,"station_id":"MRI","i_long":106.84912,"transit":false,"distance":3186,"station_name":"Manggarai","is_transit":false,"line":2,"i_lat":-6.209883},{"transit":false,"distance":1275,"station_id":"MTR","station_name":"Matraman","is_transit":false,"i_long":106.858896,"time":2,"i_lat":-6.212485,"line":1},{"distance":1377,"time":8,"line":1,"transit":false,"station_id":"JNG","i_lat":-6.215091,"i_long":106.86807400000001,"is_transit":false,"station_name":"Jatinegara"},{"station_id":"KLD","i_long":106.899548,"station_name":"Klender","time":3,"transit":false,"distance":3395,"i_lat":-6.2135,"is_transit":false,"line":1},{"time":2,"i_lat":-6.215568,"is_transit":false,"line":1,"distance":3100,"transit":false,"i_long":106.922662,"station_id":"BUA","station_name":"Buaran"},{"is_transit":false,"station_id":"KLDB","i_lat":-6.217455,"i_long":106.939679,"line":1,"station_name":"Klenderbaru","time":1,"distance":1305,"transit":false},{"i_long":106.951283,"distance":1385,"line":1,"is_transit":false,"transit":false,"station_id":"CUK","station_name":"Cakung","time":8,"i_lat":-6.219053},{"transit":false,"station_name":"Kranji","i_long":106.977657,"station_id":"KRI","is_transit":false,"time":3,"distance":3097,"i_lat":-6.224515,"line":1},{"station_id":"BKS","station_name":"Bekasi","is_transit":false,"transit":false,"i_long":106.997013,"line":1,"distance":2520,"i_lat":-6.236616,"time":4}],[{"station_name":"Tanah Abang","time":0,"i_lat":-6.185545,"transit":false,"line":1,"is_transit":false,"i_long":106.811091,"distance":0,"station_id":"THB"},{"time":8,"distance":3632,"station_id":"DU","station_name":"Duri","i_long":106.800832,"i_lat":-6.155215,"transit":false,"line":1,"is_transit":false},{"station_name":"Angke","station_id":"AK","distance":1230,"i_lat":-6.144674,"i_long":106.79867,"line":1,"transit":false,"is_transit":false,"time":4},{"i_lat":-6.132549,"i_long":106.826365,"station_id":"KPB","is_transit":true,"line":4,"distance":4102,"station_name":"Kampung Bandan","transit":true,"time":9},{"distance":1444,"is_transit":false,"time":3,"line":11,"i_lat":-6.14505,"station_name":"Rajawali","transit":false,"i_long":106.836569,"station_id":"RJW"},{"station_id":"KMO","distance":1901,"i_lat":-6.161728,"line":11,"is_transit":false,"time":5,"i_long":106.839204,"transit":false,"station_name":"Kemayoran"},{"i_lat":-6.174784,"i_long":106.84368,"is_transit":false,"time":4,"distance":1436,"station_name":"Pasar Senen","station_id":"PSE","line":11,"transit":false},{"line":11,"distance":1567,"transit":false,"station_id":"GST","i_long":106.850107,"is_transit":false,"station_name":"Gang Sentiong","time":8,"i_lat":-6.185975},{"transit":false,"time":1,"line":11,"station_name":"Kramat","i_lat":-6.193792,"i_long":106.855437,"is_transit":false,"distance":973,"station_id":"KMT"},{"transit":false,"station_id":"POK","time":2,"is_transit":false,"i_lat":-6.209188,"distance":1829,"station_name":"Pondok Jati","i_long":106.861737,"line":11},{"station_name":"Jatinegara","i_lat":-6.215091,"transit":true,"distance":1236,"is_transit":true,"line":1,"i_long":106.86807400000001,"time":9,"station_id":"JNG"},{"i_lat":-6.2135,"station_id":"KLD","distance":3395,"is_transit":false,"station_name":"Klender","transit":false,"line":1,"i_long":106.899548,"time":3},{"is_transit":false,"i_lat":-6.215568,"transit":false,"i_long":106.922662,"time":2,"line":1,"station_name":"Buaran","distance":3100,"station_id":"BUA"},{"time":1,"line":1,"i_lat":-6.217455,"distance":1305,"station_id":"KLDB","station_name":"Klenderbaru","is_transit":false,"i_long":106.939679,"transit":false},{"station_name":"Cakung","i_long":106.951283,"is_transit":false,"transit":false,"line":1,"time":8,"station_id":"CUK","i_lat":-6.219053,"distance":1385},{"i_long":106.977657,"i_lat":-6.224515,"time":3,"transit":false,"line":1,"is_transit":false,"station_id":"KRI","distance":3097,"station_name":"Kranji"},{"station_id":"BKS","is_transit":false,"transit":false,"time":4,"line":1,"i_lat":-6.236616,"i_long":106.997013,"station_name":"Bekasi","distance":2520}],[{"i_long":106.811091,"transit":false,"distance":0,"station_id":"THB","time":0,"is_transit":false,"station_name":"Tanah Abang","line":1,"i_lat":-6.185545},{"is_transit":false,"station_id":"DU","i_long":106.800832,"line":1,"transit":false,"time":8,"distance":3632,"i_lat":-6.155215,"station_name":"Duri"},{"i_lat":-6.144674,"i_long":106.79867,"transit":false,"distance":1230,"station_id":"AK","is_transit":false,"line":1,"station_name":"Angke","time":4},{"transit":true,"i_lat":-6.132549,"line":4,"station_name":"Kampung Bandan","is_transit":true,"distance":4102,"time":9,"station_id":"KPB","i_long":106.826365},{"distance":1364,"station_name":"Jakarta Kota","is_transit":true,"transit":true,"time":3,"station_id":"JAKK","i_lat":-6.137569,"i_long":106.812439,"line":2},{"time":4,"station_name":"Jayakarta","i_lat":-6.141205,"station_id":"JAY","transit":false,"i_long":106.820901,"distance":1264,"line":2,"is_transit":false},{"i_lat":-6.149769,"time":2,"station_name":"Manggabesar","distance":1080,"station_id":"MGB","is_transit":false,"i_long":106.82482,"transit":false,"line":2},{"line":2,"i_long":106.827103,"i_lat":-6.160725,"distance":906,"transit":false,"station_id":"SW","time":2,"is_transit":false,"station_name":"Sawah Besar"},{"station_id":"JUA","time":2,"distance":1149,"i_lat":-6.166716,"is_transit":false,"transit":false,"line":2,"i_long":106.828284,"station_name":"Juanda"},{"time":4,"i_lat":-6.186295,"station_name":"Gondangdia","line":2,"station_id":"GDD","distance":2015,"is_transit":false,"transit":false,"i_long":106.832183},{"distance":1750,"is_transit":false,"transit":false,"i_lat":-6.198556,"time":3,"i_long":106.840169,"line":2,"station_name":"Cikini","station_id":"CKI"},{"i_lat":-6.209883,"i_long":106.84912,"transit":true,"distance":1590,"station_name":"Manggarai","is_transit":true,"time":4,"station_id":"MRI","line":2},{"i_long":106.858896,"i_lat":-6.212485,"line":1,"distance":1275,"time":2,"is_transit":false,"transit":false,"station_name":"Matraman","station_id":"MTR"},{"station_id":"JNG","is_transit":false,"line":1,"distance":1377,"i_long":106.86807400000001,"transit":false,"time":8,"i_lat":-6.215091,"station_name":"Jatinegara"},{"line":1,"transit":false,"station_name":"Klender","i_long":106.899548,"i_lat":-6.2135,"time":3,"station_id":"KLD","is_transit":false,"distance":3395},{"transit":false,"station_id":"BUA","station_name":"Buaran","i_lat":-6.215568,"distance":3100,"i_long":106.922662,"time":2,"line":1,"is_transit":false},{"i_lat":-6.217455,"line":1,"is_transit":false,"time":1,"transit":false,"i_long":106.939679,"station_name":"Klenderbaru","distance":1305,"station_id":"KLDB"},{"transit":false,"distance":1385,"i_long":106.951283,"time":8,"is_transit":false,"station_name":"Cakung","i_lat":-6.219053,"station_id":"CUK","line":1},{"station_name":"Kranji","is_transit":false,"line":1,"transit":false,"distance":3097,"time":3,"i_lat":-6.224515,"station_id":"KRI","i_long":106.977657},{"station_id":"BKS","is_transit":false,"i_lat":-6.236616,"station_name":"Bekasi","i_long":106.997013,"line":1,"transit":false,"time":4,"distance":2520}],[{"is_transit":false,"station_name":"Tanah Abang","transit":false,"distance":0,"i_lat":-6.185545,"station_id":"THB","time":0,"i_long":106.811091,"line":1},{"is_transit":false,"station_name":"Karet","time":5,"i_lat":-6.20132,"transit":false,"distance":2029,"i_long":106.816351,"line":1,"station_id":"KAT"},{"distance":471,"is_transit":false,"line":1,"transit":false,"station_id":"SUDB","time":1,"i_long":106.819881,"station_name":"Sudirman Baru","i_lat":-6.201433},{"i_lat":-6.202263,"i_long":106.822649,"station_id":"SUD","distance":280,"station_name":"Sudirman","time":1,"is_transit":false,"transit":false,"line":1},{"distance":3186,"time":4,"is_transit":true,"line":2,"transit":true,"station_name":"Manggarai","i_lat":-6.209883,"station_id":"MRI","i_long":106.84912},{"distance":1590,"line":2,"is_transit":false,"station_name":"Cikini","i_lat":-6.198556,"time":4,"station_id":"CKI","transit":false,"i_long":106.840169},{"distance":1750,"station_id":"GDD","time":3,"is_transit":false,"i_lat":-6.186295,"line":2,"transit":false,"station_name":"Gondangdia","i_long":106.832183},{"is_transit":false,"time":4,"distance":2015,"i_lat":-6.166716,"station_id":"JUA","line":2,"station_name":"Juanda","transit":false,"i_long":106.828284},{"distance":1149,"transit":false,"line":2,"time":2,"i_long":106.827103,"i_lat":-6.160725,"station_id":"SW","is_transit":false,"station_name":"Sawah Besar"},{"time":2,"station_id":"MGB","is_transit":false,"i_long":106.82482,"distance":906,"transit":false,"i_lat":-6.149769,"line":2,"station_name":"Manggabesar"},{"i_long":106.820901,"station_id":"JAY","i_lat":-6.141205,"line":2,"station_name":"Jayakarta","distance":1080,"is_transit":false,"transit":false,"time":2},{"station_id":"JAKK","time":4,"transit":true,"is_transit":true,"i_long":106.812439,"line":2,"station_name":"Jakarta Kota","distance":1264,"i_lat":-6.137569},{"i_lat":-6.132549,"line":4,"time":3,"distance":1364,"is_transit":true,"transit":true,"station_name":"Kampung Bandan","i_long":106.826365,"station_id":"KPB"},{"line":11,"distance":1444,"transit":false,"i_long":106.836569,"station_id":"RJW","is_transit":false,"station_name":"Rajawali","time":3,"i_lat":-6.14505},{"time":5,"is_transit":false,"station_id":"KMO","line":11,"transit":false,"i_long":106.839204,"distance":1901,"i_lat":-6.161728,"station_name":"Kemayoran"},{"i_long":106.84368,"is_transit":false,"station_name":"Pasar Senen","time":4,"station_id":"PSE","line":11,"distance":1436,"transit":false,"i_lat":-6.174784},{"station_name":"Gang Sentiong","i_lat":-6.185975,"line":11,"distance":1567,"station_id":"GST","transit":false,"time":8,"is_transit":false,"i_long":106.850107},{"i_lat":-6.193792,"line":11,"i_long":106.855437,"distance":973,"station_name":"Kramat","is_transit":false,"time":1,"station_id":"KMT","transit":false},{"transit":false,"time":2,"i_lat":-6.209188,"station_name":"Pondok Jati","station_id":"POK","line":11,"i_long":106.861737,"is_transit":false,"distance":1829},{"i_long":106.86807400000001,"station_name":"Jatinegara","time":9,"distance":1236,"transit":true,"station_id":"JNG","is_transit":true,"i_lat":-6.215091,"line":1},{"distance":3395,"transit":false,"i_long":106.899548,"station_name":"Klender","is_transit":false,"station_id":"KLD","i_lat":-6.2135,"time":3,"line":1},{"i_long":106.922662,"distance":3100,"time":2,"station_id":"BUA","is_transit":false,"transit":false,"station_name":"Buaran","i_lat":-6.215568,"line":1},{"is_transit":false,"i_lat":-6.217455,"station_id":"KLDB","station_name":"Klenderbaru","i_long":106.939679,"distance":1305,"transit":false,"line":1,"time":1},{"is_transit":false,"line":1,"station_id":"CUK","i_lat":-6.219053,"i_long":106.951283,"distance":1385,"station_name":"Cakung","transit":false,"time":8},{"distance":3097,"line":1,"is_transit":false,"time":3,"station_id":"KRI","transit":false,"i_lat":-6.224515,"station_name":"Kranji","i_long":106.977657},{"station_name":"Bekasi","line":1,"transit":false,"time":4,"i_lat":-6.236616,"i_long":106.997013,"is_transit":false,"distance":2520,"station_id":"BKS"}]]}