{"data":[[{"i_lat":-6.185545,"i_long":106.811091,"station_name":"Tanah Abang","time":0,"is_transit":false,"station_id":"THB","transit":false,"line":1,"distance":0},{"time":5,"is_transit":false,"transit":false,"station_name":"Karet","distance":2029,"i_long":106.816351,"station_id":"KAT","line":1,"i_lat":-6.20132},{"is_transit":false,"line":1,"distance":471,"time":1,"station_id":"SUDB","i_lat":-6.201433,"i_long":106.819881,"station_name":"Sudirman Baru","transit":false},{"distance":280,"i_lat":-6.202263,"time":1,"station_name":"Sudirman","station_id":"SUD","is_transit":false,"i_long":106.822649,"transit":false,"line":1},{"i_lat":-6.209883,"distance":3186,"station_name":"Manggarai","is_transit":true,"station_id":"MRI","transit":true,"time":4,"i_long":106.84912,"line":2},{"distance":2610,"i_long":106.857948,"is_transit":false,"station_id":"TEB","i_lat":-6.226659,"time":4,"line":2,"transit":false,"station_name":"Tebet"},{"line":2,"transit":false,"time":2,"station_id":"CW","i_lat":-6.242512,"station_name":"Cawang","i_long":106.856607,"is_transit":false,"distance":1230},{"i_long":106.85449,"station_id":"DRN","station_name":"Duren Kalibata","distance":1546,"time":3,"transit":false,"line":2,"i_lat":-6.255332,"is_transit":false},{"i_lat":-6.263214,"station_id":"PSMB","is_transit":false,"i_long":106.851577,"line":2,"transit":false,"distance":824,"time":2,"station_name":"Pasar Minggu Baru"},{"line":2,"i_long":106.843999,"transit":false,"is_transit":false,"i_lat":-6.2842400000000005,"time":2,"distance":2380,"station_id":"PSM","station_name":"Pasar Minggu"},{"transit":false,"i_lat":-6.3080680000000005,"station_name":"Tanjung Barat","distance":2820,"station_id":"TNT","time":4,"is_transit":false,"i_long":106.838896,"line":2},{"time":3,"transit":false,"is_transit":false,"i_lat":-6.330363,"line":2,"station_id":"LNA","station_name":"Lenteng Agung","distance":2671,"i_long":106.832616},{"distance":1029,"is_transit":false,"line":2,"i_lat":-6.339291,"station_id":"UP","transit":false,"i_long":106.834175,"station_name":"Univ. Pancasila","time":2},{"transit":false,"time":3,"station_id":"UI","is_transit":false,"line":2,"station_name":"Univ. Indonesia","i_lat":-6.360749,"distance":2264,"i_long":106.831474},{"time":2,"station_id":"POC","i_lat":-6.369073,"line":2,"station_name":"Pondok Cina","transit":false,"i_long":106.831114,"distance":1109,"is_transit":false},{"distance":2727,"is_transit":false,"transit":false,"station_name":"Depokbaru","i_lat":-6.391065,"station_id":"DPB","i_long":106.819451,"line":2,"time":4},{"i_long":106.816926,"time":3,"station_id":"DP","distance":1584,"is_transit":false,"station_name":"Depok","i_lat":-6.405256,"line":2,"transit":false},{"station_name":"Citayam","transit":true,"time":6,"is_transit":true,"i_long":106.800298,"distance":5084,"station_id":"CTA","line":2,"i_lat":-6.448811},{"is_transit":false,"i_lat":-6.460735,"station_name":"Pondok Rajeg","time":0,"distance":0,"line":21,"transit":false,"i_long":106.824374,"station_id":"PDRG"},{"is_transit":false,"distance":0,"i_lat":-6.46424,"time":0,"transit":false,"station_name":"Cibinong","i_long":106.851978,"line":21,"station_id":"CBN"}],[{"station_id":"THB","line":1,"transit":false,"i_lat":-6.185545,"time":0,"distance":0,"i_long":106.811091,"station_name":"Tanah Abang","is_transit":false},{"i_lat":-6.155215,"station_name":"Duri","station_id":"DU","transit":false,"distance":3632,"is_transit":false,"i_long":106.800832,"line":1,"time":8},{"is_transit":false,"station_name":"Angke","line":1,"i_long":106.79867,"station_id":"AK","i_lat":-6.144674,"distance":1230,"transit":false,"time":4},{"line":4,"station_id":"KPB","transit":true,"i_lat":-6.132549,"time":9,"distance":4102,"is_transit":true,"station_name":"Kampung Bandan","i_long":106.826365},{"station_id":"JAKK","is_transit":true,"station_name":"Jakarta Kota","i_long":106.812439,"time":3,"line":2,"transit":true,"distance":1364,"i_lat":-6.137569},{"line":2,"distance":1264,"i_long":106.820901,"time":4,"station_name":"Jayakarta","is_transit":false,"i_lat":-6.141205,"transit":false,"station_id":"JAY"},{"is_transit":false,"transit":false,"i_lat":-6.149769,"i_long":106.82482,"station_id":"MGB","time":2,"station_name":"Manggabesar","line":2,"distance":1080},{"time":2,"transit":false,"station_id":"SW","distance":906,"station_name":"Sawah Besar","line":2,"is_transit":false,"i_lat":-6.160725,"i_long":106.827103},{"station_name":"Juanda","is_transit":false,"i_lat":-6.166716,"i_long":106.828284,"station_id":"JUA","time":2,"transit":false,"distance":1149,"line":2},{"station_id":"GDD","i_lat":-6.186295,"i_long":106.832183,"station_name":"Gondangdia","time":4,"line":2,"transit":false,"distance":2015,"is_transit":false},{"station_id":"CKI","transit":false,"distance":1750,"i_lat":-6.198556,"line":2,"is_transit":false,"time":3,"i_long":106.840169,"station_name":"Cikini"},{"i_long":106.84912,"distance":1590,"is_transit":false,"time":4,"i_lat":-6.209883,"line":2,"station_id":"MRI","station_name":"Manggarai","transit":false},{"station_id":"TEB","transit":false,"i_lat":-6.226659,"i_long":106.857948,"is_transit":false,"distance":2610,"time":4,"line":2,"station_name":"Tebet"},{"is_transit":false,"station_name":"Cawang","distance":1230,"station_id":"CW","time":2,"i_long":106.856607,"line":2,"i_lat":-6.242512,"transit":false},{"transit":false,"station_id":"DRN","station_name":"Duren Kalibata","i_long":106.85449,"i_lat":-6.255332,"time":3,"distance":1546,"is_transit":false,"line":2},{"station_id":"PSMB","is_transit":false,"time":2,"distance":824,"i_lat":-6.263214,"transit":false,"i_long":106.851577,"line":2,"station_name":"Pasar Minggu Baru"},{"distance":2380,"line":2,"i_lat":-6.2842400000000005,"station_id":"PSM","station_name":"Pasar Minggu","transit":false,"i_long":106.843999,"time":2,"is_transit":false},{"is_transit":false,"i_long":106.838896,"station_name":"Tanjung Barat","distance":2820,"transit":false,"time":4,"station_id":"TNT","line":2,"i_lat":-6.3080680000000005},{"station_id":"LNA","station_name":"Lenteng Agung","distance":2671,"time":3,"transit":false,"i_long":106.832616,"line":2,"is_transit":false,"i_lat":-6.330363},{"time":2,"is_transit":false,"i_long":106.834175,"distance":1029,"station_name":"Univ. Pancasila","station_id":"UP","i_lat":-6.339291,"line":2,"transit":false},{"station_id":"UI","i_lat":-6.360749,"is_transit":false,"station_name":"Univ. Indonesia","i_long":106.831474,"line":2,"time":3,"transit":false,"distance":2264},{"is_transit":false,"line":2,"i_long":106.831114,"station_name":"Pondok Cina","station_id":"POC","time":2,"transit":false,"distance":1109,"i_lat":-6.369073},{"is_transit":false,"i_lat":-6.391065,"station_name":"Depokbaru","distance":2727,"time":4,"line":2,"station_id":"DPB","i_long":106.819451,"transit":false},{"i_long":106.816926,"station_id":"DP","line":2,"transit":false,"distance":1584,"i_lat":-6.405256,"station_name":"Depok","time":3,"is_transit":false},{"line":2,"time":6,"distance":5084,"transit":true,"station_id":"CTA","station_name":"Citayam","i_long":106.800298,"is_transit":true,"i_lat":-6.448811},{"i_lat":-6.460735,"station_name":"Pondok Rajeg","station_id":"PDRG","is_transit":false,"time":0,"line":21,"i_long":106.824374,"transit":false,"distance":0},{"transit":false,"station_name":"Cibinong","is_transit":false,"distance":0,"time":0,"i_long":106.851978,"i_lat":-6.46424,"line":21,"station_id":"CBN"}],[{"line":1,"transit":false,"is_transit":false,"distance":0,"i_lat":-6.185545,"station_name":"Tanah Abang","time":0,"i_long":106.811091,"station_id":"THB"},{"transit":false,"distance":3632,"station_id":"DU","station_name":"Duri","time":8,"i_long":106.800832,"line":1,"is_transit":false,"i_lat":-6.155215},{"transit":false,"distance":1230,"is_transit":false,"time":4,"i_lat":-6.144674,"i_long":106.79867,"line":1,"station_id":"AK","station_name":"Angke"},{"is_transit":true,"station_name":"Kampung Bandan","time":9,"transit":true,"i_lat":-6.132549,"station_id":"KPB","line":4,"distance":4102,"i_long":106.826365},{"time":3,"distance":1444,"i_long":106.836569,"station_id":"RJW","i_lat":-6.14505,"is_transit":false,"station_name":"Rajawali","line":11,"transit":false},{"distance":1901,"i_long":106.839204,"time":5,"line":11,"is_transit":false,"station_id":"KMO","transit":false,"i_lat":-6.161728,"station_name":"Kemayoran"},{"station_id":"PSE","transit":false,"line":11,"is_transit":false,"distance":1436,"i_long":106.84368,"station_name":"Pasar Senen","i_lat":-6.174784,"time":4},{"transit":false,"station_id":"GST","station_name":"Gang Sentiong","is_transit":false,"i_lat":-6.185975,"i_long":106.850107,"line":11,"time":8,"distance":1567},{"line":11,"time":1,"station_id":"KMT","is_transit":false,"i_lat":-6.193792,"distance":973,"transit":false,"station_name":"Kramat","i_long":106.855437},{"station_name":"Pondok Jati","time":2,"i_long":106.861737,"station_id":"POK","line":11,"is_transit":false,"i_lat":-6.209188,"distance":1829,"transit":false},{"transit":true,"station_name":"Jatinegara","distance":1236,"i_lat":-6.215091,"is_transit":true,"time":9,"line":1,"i_long":106.86807400000001,"station_id":"JNG"},{"station_name":"Matraman","i_long":106.858896,"distance":1377,"is_transit":false,"line":1,"station_id":"MTR","time":2,"transit":false,"i_lat":-6.212485},{"station_name":"Manggarai","transit":true,"time":2,"i_long":106.84912,"line":2,"station_id":"MRI","distance":1275,"is_transit":true,"i_lat":-6.209883},{"station_name":"Tebet","line":2,"station_id":"TEB","transit":false,"is_transit":false,"i_lat":-6.226659,"i_long":106.857948,"time":4,"distance":2610},{"line":2,"time":2,"distance":1230,"i_long":106.856607,"is_transit":false,"i_lat":-6.242512,"station_id":"CW","station_name":"Cawang","transit":false},{"station_id":"DRN","transit":false,"line":2,"is_transit":false,"i_lat":-6.255332,"station_name":"Duren Kalibata","time":3,"i_long":106.85449,"distance":1546},{"time":2,"distance":824,"i_long":106.851577,"station_id":"PSMB","is_transit":false,"i_lat":-6.263214,"station_name":"Pasar Minggu Baru","transit":false,"line":2},{"station_name":"Pasar Minggu","i_long":106.843999,"i_lat":-6.2842400000000005,"distance":2380,"time":2,"is_transit":false,"line":2,"station_id":"PSM","transit":false},{"transit":false,"is_transit":false,"i_long":106.838896,"time":4,"station_id":"TNT","distance":2820,"i_lat":-6.3080680000000005,"station_name":"Tanjung Barat","line":2},{"is_transit":false,"i_long":106.832616,"line":2,"time":3,"i_lat":-6.330363,"transit":false,"station_id":"LNA","station_name":"Lenteng Agung","distance":2671},{"i_lat":-6.339291,"station_name":"Univ. Pancasila","is_transit":false,"line":2,"time":2,"distance":1029,"i_long":106.834175,"transit":false,"station_id":"UP"},{"i_lat":-6.360749,"distance":2264,"i_long":106.831474,"station_name":"Univ. Indonesia","station_id":"UI","line":2,"transit":false,"is_transit":false,"time":3},{"distance":1109,"line":2,"station_id":"POC","i_long":106.831114,"i_lat":-6.369073,"transit":false,"is_transit":false,"time":2,"station_name":"Pondok Cina"},{"line":2,"i_lat":-6.391065,"transit":false,"i_long":106.819451,"time":4,"is_transit":false,"station_name":"Depokbaru","station_id":"DPB","distance":2727},{"i_long":106.816926,"line":2,"distance":1584,"station_id":"DP","station_name":"Depok","time":3,"i_lat":-6.405256,"transit":false,"is_transit":false},{"station_name":"Citayam","transit":true,"time":6,"line":2,"i_long":106.800298,"i_lat":-6.448811,"is_transit":true,"station_id":"CTA","distance":5084},{"i_long":106.824374,"station_name":"Pondok Rajeg","is_transit":false,"transit":false,"station_id":"PDRG","distance":0,"time":0,"line":21,"i_lat":-6.460735},{"transit":false,"station_name":"Cibinong","i_lat":-6.46424,"station_id":"CBN","distance":0,"time":0,"i_long":106.851978,"is_transit":false,"line":21}]]}