{"data":[[{"station_name":"Tanah Abang","distance":0,"i_long":106.811091,"station_id":"THB","time":0,"transit":false,"line":1,"is_transit":false,"i_lat":-6.185545},{"line":1,"i_long":106.816351,"station_name":"Karet","time":5,"is_transit":false,"station_id":"KAT","distance":2029,"transit":false,"i_lat":-6.20132},{"station_id":"SUDB","i_lat":-6.201433,"transit":false,"time":1,"line":1,"distance":471,"is_transit":false,"station_name":"Sudirman Baru","i_long":106.819881},{"i_long":106.822649,"i_lat":-6.202263,"transit":false,"is_transit":false,"distance":280,"line":1,"time":1,"station_name":"Sudirman","station_id":"SUD"},{"is_transit":false,"time":4,"station_name":"Manggarai","i_lat":-6.209883,"i_long":106.84912,"line":2,"distance":3186,"transit":false,"station_id":"MRI"},{"transit":false,"distance":1275,"line":1,"i_lat":-6.212485,"is_transit":false,"station_id":"MTR","station_name":"Matraman","i_long":106.858896,"time":2},{"is_transit":false,"distance":1377,"time":8,"i_long":106.86807400000001,"line":1,"i_lat":-6.215091,"transit":false,"station_id":"JNG","station_name":"Jatinegara"},{"station_name":"Klender","station_id":"KLD","i_lat":-6.2135,"distance":3395,"transit":false,"time":3,"line":1,"i_long":106.899548,"is_transit":false},{"distance":3100,"transit":false,"time":2,"is_transit":false,"station_name":"Buaran","i_lat":-6.215568,"station_id":"BUA","i_long":106.922662,"line":1},{"is_transit":false,"i_lat":-6.217455,"station_id":"KLDB","i_long":106.939679,"station_name":"Klenderbaru","line":1,"time":1,"distance":1305,"transit":false},{"station_id":"CUK","i_long":106.951283,"line":1,"is_transit":false,"transit":false,"station_name":"Cakung","time":8,"distance":1385,"i_lat":-6.219053},{"line":1,"i_long":106.977657,"time":3,"station_id":"KRI","is_transit":false,"transit":false,"distance":3097,"i_lat":-6.224515,"station_name":"Kranji"},{"station_name":"Bekasi","station_id":"BKS","line":1,"is_transit":false,"transit":false,"time":4,"i_lat":-6.236616,"distance":2520,"i_long":106.997013}],[{"distance":0,"time":0,"i_long":106.811091,"transit":false,"station_name":"Tanah Abang","station_id":"THB","is_transit":false,"line":1,"i_lat":-6.185545},{"is_transit":false,"line":1,"transit":false,"station_name":"Duri","time":8,"i_long":106.800832,"station_id":"DU","distance":3632,"i_lat":-6.155215},{"distance":1230,"station_id":"AK","station_name":"Angke","transit":false,"i_long":106.79867,"line":1,"is_transit":false,"time":4,"i_lat":-6.144674},{"distance":4102,"line":4,"i_lat":-6.132549,"time":9,"is_transit":true,"i_long":106.826365,"transit":true,"station_name":"Kampung Bandan","station_id":"KPB"},{"is_transit":false,"line":11,"time":3,"station_name":"Rajawali","transit":false,"i_lat":-6.14505,"distance":1444,"i_long":106.836569,"station_id":"RJW"},{"transit":false,"is_transit":false,"time":5,"station_id":"KMO","i_lat":-6.161728,"i_long":106.839204,"line":11,"station_name":"Kemayoran","distance":1901},{"distance":1436,"station_id":"PSE","i_lat":-6.174784,"line":11,"time":4,"station_name":"Pasar Senen","is_transit":false,"transit":false,"i_long":106.84368},{"is_transit":false,"distance":1567,"station_name":"Gang Sentiong","i_long":106.850107,"station_id":"GST","time":8,"line":11,"i_lat":-6.185975,"transit":false},{"transit":false,"i_lat":-6.193792,"time":1,"line":11,"is_transit":false,"station_name":"Kramat","distance":973,"i_long":106.855437,"station_id":"KMT"},{"line":11,"distance":1829,"station_id":"POK","station_name":"Pondok Jati","i_lat":-6.209188,"is_transit":false,"transit":false,"time":2,"i_long":106.861737},{"station_name":"Jatinegara","i_lat":-6.215091,"i_long":106.86807400000001,"is_transit":true,"distance":1236,"transit":true,"line":1,"station_id":"JNG","time":9},{"is_transit":false,"line":1,"transit":false,"station_id":"KLD","time":3,"station_name":"Klender","i_long":106.899548,"i_lat":-6.2135,"distance":3395},{"transit":false,"line":1,"is_transit":false,"i_lat":-6.215568,"i_long":106.922662,"time":2,"station_name":"Buaran","station_id":"BUA","distance":3100},{"is_transit":false,"station_name":"Klenderbaru","line":1,"station_id":"KLDB","time":1,"distance":1305,"transit":false,"i_lat":-6.217455,"i_long":106.939679},{"distance":1385,"station_name":"Cakung","transit":false,"i_long":106.951283,"station_id":"CUK","is_transit":false,"i_lat":-6.219053,"line":1,"time":8},{"station_name":"Kranji","i_long":106.977657,"line":1,"time":3,"i_lat":-6.224515,"transit":false,"station_id":"KRI","is_transit":false,"distance":3097},{"time":4,"i_long":106.997013,"station_id":"BKS","line":1,"distance":2520,"is_transit":false,"i_lat":-6.236616,"transit":false,"station_name":"Bekasi"}],[{"station_name":"Tanah Abang","i_lat":-6.185545,"station_id":"THB","transit":false,"is_transit":false,"time":0,"distance":0,"line":1,"i_long":106.811091},{"i_lat":-6.155215,"i_long":106.800832,"line":1,"distance":3632,"station_id":"DU","station_name":"Duri","time":8,"is_transit":false,"transit":false},{"transit":false,"station_id":"AK","distance":1230,"i_long":106.79867,"time":4,"station_name":"Angke","is_transit":false,"i_lat":-6.144674,"line":1},{"i_long":106.826365,"station_name":"Kampung Bandan","i_lat":-6.132549,"line":4,"distance":4102,"station_id":"KPB","transit":true,"is_transit":true,"time":9},{"time":3,"distance":1364,"is_transit":true,"i_long":106.812439,"transit":true,"station_id":"JAKK","line":2,"station_name":"Jakarta Kota","i_lat":-6.137569},{"i_lat":-6.141205,"time":4,"distance":1264,"line":2,"transit":false,"i_long":106.820901,"station_id":"JAY","is_transit":false,"station_name":"Jayakarta"},{"time":2,"i_long":106.82482,"transit":false,"station_name":"Manggabesar","station_id":"MGB","is_transit":false,"distance":1080,"line":2,"i_lat":-6.149769},{"is_transit":false,"station_id":"SW","distance":906,"transit":false,"station_name":"Sawah Besar","i_long":106.827103,"line":2,"time":2,"i_lat":-6.160725},{"station_id":"JUA","station_name":"Juanda","i_lat":-6.166716,"transit":false,"time":2,"distance":1149,"line":2,"i_long":106.828284,"is_transit":false},{"station_name":"Gondangdia","i_lat":-6.186295,"distance":2015,"transit":false,"i_long":106.832183,"time":4,"station_id":"GDD","is_transit":false,"line":2},{"i_lat":-6.198556,"transit":false,"i_long":106.840169,"station_name":"Cikini","time":3,"is_transit":false,"distance":1750,"line":2,"station_id":"CKI"},{"station_name":"Manggarai","i_long":106.84912,"line":2,"is_transit":true,"time":4,"station_id":"MRI","distance":1590,"i_lat":-6.209883,"transit":true},{"distance":1275,"i_long":106.858896,"station_id":"MTR","i_lat":-6.212485,"line":1,"transit":false,"time":2,"is_transit":false,"station_name":"Matraman"},{"is_transit":false,"i_long":106.86807400000001,"station_name":"Jatinegara","line":1,"time":8,"i_lat":-6.215091,"transit":false,"distance":1377,"station_id":"JNG"},{"line":1,"i_lat":-6.2135,"time":3,"station_id":"KLD","station_name":"Klender","i_long":106.899548,"transit":false,"is_transit":false,"distance":3395},{"station_id":"BUA","transit":false,"i_long":106.922662,"station_name":"Buaran","line":1,"is_transit":false,"time":2,"distance":3100,"i_lat":-6.215568},{"line":1,"time":1,"station_id":"KLDB","i_long":106.939679,"i_lat":-6.217455,"station_name":"Klenderbaru","transit":false,"is_transit":false,"distance":1305},{"is_transit":false,"station_name":"Cakung","station_id":"CUK","distance":1385,"line":1,"transit":false,"time":8,"i_lat":-6.219053,"i_long":106.951283},{"station_name":"Kranji","station_id":"KRI","transit":false,"distance":3097,"time":3,"i_lat":-6.224515,"line":1,"is_transit":false,"i_long":106.977657},{"time":4,"station_name":"Bekasi","distance":2520,"i_lat":-6.236616,"i_long":106.997013,"station_id":"BKS","transit":false,"is_transit":false,"line":1}],[{"transit":false,"distance":0,"line":1,"station_name":"Tanah Abang","i_lat":-6.185545,"station_id":"THB","i_long":106.811091,"is_transit":false,"time":0},{"distance":2029,"line":1,"is_transit":false,"time":5,"i_long":106.816351,"i_lat":-6.20132,"transit":false,"station_id":"KAT","station_name":"Karet"},{"line":1,"station_id":"SUDB","is_transit":false,"time":1,"distance":471,"i_lat":-6.201433,"transit":false,"i_long":106.819881,"station_name":"Sudirman Baru"},{"distance":280,"transit":false,"i_long":106.822649,"is_transit":false,"station_name":"Sudirman","i_lat":-6.202263,"time":1,"line":1,"station_id":"SUD"},{"i_long":106.84912,"station_name":"Manggarai","i_lat":-6.209883,"time":4,"distance":3186,"line":2,"station_id":"MRI","transit":true,"is_transit":true},{"is_transit":false,"transit":false,"i_lat":-6.198556,"distance":1590,"station_name":"Cikini","i_long":106.840169,"time":4,"line":2,"station_id":"CKI"},{"distance":1750,"time":3,"is_transit":false,"line":2,"i_long":106.832183,"i_lat":-6.186295,"transit":false,"station_id":"GDD","station_name":"Gondangdia"},{"transit":false,"station_name":"Juanda","time":4,"i_lat":-6.166716,"is_transit":false,"i_long":106.828284,"distance":2015,"line":2,"station_id":"JUA"},{"transit":false,"is_transit":false,"time":2,"i_lat":-6.160725,"distance":1149,"station_id":"SW","line":2,"station_name":"Sawah Besar","i_long":106.827103},{"i_long":106.82482,"distance":906,"time":2,"station_id":"MGB","transit":false,"line":2,"is_transit":false,"i_lat":-6.149769,"station_name":"Manggabesar"},{"distance":1080,"station_name":"Jayakarta","transit":false,"line":2,"time":2,"is_transit":false,"i_lat":-6.141205,"station_id":"JAY","i_long":106.820901},{"transit":true,"station_id":"JAKK","time":4,"station_name":"Jakarta Kota","distance":1264,"i_lat":-6.137569,"i_long":106.812439,"is_transit":true,"line":2},{"transit":true,"station_id":"KPB","i_long":106.826365,"distance":1364,"station_name":"Kampung Bandan","is_transit":true,"time":3,"line":4,"i_lat":-6.132549},{"i_long":106.836569,"i_lat":-6.14505,"time":3,"station_id":"RJW","station_name":"Rajawali","line":11,"is_transit":false,"distance":1444,"transit":false},{"station_id":"KMO","transit":false,"i_lat":-6.161728,"station_name":"Kemayoran","is_transit":false,"time":5,"distance":1901,"i_long":106.839204,"line":11},{"line":11,"distance":1436,"transit":false,"i_lat":-6.174784,"station_id":"PSE","time":4,"is_transit":false,"i_long":106.84368,"station_name":"Pasar Senen"},{"line":11,"station_name":"Gang Sentiong","station_id":"GST","time":8,"i_long":106.850107,"i_lat":-6.185975,"distance":1567,"transit":false,"is_transit":false},{"transit":false,"i_lat":-6.193792,"time":1,"is_transit":false,"line":11,"i_long":106.855437,"distance":973,"station_name":"Kramat","station_id":"KMT"},{"distance":1829,"line":11,"transit":false,"i_long":106.861737,"time":2,"station_name":"Pondok Jati","is_transit":false,"i_lat":-6.209188,"station_id":"POK"},{"transit":true,"line":1,"station_id":"JNG","i_long":106.86807400000001,"distance":1236,"i_lat":-6.215091,"station_name":"Jatinegara","is_transit":true,"time":9},{"distance":3395,"transit":false,"station_name":"Klender","is_transit":false,"time":3,"i_lat":-6.2135,"line":1,"station_id":"KLD","i_long":106.899548},{"line":1,"i_long":106.922662,"transit":false,"station_name":"Buaran","is_transit":false,"distance":3100,"time":2,"i_lat":-6.215568,"station_id":"BUA"},{"distance":1305,"i_long":106.939679,"i_lat":-6.217455,"time":1,"is_transit":false,"transit":false,"station_name":"Klenderbaru","station_id":"KLDB","line":1},{"line":1,"time":8,"station_name":"Cakung","transit":false,"distance":1385,"i_lat":-6.219053,"is_transit":false,"station_id":"CUK","i_long":106.951283},{"line":1,"station_name":"Kranji","i_lat":-6.224515,"time":3,"i_long":106.977657,"is_transit":false,"transit":false,"station_id":"KRI","distance":3097},{"is_transit":false,"line":1,"station_name":"Bekasi","transit":false,"station_id":"BKS","distance":2520,"i_lat":-6.236616,"time":4,"i_long":106.997013}]]}