{"data":[[{"transit":false,"line":1,"distance":0,"time":0,"i_long":106.811091,"station_id":"THB","station_name":"Tanah Abang","i_lat":-6.185545,"is_transit":false},{"station_name":"Karet","time":5,"line":1,"is_transit":false,"transit":false,"station_id":"KAT","distance":2029,"i_long":106.816351,"i_lat":-6.20132},{"line":1,"distance":471,"is_transit":false,"i_long":106.819881,"station_id":"SUDB","transit":false,"i_lat":-6.201433,"station_name":"Sudirman Baru","time":1},{"i_lat":-6.202263,"i_long":106.822649,"time":1,"distance":280,"station_name":"Sudirman","line":1,"station_id":"SUD","transit":false,"is_transit":false},{"i_lat":-6.209883,"is_transit":true,"line":2,"time":4,"distance":3186,"transit":true,"station_id":"MRI","i_long":106.84912,"station_name":"Manggarai"},{"i_lat":-6.226659,"station_id":"TEB","i_long":106.857948,"time":4,"line":2,"station_name":"Tebet","transit":false,"distance":2610,"is_transit":false},{"time":2,"station_name":"Cawang","distance":1230,"transit":false,"i_lat":-6.242512,"i_long":106.856607,"station_id":"CW","is_transit":false,"line":2},{"time":3,"is_transit":false,"station_id":"DRN","i_lat":-6.255332,"station_name":"Duren Kalibata","distance":1546,"i_long":106.85449,"line":2,"transit":false},{"i_long":106.851577,"time":2,"distance":824,"is_transit":false,"station_name":"Pasar Minggu Baru","station_id":"PSMB","i_lat":-6.263214,"line":2,"transit":false},{"is_transit":false,"i_lat":-6.2842400000000005,"line":2,"time":2,"transit":false,"station_name":"Pasar Minggu","station_id":"PSM","i_long":106.843999,"distance":2380},{"transit":false,"i_long":106.838896,"station_id":"TNT","i_lat":-6.3080680000000005,"station_name":"Tanjung Barat","is_transit":false,"distance":2820,"line":2,"time":4},{"i_long":106.832616,"transit":false,"distance":2671,"station_id":"LNA","is_transit":false,"station_name":"Lenteng Agung","i_lat":-6.330363,"line":2,"time":3},{"distance":1029,"transit":false,"station_name":"Univ. Pancasila","time":2,"i_lat":-6.339291,"station_id":"UP","i_long":106.834175,"line":2,"is_transit":false},{"station_name":"Univ. Indonesia","is_transit":false,"station_id":"UI","line":2,"transit":false,"i_lat":-6.360749,"time":3,"distance":2264,"i_long":106.831474},{"station_id":"POC","station_name":"Pondok Cina","transit":false,"time":2,"is_transit":false,"distance":1109,"i_lat":-6.369073,"i_long":106.831114,"line":2},{"time":4,"is_transit":false,"transit":false,"i_long":106.819451,"station_name":"Depokbaru","i_lat":-6.391065,"station_id":"DPB","line":2,"distance":2727},{"distance":1584,"station_id":"DP","i_lat":-6.405256,"station_name":"Depok","time":3,"transit":false,"i_long":106.816926,"is_transit":false,"line":2}],[{"station_name":"Tanah Abang","is_transit":false,"distance":0,"i_long":106.811091,"i_lat":-6.185545,"line":1,"time":0,"transit":false,"station_id":"THB"},{"time":8,"transit":false,"station_name":"Duri","i_lat":-6.155215,"is_transit":false,"distance":3632,"i_long":106.800832,"line":1,"station_id":"DU"},{"distance":1230,"is_transit":false,"i_long":106.79867,"station_id":"AK","transit":false,"i_lat":-6.144674,"time":4,"line":1,"station_name":"Angke"},{"station_id":"KPB","distance":4102,"time":9,"i_lat":-6.132549,"i_long":106.826365,"line":4,"station_name":"Kampung Bandan","is_transit":true,"transit":true},{"transit":true,"i_lat":-6.137569,"station_id":"JAKK","time":3,"is_transit":true,"station_name":"Jakarta Kota","distance":1364,"line":2,"i_long":106.812439},{"is_transit":false,"distance":1264,"transit":false,"i_long":106.820901,"time":4,"station_name":"Jayakarta","i_lat":-6.141205,"station_id":"JAY","line":2},{"i_lat":-6.149769,"line":2,"is_transit":false,"time":2,"distance":1080,"i_long":106.82482,"station_name":"Manggabesar","transit":false,"station_id":"MGB"},{"station_id":"SW","i_lat":-6.160725,"i_long":106.827103,"distance":906,"time":2,"is_transit":false,"station_name":"Sawah Besar","transit":false,"line":2},{"station_name":"Juanda","time":2,"is_transit":false,"transit":false,"i_long":106.828284,"i_lat":-6.166716,"station_id":"JUA","line":2,"distance":1149},{"station_name":"Gondangdia","line":2,"distance":2015,"is_transit":false,"station_id":"GDD","transit":false,"time":4,"i_long":106.832183,"i_lat":-6.186295},{"distance":1750,"line":2,"is_transit":false,"station_name":"Cikini","station_id":"CKI","time":3,"transit":false,"i_long":106.840169,"i_lat":-6.198556},{"line":2,"distance":1590,"i_lat":-6.209883,"time":4,"i_long":106.84912,"transit":false,"station_id":"MRI","station_name":"Manggarai","is_transit":false},{"is_transit":false,"time":4,"station_name":"Tebet","station_id":"TEB","i_long":106.857948,"distance":2610,"transit":false,"i_lat":-6.226659,"line":2},{"station_name":"Cawang","distance":1230,"is_transit":false,"station_id":"CW","transit":false,"i_lat":-6.242512,"line":2,"time":2,"i_long":106.856607},{"distance":1546,"is_transit":false,"time":3,"transit":false,"i_long":106.85449,"station_name":"Duren Kalibata","line":2,"i_lat":-6.255332,"station_id":"DRN"},{"i_long":106.851577,"time":2,"transit":false,"station_name":"Pasar Minggu Baru","i_lat":-6.263214,"line":2,"station_id":"PSMB","distance":824,"is_transit":false},{"is_transit":false,"time":2,"transit":false,"station_name":"Pasar Minggu","station_id":"PSM","i_lat":-6.2842400000000005,"i_long":106.843999,"line":2,"distance":2380},{"distance":2820,"i_lat":-6.3080680000000005,"is_transit":false,"station_name":"Tanjung Barat","station_id":"TNT","line":2,"i_long":106.838896,"time":4,"transit":false},{"line":2,"distance":2671,"is_transit":false,"transit":false,"station_name":"Lenteng Agung","station_id":"LNA","i_lat":-6.330363,"i_long":106.832616,"time":3},{"station_name":"Univ. Pancasila","distance":1029,"i_lat":-6.339291,"i_long":106.834175,"line":2,"time":2,"is_transit":false,"transit":false,"station_id":"UP"},{"is_transit":false,"distance":2264,"i_long":106.831474,"line":2,"station_name":"Univ. Indonesia","station_id":"UI","transit":false,"i_lat":-6.360749,"time":3},{"station_id":"POC","time":2,"transit":false,"is_transit":false,"station_name":"Pondok Cina","distance":1109,"i_lat":-6.369073,"i_long":106.831114,"line":2},{"is_transit":false,"i_long":106.819451,"i_lat":-6.391065,"transit":false,"distance":2727,"station_id":"DPB","time":4,"line":2,"station_name":"Depokbaru"},{"i_lat":-6.405256,"station_id":"DP","time":3,"line":2,"transit":false,"station_name":"Depok","is_transit":false,"distance":1584,"i_long":106.816926}],[{"station_name":"Tanah Abang","transit":false,"time":0,"distance":0,"i_lat":-6.185545,"station_id":"THB","is_transit":false,"i_long":106.811091,"line":1},{"station_id":"DU","line":1,"station_name":"Duri","time":8,"i_lat":-6.155215,"distance":3632,"is_transit":false,"i_long":106.800832,"transit":false},{"distance":1230,"line":1,"station_name":"Angke","station_id":"AK","time":4,"i_lat":-6.144674,"i_long":106.79867,"transit":false,"is_transit":false},{"line":4,"station_id":"KPB","distance":4102,"i_long":106.826365,"transit":true,"time":9,"i_lat":-6.132549,"station_name":"Kampung Bandan","is_transit":true},{"station_id":"RJW","distance":1444,"is_transit":false,"time":3,"transit":false,"station_name":"Rajawali","i_long":106.836569,"line":11,"i_lat":-6.14505},{"station_id":"KMO","time":5,"distance":1901,"i_lat":-6.161728,"is_transit":false,"transit":false,"station_name":"Kemayoran","i_long":106.839204,"line":11},{"distance":1436,"i_lat":-6.174784,"time":4,"line":11,"i_long":106.84368,"transit":false,"station_name":"Pasar Senen","station_id":"PSE","is_transit":false},{"transit":false,"line":11,"time":8,"station_name":"Gang Sentiong","is_transit":false,"distance":1567,"station_id":"GST","i_lat":-6.185975,"i_long":106.850107},{"i_long":106.855437,"station_name":"Kramat","station_id":"KMT","time":1,"distance":973,"transit":false,"is_transit":false,"i_lat":-6.193792,"line":11},{"i_lat":-6.209188,"distance":1829,"transit":false,"is_transit":false,"time":2,"i_long":106.861737,"line":11,"station_id":"POK","station_name":"Pondok Jati"},{"transit":true,"station_id":"JNG","is_transit":true,"time":9,"distance":1236,"line":1,"station_name":"Jatinegara","i_lat":-6.215091,"i_long":106.86807400000001},{"i_lat":-6.212485,"is_transit":false,"transit":false,"station_name":"Matraman","distance":1377,"time":2,"i_long":106.858896,"station_id":"MTR","line":1},{"distance":1275,"i_long":106.84912,"transit":true,"line":2,"station_id":"MRI","is_transit":true,"time":2,"station_name":"Manggarai","i_lat":-6.209883},{"station_id":"TEB","distance":2610,"i_lat":-6.226659,"i_long":106.857948,"time":4,"is_transit":false,"transit":false,"station_name":"Tebet","line":2},{"line":2,"distance":1230,"i_long":106.856607,"transit":false,"i_lat":-6.242512,"station_name":"Cawang","is_transit":false,"time":2,"station_id":"CW"},{"i_lat":-6.255332,"is_transit":false,"time":3,"line":2,"station_name":"Duren Kalibata","station_id":"DRN","transit":false,"distance":1546,"i_long":106.85449},{"station_name":"Pasar Minggu Baru","station_id":"PSMB","distance":824,"time":2,"is_transit":false,"transit":false,"i_lat":-6.263214,"line":2,"i_long":106.851577},{"transit":false,"station_id":"PSM","is_transit":false,"distance":2380,"line":2,"station_name":"Pasar Minggu","i_lat":-6.2842400000000005,"time":2,"i_long":106.843999},{"is_transit":false,"i_lat":-6.3080680000000005,"station_name":"Tanjung Barat","transit":false,"i_long":106.838896,"distance":2820,"line":2,"station_id":"TNT","time":4},{"i_lat":-6.330363,"station_id":"LNA","distance":2671,"is_transit":false,"transit":false,"station_name":"Lenteng Agung","i_long":106.832616,"line":2,"time":3},{"i_long":106.834175,"distance":1029,"i_lat":-6.339291,"station_name":"Univ. Pancasila","is_transit":false,"transit":false,"time":2,"station_id":"UP","line":2},{"station_id":"UI","line":2,"i_long":106.831474,"station_name":"Univ. Indonesia","is_transit":false,"transit":false,"time":3,"distance":2264,"i_lat":-6.360749},{"i_lat":-6.369073,"i_long":106.831114,"station_id":"POC","is_transit":false,"station_name":"Pondok Cina","time":2,"distance":1109,"line":2,"transit":false},{"i_lat":-6.391065,"i_long":106.819451,"distance":2727,"line":2,"station_id":"DPB","transit":false,"station_name":"Depokbaru","time":4,"is_transit":false},{"i_long":106.816926,"station_name":"Depok","is_transit":false,"distance":1584,"transit":false,"station_id":"DP","i_lat":-6.405256,"line":2,"time":3}]]}