{"data":[[{"time":0,"distance":0,"line":1,"transit":false,"station_id":"THB","is_transit":true,"i_long":106.811091,"i_lat":-6.185545,"station_name":"Tanah Abang"},{"station_id":"KAT","station_name":"Karet","i_lat":-6.20132,"is_transit":false,"time":5,"i_long":106.816351,"distance":2029,"line":1,"transit":false},{"distance":471,"transit":false,"line":1,"station_name":"Sudirman Baru","station_id":"SUDB","is_transit":false,"time":1,"i_long":106.819881,"i_lat":-6.201433},{"station_id":"SUD","transit":false,"time":1,"is_transit":false,"station_name":"Sudirman","i_lat":-6.202263,"i_long":106.822649,"line":1,"distance":280},{"i_long":106.84912,"transit":true,"station_id":"MRI","line":0,"i_lat":-6.209883,"time":4,"distance":3186,"is_transit":true,"station_name":"Manggarai"},{"i_long":106.857948,"transit":false,"station_id":"TEB","is_transit":false,"distance":2610,"station_name":"Tebet","time":4,"i_lat":-6.226659,"line":2},{"transit":false,"i_long":106.856607,"station_id":"CW","i_lat":-6.242512,"is_transit":false,"station_name":"Cawang","distance":1230,"time":2,"line":0},{"i_long":106.85449,"i_lat":-6.255332,"line":0,"is_transit":false,"time":3,"transit":false,"station_id":"DRN","station_name":"Duren Kalibata","distance":1546},{"distance":824,"is_transit":false,"i_long":106.851577,"station_name":"Pasar Minggu Baru","i_lat":-6.263214,"line":2,"transit":false,"time":2,"station_id":"PSMB"},{"station_id":"PSM","time":2,"i_long":106.843999,"station_name":"Pasar Minggu","transit":false,"distance":2380,"line":2,"is_transit":false,"i_lat":-6.2842400000000005},{"i_lat":-6.3080680000000005,"i_long":106.838896,"line":2,"station_name":"Tanjung Barat","transit":false,"time":4,"distance":2820,"station_id":"TNT","is_transit":false},{"time":3,"i_lat":-6.330363,"line":2,"distance":2671,"i_long":106.832616,"station_id":"LNA","is_transit":false,"station_name":"Lenteng Agung","transit":false},{"station_name":"Univ. Pancasila","distance":1029,"time":2,"is_transit":false,"i_lat":-6.339291,"i_long":106.834175,"line":2,"transit":false,"station_id":"UP"},{"station_name":"Univ. Indonesia","station_id":"UI","time":3,"line":2,"is_transit":false,"distance":2264,"transit":false,"i_lat":-6.360749,"i_long":106.831474},{"line":2,"distance":1109,"station_id":"POC","station_name":"Pondok Cina","i_long":106.831114,"i_lat":-6.369073,"transit":false,"is_transit":false,"time":2},{"is_transit":false,"transit":false,"distance":2727,"line":0,"station_name":"Depokbaru","station_id":"DPB","time":4,"i_lat":-6.391065,"i_long":106.819451},{"line":0,"transit":false,"i_lat":-6.405256,"i_long":106.816926,"is_transit":false,"station_id":"DP","distance":1584,"station_name":"Depok","time":3},{"station_id":"CTA","i_lat":-6.448811,"time":6,"i_long":106.800298,"distance":5084,"line":1,"is_transit":true,"station_name":"Citayam","transit":false},{"is_transit":false,"transit":false,"time":10,"station_name":"Cibinong","distance":6740,"station_id":"CBN","i_lat":-6.46424,"line":0,"i_long":106.851978}],[{"line":1,"i_lat":-6.185545,"station_name":"Tanah Abang","is_transit":true,"distance":0,"time":0,"station_id":"THB","i_long":106.811091,"transit":false},{"i_lat":-6.155215,"line":1,"station_name":"Duri","time":8,"transit":true,"station_id":"DU","is_transit":true,"distance":3632,"i_long":106.800832},{"distance":1230,"station_id":"AK","transit":false,"i_long":106.79867,"time":4,"i_lat":-6.144674,"line":0,"is_transit":false,"station_name":"Angke"},{"is_transit":true,"station_id":"KPB","i_long":106.826365,"transit":false,"station_name":"Kampung Bandan","time":9,"distance":4102,"line":0,"i_lat":-6.132549},{"station_id":"JAKK","time":3,"transit":true,"station_name":"Jakarta Kota","i_long":106.812439,"distance":1364,"i_lat":-6.137569,"line":0,"is_transit":true},{"transit":false,"i_lat":-6.141205,"line":7,"i_long":106.820901,"is_transit":false,"time":4,"station_id":"JAY","station_name":"Jayakarta","distance":1264},{"station_id":"MGB","distance":1080,"transit":false,"time":2,"is_transit":false,"i_lat":-6.149769,"station_name":"Manggabesar","line":2,"i_long":106.82482},{"station_name":"Sawah Besar","distance":906,"i_lat":-6.160725,"line":2,"transit":false,"is_transit":false,"i_long":106.827103,"station_id":"SW","time":2},{"station_name":"Juanda","line":2,"distance":1149,"transit":false,"i_long":106.828284,"is_transit":false,"station_id":"JUA","i_lat":-6.166716,"time":2},{"i_long":106.832183,"i_lat":-6.186295,"distance":2015,"line":2,"is_transit":false,"station_name":"Gondangdia","station_id":"GDD","time":4,"transit":false},{"time":3,"i_lat":-6.198556,"station_id":"CKI","i_long":106.840169,"transit":false,"station_name":"Cikini","is_transit":false,"distance":1750,"line":0},{"transit":true,"time":4,"station_name":"Manggarai","is_transit":true,"line":0,"i_lat":-6.209883,"distance":1590,"i_long":106.84912,"station_id":"MRI"},{"is_transit":false,"i_lat":-6.226659,"distance":2610,"line":2,"station_id":"TEB","transit":false,"time":4,"i_long":106.857948,"station_name":"Tebet"},{"is_transit":false,"transit":false,"distance":1230,"i_long":106.856607,"line":0,"i_lat":-6.242512,"station_name":"Cawang","time":2,"station_id":"CW"},{"i_lat":-6.255332,"i_long":106.85449,"time":3,"distance":1546,"is_transit":false,"station_name":"Duren Kalibata","station_id":"DRN","transit":false,"line":0},{"is_transit":false,"station_id":"PSMB","transit":false,"time":2,"line":2,"i_lat":-6.263214,"station_name":"Pasar Minggu Baru","i_long":106.851577,"distance":824},{"station_id":"PSM","transit":false,"i_long":106.843999,"time":2,"i_lat":-6.2842400000000005,"is_transit":false,"distance":2380,"station_name":"Pasar Minggu","line":2},{"line":2,"i_long":106.838896,"is_transit":false,"distance":2820,"station_name":"Tanjung Barat","transit":false,"time":4,"i_lat":-6.3080680000000005,"station_id":"TNT"},{"time":3,"distance":2671,"i_lat":-6.330363,"line":2,"station_id":"LNA","is_transit":false,"station_name":"Lenteng Agung","i_long":106.832616,"transit":false},{"station_name":"Univ. Pancasila","i_lat":-6.339291,"line":2,"distance":1029,"i_long":106.834175,"transit":false,"is_transit":false,"time":2,"station_id":"UP"},{"i_lat":-6.360749,"distance":2264,"i_long":106.831474,"is_transit":false,"time":3,"transit":false,"station_id":"UI","station_name":"Univ. Indonesia","line":2},{"station_id":"POC","i_lat":-6.369073,"distance":1109,"time":2,"transit":false,"station_name":"Pondok Cina","line":2,"is_transit":false,"i_long":106.831114},{"time":4,"station_id":"DPB","distance":2727,"line":0,"is_transit":false,"i_long":106.819451,"i_lat":-6.391065,"station_name":"Depokbaru","transit":false},{"time":3,"i_lat":-6.405256,"i_long":106.816926,"is_transit":false,"station_id":"DP","distance":1584,"station_name":"Depok","transit":false,"line":0},{"i_long":106.800298,"is_transit":true,"station_name":"Citayam","transit":false,"i_lat":-6.448811,"line":1,"time":6,"distance":5084,"station_id":"CTA"},{"i_lat":-6.46424,"is_transit":false,"station_id":"CBN","time":10,"distance":6740,"station_name":"Cibinong","transit":false,"i_long":106.851978,"line":0}],[{"i_lat":-6.185545,"i_long":106.811091,"distance":0,"line":1,"station_id":"THB","is_transit":true,"station_name":"Tanah Abang","time":0,"transit":false},{"transit":true,"i_long":106.800832,"i_lat":-6.155215,"is_transit":true,"time":8,"distance":3632,"station_id":"DU","line":1,"station_name":"Duri"},{"distance":1230,"transit":false,"time":4,"line":0,"is_transit":false,"station_id":"AK","station_name":"Angke","i_long":106.79867,"i_lat":-6.144674},{"station_id":"KPB","time":9,"line":0,"is_transit":true,"transit":true,"i_long":106.826365,"distance":4102,"station_name":"Kampung Bandan","i_lat":-6.132549},{"station_id":"RJW","transit":false,"distance":1444,"is_transit":false,"i_long":106.836569,"time":3,"i_lat":-6.14505,"station_name":"Rajawali","line":11},{"i_long":106.839204,"distance":1901,"line":11,"station_name":"Kemayoran","i_lat":-6.161728,"time":5,"is_transit":false,"station_id":"KMO","transit":false},{"station_name":"Pasar Senen","station_id":"PSE","distance":1436,"i_long":106.84368,"time":4,"transit":false,"is_transit":false,"line":11,"i_lat":-6.174784},{"is_transit":false,"station_id":"GST","station_name":"Gang Sentiong","time":8,"line":11,"i_long":106.850107,"transit":false,"i_lat":-6.185975,"distance":1567},{"line":11,"i_long":106.855437,"i_lat":-6.193792,"time":1,"transit":false,"station_name":"Kramat","distance":973,"station_id":"KMT","is_transit":false},{"is_transit":false,"transit":false,"i_lat":-6.209188,"i_long":106.861737,"station_id":"POK","line":11,"station_name":"Pondok Jati","time":2,"distance":1829},{"is_transit":true,"time":9,"i_long":106.86807400000001,"line":0,"distance":1236,"station_id":"JNG","i_lat":-6.215091,"transit":true,"station_name":"Jatinegara"},{"line":1,"transit":false,"station_name":"Matraman","distance":1377,"is_transit":false,"station_id":"MTR","time":2,"i_long":106.858896,"i_lat":-6.212485},{"station_name":"Manggarai","is_transit":true,"line":0,"transit":true,"time":2,"distance":1275,"i_long":106.84912,"station_id":"MRI","i_lat":-6.209883},{"station_name":"Tebet","station_id":"TEB","transit":false,"i_lat":-6.226659,"distance":2610,"time":4,"i_long":106.857948,"is_transit":false,"line":2},{"is_transit":false,"station_id":"CW","i_lat":-6.242512,"time":2,"distance":1230,"i_long":106.856607,"line":0,"transit":false,"station_name":"Cawang"},{"is_transit":false,"station_name":"Duren Kalibata","line":0,"distance":1546,"transit":false,"time":3,"i_lat":-6.255332,"station_id":"DRN","i_long":106.85449},{"i_long":106.851577,"station_id":"PSMB","i_lat":-6.263214,"line":2,"distance":824,"is_transit":false,"station_name":"Pasar Minggu Baru","time":2,"transit":false},{"i_long":106.843999,"station_id":"PSM","i_lat":-6.2842400000000005,"transit":false,"line":2,"distance":2380,"station_name":"Pasar Minggu","time":2,"is_transit":false},{"station_id":"TNT","transit":false,"line":2,"i_lat":-6.3080680000000005,"station_name":"Tanjung Barat","distance":2820,"time":4,"i_long":106.838896,"is_transit":false},{"station_name":"Lenteng Agung","is_transit":false,"i_long":106.832616,"transit":false,"time":3,"line":2,"station_id":"LNA","distance":2671,"i_lat":-6.330363},{"line":2,"distance":1029,"station_id":"UP","time":2,"i_lat":-6.339291,"i_long":106.834175,"is_transit":false,"transit":false,"station_name":"Univ. Pancasila"},{"i_lat":-6.360749,"station_id":"UI","i_long":106.831474,"is_transit":false,"distance":2264,"transit":false,"station_name":"Univ. Indonesia","time":3,"line":2},{"i_lat":-6.369073,"distance":1109,"is_transit":false,"line":2,"station_id":"POC","time":2,"transit":false,"i_long":106.831114,"station_name":"Pondok Cina"},{"line":0,"is_transit":false,"distance":2727,"time":4,"station_id":"DPB","station_name":"Depokbaru","i_long":106.819451,"i_lat":-6.391065,"transit":false},{"time":3,"station_name":"Depok","line":0,"distance":1584,"is_transit":false,"i_long":106.816926,"transit":false,"i_lat":-6.405256,"station_id":"DP"},{"station_id":"CTA","is_transit":true,"time":6,"station_name":"Citayam","i_long":106.800298,"distance":5084,"i_lat":-6.448811,"transit":false,"line":1},{"station_name":"Cibinong","transit":false,"time":10,"line":0,"i_lat":-6.46424,"station_id":"CBN","i_long":106.851978,"is_transit":false,"distance":6740}]]}