{"data":[[{"transit":false,"distance":0,"time":0,"is_transit":true,"i_long":106.811091,"i_lat":-6.185545,"station_name":"Tanah Abang","line":1,"station_id":"THB"},{"time":5,"i_long":106.816351,"station_name":"Karet","i_lat":-6.20132,"line":1,"distance":2029,"transit":false,"station_id":"KAT","is_transit":false},{"i_long":106.819881,"distance":471,"i_lat":-6.201433,"station_name":"Sudirman Baru","station_id":"SUDB","transit":false,"time":1,"line":1,"is_transit":false},{"station_id":"SUD","i_lat":-6.202263,"line":1,"transit":false,"distance":280,"station_name":"Sudirman","time":1,"i_long":106.822649,"is_transit":false},{"line":0,"i_lat":-6.209883,"station_id":"MRI","is_transit":true,"distance":3186,"time":4,"i_long":106.84912,"station_name":"Manggarai","transit":true},{"i_long":106.857948,"station_name":"Tebet","transit":false,"time":4,"distance":2610,"line":2,"i_lat":-6.226659,"station_id":"TEB","is_transit":false},{"distance":1230,"station_name":"Cawang","station_id":"CW","i_long":106.856607,"time":2,"i_lat":-6.242512,"is_transit":false,"transit":false,"line":0},{"is_transit":false,"station_name":"Duren Kalibata","distance":1546,"i_lat":-6.255332,"line":0,"i_long":106.85449,"station_id":"DRN","transit":false,"time":3},{"line":2,"i_lat":-6.263214,"station_id":"PSMB","station_name":"Pasar Minggu Baru","i_long":106.851577,"time":2,"transit":false,"is_transit":false,"distance":824},{"distance":2380,"i_lat":-6.2842400000000005,"station_id":"PSM","is_transit":false,"time":2,"station_name":"Pasar Minggu","line":2,"transit":false,"i_long":106.843999},{"transit":false,"station_name":"Tanjung Barat","line":2,"station_id":"TNT","i_lat":-6.3080680000000005,"is_transit":false,"distance":2820,"time":4,"i_long":106.838896},{"distance":2671,"i_lat":-6.330363,"transit":false,"line":2,"i_long":106.832616,"is_transit":false,"station_name":"Lenteng Agung","station_id":"LNA","time":3},{"station_name":"Univ. Pancasila","i_long":106.834175,"line":2,"transit":false,"i_lat":-6.339291,"is_transit":false,"station_id":"UP","distance":1029,"time":2},{"transit":false,"time":3,"i_lat":-6.360749,"distance":2264,"i_long":106.831474,"line":2,"is_transit":false,"station_name":"Univ. Indonesia","station_id":"UI"},{"time":2,"station_id":"POC","station_name":"Pondok Cina","transit":false,"i_lat":-6.369073,"is_transit":false,"line":2,"distance":1109,"i_long":106.831114},{"is_transit":false,"transit":false,"time":4,"line":0,"distance":2727,"station_name":"Depokbaru","station_id":"DPB","i_lat":-6.391065,"i_long":106.819451},{"station_name":"Depok","i_lat":-6.405256,"line":0,"time":3,"transit":false,"station_id":"DP","is_transit":false,"i_long":106.816926,"distance":1584},{"station_name":"Citayam","station_id":"CTA","time":6,"transit":false,"distance":5084,"line":1,"is_transit":true,"i_lat":-6.448811,"i_long":106.800298},{"transit":false,"i_lat":-6.46424,"distance":6740,"station_name":"Cibinong","time":10,"line":0,"is_transit":false,"station_id":"CBN","i_long":106.851978},{"line":21,"is_transit":false,"station_id":"NMO","station_name":"Nambo","transit":false,"i_long":106.905196,"distance":6527,"time":10,"i_lat":-6.466285}],[{"distance":0,"station_id":"THB","transit":false,"line":1,"is_transit":true,"i_long":106.811091,"time":0,"station_name":"Tanah Abang","i_lat":-6.185545},{"distance":3632,"i_lat":-6.155215,"station_name":"Duri","station_id":"DU","is_transit":true,"line":1,"i_long":106.800832,"time":8,"transit":true},{"line":0,"station_name":"Angke","station_id":"AK","time":4,"distance":1230,"is_transit":false,"i_lat":-6.144674,"transit":false,"i_long":106.79867},{"distance":4102,"station_name":"Kampung Bandan","is_transit":true,"line":0,"transit":false,"station_id":"KPB","time":9,"i_lat":-6.132549,"i_long":106.826365},{"is_transit":true,"station_name":"Jakarta Kota","time":3,"i_lat":-6.137569,"i_long":106.812439,"transit":true,"distance":1364,"station_id":"JAKK","line":0},{"time":4,"i_lat":-6.141205,"i_long":106.820901,"station_name":"Jayakarta","transit":false,"line":7,"station_id":"JAY","is_transit":false,"distance":1264},{"distance":1080,"station_name":"Manggabesar","time":2,"i_lat":-6.149769,"transit":false,"station_id":"MGB","i_long":106.82482,"is_transit":false,"line":2},{"distance":906,"transit":false,"i_long":106.827103,"station_id":"SW","station_name":"Sawah Besar","line":2,"i_lat":-6.160725,"is_transit":false,"time":2},{"transit":false,"station_id":"JUA","distance":1149,"is_transit":false,"i_long":106.828284,"time":2,"i_lat":-6.166716,"line":2,"station_name":"Juanda"},{"station_id":"GDD","station_name":"Gondangdia","transit":false,"is_transit":false,"i_lat":-6.186295,"time":4,"distance":2015,"i_long":106.832183,"line":2},{"line":0,"i_long":106.840169,"transit":false,"station_id":"CKI","distance":1750,"is_transit":false,"time":3,"i_lat":-6.198556,"station_name":"Cikini"},{"line":0,"i_lat":-6.209883,"station_id":"MRI","is_transit":true,"distance":1590,"station_name":"Manggarai","time":4,"transit":true,"i_long":106.84912},{"transit":false,"i_lat":-6.226659,"time":4,"i_long":106.857948,"distance":2610,"is_transit":false,"line":2,"station_name":"Tebet","station_id":"TEB"},{"is_transit":false,"line":0,"distance":1230,"i_long":106.856607,"time":2,"i_lat":-6.242512,"station_id":"CW","transit":false,"station_name":"Cawang"},{"transit":false,"line":0,"is_transit":false,"i_long":106.85449,"distance":1546,"station_name":"Duren Kalibata","time":3,"station_id":"DRN","i_lat":-6.255332},{"time":2,"i_long":106.851577,"line":2,"is_transit":false,"distance":824,"station_id":"PSMB","transit":false,"i_lat":-6.263214,"station_name":"Pasar Minggu Baru"},{"station_id":"PSM","station_name":"Pasar Minggu","i_long":106.843999,"distance":2380,"line":2,"transit":false,"time":2,"i_lat":-6.2842400000000005,"is_transit":false},{"station_name":"Tanjung Barat","time":4,"i_lat":-6.3080680000000005,"distance":2820,"i_long":106.838896,"line":2,"transit":false,"station_id":"TNT","is_transit":false},{"station_name":"Lenteng Agung","time":3,"distance":2671,"station_id":"LNA","is_transit":false,"i_lat":-6.330363,"i_long":106.832616,"line":2,"transit":false},{"i_long":106.834175,"is_transit":false,"station_id":"UP","station_name":"Univ. Pancasila","line":2,"time":2,"distance":1029,"transit":false,"i_lat":-6.339291},{"transit":false,"time":3,"station_id":"UI","i_long":106.831474,"line":2,"distance":2264,"is_transit":false,"i_lat":-6.360749,"station_name":"Univ. Indonesia"},{"i_lat":-6.369073,"line":2,"i_long":106.831114,"station_id":"POC","station_name":"Pondok Cina","transit":false,"distance":1109,"is_transit":false,"time":2},{"is_transit":false,"line":0,"time":4,"station_name":"Depokbaru","distance":2727,"transit":false,"i_lat":-6.391065,"station_id":"DPB","i_long":106.819451},{"station_name":"Depok","i_long":106.816926,"is_transit":false,"transit":false,"time":3,"line":0,"distance":1584,"station_id":"DP","i_lat":-6.405256},{"distance":5084,"station_id":"CTA","station_name":"Citayam","is_transit":true,"i_long":106.800298,"transit":false,"time":6,"line":1,"i_lat":-6.448811},{"station_id":"CBN","line":0,"time":10,"i_lat":-6.46424,"i_long":106.851978,"is_transit":false,"station_name":"Cibinong","transit":false,"distance":6740},{"time":10,"transit":false,"distance":6527,"i_long":106.905196,"station_name":"Nambo","i_lat":-6.466285,"line":21,"is_transit":false,"station_id":"NMO"}],[{"station_id":"THB","line":1,"i_lat":-6.185545,"transit":false,"i_long":106.811091,"station_name":"Tanah Abang","distance":0,"is_transit":true,"time":0},{"station_id":"DU","i_long":106.800832,"i_lat":-6.155215,"line":1,"distance":3632,"time":8,"transit":true,"is_transit":true,"station_name":"Duri"},{"i_lat":-6.144674,"station_name":"Angke","transit":false,"is_transit":false,"station_id":"AK","i_long":106.79867,"time":4,"distance":1230,"line":0},{"i_long":106.826365,"line":0,"station_name":"Kampung Bandan","i_lat":-6.132549,"station_id":"KPB","transit":true,"time":9,"distance":4102,"is_transit":true},{"i_lat":-6.14505,"distance":1444,"i_long":106.836569,"is_transit":false,"transit":false,"line":11,"time":3,"station_id":"RJW","station_name":"Rajawali"},{"i_long":106.839204,"transit":false,"station_id":"KMO","station_name":"Kemayoran","i_lat":-6.161728,"distance":1901,"time":5,"line":11,"is_transit":false},{"distance":1436,"station_name":"Pasar Senen","i_lat":-6.174784,"line":11,"time":4,"station_id":"PSE","is_transit":false,"transit":false,"i_long":106.84368},{"station_id":"GST","time":8,"i_long":106.850107,"transit":false,"is_transit":false,"station_name":"Gang Sentiong","distance":1567,"i_lat":-6.185975,"line":11},{"i_long":106.855437,"station_id":"KMT","station_name":"Kramat","line":11,"is_transit":false,"time":1,"distance":973,"i_lat":-6.193792,"transit":false},{"station_name":"Pondok Jati","distance":1829,"transit":false,"line":11,"is_transit":false,"time":2,"i_lat":-6.209188,"station_id":"POK","i_long":106.861737},{"distance":1236,"is_transit":true,"station_id":"JNG","station_name":"Jatinegara","i_lat":-6.215091,"i_long":106.86807400000001,"transit":true,"line":0,"time":9},{"station_name":"Matraman","line":1,"transit":false,"i_long":106.858896,"time":2,"is_transit":false,"distance":1377,"station_id":"MTR","i_lat":-6.212485},{"i_lat":-6.209883,"is_transit":true,"distance":1275,"station_id":"MRI","time":2,"i_long":106.84912,"transit":true,"station_name":"Manggarai","line":0},{"time":4,"is_transit":false,"station_name":"Tebet","transit":false,"i_long":106.857948,"i_lat":-6.226659,"station_id":"TEB","distance":2610,"line":2},{"distance":1230,"i_long":106.856607,"time":2,"is_transit":false,"i_lat":-6.242512,"transit":false,"line":0,"station_id":"CW","station_name":"Cawang"},{"is_transit":false,"transit":false,"station_name":"Duren Kalibata","station_id":"DRN","distance":1546,"i_lat":-6.255332,"i_long":106.85449,"line":0,"time":3},{"station_name":"Pasar Minggu Baru","line":2,"i_lat":-6.263214,"distance":824,"is_transit":false,"i_long":106.851577,"transit":false,"station_id":"PSMB","time":2},{"i_lat":-6.2842400000000005,"is_transit":false,"station_name":"Pasar Minggu","i_long":106.843999,"line":2,"station_id":"PSM","transit":false,"time":2,"distance":2380},{"is_transit":false,"time":4,"i_lat":-6.3080680000000005,"distance":2820,"station_name":"Tanjung Barat","i_long":106.838896,"transit":false,"station_id":"TNT","line":2},{"transit":false,"station_name":"Lenteng Agung","i_lat":-6.330363,"i_long":106.832616,"line":2,"distance":2671,"time":3,"is_transit":false,"station_id":"LNA"},{"line":2,"is_transit":false,"station_id":"UP","time":2,"transit":false,"i_long":106.834175,"distance":1029,"station_name":"Univ. Pancasila","i_lat":-6.339291},{"transit":false,"time":3,"i_lat":-6.360749,"i_long":106.831474,"station_id":"UI","is_transit":false,"line":2,"distance":2264,"station_name":"Univ. Indonesia"},{"time":2,"i_lat":-6.369073,"station_id":"POC","transit":false,"station_name":"Pondok Cina","distance":1109,"i_long":106.831114,"line":2,"is_transit":false},{"i_long":106.819451,"distance":2727,"line":0,"station_name":"Depokbaru","i_lat":-6.391065,"is_transit":false,"transit":false,"station_id":"DPB","time":4},{"distance":1584,"station_id":"DP","is_transit":false,"time":3,"i_lat":-6.405256,"line":0,"station_name":"Depok","transit":false,"i_long":106.816926},{"line":1,"distance":5084,"station_name":"Citayam","i_lat":-6.448811,"time":6,"i_long":106.800298,"transit":false,"is_transit":true,"station_id":"CTA"},{"line":0,"i_long":106.851978,"distance":6740,"is_transit":false,"station_id":"CBN","station_name":"Cibinong","i_lat":-6.46424,"transit":false,"time":10},{"is_transit":false,"station_name":"Nambo","transit":false,"line":21,"i_long":106.905196,"station_id":"NMO","distance":6527,"i_lat":-6.466285,"time":10}]]}