{"data":[[{"i_lat":-6.185545,"station_name":"Tanah Abang","time":0,"line":1,"station_id":"THB","distance":0,"transit":false,"is_transit":false,"i_long":106.811091},{"i_long":106.79689,"is_transit":false,"distance":3191,"transit":false,"station_name":"Palmerah","line":6,"station_id":"PLM","time":6,"i_lat":-6.207404},{"station_name":"Kebayoran","time":7,"transit":false,"i_lat":-6.237242,"station_id":"KBY","line":6,"i_long":106.780334,"is_transit":false,"distance":3737},{"i_long":106.74273,"is_transit":false,"station_id":"PDJ","i_lat":-6.276362,"station_name":"Pondokranji","line":6,"transit":false,"time":8,"distance":6218},{"line":6,"station_name":"Jurangmangu","i_long":106.728916,"station_id":"JMU","distance":2179,"is_transit":false,"transit":false,"i_lat":-6.288927,"time":3},{"transit":false,"distance":1994,"i_long":106.712277,"time":4,"station_id":"SDM","station_name":"Sudimara","is_transit":false,"i_lat":-6.296963,"line":6},{"distance":4566,"is_transit":false,"station_name":"Rawa Buntu","transit":false,"line":6,"i_lat":-6.314823,"i_long":106.675475,"time":6,"station_id":"RU"},{"i_long":106.66566,"is_transit":false,"time":4,"transit":false,"line":6,"distance":2413,"station_id":"SRP","station_name":"Serpong","i_lat":-6.319871},{"station_id":"CSK","station_name":"Cisauk","i_long":106.640411,"transit":false,"time":4,"distance":1784,"is_transit":false,"line":3,"i_lat":-6.32484},{"distance":2519,"i_long":106.617853,"is_transit":false,"station_name":"Cicayur","transit":false,"line":3,"time":4,"i_lat":-6.329547,"station_id":"CC"},{"transit":false,"station_id":"PRP","line":6,"station_name":"Parung Panjang","is_transit":false,"i_lat":-6.3441410000000005,"i_long":106.568863,"distance":5968,"time":8},{"transit":false,"line":3,"i_long":106.508482,"station_name":"Cilejit","time":9,"distance":7025,"is_transit":false,"station_id":"CJT","i_lat":-6.354349},{"line":0,"i_long":106.491338,"distance":2675,"transit":false,"time":6,"station_name":"Daru","is_transit":false,"station_id":"DAR","i_lat":-6.338021}]]}