{"data":[[{"station_name":"Tanah Abang","distance":0,"time":0,"is_transit":false,"transit":false,"station_id":"THB","line":1,"i_lat":-6.185545,"i_long":106.811091},{"transit":false,"i_lat":-6.207404,"line":6,"station_id":"PLM","station_name":"Palmerah","time":6,"is_transit":false,"i_long":106.79689,"distance":3191},{"i_long":106.780334,"transit":false,"distance":3737,"station_name":"Kebayoran","station_id":"KBY","is_transit":false,"i_lat":-6.237242,"line":6,"time":7},{"time":8,"i_long":106.74273,"distance":6218,"station_id":"PDJ","line":6,"is_transit":false,"station_name":"Pondokranji","transit":false,"i_lat":-6.276362},{"i_lat":-6.288927,"distance":2179,"line":6,"i_long":106.728916,"is_transit":false,"transit":false,"station_id":"JMU","time":3,"station_name":"Jurangmangu"},{"is_transit":false,"distance":1994,"transit":false,"i_long":106.712277,"i_lat":-6.296963,"station_name":"Sudimara","time":4,"station_id":"SDM","line":6},{"distance":4566,"is_transit":false,"line":6,"station_name":"Rawa Buntu","time":6,"transit":false,"i_lat":-6.314823,"i_long":106.675475,"station_id":"RU"},{"line":6,"station_name":"Serpong","i_lat":-6.319871,"i_long":106.66566,"distance":2413,"transit":false,"time":4,"station_id":"SRP","is_transit":false},{"i_long":106.640411,"transit":false,"station_id":"CSK","time":4,"i_lat":-6.32484,"is_transit":false,"distance":1784,"station_name":"Cisauk","line":3},{"station_name":"Cicayur","i_lat":-6.329547,"i_long":106.617853,"line":3,"time":4,"is_transit":false,"station_id":"CC","distance":2519,"transit":false},{"time":8,"station_id":"PRP","i_long":106.568863,"line":6,"is_transit":false,"distance":5968,"station_name":"Parung Panjang","transit":false,"i_lat":-6.3441410000000005},{"i_long":106.508482,"transit":false,"time":9,"is_transit":false,"line":3,"station_id":"CJT","station_name":"Cilejit","distance":7025,"i_lat":-6.354349},{"line":0,"distance":2675,"station_id":"DAR","time":6,"i_lat":-6.338021,"is_transit":false,"transit":false,"i_long":106.491338,"station_name":"Daru"},{"time":5,"i_lat":-6.327251,"station_id":"TEJ","transit":false,"station_name":"Tenjo","is_transit":false,"distance":3902,"i_long":106.460812,"line":6},{"is_transit":false,"i_lat":-6.328533,"line":6,"distance":2974,"i_long":106.425991,"station_name":"Tigaraksa","transit":false,"time":5,"station_id":"TGS"},{"transit":false,"station_name":"Cikoya","i_long":106.411216,"station_id":"CKY","line":3,"is_transit":false,"i_lat":-6.33561,"time":3,"distance":2651}]]}