{"data":[[{"is_transit":false,"line":1,"station_id":"THB","i_long":106.811091,"i_lat":-6.185545,"station_name":"Tanah Abang","distance":0,"transit":false,"time":0},{"line":1,"transit":false,"time":8,"i_lat":-6.155215,"station_id":"DU","distance":3632,"station_name":"Duri","is_transit":false,"i_long":106.800832},{"i_lat":-6.144674,"transit":false,"distance":1230,"is_transit":false,"i_long":106.79867,"station_id":"AK","line":1,"time":4,"station_name":"Angke"}],[{"time":0,"transit":false,"line":1,"station_id":"THB","is_transit":false,"station_name":"Tanah Abang","i_long":106.811091,"distance":0,"i_lat":-6.185545},{"station_id":"KAT","station_name":"Karet","line":1,"time":5,"i_long":106.816351,"transit":false,"distance":2029,"is_transit":false,"i_lat":-6.20132},{"i_long":106.819881,"i_lat":-6.201433,"is_transit":false,"time":1,"station_name":"Sudirman Baru","distance":471,"transit":false,"station_id":"SUDB","line":1},{"is_transit":false,"time":1,"i_lat":-6.202263,"i_long":106.822649,"transit":false,"station_id":"SUD","distance":280,"line":1,"station_name":"Sudirman"},{"i_long":106.84912,"time":4,"transit":true,"station_name":"Manggarai","is_transit":true,"line":2,"i_lat":-6.209883,"station_id":"MRI","distance":3186},{"line":2,"station_name":"Cikini","distance":1590,"i_lat":-6.198556,"transit":false,"time":4,"i_long":106.840169,"is_transit":false,"station_id":"CKI"},{"is_transit":false,"time":3,"i_lat":-6.186295,"line":2,"transit":false,"station_id":"GDD","distance":1750,"i_long":106.832183,"station_name":"Gondangdia"},{"station_name":"Juanda","is_transit":false,"station_id":"JUA","i_long":106.828284,"i_lat":-6.166716,"transit":false,"distance":2015,"line":2,"time":4},{"line":2,"transit":false,"time":2,"i_lat":-6.160725,"i_long":106.827103,"is_transit":false,"station_name":"Sawah Besar","distance":1149,"station_id":"SW"},{"distance":906,"is_transit":false,"station_id":"MGB","i_lat":-6.149769,"time":2,"line":2,"transit":false,"station_name":"Manggabesar","i_long":106.82482},{"line":2,"is_transit":false,"transit":false,"i_long":106.820901,"time":2,"station_name":"Jayakarta","station_id":"JAY","distance":1080,"i_lat":-6.141205},{"time":4,"station_id":"JAKK","is_transit":true,"transit":true,"station_name":"Jakarta Kota","i_lat":-6.137569,"i_long":106.812439,"line":2,"distance":1264},{"transit":true,"station_id":"KPB","time":3,"distance":1364,"i_lat":-6.132549,"station_name":"Kampung Bandan","i_long":106.826365,"line":4,"is_transit":true},{"station_id":"AK","transit":false,"line":1,"i_lat":-6.144674,"i_long":106.79867,"is_transit":false,"distance":4102,"time":9,"station_name":"Angke"}],[{"is_transit":false,"time":0,"distance":0,"i_long":106.811091,"line":1,"transit":false,"i_lat":-6.185545,"station_name":"Tanah Abang","station_id":"THB"},{"time":5,"station_name":"Karet","station_id":"KAT","line":1,"i_lat":-6.20132,"distance":2029,"i_long":106.816351,"transit":false,"is_transit":false},{"transit":false,"distance":471,"is_transit":false,"i_long":106.819881,"line":1,"time":1,"station_name":"Sudirman Baru","station_id":"SUDB","i_lat":-6.201433},{"time":1,"is_transit":false,"station_id":"SUD","i_lat":-6.202263,"distance":280,"station_name":"Sudirman","line":1,"transit":false,"i_long":106.822649},{"station_id":"MRI","i_lat":-6.209883,"transit":false,"time":4,"is_transit":false,"i_long":106.84912,"line":2,"station_name":"Manggarai","distance":3186},{"distance":1275,"station_id":"MTR","transit":false,"i_long":106.858896,"time":2,"line":1,"station_name":"Matraman","is_transit":false,"i_lat":-6.212485},{"transit":true,"time":8,"line":1,"i_long":106.86807400000001,"i_lat":-6.215091,"station_name":"Jatinegara","is_transit":true,"station_id":"JNG","distance":1377},{"station_id":"POK","i_long":106.861737,"distance":1236,"time":2,"line":11,"is_transit":false,"transit":false,"station_name":"Pondok Jati","i_lat":-6.209188},{"station_name":"Kramat","i_lat":-6.193792,"time":2,"distance":1829,"transit":false,"line":11,"is_transit":false,"station_id":"KMT","i_long":106.855437},{"i_long":106.850107,"i_lat":-6.185975,"line":11,"station_id":"GST","transit":false,"time":1,"is_transit":false,"distance":973,"station_name":"Gang Sentiong"},{"line":11,"station_name":"Pasar Senen","is_transit":false,"i_lat":-6.174784,"distance":1567,"time":8,"i_long":106.84368,"station_id":"PSE","transit":false},{"station_id":"KMO","i_long":106.839204,"time":4,"i_lat":-6.161728,"is_transit":false,"station_name":"Kemayoran","transit":false,"distance":1436,"line":11},{"is_transit":false,"transit":false,"time":5,"i_long":106.836569,"distance":1901,"i_lat":-6.14505,"line":11,"station_name":"Rajawali","station_id":"RJW"},{"transit":true,"distance":1444,"line":4,"is_transit":true,"i_long":106.826365,"station_id":"KPB","i_lat":-6.132549,"station_name":"Kampung Bandan","time":3},{"station_name":"Angke","is_transit":false,"time":9,"i_lat":-6.144674,"distance":4102,"line":1,"transit":false,"i_long":106.79867,"station_id":"AK"}]]}