{"data":[[{"distance":0,"i_long":106.811091,"transit":false,"i_lat":-6.185545,"line":1,"time":0,"station_name":"Tanah Abang","station_id":"THB","is_transit":false},{"distance":3191,"line":6,"transit":false,"station_id":"PLM","i_lat":-6.207404,"time":6,"i_long":106.79689,"is_transit":false,"station_name":"Palmerah"},{"i_lat":-6.237242,"station_id":"KBY","distance":3737,"transit":false,"time":7,"line":6,"is_transit":false,"i_long":106.780334,"station_name":"Kebayoran"},{"time":8,"transit":false,"station_id":"PDJ","i_long":106.74273,"distance":6218,"i_lat":-6.276362,"line":6,"station_name":"Pondokranji","is_transit":false},{"distance":2179,"transit":false,"i_lat":-6.288927,"is_transit":false,"station_name":"Jurangmangu","station_id":"JMU","i_long":106.728916,"line":6,"time":3},{"station_id":"SDM","line":6,"is_transit":false,"distance":1994,"transit":false,"i_long":106.712277,"station_name":"Sudimara","i_lat":-6.296963,"time":4},{"line":6,"station_id":"RU","is_transit":false,"station_name":"Rawa Buntu","time":6,"i_long":106.675475,"i_lat":-6.314823,"transit":false,"distance":4566},{"time":4,"is_transit":false,"line":6,"station_id":"SRP","distance":2413,"transit":false,"i_lat":-6.319871,"station_name":"Serpong","i_long":106.66566},{"i_lat":-6.32484,"time":4,"line":3,"distance":1784,"transit":false,"is_transit":false,"i_long":106.640411,"station_id":"CSK","station_name":"Cisauk"},{"station_name":"Cicayur","distance":2519,"station_id":"CC","i_lat":-6.329547,"line":3,"transit":false,"i_long":106.617853,"time":4,"is_transit":false},{"line":6,"is_transit":false,"i_long":106.568863,"station_id":"PRP","time":8,"transit":false,"station_name":"Parung Panjang","distance":5968,"i_lat":-6.3441410000000005},{"distance":7025,"station_name":"Cilejit","time":9,"is_transit":false,"transit":false,"i_lat":-6.354349,"i_long":106.508482,"station_id":"CJT","line":3},{"time":6,"station_id":"DAR","line":0,"station_name":"Daru","transit":false,"distance":2675,"i_lat":-6.338021,"i_long":106.491338,"is_transit":false},{"station_name":"Tenjo","transit":false,"i_lat":-6.327251,"distance":3902,"line":6,"i_long":106.460812,"time":5,"station_id":"TEJ","is_transit":false},{"i_long":106.425991,"line":6,"is_transit":false,"distance":2974,"station_name":"Tigaraksa","i_lat":-6.328533,"transit":false,"time":5,"station_id":"TGS"},{"i_long":106.411216,"line":3,"time":3,"transit":false,"station_id":"CKY","is_transit":false,"station_name":"Cikoya","distance":2651,"i_lat":-6.33561},{"station_id":"MJ","transit":false,"is_transit":false,"line":6,"distance":1853,"i_lat":-6.332307,"i_long":106.394373,"station_name":"Maja","time":4},{"station_name":"Citeras","is_transit":false,"i_long":106.332092,"i_lat":-6.334892,"distance":7293,"station_id":"CTR","transit":false,"time":10,"line":3}]]}