{"data":[[{"i_lat":-6.185545,"is_transit":false,"transit":false,"distance":0,"station_name":"Tanah Abang","station_id":"THB","time":0,"line":1,"i_long":106.811091},{"line":1,"station_name":"Karet","time":5,"i_lat":-6.20132,"transit":false,"distance":2029,"is_transit":false,"station_id":"KAT","i_long":106.816351},{"distance":471,"transit":false,"is_transit":false,"i_lat":-6.201433,"time":1,"station_name":"Sudirman Baru","line":1,"station_id":"SUDB","i_long":106.819881},{"distance":280,"station_name":"Sudirman","time":1,"station_id":"SUD","line":1,"i_long":106.822649,"transit":false,"i_lat":-6.202263,"is_transit":false},{"is_transit":true,"transit":true,"line":2,"i_long":106.84912,"i_lat":-6.209883,"station_id":"MRI","distance":3186,"station_name":"Manggarai","time":4},{"line":2,"transit":false,"station_name":"Tebet","station_id":"TEB","i_lat":-6.226659,"distance":2610,"is_transit":false,"time":4,"i_long":106.857948},{"station_id":"CW","station_name":"Cawang","i_lat":-6.242512,"i_long":106.856607,"transit":false,"time":2,"distance":1230,"line":2,"is_transit":false},{"transit":false,"station_id":"DRN","i_lat":-6.255332,"is_transit":false,"distance":1546,"line":2,"station_name":"Duren Kalibata","i_long":106.85449,"time":3},{"transit":false,"distance":824,"station_name":"Pasar Minggu Baru","is_transit":false,"time":2,"i_lat":-6.263214,"line":2,"i_long":106.851577,"station_id":"PSMB"},{"station_name":"Pasar Minggu","i_long":106.843999,"is_transit":false,"time":2,"station_id":"PSM","line":2,"i_lat":-6.2842400000000005,"distance":2380,"transit":false},{"i_long":106.838896,"line":2,"i_lat":-6.3080680000000005,"station_name":"Tanjung Barat","distance":2820,"time":4,"is_transit":false,"transit":false,"station_id":"TNT"},{"distance":2671,"is_transit":false,"transit":false,"time":3,"line":2,"station_name":"Lenteng Agung","i_lat":-6.330363,"station_id":"LNA","i_long":106.832616},{"is_transit":false,"transit":false,"i_long":106.834175,"station_id":"UP","time":2,"distance":1029,"i_lat":-6.339291,"line":2,"station_name":"Univ. Pancasila"},{"station_name":"Univ. Indonesia","distance":2264,"i_long":106.831474,"transit":false,"i_lat":-6.360749,"line":2,"is_transit":false,"time":3,"station_id":"UI"},{"station_id":"POC","distance":1109,"is_transit":false,"i_lat":-6.369073,"transit":false,"station_name":"Pondok Cina","time":2,"i_long":106.831114,"line":2},{"i_lat":-6.391065,"transit":false,"station_id":"DPB","distance":2727,"is_transit":false,"i_long":106.819451,"time":4,"line":2,"station_name":"Depokbaru"},{"station_id":"DP","line":2,"station_name":"Depok","i_long":106.816926,"i_lat":-6.405256,"time":3,"transit":false,"is_transit":false,"distance":1584},{"i_long":106.800298,"station_id":"CTA","transit":false,"is_transit":false,"distance":5084,"time":6,"i_lat":-6.448811,"line":2,"station_name":"Citayam"},{"transit":false,"is_transit":false,"station_name":"Bojonggede","i_lat":-6.493243,"distance":5197,"station_id":"BJD","time":5,"i_long":106.792719,"line":2},{"i_long":106.800016,"i_lat":-6.530544,"time":5,"station_id":"CLT","line":2,"station_name":"Cilebut","distance":4331,"transit":false,"is_transit":false},{"station_name":"Bogor","station_id":"BOO","distance":7514,"i_lat":-6.594596,"transit":false,"line":2,"i_long":106.790574,"is_transit":false,"time":9}],[{"transit":false,"time":0,"i_lat":-6.185545,"i_long":106.811091,"line":1,"is_transit":false,"station_name":"Tanah Abang","distance":0,"station_id":"THB"},{"is_transit":false,"i_long":106.800832,"transit":false,"station_name":"Duri","distance":3632,"station_id":"DU","line":1,"time":8,"i_lat":-6.155215},{"station_id":"AK","time":4,"distance":1230,"i_lat":-6.144674,"i_long":106.79867,"line":1,"station_name":"Angke","transit":false,"is_transit":false},{"time":9,"distance":4102,"i_long":106.826365,"line":4,"station_name":"Kampung Bandan","transit":true,"station_id":"KPB","is_transit":true,"i_lat":-6.132549},{"time":3,"i_lat":-6.137569,"is_transit":true,"station_id":"JAKK","distance":1364,"transit":true,"i_long":106.812439,"line":2,"station_name":"Jakarta Kota"},{"time":4,"i_lat":-6.141205,"i_long":106.820901,"line":2,"is_transit":false,"transit":false,"station_name":"Jayakarta","distance":1264,"station_id":"JAY"},{"i_long":106.82482,"transit":false,"distance":1080,"line":2,"is_transit":false,"time":2,"station_id":"MGB","i_lat":-6.149769,"station_name":"Manggabesar"},{"transit":false,"i_long":106.827103,"i_lat":-6.160725,"is_transit":false,"station_name":"Sawah Besar","distance":906,"station_id":"SW","line":2,"time":2},{"i_lat":-6.166716,"i_long":106.828284,"line":2,"station_name":"Juanda","transit":false,"distance":1149,"time":2,"is_transit":false,"station_id":"JUA"},{"time":4,"i_lat":-6.186295,"station_name":"Gondangdia","station_id":"GDD","i_long":106.832183,"line":2,"distance":2015,"is_transit":false,"transit":false},{"line":2,"station_name":"Cikini","transit":false,"station_id":"CKI","distance":1750,"i_lat":-6.198556,"time":3,"i_long":106.840169,"is_transit":false},{"distance":1590,"station_name":"Manggarai","is_transit":false,"station_id":"MRI","transit":false,"i_lat":-6.209883,"i_long":106.84912,"line":2,"time":4},{"i_long":106.857948,"station_id":"TEB","time":4,"transit":false,"station_name":"Tebet","line":2,"is_transit":false,"distance":2610,"i_lat":-6.226659},{"i_long":106.856607,"i_lat":-6.242512,"station_id":"CW","transit":false,"station_name":"Cawang","is_transit":false,"time":2,"distance":1230,"line":2},{"is_transit":false,"time":3,"line":2,"distance":1546,"station_id":"DRN","transit":false,"i_long":106.85449,"station_name":"Duren Kalibata","i_lat":-6.255332},{"line":2,"distance":824,"station_id":"PSMB","is_transit":false,"transit":false,"station_name":"Pasar Minggu Baru","time":2,"i_lat":-6.263214,"i_long":106.851577},{"transit":false,"distance":2380,"station_id":"PSM","i_long":106.843999,"line":2,"time":2,"i_lat":-6.2842400000000005,"station_name":"Pasar Minggu","is_transit":false},{"i_lat":-6.3080680000000005,"time":4,"station_id":"TNT","line":2,"station_name":"Tanjung Barat","distance":2820,"is_transit":false,"i_long":106.838896,"transit":false},{"station_id":"LNA","line":2,"station_name":"Lenteng Agung","transit":false,"i_long":106.832616,"i_lat":-6.330363,"distance":2671,"is_transit":false,"time":3},{"is_transit":false,"i_lat":-6.339291,"transit":false,"time":2,"i_long":106.834175,"distance":1029,"station_name":"Univ. Pancasila","station_id":"UP","line":2},{"station_name":"Univ. Indonesia","line":2,"i_long":106.831474,"i_lat":-6.360749,"transit":false,"time":3,"is_transit":false,"distance":2264,"station_id":"UI"},{"station_id":"POC","i_lat":-6.369073,"i_long":106.831114,"line":2,"station_name":"Pondok Cina","is_transit":false,"distance":1109,"time":2,"transit":false},{"line":2,"transit":false,"i_lat":-6.391065,"station_name":"Depokbaru","is_transit":false,"station_id":"DPB","i_long":106.819451,"distance":2727,"time":4},{"transit":false,"station_name":"Depok","is_transit":false,"time":3,"station_id":"DP","i_lat":-6.405256,"line":2,"i_long":106.816926,"distance":1584},{"distance":5084,"i_long":106.800298,"time":6,"i_lat":-6.448811,"is_transit":false,"station_id":"CTA","line":2,"transit":false,"station_name":"Citayam"},{"i_lat":-6.493243,"transit":false,"distance":5197,"line":2,"is_transit":false,"time":5,"station_id":"BJD","i_long":106.792719,"station_name":"Bojonggede"},{"is_transit":false,"i_lat":-6.530544,"i_long":106.800016,"station_name":"Cilebut","station_id":"CLT","time":5,"line":2,"transit":false,"distance":4331},{"station_name":"Bogor","station_id":"BOO","is_transit":false,"transit":false,"distance":7514,"i_long":106.790574,"line":2,"time":9,"i_lat":-6.594596}],[{"transit":false,"station_name":"Tanah Abang","time":0,"i_lat":-6.185545,"station_id":"THB","i_long":106.811091,"line":1,"distance":0,"is_transit":false},{"time":8,"transit":false,"station_name":"Duri","i_long":106.800832,"is_transit":false,"distance":3632,"i_lat":-6.155215,"line":1,"station_id":"DU"},{"i_lat":-6.144674,"station_id":"AK","line":1,"time":4,"is_transit":false,"i_long":106.79867,"transit":false,"station_name":"Angke","distance":1230},{"i_lat":-6.132549,"line":4,"distance":4102,"is_transit":true,"i_long":106.826365,"time":9,"station_name":"Kampung Bandan","station_id":"KPB","transit":true},{"is_transit":false,"time":3,"distance":1444,"i_lat":-6.14505,"station_name":"Rajawali","line":11,"transit":false,"station_id":"RJW","i_long":106.836569},{"distance":1901,"is_transit":false,"i_lat":-6.161728,"line":11,"transit":false,"station_name":"Kemayoran","time":5,"i_long":106.839204,"station_id":"KMO"},{"line":11,"i_lat":-6.174784,"station_name":"Pasar Senen","distance":1436,"is_transit":false,"time":4,"i_long":106.84368,"transit":false,"station_id":"PSE"},{"station_name":"Gang Sentiong","time":8,"i_lat":-6.185975,"i_long":106.850107,"transit":false,"line":11,"is_transit":false,"station_id":"GST","distance":1567},{"station_name":"Kramat","distance":973,"line":11,"is_transit":false,"transit":false,"i_lat":-6.193792,"station_id":"KMT","time":1,"i_long":106.855437},{"is_transit":false,"transit":false,"line":11,"station_name":"Pondok Jati","time":2,"i_lat":-6.209188,"station_id":"POK","distance":1829,"i_long":106.861737},{"station_name":"Jatinegara","i_lat":-6.215091,"distance":1236,"station_id":"JNG","i_long":106.86807400000001,"time":9,"transit":true,"is_transit":true,"line":1},{"i_lat":-6.212485,"i_long":106.858896,"station_id":"MTR","line":1,"station_name":"Matraman","transit":false,"is_transit":false,"time":2,"distance":1377},{"station_name":"Manggarai","transit":true,"is_transit":true,"time":2,"station_id":"MRI","line":2,"i_lat":-6.209883,"distance":1275,"i_long":106.84912},{"i_lat":-6.226659,"i_long":106.857948,"time":4,"line":2,"station_name":"Tebet","station_id":"TEB","is_transit":false,"distance":2610,"transit":false},{"time":2,"station_id":"CW","is_transit":false,"distance":1230,"transit":false,"station_name":"Cawang","i_long":106.856607,"line":2,"i_lat":-6.242512},{"i_long":106.85449,"distance":1546,"transit":false,"station_name":"Duren Kalibata","is_transit":false,"station_id":"DRN","i_lat":-6.255332,"time":3,"line":2},{"is_transit":false,"line":2,"transit":false,"i_lat":-6.263214,"i_long":106.851577,"station_id":"PSMB","station_name":"Pasar Minggu Baru","time":2,"distance":824},{"is_transit":false,"i_lat":-6.2842400000000005,"i_long":106.843999,"distance":2380,"transit":false,"station_name":"Pasar Minggu","time":2,"station_id":"PSM","line":2},{"i_lat":-6.3080680000000005,"distance":2820,"station_name":"Tanjung Barat","line":2,"transit":false,"time":4,"i_long":106.838896,"is_transit":false,"station_id":"TNT"},{"transit":false,"distance":2671,"station_name":"Lenteng Agung","is_transit":false,"i_lat":-6.330363,"time":3,"line":2,"i_long":106.832616,"station_id":"LNA"},{"station_name":"Univ. Pancasila","station_id":"UP","i_lat":-6.339291,"line":2,"i_long":106.834175,"distance":1029,"transit":false,"is_transit":false,"time":2},{"station_id":"UI","time":3,"station_name":"Univ. Indonesia","transit":false,"line":2,"i_long":106.831474,"distance":2264,"i_lat":-6.360749,"is_transit":false},{"distance":1109,"is_transit":false,"station_id":"POC","station_name":"Pondok Cina","i_lat":-6.369073,"time":2,"i_long":106.831114,"transit":false,"line":2},{"i_long":106.819451,"line":2,"time":4,"distance":2727,"station_id":"DPB","transit":false,"station_name":"Depokbaru","is_transit":false,"i_lat":-6.391065},{"line":2,"distance":1584,"i_lat":-6.405256,"time":3,"station_name":"Depok","station_id":"DP","i_long":106.816926,"is_transit":false,"transit":false},{"time":6,"line":2,"distance":5084,"i_long":106.800298,"is_transit":false,"station_id":"CTA","station_name":"Citayam","transit":false,"i_lat":-6.448811},{"station_id":"BJD","time":5,"transit":false,"i_lat":-6.493243,"i_long":106.792719,"is_transit":false,"station_name":"Bojonggede","distance":5197,"line":2},{"line":2,"i_long":106.800016,"station_id":"CLT","transit":false,"time":5,"station_name":"Cilebut","i_lat":-6.530544,"is_transit":false,"distance":4331},{"time":9,"i_lat":-6.594596,"station_name":"Bogor","transit":false,"distance":7514,"is_transit":false,"station_id":"BOO","i_long":106.790574,"line":2}]]}