{"data":[[{"line":1,"distance":0,"station_id":"THB","station_name":"Tanah Abang","is_transit":true,"transit":false,"time":0,"i_long":106.811091,"i_lat":-6.185545},{"distance":3632,"time":8,"station_id":"DU","station_name":"Duri","line":1,"i_long":106.800832,"i_lat":-6.155215,"is_transit":true,"transit":true},{"is_transit":false,"transit":false,"line":0,"time":4,"station_id":"AK","station_name":"Angke","i_lat":-6.144674,"i_long":106.79867,"distance":1230}],[{"time":0,"station_id":"THB","station_name":"Tanah Abang","i_lat":-6.185545,"line":1,"i_long":106.811091,"is_transit":true,"transit":false,"distance":0},{"distance":2029,"transit":false,"line":1,"is_transit":false,"station_id":"KAT","time":5,"i_lat":-6.20132,"i_long":106.816351,"station_name":"Karet"},{"station_id":"SUDB","time":1,"i_lat":-6.201433,"station_name":"Sudirman Baru","line":1,"transit":false,"i_long":106.819881,"is_transit":false,"distance":471},{"station_name":"Sudirman","time":1,"station_id":"SUD","line":1,"i_lat":-6.202263,"transit":false,"i_long":106.822649,"is_transit":false,"distance":280},{"station_name":"Manggarai","i_lat":-6.209883,"station_id":"MRI","transit":true,"distance":3186,"i_long":106.84912,"is_transit":true,"time":4,"line":0},{"station_name":"Cikini","time":4,"is_transit":false,"i_long":106.840169,"station_id":"CKI","transit":false,"distance":1590,"line":0,"i_lat":-6.198556},{"i_long":106.832183,"line":2,"station_id":"GDD","station_name":"Gondangdia","time":3,"distance":1750,"is_transit":false,"transit":false,"i_lat":-6.186295},{"line":2,"i_long":106.828284,"is_transit":false,"station_id":"JUA","time":4,"station_name":"Juanda","i_lat":-6.166716,"distance":2015,"transit":false},{"station_name":"Sawah Besar","is_transit":false,"distance":1149,"line":2,"transit":false,"i_long":106.827103,"station_id":"SW","time":2,"i_lat":-6.160725},{"station_id":"MGB","transit":false,"is_transit":false,"distance":906,"station_name":"Manggabesar","i_lat":-6.149769,"line":2,"i_long":106.82482,"time":2},{"time":2,"distance":1080,"station_name":"Jayakarta","is_transit":false,"i_lat":-6.141205,"line":7,"station_id":"JAY","i_long":106.820901,"transit":false},{"station_name":"Jakarta Kota","line":0,"transit":true,"is_transit":true,"station_id":"JAKK","time":4,"i_lat":-6.137569,"i_long":106.812439,"distance":1264},{"i_long":106.826365,"distance":1364,"is_transit":true,"time":3,"i_lat":-6.132549,"transit":false,"station_id":"KPB","line":0,"station_name":"Kampung Bandan"},{"time":9,"i_long":106.79867,"line":0,"station_name":"Angke","distance":4102,"is_transit":false,"station_id":"AK","i_lat":-6.144674,"transit":false}],[{"i_long":106.811091,"distance":0,"is_transit":true,"line":1,"time":0,"i_lat":-6.185545,"station_id":"THB","transit":false,"station_name":"Tanah Abang"},{"station_id":"KAT","transit":false,"distance":2029,"station_name":"Karet","line":1,"is_transit":false,"i_lat":-6.20132,"time":5,"i_long":106.816351},{"station_id":"SUDB","line":1,"i_long":106.819881,"time":1,"is_transit":false,"station_name":"Sudirman Baru","transit":false,"i_lat":-6.201433,"distance":471},{"is_transit":false,"station_name":"Sudirman","time":1,"i_lat":-6.202263,"i_long":106.822649,"line":1,"transit":false,"distance":280,"station_id":"SUD"},{"time":4,"station_id":"MRI","transit":false,"i_lat":-6.209883,"i_long":106.84912,"line":0,"distance":3186,"station_name":"Manggarai","is_transit":true},{"time":2,"transit":false,"i_lat":-6.212485,"is_transit":false,"station_id":"MTR","i_long":106.858896,"line":1,"station_name":"Matraman","distance":1275},{"station_name":"Jatinegara","line":0,"transit":true,"i_lat":-6.215091,"station_id":"JNG","is_transit":true,"time":8,"distance":1377,"i_long":106.86807400000001},{"station_name":"Pondok Jati","time":2,"is_transit":false,"i_lat":-6.209188,"line":11,"transit":false,"station_id":"POK","i_long":106.861737,"distance":1236},{"i_long":106.855437,"transit":false,"is_transit":false,"station_id":"KMT","station_name":"Kramat","i_lat":-6.193792,"distance":1829,"line":11,"time":2},{"distance":973,"station_id":"GST","transit":false,"i_lat":-6.185975,"line":11,"station_name":"Gang Sentiong","is_transit":false,"time":1,"i_long":106.850107},{"line":11,"distance":1567,"i_long":106.84368,"station_name":"Pasar Senen","i_lat":-6.174784,"is_transit":false,"station_id":"PSE","transit":false,"time":8},{"is_transit":false,"time":4,"i_long":106.839204,"distance":1436,"line":11,"station_name":"Kemayoran","i_lat":-6.161728,"transit":false,"station_id":"KMO"},{"distance":1901,"station_id":"RJW","i_long":106.836569,"station_name":"Rajawali","line":11,"transit":false,"is_transit":false,"time":5,"i_lat":-6.14505},{"distance":1444,"transit":true,"station_id":"KPB","i_long":106.826365,"line":0,"i_lat":-6.132549,"station_name":"Kampung Bandan","is_transit":true,"time":3},{"station_id":"AK","i_long":106.79867,"is_transit":false,"distance":4102,"transit":false,"station_name":"Angke","time":9,"line":0,"i_lat":-6.144674}]]}