{"data":[[{"distance":0,"i_long":106.811091,"i_lat":-6.185545,"line":1,"time":0,"station_id":"THB","station_name":"Tanah Abang","is_transit":false,"transit":false},{"distance":2029,"station_name":"Karet","is_transit":false,"line":1,"station_id":"KAT","transit":false,"time":5,"i_lat":-6.20132,"i_long":106.816351},{"station_name":"Sudirman Baru","station_id":"SUDB","distance":471,"i_long":106.819881,"time":1,"line":1,"transit":false,"is_transit":false,"i_lat":-6.201433},{"station_id":"SUD","transit":false,"station_name":"Sudirman","time":1,"is_transit":false,"i_lat":-6.202263,"i_long":106.822649,"distance":280,"line":1},{"station_name":"Manggarai","time":4,"line":2,"is_transit":true,"i_long":106.84912,"station_id":"MRI","i_lat":-6.209883,"distance":3186,"transit":true},{"transit":false,"i_long":106.857948,"distance":2610,"station_id":"TEB","line":2,"station_name":"Tebet","i_lat":-6.226659,"time":4,"is_transit":false},{"time":2,"is_transit":false,"line":2,"transit":false,"station_name":"Cawang","station_id":"CW","i_lat":-6.242512,"i_long":106.856607,"distance":1230},{"station_id":"DRN","is_transit":false,"time":3,"i_long":106.85449,"i_lat":-6.255332,"station_name":"Duren Kalibata","distance":1546,"transit":false,"line":2},{"distance":824,"time":2,"i_lat":-6.263214,"i_long":106.851577,"line":2,"is_transit":false,"transit":false,"station_name":"Pasar Minggu Baru","station_id":"PSMB"},{"time":2,"i_long":106.843999,"station_id":"PSM","transit":false,"line":2,"station_name":"Pasar Minggu","is_transit":false,"i_lat":-6.2842400000000005,"distance":2380},{"time":4,"is_transit":false,"i_lat":-6.3080680000000005,"i_long":106.838896,"transit":false,"station_name":"Tanjung Barat","station_id":"TNT","distance":2820,"line":2},{"distance":2671,"station_name":"Lenteng Agung","is_transit":false,"station_id":"LNA","transit":false,"time":3,"line":2,"i_long":106.832616,"i_lat":-6.330363},{"station_name":"Univ. Pancasila","time":2,"is_transit":false,"line":2,"station_id":"UP","transit":false,"distance":1029,"i_lat":-6.339291,"i_long":106.834175},{"station_id":"UI","transit":false,"i_lat":-6.360749,"line":2,"station_name":"Univ. Indonesia","i_long":106.831474,"time":3,"distance":2264,"is_transit":false},{"station_name":"Pondok Cina","is_transit":false,"i_long":106.831114,"distance":1109,"station_id":"POC","line":2,"i_lat":-6.369073,"time":2,"transit":false},{"line":2,"time":4,"transit":false,"distance":2727,"i_lat":-6.391065,"station_id":"DPB","station_name":"Depokbaru","is_transit":false,"i_long":106.819451},{"station_name":"Depok","distance":1584,"is_transit":false,"station_id":"DP","transit":false,"time":3,"i_lat":-6.405256,"line":2,"i_long":106.816926},{"i_lat":-6.448811,"i_long":106.800298,"station_id":"CTA","is_transit":true,"time":6,"distance":5084,"transit":true,"station_name":"Citayam","line":2},{"i_long":106.824374,"distance":0,"line":21,"station_id":"PDRG","is_transit":false,"station_name":"Pondok Rajeg","i_lat":-6.460735,"transit":false,"time":0},{"station_id":"CBN","time":0,"i_long":106.851978,"line":21,"transit":false,"station_name":"Cibinong","distance":0,"i_lat":-6.46424,"is_transit":false},{"time":10,"line":21,"transit":false,"distance":6527,"station_id":"NMO","i_lat":-6.466285,"station_name":"Nambo","is_transit":false,"i_long":106.905196}],[{"is_transit":false,"station_name":"Tanah Abang","time":0,"distance":0,"i_lat":-6.185545,"line":1,"i_long":106.811091,"transit":false,"station_id":"THB"},{"station_name":"Duri","distance":3632,"i_lat":-6.155215,"i_long":106.800832,"is_transit":false,"transit":false,"line":1,"station_id":"DU","time":8},{"i_lat":-6.144674,"distance":1230,"i_long":106.79867,"line":1,"time":4,"station_name":"Angke","station_id":"AK","is_transit":false,"transit":false},{"time":9,"transit":true,"is_transit":true,"station_name":"Kampung Bandan","i_long":106.826365,"station_id":"KPB","line":4,"distance":4102,"i_lat":-6.132549},{"i_lat":-6.137569,"distance":1364,"line":2,"i_long":106.812439,"time":3,"is_transit":true,"station_name":"Jakarta Kota","station_id":"JAKK","transit":true},{"is_transit":false,"station_name":"Jayakarta","i_lat":-6.141205,"i_long":106.820901,"transit":false,"distance":1264,"time":4,"line":2,"station_id":"JAY"},{"distance":1080,"station_id":"MGB","is_transit":false,"station_name":"Manggabesar","i_lat":-6.149769,"line":2,"i_long":106.82482,"time":2,"transit":false},{"station_name":"Sawah Besar","distance":906,"station_id":"SW","time":2,"line":2,"i_lat":-6.160725,"transit":false,"is_transit":false,"i_long":106.827103},{"time":2,"transit":false,"station_id":"JUA","station_name":"Juanda","line":2,"is_transit":false,"distance":1149,"i_lat":-6.166716,"i_long":106.828284},{"distance":2015,"transit":false,"i_lat":-6.186295,"i_long":106.832183,"is_transit":false,"station_name":"Gondangdia","station_id":"GDD","line":2,"time":4},{"line":2,"transit":false,"distance":1750,"is_transit":false,"i_lat":-6.198556,"station_id":"CKI","i_long":106.840169,"station_name":"Cikini","time":3},{"distance":1590,"i_long":106.84912,"time":4,"transit":false,"line":2,"station_name":"Manggarai","station_id":"MRI","is_transit":false,"i_lat":-6.209883},{"i_long":106.857948,"is_transit":false,"line":2,"time":4,"i_lat":-6.226659,"station_name":"Tebet","distance":2610,"station_id":"TEB","transit":false},{"time":2,"distance":1230,"line":2,"i_lat":-6.242512,"transit":false,"station_id":"CW","is_transit":false,"station_name":"Cawang","i_long":106.856607},{"time":3,"line":2,"transit":false,"station_id":"DRN","station_name":"Duren Kalibata","is_transit":false,"i_lat":-6.255332,"i_long":106.85449,"distance":1546},{"i_long":106.851577,"distance":824,"is_transit":false,"i_lat":-6.263214,"line":2,"transit":false,"station_name":"Pasar Minggu Baru","time":2,"station_id":"PSMB"},{"transit":false,"station_id":"PSM","i_lat":-6.2842400000000005,"time":2,"is_transit":false,"station_name":"Pasar Minggu","distance":2380,"i_long":106.843999,"line":2},{"station_id":"TNT","is_transit":false,"transit":false,"i_long":106.838896,"i_lat":-6.3080680000000005,"time":4,"distance":2820,"station_name":"Tanjung Barat","line":2},{"is_transit":false,"station_id":"LNA","station_name":"Lenteng Agung","distance":2671,"line":2,"i_long":106.832616,"time":3,"transit":false,"i_lat":-6.330363},{"time":2,"station_id":"UP","distance":1029,"transit":false,"line":2,"station_name":"Univ. Pancasila","i_lat":-6.339291,"is_transit":false,"i_long":106.834175},{"i_long":106.831474,"station_id":"UI","line":2,"transit":false,"is_transit":false,"i_lat":-6.360749,"station_name":"Univ. Indonesia","distance":2264,"time":3},{"transit":false,"station_id":"POC","time":2,"distance":1109,"i_lat":-6.369073,"station_name":"Pondok Cina","is_transit":false,"i_long":106.831114,"line":2},{"line":2,"station_name":"Depokbaru","station_id":"DPB","distance":2727,"is_transit":false,"i_long":106.819451,"i_lat":-6.391065,"transit":false,"time":4},{"transit":false,"i_lat":-6.405256,"time":3,"i_long":106.816926,"line":2,"station_name":"Depok","is_transit":false,"distance":1584,"station_id":"DP"},{"line":2,"time":6,"is_transit":true,"station_name":"Citayam","station_id":"CTA","i_long":106.800298,"transit":true,"distance":5084,"i_lat":-6.448811},{"i_long":106.824374,"station_id":"PDRG","line":21,"transit":false,"time":0,"is_transit":false,"i_lat":-6.460735,"distance":0,"station_name":"Pondok Rajeg"},{"distance":0,"time":0,"transit":false,"station_id":"CBN","line":21,"is_transit":false,"i_long":106.851978,"station_name":"Cibinong","i_lat":-6.46424},{"time":10,"station_name":"Nambo","is_transit":false,"transit":false,"distance":6527,"i_lat":-6.466285,"station_id":"NMO","i_long":106.905196,"line":21}],[{"line":1,"i_lat":-6.185545,"transit":false,"distance":0,"i_long":106.811091,"time":0,"is_transit":false,"station_id":"THB","station_name":"Tanah Abang"},{"transit":false,"i_lat":-6.155215,"time":8,"i_long":106.800832,"station_id":"DU","line":1,"distance":3632,"station_name":"Duri","is_transit":false},{"time":4,"i_long":106.79867,"transit":false,"station_id":"AK","is_transit":false,"station_name":"Angke","distance":1230,"line":1,"i_lat":-6.144674},{"i_lat":-6.132549,"line":4,"station_name":"Kampung Bandan","station_id":"KPB","transit":true,"is_transit":true,"time":9,"distance":4102,"i_long":106.826365},{"i_lat":-6.14505,"station_id":"RJW","i_long":106.836569,"time":3,"line":11,"station_name":"Rajawali","is_transit":false,"transit":false,"distance":1444},{"i_lat":-6.161728,"station_name":"Kemayoran","distance":1901,"line":11,"transit":false,"is_transit":false,"i_long":106.839204,"station_id":"KMO","time":5},{"i_lat":-6.174784,"transit":false,"i_long":106.84368,"is_transit":false,"station_id":"PSE","station_name":"Pasar Senen","time":4,"line":11,"distance":1436},{"station_id":"GST","i_lat":-6.185975,"i_long":106.850107,"time":8,"transit":false,"is_transit":false,"station_name":"Gang Sentiong","line":11,"distance":1567},{"distance":973,"transit":false,"i_lat":-6.193792,"station_name":"Kramat","time":1,"i_long":106.855437,"line":11,"station_id":"KMT","is_transit":false},{"distance":1829,"i_lat":-6.209188,"transit":false,"line":11,"is_transit":false,"station_id":"POK","time":2,"station_name":"Pondok Jati","i_long":106.861737},{"station_name":"Jatinegara","i_long":106.86807400000001,"is_transit":true,"time":9,"line":1,"station_id":"JNG","distance":1236,"i_lat":-6.215091,"transit":true},{"distance":1377,"i_long":106.858896,"is_transit":false,"line":1,"station_id":"MTR","i_lat":-6.212485,"transit":false,"station_name":"Matraman","time":2},{"i_long":106.84912,"time":2,"station_name":"Manggarai","transit":true,"i_lat":-6.209883,"line":2,"is_transit":true,"distance":1275,"station_id":"MRI"},{"station_id":"TEB","time":4,"line":2,"i_lat":-6.226659,"i_long":106.857948,"transit":false,"station_name":"Tebet","is_transit":false,"distance":2610},{"distance":1230,"line":2,"station_id":"CW","time":2,"i_lat":-6.242512,"i_long":106.856607,"station_name":"Cawang","is_transit":false,"transit":false},{"transit":false,"i_long":106.85449,"distance":1546,"line":2,"station_id":"DRN","time":3,"station_name":"Duren Kalibata","is_transit":false,"i_lat":-6.255332},{"transit":false,"time":2,"station_name":"Pasar Minggu Baru","distance":824,"i_lat":-6.263214,"station_id":"PSMB","is_transit":false,"line":2,"i_long":106.851577},{"station_id":"PSM","i_long":106.843999,"i_lat":-6.2842400000000005,"line":2,"distance":2380,"station_name":"Pasar Minggu","transit":false,"is_transit":false,"time":2},{"i_lat":-6.3080680000000005,"i_long":106.838896,"station_id":"TNT","is_transit":false,"line":2,"station_name":"Tanjung Barat","distance":2820,"time":4,"transit":false},{"distance":2671,"station_id":"LNA","time":3,"i_lat":-6.330363,"line":2,"transit":false,"i_long":106.832616,"is_transit":false,"station_name":"Lenteng Agung"},{"station_id":"UP","station_name":"Univ. Pancasila","time":2,"i_lat":-6.339291,"line":2,"is_transit":false,"transit":false,"distance":1029,"i_long":106.834175},{"station_name":"Univ. Indonesia","station_id":"UI","transit":false,"i_long":106.831474,"distance":2264,"time":3,"i_lat":-6.360749,"line":2,"is_transit":false},{"line":2,"distance":1109,"i_lat":-6.369073,"i_long":106.831114,"is_transit":false,"station_name":"Pondok Cina","transit":false,"station_id":"POC","time":2},{"is_transit":false,"distance":2727,"i_lat":-6.391065,"i_long":106.819451,"line":2,"station_id":"DPB","time":4,"station_name":"Depokbaru","transit":false},{"is_transit":false,"station_id":"DP","time":3,"distance":1584,"transit":false,"i_lat":-6.405256,"station_name":"Depok","line":2,"i_long":106.816926},{"is_transit":true,"transit":true,"time":6,"i_lat":-6.448811,"station_name":"Citayam","distance":5084,"i_long":106.800298,"line":2,"station_id":"CTA"},{"i_long":106.824374,"transit":false,"distance":0,"station_name":"Pondok Rajeg","station_id":"PDRG","is_transit":false,"i_lat":-6.460735,"line":21,"time":0},{"i_long":106.851978,"line":21,"time":0,"distance":0,"transit":false,"is_transit":false,"station_id":"CBN","station_name":"Cibinong","i_lat":-6.46424},{"line":21,"time":10,"transit":false,"station_name":"Nambo","distance":6527,"i_lat":-6.466285,"station_id":"NMO","is_transit":false,"i_long":106.905196}]]}