{"data":[[{"line":1,"station_name":"Tanah Abang","is_transit":true,"transit":false,"distance":0,"i_long":106.811091,"station_id":"THB","time":0,"i_lat":-6.185545},{"line":1,"station_name":"Karet","transit":false,"time":5,"i_long":106.816351,"station_id":"KAT","distance":2029,"is_transit":false,"i_lat":-6.20132},{"i_long":106.819881,"is_transit":false,"station_id":"SUDB","station_name":"Sudirman Baru","time":1,"distance":471,"i_lat":-6.201433,"transit":false,"line":1},{"distance":280,"is_transit":false,"transit":false,"i_long":106.822649,"time":1,"i_lat":-6.202263,"line":1,"station_name":"Sudirman","station_id":"SUD"},{"station_id":"MRI","i_lat":-6.209883,"distance":3186,"i_long":106.84912,"is_transit":true,"time":4,"line":0,"station_name":"Manggarai","transit":false},{"transit":false,"distance":1275,"i_long":106.858896,"is_transit":false,"time":2,"i_lat":-6.212485,"station_id":"MTR","station_name":"Matraman","line":1},{"station_id":"JNG","time":8,"station_name":"Jatinegara","i_lat":-6.215091,"i_long":106.86807400000001,"distance":1377,"line":0,"transit":false,"is_transit":true},{"line":1,"i_lat":-6.2135,"station_id":"KLD","is_transit":false,"station_name":"Klender","time":3,"distance":3395,"transit":false,"i_long":106.899548},{"transit":false,"distance":3100,"station_id":"BUA","time":2,"is_transit":false,"station_name":"Buaran","i_lat":-6.215568,"i_long":106.922662,"line":0}],[{"transit":false,"i_lat":-6.185545,"i_long":106.811091,"distance":0,"is_transit":true,"station_name":"Tanah Abang","line":1,"time":0,"station_id":"THB"},{"line":1,"transit":true,"i_lat":-6.155215,"station_id":"DU","station_name":"Duri","time":8,"i_long":106.800832,"distance":3632,"is_transit":true},{"time":4,"i_lat":-6.144674,"transit":false,"line":0,"i_long":106.79867,"distance":1230,"is_transit":false,"station_id":"AK","station_name":"Angke"},{"is_transit":true,"station_name":"Kampung Bandan","time":9,"i_long":106.826365,"line":0,"i_lat":-6.132549,"station_id":"KPB","distance":4102,"transit":true},{"transit":false,"distance":1444,"station_name":"Rajawali","i_lat":-6.14505,"line":11,"station_id":"RJW","time":3,"i_long":106.836569,"is_transit":false},{"is_transit":false,"transit":false,"time":5,"i_lat":-6.161728,"line":11,"distance":1901,"station_name":"Kemayoran","i_long":106.839204,"station_id":"KMO"},{"line":11,"station_id":"PSE","i_lat":-6.174784,"i_long":106.84368,"distance":1436,"station_name":"Pasar Senen","transit":false,"is_transit":false,"time":4},{"is_transit":false,"transit":false,"i_lat":-6.185975,"line":11,"station_id":"GST","station_name":"Gang Sentiong","time":8,"i_long":106.850107,"distance":1567},{"is_transit":false,"station_id":"KMT","i_lat":-6.193792,"line":11,"station_name":"Kramat","transit":false,"time":1,"distance":973,"i_long":106.855437},{"time":2,"station_name":"Pondok Jati","station_id":"POK","distance":1829,"line":11,"transit":false,"i_lat":-6.209188,"i_long":106.861737,"is_transit":false},{"i_lat":-6.215091,"i_long":106.86807400000001,"line":0,"station_id":"JNG","is_transit":true,"distance":1236,"station_name":"Jatinegara","time":9,"transit":true},{"transit":false,"line":1,"distance":3395,"station_id":"KLD","i_long":106.899548,"time":3,"is_transit":false,"station_name":"Klender","i_lat":-6.2135},{"station_name":"Buaran","transit":false,"i_lat":-6.215568,"distance":3100,"station_id":"BUA","time":2,"line":0,"i_long":106.922662,"is_transit":false}],[{"i_long":106.811091,"station_id":"THB","transit":false,"i_lat":-6.185545,"is_transit":true,"distance":0,"time":0,"line":1,"station_name":"Tanah Abang"},{"distance":3632,"i_long":106.800832,"line":1,"i_lat":-6.155215,"station_name":"Duri","time":8,"transit":true,"is_transit":true,"station_id":"DU"},{"station_id":"AK","i_long":106.79867,"station_name":"Angke","distance":1230,"transit":false,"is_transit":false,"line":0,"i_lat":-6.144674,"time":4},{"transit":false,"is_transit":true,"station_id":"KPB","distance":4102,"time":9,"line":0,"i_long":106.826365,"i_lat":-6.132549,"station_name":"Kampung Bandan"},{"i_lat":-6.137569,"station_id":"JAKK","line":0,"transit":true,"station_name":"Jakarta Kota","distance":1364,"i_long":106.812439,"time":3,"is_transit":true},{"distance":1264,"time":4,"is_transit":false,"i_long":106.820901,"transit":false,"i_lat":-6.141205,"station_id":"JAY","line":7,"station_name":"Jayakarta"},{"distance":1080,"is_transit":false,"time":2,"station_name":"Manggabesar","station_id":"MGB","transit":false,"i_lat":-6.149769,"line":2,"i_long":106.82482},{"i_lat":-6.160725,"is_transit":false,"distance":906,"station_id":"SW","i_long":106.827103,"line":2,"time":2,"station_name":"Sawah Besar","transit":false},{"time":2,"line":2,"is_transit":false,"i_lat":-6.166716,"station_id":"JUA","station_name":"Juanda","i_long":106.828284,"distance":1149,"transit":false},{"time":4,"station_id":"GDD","station_name":"Gondangdia","transit":false,"i_lat":-6.186295,"is_transit":false,"i_long":106.832183,"line":2,"distance":2015},{"is_transit":false,"i_lat":-6.198556,"time":3,"i_long":106.840169,"station_id":"CKI","distance":1750,"transit":false,"line":0,"station_name":"Cikini"},{"i_lat":-6.209883,"distance":1590,"is_transit":true,"line":0,"station_name":"Manggarai","station_id":"MRI","transit":true,"i_long":106.84912,"time":4},{"time":2,"transit":false,"station_name":"Matraman","station_id":"MTR","i_lat":-6.212485,"is_transit":false,"line":1,"distance":1275,"i_long":106.858896},{"i_long":106.86807400000001,"is_transit":true,"station_name":"Jatinegara","distance":1377,"transit":false,"line":0,"station_id":"JNG","i_lat":-6.215091,"time":8},{"station_id":"KLD","transit":false,"time":3,"is_transit":false,"i_lat":-6.2135,"i_long":106.899548,"distance":3395,"station_name":"Klender","line":1},{"line":0,"transit":false,"station_id":"BUA","is_transit":false,"time":2,"i_lat":-6.215568,"i_long":106.922662,"distance":3100,"station_name":"Buaran"}],[{"station_name":"Tanah Abang","transit":false,"time":0,"i_long":106.811091,"station_id":"THB","i_lat":-6.185545,"distance":0,"line":1,"is_transit":true},{"i_lat":-6.20132,"station_id":"KAT","i_long":106.816351,"line":1,"transit":false,"station_name":"Karet","time":5,"is_transit":false,"distance":2029},{"station_name":"Sudirman Baru","i_long":106.819881,"station_id":"SUDB","i_lat":-6.201433,"time":1,"distance":471,"is_transit":false,"transit":false,"line":1},{"distance":280,"i_lat":-6.202263,"is_transit":false,"time":1,"station_id":"SUD","transit":false,"station_name":"Sudirman","line":1,"i_long":106.822649},{"i_long":106.84912,"station_name":"Manggarai","is_transit":true,"line":0,"time":4,"distance":3186,"station_id":"MRI","transit":true,"i_lat":-6.209883},{"line":0,"time":4,"transit":false,"distance":1590,"station_name":"Cikini","station_id":"CKI","i_lat":-6.198556,"is_transit":false,"i_long":106.840169},{"line":2,"transit":false,"i_lat":-6.186295,"time":3,"distance":1750,"is_transit":false,"station_id":"GDD","station_name":"Gondangdia","i_long":106.832183},{"i_lat":-6.166716,"distance":2015,"station_id":"JUA","station_name":"Juanda","time":4,"is_transit":false,"transit":false,"line":2,"i_long":106.828284},{"station_name":"Sawah Besar","i_lat":-6.160725,"time":2,"transit":false,"distance":1149,"line":2,"i_long":106.827103,"is_transit":false,"station_id":"SW"},{"line":2,"i_lat":-6.149769,"is_transit":false,"i_long":106.82482,"transit":false,"station_id":"MGB","station_name":"Manggabesar","distance":906,"time":2},{"i_lat":-6.141205,"time":2,"station_id":"JAY","transit":false,"is_transit":false,"i_long":106.820901,"distance":1080,"line":7,"station_name":"Jayakarta"},{"line":0,"station_name":"Jakarta Kota","is_transit":true,"station_id":"JAKK","transit":true,"distance":1264,"time":4,"i_lat":-6.137569,"i_long":106.812439},{"i_long":106.826365,"station_id":"KPB","time":3,"distance":1364,"transit":true,"is_transit":true,"station_name":"Kampung Bandan","line":0,"i_lat":-6.132549},{"time":3,"line":11,"station_name":"Rajawali","i_long":106.836569,"i_lat":-6.14505,"transit":false,"distance":1444,"station_id":"RJW","is_transit":false},{"line":11,"time":5,"is_transit":false,"station_name":"Kemayoran","distance":1901,"station_id":"KMO","i_lat":-6.161728,"i_long":106.839204,"transit":false},{"time":4,"is_transit":false,"station_id":"PSE","distance":1436,"i_long":106.84368,"line":11,"transit":false,"station_name":"Pasar Senen","i_lat":-6.174784},{"line":11,"distance":1567,"station_id":"GST","i_long":106.850107,"station_name":"Gang Sentiong","time":8,"is_transit":false,"transit":false,"i_lat":-6.185975},{"distance":973,"i_lat":-6.193792,"is_transit":false,"time":1,"station_name":"Kramat","transit":false,"station_id":"KMT","line":11,"i_long":106.855437},{"distance":1829,"is_transit":false,"station_id":"POK","transit":false,"time":2,"station_name":"Pondok Jati","i_lat":-6.209188,"i_long":106.861737,"line":11},{"time":9,"distance":1236,"i_lat":-6.215091,"transit":true,"is_transit":true,"i_long":106.86807400000001,"station_name":"Jatinegara","line":0,"station_id":"JNG"},{"line":1,"station_id":"KLD","transit":false,"is_transit":false,"distance":3395,"i_long":106.899548,"i_lat":-6.2135,"station_name":"Klender","time":3},{"is_transit":false,"station_id":"BUA","distance":3100,"station_name":"Buaran","i_lat":-6.215568,"time":2,"i_long":106.922662,"line":0,"transit":false}]]}