{"data":[[{"distance":0,"i_long":106.811091,"i_lat":-6.185545,"station_name":"Tanah Abang","transit":false,"is_transit":false,"time":0,"station_id":"THB","line":1},{"time":5,"station_id":"KAT","i_lat":-6.20132,"station_name":"Karet","is_transit":false,"transit":false,"line":1,"distance":2029,"i_long":106.816351},{"i_long":106.819881,"transit":false,"line":1,"station_name":"Sudirman Baru","distance":471,"time":1,"is_transit":false,"station_id":"SUDB","i_lat":-6.201433},{"time":1,"station_name":"Sudirman","i_lat":-6.202263,"station_id":"SUD","i_long":106.822649,"line":1,"distance":280,"is_transit":false,"transit":false},{"distance":3186,"station_id":"MRI","transit":false,"i_lat":-6.209883,"line":2,"i_long":106.84912,"station_name":"Manggarai","is_transit":false,"time":4},{"i_lat":-6.212485,"line":1,"station_name":"Matraman","is_transit":false,"transit":false,"i_long":106.858896,"distance":1275,"time":2,"station_id":"MTR"},{"distance":1377,"time":8,"transit":false,"is_transit":false,"station_name":"Jatinegara","line":1,"station_id":"JNG","i_long":106.86807400000001,"i_lat":-6.215091},{"station_name":"Klender","distance":3395,"transit":false,"station_id":"KLD","is_transit":false,"i_lat":-6.2135,"line":1,"i_long":106.899548,"time":3},{"station_id":"BUA","is_transit":false,"time":2,"line":1,"i_long":106.922662,"distance":3100,"station_name":"Buaran","transit":false,"i_lat":-6.215568},{"distance":1305,"station_name":"Klenderbaru","transit":false,"line":1,"is_transit":false,"i_lat":-6.217455,"i_long":106.939679,"time":1,"station_id":"KLDB"},{"i_long":106.951283,"line":1,"time":8,"i_lat":-6.219053,"is_transit":false,"station_id":"CUK","station_name":"Cakung","distance":1385,"transit":false},{"station_name":"Kranji","i_long":106.977657,"distance":3097,"transit":false,"is_transit":false,"line":1,"i_lat":-6.224515,"time":3,"station_id":"KRI"}],[{"station_name":"Tanah Abang","time":0,"i_long":106.811091,"i_lat":-6.185545,"line":1,"distance":0,"station_id":"THB","is_transit":false,"transit":false},{"line":1,"station_id":"DU","i_lat":-6.155215,"is_transit":false,"time":8,"station_name":"Duri","distance":3632,"i_long":106.800832,"transit":false},{"distance":1230,"time":4,"i_lat":-6.144674,"is_transit":false,"transit":false,"station_id":"AK","i_long":106.79867,"line":1,"station_name":"Angke"},{"time":9,"station_id":"KPB","station_name":"Kampung Bandan","line":4,"i_long":106.826365,"i_lat":-6.132549,"transit":true,"distance":4102,"is_transit":true},{"station_name":"Rajawali","i_lat":-6.14505,"i_long":106.836569,"station_id":"RJW","distance":1444,"time":3,"transit":false,"line":11,"is_transit":false},{"i_long":106.839204,"distance":1901,"station_id":"KMO","i_lat":-6.161728,"time":5,"is_transit":false,"transit":false,"line":11,"station_name":"Kemayoran"},{"time":4,"distance":1436,"station_id":"PSE","station_name":"Pasar Senen","i_long":106.84368,"i_lat":-6.174784,"transit":false,"line":11,"is_transit":false},{"transit":false,"line":11,"distance":1567,"i_long":106.850107,"station_id":"GST","i_lat":-6.185975,"time":8,"station_name":"Gang Sentiong","is_transit":false},{"station_id":"KMT","i_lat":-6.193792,"i_long":106.855437,"transit":false,"is_transit":false,"line":11,"time":1,"distance":973,"station_name":"Kramat"},{"station_id":"POK","station_name":"Pondok Jati","distance":1829,"is_transit":false,"time":2,"i_lat":-6.209188,"transit":false,"line":11,"i_long":106.861737},{"i_lat":-6.215091,"distance":1236,"is_transit":true,"transit":true,"i_long":106.86807400000001,"line":1,"station_id":"JNG","station_name":"Jatinegara","time":9},{"is_transit":false,"station_id":"KLD","i_long":106.899548,"transit":false,"distance":3395,"station_name":"Klender","time":3,"line":1,"i_lat":-6.2135},{"station_id":"BUA","line":1,"distance":3100,"transit":false,"i_lat":-6.215568,"is_transit":false,"time":2,"station_name":"Buaran","i_long":106.922662},{"transit":false,"i_lat":-6.217455,"time":1,"line":1,"station_id":"KLDB","distance":1305,"i_long":106.939679,"station_name":"Klenderbaru","is_transit":false},{"time":8,"station_name":"Cakung","distance":1385,"i_long":106.951283,"line":1,"i_lat":-6.219053,"is_transit":false,"station_id":"CUK","transit":false},{"station_name":"Kranji","station_id":"KRI","i_long":106.977657,"time":3,"line":1,"transit":false,"is_transit":false,"distance":3097,"i_lat":-6.224515}],[{"station_name":"Tanah Abang","transit":false,"i_long":106.811091,"time":0,"line":1,"i_lat":-6.185545,"station_id":"THB","distance":0,"is_transit":false},{"distance":3632,"transit":false,"line":1,"is_transit":false,"station_name":"Duri","i_lat":-6.155215,"station_id":"DU","time":8,"i_long":106.800832},{"is_transit":false,"line":1,"station_id":"AK","station_name":"Angke","distance":1230,"time":4,"transit":false,"i_lat":-6.144674,"i_long":106.79867},{"time":9,"transit":true,"is_transit":true,"i_lat":-6.132549,"distance":4102,"station_id":"KPB","i_long":106.826365,"line":4,"station_name":"Kampung Bandan"},{"i_lat":-6.137569,"station_id":"JAKK","distance":1364,"is_transit":true,"station_name":"Jakarta Kota","transit":true,"i_long":106.812439,"time":3,"line":2},{"time":4,"transit":false,"line":2,"station_name":"Jayakarta","distance":1264,"is_transit":false,"i_lat":-6.141205,"station_id":"JAY","i_long":106.820901},{"is_transit":false,"i_long":106.82482,"station_id":"MGB","time":2,"station_name":"Manggabesar","i_lat":-6.149769,"line":2,"distance":1080,"transit":false},{"distance":906,"line":2,"station_id":"SW","station_name":"Sawah Besar","i_lat":-6.160725,"transit":false,"i_long":106.827103,"time":2,"is_transit":false},{"i_lat":-6.166716,"station_name":"Juanda","is_transit":false,"time":2,"i_long":106.828284,"transit":false,"line":2,"station_id":"JUA","distance":1149},{"is_transit":false,"i_lat":-6.186295,"line":2,"time":4,"distance":2015,"station_name":"Gondangdia","transit":false,"i_long":106.832183,"station_id":"GDD"},{"line":2,"station_id":"CKI","is_transit":false,"i_long":106.840169,"i_lat":-6.198556,"distance":1750,"station_name":"Cikini","time":3,"transit":false},{"station_id":"MRI","distance":1590,"line":2,"i_long":106.84912,"i_lat":-6.209883,"is_transit":true,"time":4,"station_name":"Manggarai","transit":true},{"i_lat":-6.212485,"transit":false,"i_long":106.858896,"line":1,"time":2,"station_id":"MTR","distance":1275,"is_transit":false,"station_name":"Matraman"},{"transit":false,"line":1,"distance":1377,"station_id":"JNG","station_name":"Jatinegara","i_lat":-6.215091,"time":8,"is_transit":false,"i_long":106.86807400000001},{"station_name":"Klender","time":3,"i_long":106.899548,"distance":3395,"line":1,"i_lat":-6.2135,"station_id":"KLD","transit":false,"is_transit":false},{"time":2,"station_name":"Buaran","transit":false,"distance":3100,"i_lat":-6.215568,"is_transit":false,"i_long":106.922662,"line":1,"station_id":"BUA"},{"i_long":106.939679,"distance":1305,"line":1,"i_lat":-6.217455,"station_id":"KLDB","time":1,"transit":false,"station_name":"Klenderbaru","is_transit":false},{"i_long":106.951283,"line":1,"transit":false,"distance":1385,"is_transit":false,"i_lat":-6.219053,"time":8,"station_id":"CUK","station_name":"Cakung"},{"i_long":106.977657,"distance":3097,"station_id":"KRI","i_lat":-6.224515,"transit":false,"line":1,"is_transit":false,"time":3,"station_name":"Kranji"}],[{"distance":0,"i_long":106.811091,"i_lat":-6.185545,"station_name":"Tanah Abang","time":0,"transit":false,"is_transit":false,"station_id":"THB","line":1},{"station_name":"Karet","transit":false,"distance":2029,"i_lat":-6.20132,"time":5,"is_transit":false,"i_long":106.816351,"station_id":"KAT","line":1},{"station_id":"SUDB","line":1,"i_lat":-6.201433,"distance":471,"transit":false,"is_transit":false,"station_name":"Sudirman Baru","i_long":106.819881,"time":1},{"station_id":"SUD","is_transit":false,"station_name":"Sudirman","transit":false,"i_lat":-6.202263,"distance":280,"time":1,"line":1,"i_long":106.822649},{"line":2,"i_lat":-6.209883,"i_long":106.84912,"station_id":"MRI","is_transit":true,"distance":3186,"time":4,"transit":true,"station_name":"Manggarai"},{"i_long":106.840169,"time":4,"station_name":"Cikini","is_transit":false,"station_id":"CKI","distance":1590,"line":2,"i_lat":-6.198556,"transit":false},{"distance":1750,"i_long":106.832183,"transit":false,"time":3,"station_id":"GDD","i_lat":-6.186295,"station_name":"Gondangdia","is_transit":false,"line":2},{"line":2,"i_lat":-6.166716,"transit":false,"station_id":"JUA","time":4,"station_name":"Juanda","distance":2015,"is_transit":false,"i_long":106.828284},{"station_id":"SW","transit":false,"time":2,"line":2,"station_name":"Sawah Besar","i_lat":-6.160725,"is_transit":false,"distance":1149,"i_long":106.827103},{"time":2,"distance":906,"transit":false,"station_name":"Manggabesar","line":2,"i_long":106.82482,"station_id":"MGB","i_lat":-6.149769,"is_transit":false},{"distance":1080,"station_id":"JAY","is_transit":false,"transit":false,"i_lat":-6.141205,"time":2,"line":2,"station_name":"Jayakarta","i_long":106.820901},{"i_lat":-6.137569,"is_transit":true,"station_id":"JAKK","i_long":106.812439,"line":2,"time":4,"distance":1264,"transit":true,"station_name":"Jakarta Kota"},{"station_id":"KPB","is_transit":true,"i_lat":-6.132549,"station_name":"Kampung Bandan","transit":true,"time":3,"distance":1364,"line":4,"i_long":106.826365},{"is_transit":false,"time":3,"i_lat":-6.14505,"i_long":106.836569,"station_name":"Rajawali","distance":1444,"line":11,"transit":false,"station_id":"RJW"},{"transit":false,"is_transit":false,"station_id":"KMO","i_long":106.839204,"time":5,"line":11,"station_name":"Kemayoran","i_lat":-6.161728,"distance":1901},{"is_transit":false,"time":4,"distance":1436,"station_name":"Pasar Senen","line":11,"i_long":106.84368,"transit":false,"station_id":"PSE","i_lat":-6.174784},{"transit":false,"i_lat":-6.185975,"station_id":"GST","line":11,"distance":1567,"i_long":106.850107,"station_name":"Gang Sentiong","is_transit":false,"time":8},{"distance":973,"transit":false,"i_lat":-6.193792,"is_transit":false,"line":11,"time":1,"i_long":106.855437,"station_id":"KMT","station_name":"Kramat"},{"station_id":"POK","transit":false,"i_lat":-6.209188,"i_long":106.861737,"is_transit":false,"station_name":"Pondok Jati","distance":1829,"line":11,"time":2},{"station_name":"Jatinegara","i_lat":-6.215091,"transit":true,"line":1,"station_id":"JNG","time":9,"is_transit":true,"i_long":106.86807400000001,"distance":1236},{"time":3,"i_lat":-6.2135,"station_name":"Klender","transit":false,"distance":3395,"station_id":"KLD","i_long":106.899548,"line":1,"is_transit":false},{"i_lat":-6.215568,"i_long":106.922662,"distance":3100,"transit":false,"is_transit":false,"station_name":"Buaran","line":1,"time":2,"station_id":"BUA"},{"i_long":106.939679,"i_lat":-6.217455,"distance":1305,"station_id":"KLDB","line":1,"time":1,"transit":false,"station_name":"Klenderbaru","is_transit":false},{"transit":false,"is_transit":false,"i_lat":-6.219053,"line":1,"station_name":"Cakung","i_long":106.951283,"distance":1385,"station_id":"CUK","time":8},{"is_transit":false,"transit":false,"distance":3097,"station_id":"KRI","station_name":"Kranji","i_long":106.977657,"line":1,"time":3,"i_lat":-6.224515}]]}