{"data":[[{"station_id":"THB","transit":false,"station_name":"Tanah Abang","i_lat":-6.185545,"distance":0,"is_transit":false,"i_long":106.811091,"line":1,"time":0},{"station_name":"Karet","time":5,"line":1,"i_long":106.816351,"is_transit":false,"station_id":"KAT","transit":false,"distance":2029,"i_lat":-6.20132},{"line":1,"time":1,"distance":471,"station_name":"Sudirman Baru","station_id":"SUDB","transit":false,"is_transit":false,"i_lat":-6.201433,"i_long":106.819881},{"is_transit":false,"line":1,"distance":280,"station_id":"SUD","time":1,"i_lat":-6.202263,"station_name":"Sudirman","i_long":106.822649,"transit":false}],[{"station_id":"THB","is_transit":false,"i_long":106.811091,"line":1,"i_lat":-6.185545,"station_name":"Tanah Abang","time":0,"distance":0,"transit":false},{"distance":3632,"station_id":"DU","transit":false,"i_lat":-6.155215,"line":1,"time":8,"i_long":106.800832,"station_name":"Duri","is_transit":false},{"transit":false,"distance":1230,"i_long":106.79867,"is_transit":false,"line":1,"time":4,"station_name":"Angke","station_id":"AK","i_lat":-6.144674},{"i_lat":-6.132549,"is_transit":true,"distance":4102,"station_name":"Kampung Bandan","time":9,"line":4,"station_id":"KPB","transit":true,"i_long":106.826365},{"distance":1364,"station_id":"JAKK","i_lat":-6.137569,"line":2,"transit":true,"i_long":106.812439,"time":3,"is_transit":true,"station_name":"Jakarta Kota"},{"time":4,"station_id":"JAY","distance":1264,"station_name":"Jayakarta","is_transit":false,"transit":false,"i_lat":-6.141205,"i_long":106.820901,"line":2},{"i_long":106.82482,"station_name":"Manggabesar","i_lat":-6.149769,"station_id":"MGB","line":2,"transit":false,"time":2,"distance":1080,"is_transit":false},{"line":2,"transit":false,"distance":906,"station_name":"Sawah Besar","time":2,"station_id":"SW","is_transit":false,"i_lat":-6.160725,"i_long":106.827103},{"distance":1149,"i_lat":-6.166716,"i_long":106.828284,"line":2,"station_name":"Juanda","transit":false,"station_id":"JUA","is_transit":false,"time":2},{"station_name":"Gondangdia","station_id":"GDD","is_transit":false,"distance":2015,"i_long":106.832183,"transit":false,"i_lat":-6.186295,"line":2,"time":4},{"transit":false,"station_id":"CKI","distance":1750,"i_long":106.840169,"i_lat":-6.198556,"line":2,"is_transit":false,"time":3,"station_name":"Cikini"},{"line":2,"i_lat":-6.209883,"station_name":"Manggarai","transit":true,"station_id":"MRI","time":4,"i_long":106.84912,"distance":1590,"is_transit":true},{"i_long":106.822649,"distance":3186,"is_transit":false,"time":4,"transit":false,"i_lat":-6.202263,"station_id":"SUD","line":1,"station_name":"Sudirman"}],[{"station_name":"Tanah Abang","is_transit":false,"station_id":"THB","distance":0,"i_long":106.811091,"line":1,"i_lat":-6.185545,"time":0,"transit":false},{"time":8,"line":1,"i_long":106.800832,"station_name":"Duri","i_lat":-6.155215,"is_transit":false,"distance":3632,"transit":false,"station_id":"DU"},{"time":4,"line":1,"station_id":"AK","transit":false,"station_name":"Angke","distance":1230,"i_long":106.79867,"is_transit":false,"i_lat":-6.144674},{"transit":true,"line":4,"i_lat":-6.132549,"station_name":"Kampung Bandan","time":9,"is_transit":true,"station_id":"KPB","i_long":106.826365,"distance":4102},{"distance":1444,"station_name":"Rajawali","is_transit":false,"time":3,"i_long":106.836569,"line":11,"transit":false,"station_id":"RJW","i_lat":-6.14505},{"station_id":"KMO","is_transit":false,"distance":1901,"i_lat":-6.161728,"i_long":106.839204,"time":5,"station_name":"Kemayoran","line":11,"transit":false},{"i_long":106.84368,"station_id":"PSE","i_lat":-6.174784,"transit":false,"line":11,"station_name":"Pasar Senen","distance":1436,"is_transit":false,"time":4},{"station_id":"GST","distance":1567,"station_name":"Gang Sentiong","i_long":106.850107,"line":11,"time":8,"i_lat":-6.185975,"transit":false,"is_transit":false},{"station_id":"KMT","i_long":106.855437,"distance":973,"line":11,"station_name":"Kramat","is_transit":false,"i_lat":-6.193792,"transit":false,"time":1},{"station_name":"Pondok Jati","i_long":106.861737,"distance":1829,"line":11,"time":2,"is_transit":false,"i_lat":-6.209188,"transit":false,"station_id":"POK"},{"transit":true,"time":9,"is_transit":true,"i_lat":-6.215091,"i_long":106.86807400000001,"station_id":"JNG","distance":1236,"line":1,"station_name":"Jatinegara"},{"is_transit":false,"line":1,"station_name":"Matraman","transit":false,"time":2,"i_long":106.858896,"i_lat":-6.212485,"station_id":"MTR","distance":1377},{"line":2,"i_long":106.84912,"is_transit":false,"station_id":"MRI","transit":false,"distance":1275,"station_name":"Manggarai","time":2,"i_lat":-6.209883},{"i_long":106.822649,"transit":false,"distance":3186,"line":1,"i_lat":-6.202263,"station_name":"Sudirman","is_transit":false,"station_id":"SUD","time":4}]]}