{"data":[[{"transit":false,"line":1,"station_id":"THB","is_transit":false,"i_lat":-6.185545,"station_name":"Tanah Abang","i_long":106.811091,"distance":0,"time":0},{"is_transit":false,"time":6,"station_id":"PLM","distance":3191,"i_long":106.79689,"station_name":"Palmerah","line":6,"i_lat":-6.207404,"transit":false},{"i_long":106.780334,"line":6,"station_id":"KBY","i_lat":-6.237242,"distance":3737,"transit":false,"station_name":"Kebayoran","is_transit":false,"time":7},{"transit":false,"i_lat":-6.276362,"is_transit":false,"time":8,"i_long":106.74273,"line":6,"station_id":"PDJ","distance":6218,"station_name":"Pondokranji"},{"time":3,"station_name":"Jurangmangu","transit":false,"is_transit":false,"i_long":106.728916,"distance":2179,"i_lat":-6.288927,"station_id":"JMU","line":6},{"station_id":"SDM","i_lat":-6.296963,"time":4,"is_transit":false,"transit":false,"distance":1994,"i_long":106.712277,"line":6,"station_name":"Sudimara"},{"transit":false,"distance":4566,"time":6,"i_long":106.675475,"is_transit":false,"line":6,"station_name":"Rawa Buntu","station_id":"RU","i_lat":-6.314823},{"time":4,"i_long":106.66566,"line":6,"transit":false,"station_name":"Serpong","station_id":"SRP","is_transit":false,"distance":2413,"i_lat":-6.319871},{"is_transit":false,"distance":1784,"station_name":"Cisauk","line":3,"time":4,"station_id":"CSK","transit":false,"i_lat":-6.32484,"i_long":106.640411},{"station_id":"CC","i_lat":-6.329547,"transit":false,"is_transit":false,"i_long":106.617853,"time":4,"station_name":"Cicayur","distance":2519,"line":3},{"distance":5968,"time":8,"transit":false,"station_name":"Parung Panjang","station_id":"PRP","is_transit":false,"i_lat":-6.3441410000000005,"line":6,"i_long":106.568863},{"distance":7025,"station_id":"CJT","time":9,"station_name":"Cilejit","transit":false,"is_transit":false,"i_long":106.508482,"i_lat":-6.354349,"line":3},{"station_name":"Daru","i_lat":-6.338021,"station_id":"DAR","transit":false,"is_transit":false,"time":6,"distance":2675,"line":0,"i_long":106.491338},{"i_lat":-6.327251,"i_long":106.460812,"line":6,"distance":3902,"station_id":"TEJ","station_name":"Tenjo","time":5,"is_transit":false,"transit":false},{"transit":false,"station_id":"TGS","distance":2974,"i_long":106.425991,"time":5,"station_name":"Tigaraksa","is_transit":false,"i_lat":-6.328533,"line":6},{"i_long":106.411216,"station_name":"Cikoya","i_lat":-6.33561,"line":3,"distance":2651,"station_id":"CKY","transit":false,"is_transit":false,"time":3}]]}