{"data":[[{"transit":false,"i_lat":-6.185545,"time":0,"station_name":"Tanah Abang","i_long":106.811091,"line":1,"station_id":"THB","is_transit":false,"distance":0},{"distance":2029,"i_lat":-6.20132,"i_long":106.816351,"transit":false,"station_name":"Karet","station_id":"KAT","time":5,"line":1,"is_transit":false},{"is_transit":false,"distance":471,"i_long":106.819881,"transit":false,"station_name":"Sudirman Baru","i_lat":-6.201433,"time":1,"station_id":"SUDB","line":1},{"station_name":"Sudirman","distance":280,"line":1,"time":1,"is_transit":false,"i_lat":-6.202263,"station_id":"SUD","i_long":106.822649,"transit":false},{"is_transit":false,"time":4,"station_id":"MRI","i_long":106.84912,"line":2,"i_lat":-6.209883,"distance":3186,"transit":false,"station_name":"Manggarai"},{"i_lat":-6.212485,"i_long":106.858896,"transit":false,"line":1,"station_id":"MTR","distance":1275,"station_name":"Matraman","is_transit":false,"time":2},{"time":8,"station_name":"Jatinegara","distance":1377,"i_long":106.86807400000001,"is_transit":false,"i_lat":-6.215091,"line":1,"transit":false,"station_id":"JNG"}],[{"station_id":"THB","time":0,"distance":0,"i_lat":-6.185545,"i_long":106.811091,"line":1,"is_transit":false,"transit":false,"station_name":"Tanah Abang"},{"i_lat":-6.155215,"station_id":"DU","time":8,"distance":3632,"i_long":106.800832,"transit":false,"station_name":"Duri","line":1,"is_transit":false},{"i_long":106.79867,"station_id":"AK","distance":1230,"i_lat":-6.144674,"is_transit":false,"transit":false,"station_name":"Angke","time":4,"line":1},{"distance":4102,"i_long":106.826365,"station_id":"KPB","transit":true,"time":9,"i_lat":-6.132549,"is_transit":true,"station_name":"Kampung Bandan","line":4},{"time":3,"is_transit":false,"station_name":"Rajawali","line":11,"distance":1444,"transit":false,"i_lat":-6.14505,"station_id":"RJW","i_long":106.836569},{"i_lat":-6.161728,"i_long":106.839204,"station_id":"KMO","line":11,"transit":false,"is_transit":false,"station_name":"Kemayoran","distance":1901,"time":5},{"station_name":"Pasar Senen","i_lat":-6.174784,"line":11,"is_transit":false,"transit":false,"time":4,"station_id":"PSE","i_long":106.84368,"distance":1436},{"is_transit":false,"i_lat":-6.185975,"time":8,"distance":1567,"i_long":106.850107,"transit":false,"station_name":"Gang Sentiong","station_id":"GST","line":11},{"is_transit":false,"time":1,"i_long":106.855437,"transit":false,"station_name":"Kramat","i_lat":-6.193792,"distance":973,"line":11,"station_id":"KMT"},{"time":2,"i_long":106.861737,"i_lat":-6.209188,"line":11,"transit":false,"station_name":"Pondok Jati","station_id":"POK","is_transit":false,"distance":1829},{"is_transit":false,"i_long":106.86807400000001,"distance":1236,"i_lat":-6.215091,"time":9,"line":1,"transit":false,"station_name":"Jatinegara","station_id":"JNG"}],[{"station_id":"THB","i_long":106.811091,"transit":false,"station_name":"Tanah Abang","line":1,"is_transit":false,"time":0,"i_lat":-6.185545,"distance":0},{"i_lat":-6.155215,"line":1,"station_name":"Duri","transit":false,"station_id":"DU","i_long":106.800832,"time":8,"is_transit":false,"distance":3632},{"transit":false,"station_id":"AK","is_transit":false,"i_lat":-6.144674,"time":4,"distance":1230,"i_long":106.79867,"line":1,"station_name":"Angke"},{"station_id":"KPB","distance":4102,"time":9,"station_name":"Kampung Bandan","transit":true,"i_lat":-6.132549,"i_long":106.826365,"line":4,"is_transit":true},{"i_long":106.812439,"station_name":"Jakarta Kota","transit":true,"is_transit":true,"time":3,"i_lat":-6.137569,"line":2,"distance":1364,"station_id":"JAKK"},{"station_id":"JAY","distance":1264,"line":2,"i_long":106.820901,"station_name":"Jayakarta","is_transit":false,"time":4,"transit":false,"i_lat":-6.141205},{"is_transit":false,"station_name":"Manggabesar","transit":false,"i_long":106.82482,"distance":1080,"i_lat":-6.149769,"line":2,"station_id":"MGB","time":2},{"station_name":"Sawah Besar","distance":906,"is_transit":false,"transit":false,"time":2,"line":2,"i_long":106.827103,"i_lat":-6.160725,"station_id":"SW"},{"transit":false,"line":2,"distance":1149,"is_transit":false,"i_long":106.828284,"i_lat":-6.166716,"station_name":"Juanda","station_id":"JUA","time":2},{"distance":2015,"station_id":"GDD","time":4,"i_lat":-6.186295,"i_long":106.832183,"station_name":"Gondangdia","line":2,"is_transit":false,"transit":false},{"transit":false,"i_long":106.840169,"line":2,"distance":1750,"station_id":"CKI","is_transit":false,"i_lat":-6.198556,"time":3,"station_name":"Cikini"},{"station_id":"MRI","i_lat":-6.209883,"station_name":"Manggarai","is_transit":true,"time":4,"distance":1590,"line":2,"i_long":106.84912,"transit":true},{"station_name":"Matraman","distance":1275,"is_transit":false,"station_id":"MTR","transit":false,"i_long":106.858896,"line":1,"time":2,"i_lat":-6.212485},{"i_lat":-6.215091,"station_name":"Jatinegara","is_transit":false,"distance":1377,"line":1,"i_long":106.86807400000001,"transit":false,"time":8,"station_id":"JNG"}],[{"i_lat":-6.185545,"transit":false,"i_long":106.811091,"station_name":"Tanah Abang","is_transit":false,"time":0,"line":1,"station_id":"THB","distance":0},{"distance":2029,"i_lat":-6.20132,"time":5,"line":1,"i_long":106.816351,"station_id":"KAT","transit":false,"station_name":"Karet","is_transit":false},{"is_transit":false,"line":1,"time":1,"distance":471,"i_lat":-6.201433,"transit":false,"station_name":"Sudirman Baru","i_long":106.819881,"station_id":"SUDB"},{"station_id":"SUD","line":1,"i_lat":-6.202263,"i_long":106.822649,"distance":280,"transit":false,"is_transit":false,"station_name":"Sudirman","time":1},{"i_long":106.84912,"station_name":"Manggarai","transit":true,"distance":3186,"line":2,"time":4,"station_id":"MRI","is_transit":true,"i_lat":-6.209883},{"station_id":"CKI","distance":1590,"station_name":"Cikini","time":4,"transit":false,"i_long":106.840169,"i_lat":-6.198556,"is_transit":false,"line":2},{"is_transit":false,"distance":1750,"i_lat":-6.186295,"line":2,"station_id":"GDD","station_name":"Gondangdia","time":3,"i_long":106.832183,"transit":false},{"distance":2015,"station_id":"JUA","is_transit":false,"transit":false,"station_name":"Juanda","time":4,"i_lat":-6.166716,"i_long":106.828284,"line":2},{"i_long":106.827103,"is_transit":false,"distance":1149,"transit":false,"station_name":"Sawah Besar","time":2,"i_lat":-6.160725,"line":2,"station_id":"SW"},{"station_name":"Manggabesar","i_long":106.82482,"is_transit":false,"transit":false,"time":2,"distance":906,"station_id":"MGB","i_lat":-6.149769,"line":2},{"i_long":106.820901,"distance":1080,"is_transit":false,"line":2,"station_id":"JAY","transit":false,"time":2,"station_name":"Jayakarta","i_lat":-6.141205},{"transit":true,"station_id":"JAKK","time":4,"station_name":"Jakarta Kota","i_long":106.812439,"is_transit":true,"line":2,"distance":1264,"i_lat":-6.137569},{"is_transit":true,"transit":true,"distance":1364,"time":3,"i_lat":-6.132549,"line":4,"station_id":"KPB","i_long":106.826365,"station_name":"Kampung Bandan"},{"station_id":"RJW","is_transit":false,"line":11,"i_long":106.836569,"transit":false,"i_lat":-6.14505,"time":3,"distance":1444,"station_name":"Rajawali"},{"transit":false,"distance":1901,"i_long":106.839204,"is_transit":false,"station_id":"KMO","i_lat":-6.161728,"line":11,"time":5,"station_name":"Kemayoran"},{"i_long":106.84368,"is_transit":false,"distance":1436,"line":11,"transit":false,"station_name":"Pasar Senen","station_id":"PSE","i_lat":-6.174784,"time":4},{"distance":1567,"i_long":106.850107,"transit":false,"station_name":"Gang Sentiong","is_transit":false,"time":8,"i_lat":-6.185975,"station_id":"GST","line":11},{"time":1,"distance":973,"i_long":106.855437,"transit":false,"line":11,"i_lat":-6.193792,"station_name":"Kramat","is_transit":false,"station_id":"KMT"},{"i_lat":-6.209188,"time":2,"station_name":"Pondok Jati","is_transit":false,"distance":1829,"i_long":106.861737,"station_id":"POK","line":11,"transit":false},{"i_lat":-6.215091,"i_long":106.86807400000001,"station_id":"JNG","distance":1236,"transit":false,"line":1,"is_transit":false,"station_name":"Jatinegara","time":9}]]}