{"data":[[{"time":0,"i_long":106.811091,"transit":false,"i_lat":-6.185545,"is_transit":false,"station_name":"Tanah Abang","station_id":"THB","line":1,"distance":0},{"station_id":"DU","station_name":"Duri","i_long":106.800832,"time":8,"line":1,"transit":true,"i_lat":-6.155215,"distance":3632,"is_transit":true},{"transit":false,"is_transit":false,"time":3,"i_lat":-6.162021,"distance":1700,"i_long":106.788277,"line":5,"station_id":"GGL","station_name":"Grogol"},{"distance":2036,"is_transit":false,"i_long":106.771379,"transit":false,"station_id":"PSG","i_lat":-6.161433,"time":2,"line":5,"station_name":"Pesing"},{"transit":false,"distance":1614,"i_lat":-6.1587309999999995,"i_long":106.756522,"station_name":"Taman Kota","time":2,"is_transit":false,"station_id":"TKO","line":5},{"transit":false,"station_name":"Bojongindah","i_long":106.737035,"time":2,"is_transit":false,"station_id":"BOI","i_lat":-6.159876,"line":5,"distance":2334},{"i_long":106.723064,"line":5,"is_transit":false,"i_lat":-6.162758,"station_id":"RW","time":4,"transit":false,"distance":1152,"station_name":"Rawa Buaya"},{"i_long":106.701612,"station_id":"KDS","distance":2504,"i_lat":-6.166068,"transit":false,"is_transit":false,"time":3,"line":5,"station_name":"Kalideres"},{"station_id":"PI","line":5,"i_lat":-6.169933,"distance":2548,"i_long":106.679458,"time":3,"transit":false,"is_transit":false,"station_name":"Poris"}],[{"is_transit":false,"time":0,"i_lat":-6.185545,"station_id":"THB","i_long":106.811091,"transit":false,"station_name":"Tanah Abang","distance":0,"line":1},{"transit":false,"time":5,"station_id":"KAT","station_name":"Karet","i_lat":-6.20132,"distance":2029,"line":1,"is_transit":false,"i_long":106.816351},{"distance":471,"time":1,"i_lat":-6.201433,"line":1,"is_transit":false,"i_long":106.819881,"transit":false,"station_name":"Sudirman Baru","station_id":"SUDB"},{"transit":false,"distance":280,"line":1,"i_long":106.822649,"time":1,"station_id":"SUD","i_lat":-6.202263,"is_transit":false,"station_name":"Sudirman"},{"i_lat":-6.209883,"station_id":"MRI","i_long":106.84912,"line":2,"time":4,"station_name":"Manggarai","transit":true,"is_transit":true,"distance":3186},{"i_long":106.840169,"station_id":"CKI","transit":false,"time":4,"i_lat":-6.198556,"station_name":"Cikini","distance":1590,"is_transit":false,"line":2},{"i_lat":-6.186295,"i_long":106.832183,"line":2,"transit":false,"time":3,"station_id":"GDD","distance":1750,"is_transit":false,"station_name":"Gondangdia"},{"is_transit":false,"transit":false,"i_lat":-6.166716,"distance":2015,"time":4,"i_long":106.828284,"station_name":"Juanda","line":2,"station_id":"JUA"},{"station_id":"SW","distance":1149,"is_transit":false,"transit":false,"i_lat":-6.160725,"i_long":106.827103,"line":2,"time":2,"station_name":"Sawah Besar"},{"transit":false,"i_lat":-6.149769,"distance":906,"is_transit":false,"time":2,"i_long":106.82482,"line":2,"station_id":"MGB","station_name":"Manggabesar"},{"line":2,"is_transit":false,"station_id":"JAY","transit":false,"i_lat":-6.141205,"distance":1080,"i_long":106.820901,"time":2,"station_name":"Jayakarta"},{"is_transit":true,"transit":true,"distance":1264,"station_id":"JAKK","i_lat":-6.137569,"station_name":"Jakarta Kota","i_long":106.812439,"time":4,"line":2},{"i_long":106.826365,"distance":1364,"transit":true,"is_transit":true,"station_name":"Kampung Bandan","station_id":"KPB","line":4,"i_lat":-6.132549,"time":3},{"transit":false,"distance":4102,"station_name":"Angke","station_id":"AK","is_transit":false,"time":9,"i_lat":-6.144674,"i_long":106.79867,"line":1},{"station_id":"DU","transit":true,"distance":1230,"is_transit":true,"station_name":"Duri","i_lat":-6.155215,"i_long":106.800832,"line":1,"time":4},{"distance":1700,"i_long":106.788277,"line":5,"station_id":"GGL","is_transit":false,"i_lat":-6.162021,"station_name":"Grogol","time":3,"transit":false},{"i_long":106.771379,"distance":2036,"line":5,"time":2,"i_lat":-6.161433,"station_id":"PSG","is_transit":false,"transit":false,"station_name":"Pesing"},{"station_id":"TKO","is_transit":false,"station_name":"Taman Kota","distance":1614,"line":5,"time":2,"i_lat":-6.1587309999999995,"i_long":106.756522,"transit":false},{"i_long":106.737035,"station_id":"BOI","station_name":"Bojongindah","is_transit":false,"time":2,"transit":false,"distance":2334,"i_lat":-6.159876,"line":5},{"distance":1152,"transit":false,"i_lat":-6.162758,"station_name":"Rawa Buaya","station_id":"RW","i_long":106.723064,"time":4,"line":5,"is_transit":false},{"line":5,"station_name":"Kalideres","time":3,"station_id":"KDS","i_lat":-6.166068,"i_long":106.701612,"distance":2504,"transit":false,"is_transit":false},{"distance":2548,"i_long":106.679458,"is_transit":false,"time":3,"transit":false,"station_id":"PI","i_lat":-6.169933,"station_name":"Poris","line":5}],[{"i_lat":-6.185545,"station_id":"THB","distance":0,"station_name":"Tanah Abang","i_long":106.811091,"is_transit":false,"transit":false,"time":0,"line":1},{"is_transit":false,"i_long":106.816351,"station_id":"KAT","station_name":"Karet","transit":false,"distance":2029,"i_lat":-6.20132,"time":5,"line":1},{"is_transit":false,"i_lat":-6.201433,"line":1,"time":1,"station_id":"SUDB","transit":false,"i_long":106.819881,"station_name":"Sudirman Baru","distance":471},{"station_id":"SUD","station_name":"Sudirman","is_transit":false,"distance":280,"line":1,"transit":false,"i_long":106.822649,"i_lat":-6.202263,"time":1},{"is_transit":false,"line":2,"transit":false,"station_name":"Manggarai","station_id":"MRI","time":4,"distance":3186,"i_long":106.84912,"i_lat":-6.209883},{"is_transit":false,"line":1,"transit":false,"time":2,"distance":1275,"i_lat":-6.212485,"station_name":"Matraman","station_id":"MTR","i_long":106.858896},{"station_name":"Jatinegara","time":8,"transit":true,"i_long":106.86807400000001,"line":1,"distance":1377,"station_id":"JNG","is_transit":true,"i_lat":-6.215091},{"transit":false,"i_long":106.861737,"line":11,"station_id":"POK","station_name":"Pondok Jati","distance":1236,"i_lat":-6.209188,"time":2,"is_transit":false},{"i_lat":-6.193792,"station_id":"KMT","line":11,"is_transit":false,"transit":false,"distance":1829,"station_name":"Kramat","time":2,"i_long":106.855437},{"time":1,"is_transit":false,"distance":973,"line":11,"i_lat":-6.185975,"transit":false,"station_name":"Gang Sentiong","i_long":106.850107,"station_id":"GST"},{"line":11,"i_lat":-6.174784,"station_name":"Pasar Senen","transit":false,"is_transit":false,"time":8,"station_id":"PSE","i_long":106.84368,"distance":1567},{"distance":1436,"station_id":"KMO","i_long":106.839204,"i_lat":-6.161728,"time":4,"line":11,"station_name":"Kemayoran","transit":false,"is_transit":false},{"i_lat":-6.14505,"i_long":106.836569,"is_transit":false,"transit":false,"distance":1901,"station_name":"Rajawali","station_id":"RJW","line":11,"time":5},{"transit":true,"distance":1444,"is_transit":true,"time":3,"i_long":106.826365,"line":4,"station_id":"KPB","station_name":"Kampung Bandan","i_lat":-6.132549},{"is_transit":false,"transit":false,"time":9,"i_lat":-6.144674,"i_long":106.79867,"station_name":"Angke","station_id":"AK","line":1,"distance":4102},{"i_lat":-6.155215,"distance":1230,"i_long":106.800832,"station_name":"Duri","transit":true,"time":4,"station_id":"DU","line":1,"is_transit":true},{"i_lat":-6.162021,"station_name":"Grogol","is_transit":false,"time":3,"i_long":106.788277,"distance":1700,"transit":false,"station_id":"GGL","line":5},{"time":2,"transit":false,"distance":2036,"line":5,"station_id":"PSG","i_lat":-6.161433,"station_name":"Pesing","is_transit":false,"i_long":106.771379},{"station_name":"Taman Kota","distance":1614,"i_long":106.756522,"transit":false,"i_lat":-6.1587309999999995,"line":5,"station_id":"TKO","is_transit":false,"time":2},{"station_name":"Bojongindah","line":5,"distance":2334,"station_id":"BOI","transit":false,"is_transit":false,"time":2,"i_lat":-6.159876,"i_long":106.737035},{"is_transit":false,"station_id":"RW","station_name":"Rawa Buaya","transit":false,"distance":1152,"line":5,"time":4,"i_lat":-6.162758,"i_long":106.723064},{"i_long":106.701612,"time":3,"station_id":"KDS","is_transit":false,"distance":2504,"i_lat":-6.166068,"transit":false,"line":5,"station_name":"Kalideres"},{"i_long":106.679458,"time":3,"is_transit":false,"i_lat":-6.169933,"station_name":"Poris","line":5,"transit":false,"distance":2548,"station_id":"PI"}]]}