{"data":[[{"line":1,"is_transit":false,"i_long":106.811091,"time":0,"station_id":"THB","transit":false,"station_name":"Tanah Abang","distance":0,"i_lat":-6.185545},{"station_id":"DU","is_transit":true,"time":8,"i_long":106.800832,"station_name":"Duri","distance":3632,"i_lat":-6.155215,"line":1,"transit":true},{"transit":false,"station_id":"GGL","i_long":106.788277,"line":5,"i_lat":-6.162021,"time":3,"is_transit":false,"station_name":"Grogol","distance":1700}],[{"time":0,"i_long":106.811091,"distance":0,"station_id":"THB","line":1,"is_transit":false,"station_name":"Tanah Abang","transit":false,"i_lat":-6.185545},{"is_transit":false,"time":5,"distance":2029,"station_id":"KAT","line":1,"i_lat":-6.20132,"transit":false,"station_name":"Karet","i_long":106.816351},{"distance":471,"station_name":"Sudirman Baru","transit":false,"i_long":106.819881,"station_id":"SUDB","line":1,"is_transit":false,"time":1,"i_lat":-6.201433},{"i_lat":-6.202263,"transit":false,"station_id":"SUD","is_transit":false,"line":1,"distance":280,"time":1,"station_name":"Sudirman","i_long":106.822649},{"station_name":"Manggarai","station_id":"MRI","distance":3186,"i_lat":-6.209883,"is_transit":true,"transit":true,"i_long":106.84912,"time":4,"line":2},{"transit":false,"station_id":"CKI","time":4,"i_lat":-6.198556,"i_long":106.840169,"is_transit":false,"distance":1590,"line":2,"station_name":"Cikini"},{"transit":false,"station_id":"GDD","distance":1750,"is_transit":false,"station_name":"Gondangdia","line":2,"i_long":106.832183,"time":3,"i_lat":-6.186295},{"station_id":"JUA","is_transit":false,"i_long":106.828284,"station_name":"Juanda","distance":2015,"transit":false,"line":2,"i_lat":-6.166716,"time":4},{"station_id":"SW","station_name":"Sawah Besar","time":2,"i_long":106.827103,"is_transit":false,"line":2,"distance":1149,"i_lat":-6.160725,"transit":false},{"station_name":"Manggabesar","station_id":"MGB","line":2,"i_lat":-6.149769,"transit":false,"i_long":106.82482,"is_transit":false,"distance":906,"time":2},{"station_name":"Jayakarta","i_long":106.820901,"line":2,"is_transit":false,"i_lat":-6.141205,"station_id":"JAY","transit":false,"time":2,"distance":1080},{"distance":1264,"station_name":"Jakarta Kota","station_id":"JAKK","is_transit":true,"time":4,"line":2,"i_lat":-6.137569,"i_long":106.812439,"transit":true},{"is_transit":true,"i_lat":-6.132549,"distance":1364,"transit":true,"i_long":106.826365,"line":4,"time":3,"station_id":"KPB","station_name":"Kampung Bandan"},{"time":9,"transit":false,"station_name":"Angke","i_lat":-6.144674,"line":1,"is_transit":false,"distance":4102,"station_id":"AK","i_long":106.79867},{"i_lat":-6.155215,"transit":true,"is_transit":true,"distance":1230,"i_long":106.800832,"station_name":"Duri","station_id":"DU","time":4,"line":1},{"i_lat":-6.162021,"station_name":"Grogol","station_id":"GGL","time":3,"is_transit":false,"line":5,"distance":1700,"i_long":106.788277,"transit":false}],[{"line":1,"station_id":"THB","station_name":"Tanah Abang","time":0,"i_long":106.811091,"transit":false,"is_transit":false,"distance":0,"i_lat":-6.185545},{"transit":false,"station_name":"Karet","i_lat":-6.20132,"line":1,"is_transit":false,"time":5,"i_long":106.816351,"distance":2029,"station_id":"KAT"},{"i_long":106.819881,"station_name":"Sudirman Baru","is_transit":false,"i_lat":-6.201433,"station_id":"SUDB","distance":471,"line":1,"transit":false,"time":1},{"station_name":"Sudirman","is_transit":false,"distance":280,"i_long":106.822649,"station_id":"SUD","line":1,"i_lat":-6.202263,"time":1,"transit":false},{"station_id":"MRI","transit":false,"time":4,"distance":3186,"line":2,"station_name":"Manggarai","is_transit":false,"i_lat":-6.209883,"i_long":106.84912},{"i_lat":-6.212485,"transit":false,"is_transit":false,"line":1,"distance":1275,"i_long":106.858896,"station_id":"MTR","time":2,"station_name":"Matraman"},{"is_transit":true,"time":8,"transit":true,"station_id":"JNG","i_lat":-6.215091,"i_long":106.86807400000001,"distance":1377,"line":1,"station_name":"Jatinegara"},{"i_lat":-6.209188,"time":2,"i_long":106.861737,"station_id":"POK","is_transit":false,"distance":1236,"station_name":"Pondok Jati","transit":false,"line":11},{"station_name":"Kramat","is_transit":false,"transit":false,"station_id":"KMT","distance":1829,"i_long":106.855437,"i_lat":-6.193792,"line":11,"time":2},{"transit":false,"distance":973,"station_id":"GST","station_name":"Gang Sentiong","time":1,"is_transit":false,"i_lat":-6.185975,"line":11,"i_long":106.850107},{"station_id":"PSE","i_lat":-6.174784,"distance":1567,"time":8,"is_transit":false,"i_long":106.84368,"station_name":"Pasar Senen","line":11,"transit":false},{"station_id":"KMO","i_long":106.839204,"time":4,"distance":1436,"i_lat":-6.161728,"line":11,"transit":false,"station_name":"Kemayoran","is_transit":false},{"i_long":106.836569,"transit":false,"is_transit":false,"line":11,"station_name":"Rajawali","time":5,"station_id":"RJW","i_lat":-6.14505,"distance":1901},{"is_transit":true,"distance":1444,"transit":true,"i_lat":-6.132549,"time":3,"line":4,"i_long":106.826365,"station_id":"KPB","station_name":"Kampung Bandan"},{"i_long":106.79867,"is_transit":false,"station_name":"Angke","line":1,"distance":4102,"transit":false,"station_id":"AK","time":9,"i_lat":-6.144674},{"i_lat":-6.155215,"i_long":106.800832,"distance":1230,"station_name":"Duri","time":4,"station_id":"DU","is_transit":true,"transit":true,"line":1},{"station_id":"GGL","station_name":"Grogol","i_long":106.788277,"transit":false,"line":5,"is_transit":false,"distance":1700,"i_lat":-6.162021,"time":3}]]}