{"data":[[{"distance":0,"transit":false,"i_lat":-6.185545,"station_id":"THB","line":1,"station_name":"Tanah Abang","is_transit":false,"i_long":106.811091,"time":0},{"line":1,"time":8,"i_lat":-6.155215,"transit":false,"i_long":106.800832,"distance":3632,"station_id":"DU","station_name":"Duri","is_transit":false},{"line":1,"is_transit":false,"distance":1230,"station_id":"AK","station_name":"Angke","i_lat":-6.144674,"i_long":106.79867,"transit":false,"time":4},{"i_long":106.826365,"is_transit":false,"distance":4102,"station_id":"KPB","transit":false,"station_name":"Kampung Bandan","line":4,"i_lat":-6.132549,"time":9}],[{"distance":0,"station_id":"THB","i_long":106.811091,"station_name":"Tanah Abang","i_lat":-6.185545,"line":1,"time":0,"is_transit":false,"transit":false},{"station_name":"Karet","i_lat":-6.20132,"is_transit":false,"distance":2029,"transit":false,"i_long":106.816351,"line":1,"time":5,"station_id":"KAT"},{"i_long":106.819881,"line":1,"is_transit":false,"time":1,"distance":471,"station_id":"SUDB","station_name":"Sudirman Baru","transit":false,"i_lat":-6.201433},{"distance":280,"transit":false,"i_lat":-6.202263,"i_long":106.822649,"line":1,"time":1,"station_id":"SUD","is_transit":false,"station_name":"Sudirman"},{"station_id":"MRI","is_transit":true,"station_name":"Manggarai","i_lat":-6.209883,"distance":3186,"line":2,"transit":true,"i_long":106.84912,"time":4},{"distance":1590,"line":2,"time":4,"is_transit":false,"station_id":"CKI","station_name":"Cikini","i_lat":-6.198556,"transit":false,"i_long":106.840169},{"distance":1750,"station_name":"Gondangdia","i_long":106.832183,"transit":false,"time":3,"station_id":"GDD","is_transit":false,"line":2,"i_lat":-6.186295},{"line":2,"distance":2015,"station_name":"Juanda","transit":false,"time":4,"station_id":"JUA","is_transit":false,"i_lat":-6.166716,"i_long":106.828284},{"i_long":106.827103,"time":2,"i_lat":-6.160725,"station_name":"Sawah Besar","line":2,"is_transit":false,"station_id":"SW","transit":false,"distance":1149},{"transit":false,"i_lat":-6.149769,"i_long":106.82482,"station_id":"MGB","distance":906,"station_name":"Manggabesar","line":2,"time":2,"is_transit":false},{"i_long":106.820901,"station_id":"JAY","line":2,"i_lat":-6.141205,"time":2,"transit":false,"distance":1080,"station_name":"Jayakarta","is_transit":false},{"i_long":106.812439,"time":4,"transit":true,"station_name":"Jakarta Kota","i_lat":-6.137569,"distance":1264,"line":2,"station_id":"JAKK","is_transit":true},{"distance":1364,"time":3,"transit":false,"is_transit":false,"station_id":"KPB","i_lat":-6.132549,"i_long":106.826365,"line":4,"station_name":"Kampung Bandan"}],[{"station_id":"THB","transit":false,"station_name":"Tanah Abang","distance":0,"time":0,"i_long":106.811091,"i_lat":-6.185545,"is_transit":false,"line":1},{"distance":2029,"time":5,"station_id":"KAT","station_name":"Karet","is_transit":false,"i_lat":-6.20132,"line":1,"i_long":106.816351,"transit":false},{"transit":false,"station_id":"SUDB","is_transit":false,"i_lat":-6.201433,"time":1,"distance":471,"station_name":"Sudirman Baru","line":1,"i_long":106.819881},{"station_id":"SUD","line":1,"is_transit":false,"distance":280,"station_name":"Sudirman","i_lat":-6.202263,"transit":false,"i_long":106.822649,"time":1},{"station_id":"MRI","distance":3186,"is_transit":false,"transit":false,"i_lat":-6.209883,"station_name":"Manggarai","line":2,"i_long":106.84912,"time":4},{"station_name":"Matraman","is_transit":false,"distance":1275,"i_lat":-6.212485,"i_long":106.858896,"station_id":"MTR","transit":false,"time":2,"line":1},{"station_id":"JNG","distance":1377,"time":8,"transit":true,"i_long":106.86807400000001,"is_transit":true,"station_name":"Jatinegara","line":1,"i_lat":-6.215091},{"station_name":"Pondok Jati","i_long":106.861737,"i_lat":-6.209188,"is_transit":false,"distance":1236,"transit":false,"line":11,"time":2,"station_id":"POK"},{"i_lat":-6.193792,"station_name":"Kramat","line":11,"time":2,"i_long":106.855437,"distance":1829,"station_id":"KMT","transit":false,"is_transit":false},{"transit":false,"i_lat":-6.185975,"i_long":106.850107,"line":11,"station_id":"GST","distance":973,"is_transit":false,"time":1,"station_name":"Gang Sentiong"},{"i_lat":-6.174784,"i_long":106.84368,"station_id":"PSE","distance":1567,"time":8,"is_transit":false,"transit":false,"station_name":"Pasar Senen","line":11},{"i_long":106.839204,"distance":1436,"line":11,"station_id":"KMO","is_transit":false,"station_name":"Kemayoran","i_lat":-6.161728,"transit":false,"time":4},{"station_id":"RJW","time":5,"i_long":106.836569,"line":11,"transit":false,"distance":1901,"station_name":"Rajawali","i_lat":-6.14505,"is_transit":false},{"time":3,"line":4,"transit":false,"distance":1444,"station_id":"KPB","i_lat":-6.132549,"station_name":"Kampung Bandan","is_transit":false,"i_long":106.826365}]]}