{"data":[[{"is_transit":false,"station_id":"THB","line":1,"i_long":106.811091,"transit":false,"station_name":"Tanah Abang","distance":0,"i_lat":-6.185545,"time":0},{"time":5,"station_id":"KAT","is_transit":false,"i_long":106.816351,"distance":2029,"transit":false,"i_lat":-6.20132,"station_name":"Karet","line":1},{"is_transit":false,"transit":false,"line":1,"i_long":106.819881,"i_lat":-6.201433,"distance":471,"station_id":"SUDB","time":1,"station_name":"Sudirman Baru"},{"i_lat":-6.202263,"is_transit":false,"distance":280,"station_name":"Sudirman","line":1,"i_long":106.822649,"transit":false,"station_id":"SUD","time":1},{"station_name":"Manggarai","i_long":106.84912,"transit":true,"station_id":"MRI","line":2,"distance":3186,"time":4,"is_transit":true,"i_lat":-6.209883},{"transit":false,"i_lat":-6.226659,"time":4,"station_name":"Tebet","i_long":106.857948,"line":2,"is_transit":false,"distance":2610,"station_id":"TEB"},{"station_id":"CW","time":2,"station_name":"Cawang","transit":false,"i_long":106.856607,"i_lat":-6.242512,"is_transit":false,"line":2,"distance":1230},{"time":3,"i_long":106.85449,"station_name":"Duren Kalibata","is_transit":false,"distance":1546,"station_id":"DRN","transit":false,"i_lat":-6.255332,"line":2},{"time":2,"line":2,"station_id":"PSMB","transit":false,"i_long":106.851577,"station_name":"Pasar Minggu Baru","distance":824,"is_transit":false,"i_lat":-6.263214},{"station_name":"Pasar Minggu","distance":2380,"is_transit":false,"i_lat":-6.2842400000000005,"station_id":"PSM","time":2,"transit":false,"i_long":106.843999,"line":2},{"station_id":"TNT","station_name":"Tanjung Barat","i_lat":-6.3080680000000005,"transit":false,"distance":2820,"time":4,"line":2,"is_transit":false,"i_long":106.838896},{"time":3,"is_transit":false,"distance":2671,"i_lat":-6.330363,"station_id":"LNA","station_name":"Lenteng Agung","i_long":106.832616,"line":2,"transit":false},{"line":2,"transit":false,"i_long":106.834175,"i_lat":-6.339291,"time":2,"distance":1029,"station_id":"UP","is_transit":false,"station_name":"Univ. Pancasila"},{"station_name":"Univ. Indonesia","time":3,"i_long":106.831474,"is_transit":false,"distance":2264,"line":2,"station_id":"UI","transit":false,"i_lat":-6.360749},{"i_lat":-6.369073,"is_transit":false,"station_id":"POC","line":2,"time":2,"i_long":106.831114,"station_name":"Pondok Cina","transit":false,"distance":1109},{"transit":false,"distance":2727,"i_long":106.819451,"time":4,"is_transit":false,"station_name":"Depokbaru","i_lat":-6.391065,"station_id":"DPB","line":2}],[{"station_name":"Tanah Abang","is_transit":false,"line":1,"transit":false,"distance":0,"time":0,"i_lat":-6.185545,"station_id":"THB","i_long":106.811091},{"station_id":"DU","is_transit":false,"i_lat":-6.155215,"station_name":"Duri","i_long":106.800832,"line":1,"transit":false,"time":8,"distance":3632},{"is_transit":false,"station_name":"Angke","transit":false,"distance":1230,"i_lat":-6.144674,"time":4,"station_id":"AK","i_long":106.79867,"line":1},{"is_transit":true,"station_name":"Kampung Bandan","time":9,"i_lat":-6.132549,"transit":true,"distance":4102,"i_long":106.826365,"line":4,"station_id":"KPB"},{"distance":1364,"is_transit":true,"line":2,"transit":true,"time":3,"station_id":"JAKK","i_long":106.812439,"station_name":"Jakarta Kota","i_lat":-6.137569},{"i_lat":-6.141205,"i_long":106.820901,"station_id":"JAY","distance":1264,"station_name":"Jayakarta","time":4,"is_transit":false,"transit":false,"line":2},{"distance":1080,"time":2,"is_transit":false,"line":2,"transit":false,"station_name":"Manggabesar","i_lat":-6.149769,"station_id":"MGB","i_long":106.82482},{"distance":906,"line":2,"is_transit":false,"station_name":"Sawah Besar","i_lat":-6.160725,"time":2,"station_id":"SW","transit":false,"i_long":106.827103},{"time":2,"distance":1149,"station_id":"JUA","is_transit":false,"i_lat":-6.166716,"line":2,"transit":false,"station_name":"Juanda","i_long":106.828284},{"time":4,"is_transit":false,"distance":2015,"i_lat":-6.186295,"station_id":"GDD","line":2,"station_name":"Gondangdia","transit":false,"i_long":106.832183},{"distance":1750,"transit":false,"line":2,"time":3,"i_long":106.840169,"i_lat":-6.198556,"station_id":"CKI","is_transit":false,"station_name":"Cikini"},{"station_name":"Manggarai","station_id":"MRI","is_transit":false,"i_long":106.84912,"distance":1590,"transit":false,"i_lat":-6.209883,"line":2,"time":4},{"i_long":106.857948,"station_id":"TEB","i_lat":-6.226659,"line":2,"station_name":"Tebet","distance":2610,"is_transit":false,"transit":false,"time":4},{"station_id":"CW","time":2,"transit":false,"is_transit":false,"i_long":106.856607,"line":2,"station_name":"Cawang","distance":1230,"i_lat":-6.242512},{"i_lat":-6.255332,"line":2,"time":3,"distance":1546,"is_transit":false,"transit":false,"station_name":"Duren Kalibata","i_long":106.85449,"station_id":"DRN"},{"line":2,"distance":824,"transit":false,"i_long":106.851577,"station_id":"PSMB","is_transit":false,"station_name":"Pasar Minggu Baru","time":2,"i_lat":-6.263214},{"time":2,"is_transit":false,"station_id":"PSM","line":2,"transit":false,"i_long":106.843999,"distance":2380,"i_lat":-6.2842400000000005,"station_name":"Pasar Minggu"},{"i_long":106.838896,"is_transit":false,"station_name":"Tanjung Barat","time":4,"station_id":"TNT","line":2,"distance":2820,"transit":false,"i_lat":-6.3080680000000005},{"station_name":"Lenteng Agung","i_lat":-6.330363,"line":2,"distance":2671,"transit":false,"station_id":"LNA","time":3,"is_transit":false,"i_long":106.832616},{"transit":false,"station_id":"UP","time":2,"i_long":106.834175,"distance":1029,"i_lat":-6.339291,"station_name":"Univ. Pancasila","line":2,"is_transit":false},{"time":3,"station_name":"Univ. Indonesia","is_transit":false,"station_id":"UI","i_long":106.831474,"line":2,"i_lat":-6.360749,"transit":false,"distance":2264},{"i_lat":-6.369073,"line":2,"is_transit":false,"distance":1109,"time":2,"transit":false,"station_id":"POC","station_name":"Pondok Cina","i_long":106.831114},{"station_name":"Depokbaru","is_transit":false,"time":4,"station_id":"DPB","line":2,"i_lat":-6.391065,"transit":false,"i_long":106.819451,"distance":2727}],[{"station_name":"Tanah Abang","line":1,"i_lat":-6.185545,"i_long":106.811091,"is_transit":false,"distance":0,"time":0,"transit":false,"station_id":"THB"},{"time":8,"is_transit":false,"transit":false,"line":1,"station_id":"DU","i_lat":-6.155215,"i_long":106.800832,"distance":3632,"station_name":"Duri"},{"i_long":106.79867,"distance":1230,"is_transit":false,"transit":false,"time":4,"station_name":"Angke","station_id":"AK","line":1,"i_lat":-6.144674},{"time":9,"station_id":"KPB","distance":4102,"transit":true,"line":4,"is_transit":true,"i_lat":-6.132549,"station_name":"Kampung Bandan","i_long":106.826365},{"station_id":"RJW","time":3,"i_lat":-6.14505,"station_name":"Rajawali","distance":1444,"is_transit":false,"transit":false,"i_long":106.836569,"line":11},{"distance":1901,"station_id":"KMO","is_transit":false,"time":5,"transit":false,"station_name":"Kemayoran","i_lat":-6.161728,"i_long":106.839204,"line":11},{"station_name":"Pasar Senen","i_long":106.84368,"time":4,"transit":false,"line":11,"is_transit":false,"distance":1436,"i_lat":-6.174784,"station_id":"PSE"},{"line":11,"i_long":106.850107,"distance":1567,"station_name":"Gang Sentiong","transit":false,"is_transit":false,"station_id":"GST","i_lat":-6.185975,"time":8},{"is_transit":false,"i_long":106.855437,"distance":973,"time":1,"station_name":"Kramat","station_id":"KMT","i_lat":-6.193792,"line":11,"transit":false},{"station_name":"Pondok Jati","time":2,"station_id":"POK","i_long":106.861737,"line":11,"distance":1829,"i_lat":-6.209188,"is_transit":false,"transit":false},{"time":9,"i_long":106.86807400000001,"line":1,"transit":true,"distance":1236,"station_name":"Jatinegara","i_lat":-6.215091,"is_transit":true,"station_id":"JNG"},{"station_id":"MTR","is_transit":false,"i_long":106.858896,"line":1,"distance":1377,"time":2,"i_lat":-6.212485,"transit":false,"station_name":"Matraman"},{"transit":true,"time":2,"line":2,"is_transit":true,"distance":1275,"station_name":"Manggarai","station_id":"MRI","i_lat":-6.209883,"i_long":106.84912},{"i_lat":-6.226659,"line":2,"distance":2610,"station_name":"Tebet","station_id":"TEB","is_transit":false,"transit":false,"i_long":106.857948,"time":4},{"line":2,"distance":1230,"station_name":"Cawang","i_lat":-6.242512,"i_long":106.856607,"is_transit":false,"time":2,"transit":false,"station_id":"CW"},{"time":3,"station_name":"Duren Kalibata","is_transit":false,"transit":false,"i_long":106.85449,"line":2,"station_id":"DRN","distance":1546,"i_lat":-6.255332},{"i_lat":-6.263214,"is_transit":false,"line":2,"i_long":106.851577,"distance":824,"transit":false,"time":2,"station_name":"Pasar Minggu Baru","station_id":"PSMB"},{"station_name":"Pasar Minggu","line":2,"station_id":"PSM","time":2,"is_transit":false,"distance":2380,"i_lat":-6.2842400000000005,"i_long":106.843999,"transit":false},{"station_id":"TNT","i_lat":-6.3080680000000005,"station_name":"Tanjung Barat","is_transit":false,"line":2,"distance":2820,"time":4,"transit":false,"i_long":106.838896},{"station_name":"Lenteng Agung","station_id":"LNA","distance":2671,"line":2,"i_lat":-6.330363,"transit":false,"is_transit":false,"time":3,"i_long":106.832616},{"i_long":106.834175,"station_name":"Univ. Pancasila","time":2,"i_lat":-6.339291,"distance":1029,"line":2,"station_id":"UP","transit":false,"is_transit":false},{"station_id":"UI","i_long":106.831474,"transit":false,"line":2,"is_transit":false,"distance":2264,"time":3,"i_lat":-6.360749,"station_name":"Univ. Indonesia"},{"station_name":"Pondok Cina","transit":false,"distance":1109,"time":2,"i_long":106.831114,"is_transit":false,"i_lat":-6.369073,"line":2,"station_id":"POC"},{"station_id":"DPB","station_name":"Depokbaru","time":4,"i_lat":-6.391065,"i_long":106.819451,"line":2,"distance":2727,"transit":false,"is_transit":false}]]}