{"data":[[{"station_name":"Tanah Abang","i_long":106.811091,"i_lat":-6.185545,"time":0,"is_transit":false,"line":1,"distance":0,"station_id":"THB","transit":false},{"station_id":"KAT","station_name":"Karet","line":1,"is_transit":false,"time":5,"transit":false,"i_long":106.816351,"i_lat":-6.20132,"distance":2029},{"line":1,"i_lat":-6.201433,"station_name":"Sudirman Baru","time":1,"transit":false,"distance":471,"i_long":106.819881,"is_transit":false,"station_id":"SUDB"},{"distance":280,"time":1,"i_lat":-6.202263,"station_id":"SUD","transit":false,"station_name":"Sudirman","i_long":106.822649,"is_transit":false,"line":1}],[{"station_id":"THB","line":1,"time":0,"i_lat":-6.185545,"transit":false,"i_long":106.811091,"distance":0,"station_name":"Tanah Abang","is_transit":false},{"line":1,"i_lat":-6.155215,"transit":false,"station_name":"Duri","distance":3632,"station_id":"DU","is_transit":false,"i_long":106.800832,"time":8},{"time":4,"station_id":"AK","i_long":106.79867,"distance":1230,"is_transit":false,"i_lat":-6.144674,"station_name":"Angke","transit":false,"line":1},{"is_transit":true,"distance":4102,"station_id":"KPB","i_long":106.826365,"transit":true,"time":9,"station_name":"Kampung Bandan","i_lat":-6.132549,"line":4},{"station_name":"Jakarta Kota","is_transit":true,"transit":true,"distance":1364,"time":3,"i_lat":-6.137569,"i_long":106.812439,"line":2,"station_id":"JAKK"},{"is_transit":false,"station_id":"JAY","time":4,"line":2,"station_name":"Jayakarta","distance":1264,"transit":false,"i_long":106.820901,"i_lat":-6.141205},{"is_transit":false,"distance":1080,"station_name":"Manggabesar","i_lat":-6.149769,"line":2,"i_long":106.82482,"time":2,"station_id":"MGB","transit":false},{"station_name":"Sawah Besar","is_transit":false,"line":2,"time":2,"station_id":"SW","transit":false,"i_lat":-6.160725,"i_long":106.827103,"distance":906},{"line":2,"time":2,"station_id":"JUA","is_transit":false,"distance":1149,"transit":false,"station_name":"Juanda","i_lat":-6.166716,"i_long":106.828284},{"is_transit":false,"distance":2015,"transit":false,"i_lat":-6.186295,"station_id":"GDD","time":4,"station_name":"Gondangdia","i_long":106.832183,"line":2},{"is_transit":false,"time":3,"i_lat":-6.198556,"station_id":"CKI","distance":1750,"transit":false,"station_name":"Cikini","i_long":106.840169,"line":2},{"station_name":"Manggarai","distance":1590,"i_long":106.84912,"line":2,"i_lat":-6.209883,"is_transit":true,"station_id":"MRI","transit":true,"time":4},{"transit":false,"i_lat":-6.202263,"line":1,"station_id":"SUD","distance":3186,"is_transit":false,"time":4,"i_long":106.822649,"station_name":"Sudirman"}],[{"is_transit":false,"time":0,"line":1,"transit":false,"i_lat":-6.185545,"station_id":"THB","i_long":106.811091,"distance":0,"station_name":"Tanah Abang"},{"time":8,"transit":false,"station_name":"Duri","i_lat":-6.155215,"station_id":"DU","distance":3632,"line":1,"is_transit":false,"i_long":106.800832},{"i_lat":-6.144674,"station_name":"Angke","station_id":"AK","is_transit":false,"time":4,"i_long":106.79867,"transit":false,"distance":1230,"line":1},{"station_id":"KPB","station_name":"Kampung Bandan","is_transit":true,"distance":4102,"i_long":106.826365,"i_lat":-6.132549,"time":9,"transit":true,"line":4},{"station_name":"Rajawali","distance":1444,"is_transit":false,"transit":false,"i_lat":-6.14505,"i_long":106.836569,"time":3,"station_id":"RJW","line":11},{"time":5,"i_long":106.839204,"distance":1901,"line":11,"is_transit":false,"transit":false,"station_id":"KMO","station_name":"Kemayoran","i_lat":-6.161728},{"distance":1436,"i_lat":-6.174784,"is_transit":false,"station_id":"PSE","time":4,"station_name":"Pasar Senen","line":11,"i_long":106.84368,"transit":false},{"is_transit":false,"station_id":"GST","line":11,"i_long":106.850107,"i_lat":-6.185975,"transit":false,"distance":1567,"station_name":"Gang Sentiong","time":8},{"distance":973,"time":1,"i_long":106.855437,"transit":false,"station_id":"KMT","station_name":"Kramat","i_lat":-6.193792,"line":11,"is_transit":false},{"line":11,"i_long":106.861737,"is_transit":false,"station_name":"Pondok Jati","i_lat":-6.209188,"distance":1829,"station_id":"POK","time":2,"transit":false},{"distance":1236,"is_transit":true,"station_name":"Jatinegara","i_long":106.86807400000001,"i_lat":-6.215091,"line":1,"transit":true,"station_id":"JNG","time":9},{"station_name":"Matraman","transit":false,"distance":1377,"station_id":"MTR","line":1,"is_transit":false,"time":2,"i_lat":-6.212485,"i_long":106.858896},{"station_name":"Manggarai","distance":1275,"is_transit":false,"station_id":"MRI","transit":false,"i_lat":-6.209883,"line":2,"time":2,"i_long":106.84912},{"station_name":"Sudirman","time":4,"transit":false,"is_transit":false,"i_lat":-6.202263,"line":1,"distance":3186,"station_id":"SUD","i_long":106.822649}]]}