{"data":[[{"i_lat":-6.185545,"is_transit":false,"distance":0,"i_long":106.811091,"line":1,"station_name":"Tanah Abang","station_id":"THB","transit":false,"time":0},{"station_name":"Palmerah","time":6,"i_lat":-6.207404,"station_id":"PLM","distance":3191,"transit":false,"line":6,"i_long":106.79689,"is_transit":false},{"station_name":"Kebayoran","station_id":"KBY","i_lat":-6.237242,"i_long":106.780334,"transit":false,"is_transit":false,"line":6,"time":7,"distance":3737},{"station_id":"PDJ","station_name":"Pondokranji","time":8,"distance":6218,"line":6,"i_long":106.74273,"transit":false,"is_transit":false,"i_lat":-6.276362},{"station_name":"Jurangmangu","time":3,"transit":false,"i_lat":-6.288927,"i_long":106.728916,"line":6,"is_transit":false,"distance":2179,"station_id":"JMU"},{"transit":false,"station_name":"Sudimara","station_id":"SDM","i_lat":-6.296963,"time":4,"i_long":106.712277,"line":6,"distance":1994,"is_transit":false},{"i_long":106.675475,"station_id":"RU","transit":false,"distance":4566,"is_transit":false,"i_lat":-6.314823,"station_name":"Rawa Buntu","time":6,"line":6},{"station_id":"SRP","distance":2413,"line":6,"transit":false,"station_name":"Serpong","i_lat":-6.319871,"time":4,"is_transit":false,"i_long":106.66566},{"distance":1784,"time":4,"station_name":"Cisauk","i_long":106.640411,"i_lat":-6.32484,"station_id":"CSK","is_transit":false,"transit":false,"line":3},{"station_id":"CC","transit":false,"distance":2519,"station_name":"Cicayur","line":3,"is_transit":false,"time":4,"i_lat":-6.329547,"i_long":106.617853},{"station_name":"Parung Panjang","is_transit":false,"station_id":"PRP","time":8,"distance":5968,"i_lat":-6.3441410000000005,"i_long":106.568863,"line":6,"transit":false},{"is_transit":false,"transit":false,"station_id":"CJT","i_long":106.508482,"time":9,"i_lat":-6.354349,"distance":7025,"station_name":"Cilejit","line":3},{"distance":2675,"is_transit":false,"line":0,"station_id":"DAR","time":6,"transit":false,"station_name":"Daru","i_lat":-6.338021,"i_long":106.491338}]]}