{"data":[[{"i_long":106.811091,"station_id":"THB","station_name":"Tanah Abang","is_transit":false,"i_lat":-6.185545,"line":1,"distance":0,"transit":false,"time":0},{"station_id":"KAT","station_name":"Karet","i_lat":-6.20132,"line":1,"i_long":106.816351,"is_transit":false,"transit":false,"time":5,"distance":2029},{"distance":471,"is_transit":false,"line":1,"i_long":106.819881,"station_name":"Sudirman Baru","time":1,"transit":false,"i_lat":-6.201433,"station_id":"SUDB"},{"station_id":"SUD","is_transit":false,"distance":280,"i_long":106.822649,"i_lat":-6.202263,"line":1,"time":1,"station_name":"Sudirman","transit":false},{"i_lat":-6.209883,"transit":true,"line":2,"time":4,"is_transit":true,"station_id":"MRI","i_long":106.84912,"distance":3186,"station_name":"Manggarai"},{"station_id":"TEB","transit":false,"line":2,"is_transit":false,"station_name":"Tebet","distance":2610,"time":4,"i_long":106.857948,"i_lat":-6.226659},{"i_long":106.856607,"time":2,"i_lat":-6.242512,"station_name":"Cawang","line":2,"transit":false,"distance":1230,"station_id":"CW","is_transit":false},{"transit":false,"time":3,"station_id":"DRN","distance":1546,"is_transit":false,"i_lat":-6.255332,"i_long":106.85449,"station_name":"Duren Kalibata","line":2},{"i_long":106.851577,"station_id":"PSMB","transit":false,"is_transit":false,"i_lat":-6.263214,"line":2,"time":2,"distance":824,"station_name":"Pasar Minggu Baru"},{"time":2,"station_id":"PSM","line":2,"distance":2380,"i_lat":-6.2842400000000005,"transit":false,"is_transit":false,"i_long":106.843999,"station_name":"Pasar Minggu"},{"time":4,"is_transit":false,"i_lat":-6.3080680000000005,"i_long":106.838896,"line":2,"transit":false,"distance":2820,"station_id":"TNT","station_name":"Tanjung Barat"},{"i_long":106.832616,"line":2,"i_lat":-6.330363,"station_id":"LNA","transit":false,"distance":2671,"time":3,"station_name":"Lenteng Agung","is_transit":false}],[{"line":1,"distance":0,"i_lat":-6.185545,"station_name":"Tanah Abang","time":0,"is_transit":false,"i_long":106.811091,"station_id":"THB","transit":false},{"is_transit":false,"station_id":"DU","station_name":"Duri","i_long":106.800832,"line":1,"i_lat":-6.155215,"distance":3632,"time":8,"transit":false},{"transit":false,"i_lat":-6.144674,"i_long":106.79867,"time":4,"is_transit":false,"line":1,"station_id":"AK","distance":1230,"station_name":"Angke"},{"time":9,"station_name":"Kampung Bandan","distance":4102,"i_long":106.826365,"station_id":"KPB","is_transit":true,"i_lat":-6.132549,"transit":true,"line":4},{"i_long":106.812439,"transit":true,"distance":1364,"time":3,"station_name":"Jakarta Kota","is_transit":true,"i_lat":-6.137569,"station_id":"JAKK","line":2},{"time":4,"is_transit":false,"transit":false,"i_lat":-6.141205,"line":2,"i_long":106.820901,"station_id":"JAY","station_name":"Jayakarta","distance":1264},{"station_name":"Manggabesar","distance":1080,"station_id":"MGB","transit":false,"i_long":106.82482,"is_transit":false,"i_lat":-6.149769,"time":2,"line":2},{"is_transit":false,"transit":false,"station_id":"SW","i_long":106.827103,"time":2,"distance":906,"station_name":"Sawah Besar","line":2,"i_lat":-6.160725},{"is_transit":false,"station_name":"Juanda","i_long":106.828284,"transit":false,"i_lat":-6.166716,"station_id":"JUA","time":2,"distance":1149,"line":2},{"is_transit":false,"line":2,"transit":false,"time":4,"station_id":"GDD","distance":2015,"i_lat":-6.186295,"i_long":106.832183,"station_name":"Gondangdia"},{"time":3,"station_name":"Cikini","transit":false,"i_long":106.840169,"distance":1750,"is_transit":false,"station_id":"CKI","i_lat":-6.198556,"line":2},{"line":2,"station_id":"MRI","station_name":"Manggarai","transit":false,"i_long":106.84912,"time":4,"distance":1590,"is_transit":false,"i_lat":-6.209883},{"time":4,"transit":false,"is_transit":false,"i_lat":-6.226659,"station_id":"TEB","line":2,"distance":2610,"station_name":"Tebet","i_long":106.857948},{"i_long":106.856607,"time":2,"distance":1230,"station_name":"Cawang","line":2,"station_id":"CW","is_transit":false,"transit":false,"i_lat":-6.242512},{"i_lat":-6.255332,"station_id":"DRN","is_transit":false,"time":3,"station_name":"Duren Kalibata","i_long":106.85449,"line":2,"transit":false,"distance":1546},{"line":2,"distance":824,"is_transit":false,"time":2,"i_long":106.851577,"i_lat":-6.263214,"station_id":"PSMB","transit":false,"station_name":"Pasar Minggu Baru"},{"distance":2380,"time":2,"station_id":"PSM","is_transit":false,"line":2,"station_name":"Pasar Minggu","i_long":106.843999,"transit":false,"i_lat":-6.2842400000000005},{"time":4,"station_id":"TNT","i_long":106.838896,"station_name":"Tanjung Barat","i_lat":-6.3080680000000005,"transit":false,"line":2,"is_transit":false,"distance":2820},{"is_transit":false,"transit":false,"distance":2671,"station_name":"Lenteng Agung","i_long":106.832616,"line":2,"i_lat":-6.330363,"station_id":"LNA","time":3}],[{"line":1,"is_transit":false,"i_lat":-6.185545,"transit":false,"station_id":"THB","time":0,"i_long":106.811091,"distance":0,"station_name":"Tanah Abang"},{"transit":false,"distance":3632,"i_lat":-6.155215,"is_transit":false,"station_name":"Duri","station_id":"DU","i_long":106.800832,"line":1,"time":8},{"is_transit":false,"line":1,"station_name":"Angke","distance":1230,"transit":false,"station_id":"AK","time":4,"i_lat":-6.144674,"i_long":106.79867},{"station_name":"Kampung Bandan","station_id":"KPB","is_transit":true,"i_long":106.826365,"i_lat":-6.132549,"time":9,"transit":true,"line":4,"distance":4102},{"line":11,"is_transit":false,"distance":1444,"transit":false,"station_name":"Rajawali","time":3,"station_id":"RJW","i_lat":-6.14505,"i_long":106.836569},{"is_transit":false,"transit":false,"i_lat":-6.161728,"i_long":106.839204,"station_id":"KMO","time":5,"station_name":"Kemayoran","distance":1901,"line":11},{"transit":false,"line":11,"station_id":"PSE","distance":1436,"i_lat":-6.174784,"time":4,"i_long":106.84368,"station_name":"Pasar Senen","is_transit":false},{"line":11,"transit":false,"station_id":"GST","is_transit":false,"time":8,"station_name":"Gang Sentiong","i_lat":-6.185975,"i_long":106.850107,"distance":1567},{"distance":973,"i_lat":-6.193792,"is_transit":false,"line":11,"i_long":106.855437,"station_id":"KMT","time":1,"station_name":"Kramat","transit":false},{"i_long":106.861737,"line":11,"i_lat":-6.209188,"transit":false,"time":2,"station_name":"Pondok Jati","distance":1829,"is_transit":false,"station_id":"POK"},{"distance":1236,"transit":true,"is_transit":true,"i_lat":-6.215091,"i_long":106.86807400000001,"station_id":"JNG","station_name":"Jatinegara","line":1,"time":9},{"line":1,"transit":false,"station_name":"Matraman","station_id":"MTR","time":2,"is_transit":false,"distance":1377,"i_lat":-6.212485,"i_long":106.858896},{"is_transit":true,"i_lat":-6.209883,"distance":1275,"station_id":"MRI","time":2,"line":2,"transit":true,"i_long":106.84912,"station_name":"Manggarai"},{"i_long":106.857948,"station_name":"Tebet","is_transit":false,"line":2,"i_lat":-6.226659,"time":4,"station_id":"TEB","transit":false,"distance":2610},{"line":2,"distance":1230,"time":2,"transit":false,"is_transit":false,"i_lat":-6.242512,"station_name":"Cawang","i_long":106.856607,"station_id":"CW"},{"station_id":"DRN","i_long":106.85449,"transit":false,"is_transit":false,"i_lat":-6.255332,"time":3,"line":2,"distance":1546,"station_name":"Duren Kalibata"},{"i_long":106.851577,"transit":false,"station_name":"Pasar Minggu Baru","time":2,"distance":824,"is_transit":false,"station_id":"PSMB","i_lat":-6.263214,"line":2},{"i_long":106.843999,"i_lat":-6.2842400000000005,"station_name":"Pasar Minggu","distance":2380,"station_id":"PSM","is_transit":false,"transit":false,"line":2,"time":2},{"is_transit":false,"station_name":"Tanjung Barat","distance":2820,"i_long":106.838896,"transit":false,"time":4,"i_lat":-6.3080680000000005,"station_id":"TNT","line":2},{"is_transit":false,"station_id":"LNA","transit":false,"i_long":106.832616,"line":2,"time":3,"i_lat":-6.330363,"distance":2671,"station_name":"Lenteng Agung"}]]}