{"data":[[{"is_transit":false,"i_lat":-6.185545,"distance":0,"station_id":"THB","i_long":106.811091,"time":0,"line":1,"station_name":"Tanah Abang","transit":false},{"line":1,"time":5,"i_long":106.816351,"distance":2029,"station_id":"KAT","transit":false,"i_lat":-6.20132,"station_name":"Karet","is_transit":false},{"time":1,"station_name":"Sudirman Baru","i_lat":-6.201433,"i_long":106.819881,"station_id":"SUDB","is_transit":false,"distance":471,"line":1,"transit":false},{"line":1,"station_name":"Sudirman","time":1,"station_id":"SUD","distance":280,"is_transit":false,"i_lat":-6.202263,"transit":false,"i_long":106.822649},{"line":2,"station_id":"MRI","distance":3186,"time":4,"station_name":"Manggarai","i_lat":-6.209883,"is_transit":true,"transit":true,"i_long":106.84912},{"time":4,"station_name":"Tebet","line":2,"distance":2610,"i_long":106.857948,"is_transit":false,"station_id":"TEB","transit":false,"i_lat":-6.226659},{"i_long":106.856607,"i_lat":-6.242512,"time":2,"station_id":"CW","station_name":"Cawang","distance":1230,"transit":false,"line":2,"is_transit":false},{"station_name":"Duren Kalibata","time":3,"distance":1546,"i_lat":-6.255332,"i_long":106.85449,"station_id":"DRN","transit":false,"is_transit":false,"line":2},{"distance":824,"i_lat":-6.263214,"i_long":106.851577,"time":2,"is_transit":false,"station_name":"Pasar Minggu Baru","station_id":"PSMB","transit":false,"line":2},{"distance":2380,"transit":false,"station_name":"Pasar Minggu","station_id":"PSM","is_transit":false,"time":2,"i_long":106.843999,"i_lat":-6.2842400000000005,"line":2},{"line":2,"distance":2820,"transit":false,"is_transit":false,"time":4,"station_name":"Tanjung Barat","station_id":"TNT","i_lat":-6.3080680000000005,"i_long":106.838896},{"transit":false,"time":3,"i_long":106.832616,"is_transit":false,"line":2,"station_id":"LNA","station_name":"Lenteng Agung","i_lat":-6.330363,"distance":2671},{"i_lat":-6.339291,"station_name":"Univ. Pancasila","line":2,"transit":false,"time":2,"is_transit":false,"distance":1029,"station_id":"UP","i_long":106.834175},{"station_name":"Univ. Indonesia","distance":2264,"is_transit":false,"time":3,"transit":false,"station_id":"UI","i_lat":-6.360749,"i_long":106.831474,"line":2},{"i_lat":-6.369073,"line":2,"distance":1109,"station_id":"POC","station_name":"Pondok Cina","i_long":106.831114,"transit":false,"is_transit":false,"time":2},{"time":4,"transit":false,"i_lat":-6.391065,"i_long":106.819451,"distance":2727,"is_transit":false,"line":2,"station_id":"DPB","station_name":"Depokbaru"},{"time":3,"line":2,"is_transit":false,"transit":false,"station_id":"DP","station_name":"Depok","distance":1584,"i_lat":-6.405256,"i_long":106.816926},{"distance":5084,"i_long":106.800298,"line":2,"is_transit":true,"time":6,"station_id":"CTA","station_name":"Citayam","transit":true,"i_lat":-6.448811},{"time":0,"distance":0,"station_name":"Pondok Rajeg","i_long":106.824374,"transit":false,"line":21,"station_id":"PDRG","is_transit":false,"i_lat":-6.460735},{"transit":false,"station_name":"Cibinong","i_lat":-6.46424,"i_long":106.851978,"time":0,"distance":0,"is_transit":false,"station_id":"CBN","line":21}],[{"station_id":"THB","i_lat":-6.185545,"line":1,"time":0,"i_long":106.811091,"distance":0,"transit":false,"is_transit":false,"station_name":"Tanah Abang"},{"station_id":"DU","is_transit":false,"line":1,"time":8,"station_name":"Duri","i_lat":-6.155215,"i_long":106.800832,"transit":false,"distance":3632},{"transit":false,"is_transit":false,"distance":1230,"line":1,"i_long":106.79867,"station_name":"Angke","station_id":"AK","i_lat":-6.144674,"time":4},{"line":4,"time":9,"distance":4102,"station_id":"KPB","i_long":106.826365,"i_lat":-6.132549,"station_name":"Kampung Bandan","transit":true,"is_transit":true},{"time":3,"transit":true,"distance":1364,"line":2,"station_name":"Jakarta Kota","is_transit":true,"station_id":"JAKK","i_long":106.812439,"i_lat":-6.137569},{"distance":1264,"station_name":"Jayakarta","transit":false,"station_id":"JAY","line":2,"i_long":106.820901,"i_lat":-6.141205,"is_transit":false,"time":4},{"station_name":"Manggabesar","station_id":"MGB","line":2,"is_transit":false,"i_long":106.82482,"time":2,"i_lat":-6.149769,"distance":1080,"transit":false},{"i_long":106.827103,"time":2,"is_transit":false,"station_id":"SW","line":2,"distance":906,"station_name":"Sawah Besar","i_lat":-6.160725,"transit":false},{"distance":1149,"station_id":"JUA","time":2,"is_transit":false,"transit":false,"i_long":106.828284,"i_lat":-6.166716,"line":2,"station_name":"Juanda"},{"is_transit":false,"distance":2015,"station_id":"GDD","transit":false,"i_long":106.832183,"time":4,"station_name":"Gondangdia","i_lat":-6.186295,"line":2},{"time":3,"transit":false,"station_id":"CKI","i_lat":-6.198556,"distance":1750,"station_name":"Cikini","is_transit":false,"line":2,"i_long":106.840169},{"station_id":"MRI","is_transit":false,"i_lat":-6.209883,"i_long":106.84912,"distance":1590,"station_name":"Manggarai","time":4,"transit":false,"line":2},{"line":2,"i_lat":-6.226659,"i_long":106.857948,"distance":2610,"time":4,"is_transit":false,"station_name":"Tebet","station_id":"TEB","transit":false},{"station_name":"Cawang","transit":false,"station_id":"CW","is_transit":false,"i_long":106.856607,"distance":1230,"line":2,"time":2,"i_lat":-6.242512},{"distance":1546,"line":2,"i_lat":-6.255332,"station_id":"DRN","is_transit":false,"station_name":"Duren Kalibata","i_long":106.85449,"transit":false,"time":3},{"station_name":"Pasar Minggu Baru","transit":false,"is_transit":false,"i_long":106.851577,"time":2,"distance":824,"i_lat":-6.263214,"line":2,"station_id":"PSMB"},{"time":2,"station_id":"PSM","distance":2380,"is_transit":false,"line":2,"i_long":106.843999,"transit":false,"i_lat":-6.2842400000000005,"station_name":"Pasar Minggu"},{"i_long":106.838896,"station_id":"TNT","distance":2820,"station_name":"Tanjung Barat","line":2,"time":4,"is_transit":false,"i_lat":-6.3080680000000005,"transit":false},{"distance":2671,"i_lat":-6.330363,"station_id":"LNA","is_transit":false,"station_name":"Lenteng Agung","transit":false,"time":3,"i_long":106.832616,"line":2},{"time":2,"is_transit":false,"distance":1029,"station_id":"UP","i_lat":-6.339291,"i_long":106.834175,"station_name":"Univ. Pancasila","transit":false,"line":2},{"line":2,"i_long":106.831474,"is_transit":false,"station_name":"Univ. Indonesia","time":3,"transit":false,"station_id":"UI","i_lat":-6.360749,"distance":2264},{"is_transit":false,"time":2,"i_lat":-6.369073,"i_long":106.831114,"line":2,"transit":false,"distance":1109,"station_name":"Pondok Cina","station_id":"POC"},{"distance":2727,"is_transit":false,"station_name":"Depokbaru","transit":false,"station_id":"DPB","time":4,"i_long":106.819451,"i_lat":-6.391065,"line":2},{"line":2,"is_transit":false,"distance":1584,"time":3,"station_name":"Depok","i_long":106.816926,"transit":false,"station_id":"DP","i_lat":-6.405256},{"station_name":"Citayam","line":2,"i_lat":-6.448811,"distance":5084,"i_long":106.800298,"is_transit":true,"time":6,"transit":true,"station_id":"CTA"},{"is_transit":false,"time":0,"transit":false,"station_id":"PDRG","i_long":106.824374,"i_lat":-6.460735,"line":21,"distance":0,"station_name":"Pondok Rajeg"},{"line":21,"time":0,"station_name":"Cibinong","transit":false,"station_id":"CBN","distance":0,"i_lat":-6.46424,"is_transit":false,"i_long":106.851978}],[{"transit":false,"line":1,"is_transit":false,"time":0,"distance":0,"station_id":"THB","i_long":106.811091,"i_lat":-6.185545,"station_name":"Tanah Abang"},{"distance":3632,"time":8,"i_lat":-6.155215,"transit":false,"i_long":106.800832,"line":1,"station_name":"Duri","station_id":"DU","is_transit":false},{"time":4,"i_lat":-6.144674,"line":1,"transit":false,"is_transit":false,"i_long":106.79867,"station_id":"AK","station_name":"Angke","distance":1230},{"i_long":106.826365,"line":4,"time":9,"i_lat":-6.132549,"distance":4102,"station_name":"Kampung Bandan","station_id":"KPB","is_transit":true,"transit":true},{"i_lat":-6.14505,"is_transit":false,"station_id":"RJW","station_name":"Rajawali","distance":1444,"transit":false,"time":3,"i_long":106.836569,"line":11},{"i_long":106.839204,"line":11,"station_id":"KMO","transit":false,"is_transit":false,"time":5,"distance":1901,"i_lat":-6.161728,"station_name":"Kemayoran"},{"distance":1436,"i_long":106.84368,"line":11,"i_lat":-6.174784,"transit":false,"is_transit":false,"station_name":"Pasar Senen","time":4,"station_id":"PSE"},{"line":11,"i_lat":-6.185975,"is_transit":false,"time":8,"station_id":"GST","distance":1567,"transit":false,"i_long":106.850107,"station_name":"Gang Sentiong"},{"i_long":106.855437,"station_name":"Kramat","transit":false,"time":1,"i_lat":-6.193792,"distance":973,"line":11,"station_id":"KMT","is_transit":false},{"time":2,"station_id":"POK","distance":1829,"station_name":"Pondok Jati","is_transit":false,"i_lat":-6.209188,"transit":false,"i_long":106.861737,"line":11},{"line":1,"is_transit":true,"distance":1236,"station_id":"JNG","time":9,"transit":true,"i_lat":-6.215091,"i_long":106.86807400000001,"station_name":"Jatinegara"},{"transit":false,"line":1,"distance":1377,"is_transit":false,"station_id":"MTR","time":2,"i_lat":-6.212485,"station_name":"Matraman","i_long":106.858896},{"time":2,"transit":true,"i_long":106.84912,"distance":1275,"line":2,"station_name":"Manggarai","is_transit":true,"station_id":"MRI","i_lat":-6.209883},{"distance":2610,"transit":false,"station_id":"TEB","station_name":"Tebet","i_long":106.857948,"time":4,"is_transit":false,"line":2,"i_lat":-6.226659},{"station_name":"Cawang","transit":false,"station_id":"CW","distance":1230,"i_long":106.856607,"is_transit":false,"i_lat":-6.242512,"time":2,"line":2},{"station_name":"Duren Kalibata","transit":false,"time":3,"i_long":106.85449,"station_id":"DRN","line":2,"i_lat":-6.255332,"distance":1546,"is_transit":false},{"station_id":"PSMB","transit":false,"distance":824,"is_transit":false,"i_long":106.851577,"station_name":"Pasar Minggu Baru","line":2,"time":2,"i_lat":-6.263214},{"is_transit":false,"line":2,"time":2,"i_long":106.843999,"distance":2380,"i_lat":-6.2842400000000005,"station_id":"PSM","transit":false,"station_name":"Pasar Minggu"},{"transit":false,"station_id":"TNT","line":2,"time":4,"i_lat":-6.3080680000000005,"station_name":"Tanjung Barat","is_transit":false,"distance":2820,"i_long":106.838896},{"i_long":106.832616,"station_name":"Lenteng Agung","time":3,"line":2,"is_transit":false,"station_id":"LNA","distance":2671,"transit":false,"i_lat":-6.330363},{"time":2,"station_id":"UP","station_name":"Univ. Pancasila","is_transit":false,"transit":false,"line":2,"distance":1029,"i_long":106.834175,"i_lat":-6.339291},{"transit":false,"time":3,"i_lat":-6.360749,"i_long":106.831474,"station_name":"Univ. Indonesia","station_id":"UI","is_transit":false,"distance":2264,"line":2},{"transit":false,"distance":1109,"i_long":106.831114,"line":2,"time":2,"i_lat":-6.369073,"station_name":"Pondok Cina","station_id":"POC","is_transit":false},{"distance":2727,"i_long":106.819451,"line":2,"transit":false,"station_id":"DPB","time":4,"station_name":"Depokbaru","is_transit":false,"i_lat":-6.391065},{"station_id":"DP","line":2,"is_transit":false,"transit":false,"time":3,"i_long":106.816926,"distance":1584,"i_lat":-6.405256,"station_name":"Depok"},{"station_name":"Citayam","distance":5084,"transit":true,"station_id":"CTA","i_lat":-6.448811,"i_long":106.800298,"is_transit":true,"line":2,"time":6},{"time":0,"line":21,"is_transit":false,"distance":0,"station_id":"PDRG","station_name":"Pondok Rajeg","transit":false,"i_lat":-6.460735,"i_long":106.824374},{"is_transit":false,"i_lat":-6.46424,"distance":0,"station_name":"Cibinong","i_long":106.851978,"transit":false,"line":21,"station_id":"CBN","time":0}]]}