{"data":[[{"time":0,"station_name":"Tanah Abang","distance":0,"line":1,"station_id":"THB","i_lat":-6.185545,"transit":false,"is_transit":false,"i_long":106.811091},{"time":5,"i_long":106.816351,"distance":2029,"is_transit":false,"station_name":"Karet","transit":false,"station_id":"KAT","line":1,"i_lat":-6.20132},{"station_name":"Sudirman Baru","line":1,"station_id":"SUDB","distance":471,"is_transit":false,"time":1,"i_lat":-6.201433,"transit":false,"i_long":106.819881},{"time":1,"distance":280,"station_id":"SUD","line":1,"transit":false,"i_lat":-6.202263,"is_transit":false,"station_name":"Sudirman","i_long":106.822649},{"is_transit":true,"i_long":106.84912,"transit":true,"i_lat":-6.209883,"line":2,"station_name":"Manggarai","distance":3186,"time":4,"station_id":"MRI"},{"is_transit":false,"i_lat":-6.226659,"transit":false,"time":4,"line":2,"distance":2610,"i_long":106.857948,"station_id":"TEB","station_name":"Tebet"},{"station_name":"Cawang","transit":false,"i_lat":-6.242512,"line":2,"is_transit":false,"i_long":106.856607,"station_id":"CW","time":2,"distance":1230},{"i_lat":-6.255332,"is_transit":false,"time":3,"line":2,"distance":1546,"transit":false,"station_id":"DRN","station_name":"Duren Kalibata","i_long":106.85449},{"transit":false,"distance":824,"is_transit":false,"i_long":106.851577,"station_id":"PSMB","i_lat":-6.263214,"station_name":"Pasar Minggu Baru","line":2,"time":2},{"station_id":"PSM","is_transit":false,"transit":false,"i_lat":-6.2842400000000005,"time":2,"i_long":106.843999,"line":2,"distance":2380,"station_name":"Pasar Minggu"},{"transit":false,"station_id":"TNT","time":4,"is_transit":false,"i_lat":-6.3080680000000005,"line":2,"i_long":106.838896,"distance":2820,"station_name":"Tanjung Barat"},{"transit":false,"i_lat":-6.330363,"i_long":106.832616,"distance":2671,"is_transit":false,"time":3,"station_id":"LNA","line":2,"station_name":"Lenteng Agung"},{"i_lat":-6.339291,"i_long":106.834175,"transit":false,"time":2,"is_transit":false,"station_id":"UP","station_name":"Univ. Pancasila","line":2,"distance":1029},{"i_lat":-6.360749,"line":2,"i_long":106.831474,"time":3,"distance":2264,"station_id":"UI","station_name":"Univ. Indonesia","transit":false,"is_transit":false},{"is_transit":false,"time":2,"i_lat":-6.369073,"distance":1109,"station_id":"POC","transit":false,"i_long":106.831114,"line":2,"station_name":"Pondok Cina"},{"station_name":"Depokbaru","is_transit":false,"transit":false,"i_lat":-6.391065,"i_long":106.819451,"station_id":"DPB","distance":2727,"line":2,"time":4},{"distance":1584,"station_name":"Depok","time":3,"station_id":"DP","transit":false,"i_lat":-6.405256,"i_long":106.816926,"is_transit":false,"line":2}],[{"transit":false,"station_name":"Tanah Abang","distance":0,"line":1,"i_lat":-6.185545,"station_id":"THB","i_long":106.811091,"time":0,"is_transit":false},{"i_long":106.800832,"i_lat":-6.155215,"line":1,"distance":3632,"transit":false,"time":8,"is_transit":false,"station_id":"DU","station_name":"Duri"},{"i_lat":-6.144674,"time":4,"line":1,"is_transit":false,"station_name":"Angke","station_id":"AK","i_long":106.79867,"transit":false,"distance":1230},{"station_name":"Kampung Bandan","transit":true,"station_id":"KPB","i_lat":-6.132549,"i_long":106.826365,"time":9,"is_transit":true,"distance":4102,"line":4},{"i_long":106.812439,"line":2,"time":3,"station_id":"JAKK","is_transit":true,"i_lat":-6.137569,"distance":1364,"transit":true,"station_name":"Jakarta Kota"},{"transit":false,"station_name":"Jayakarta","time":4,"is_transit":false,"i_lat":-6.141205,"i_long":106.820901,"station_id":"JAY","distance":1264,"line":2},{"time":2,"transit":false,"is_transit":false,"line":2,"i_long":106.82482,"station_id":"MGB","i_lat":-6.149769,"distance":1080,"station_name":"Manggabesar"},{"transit":false,"is_transit":false,"i_long":106.827103,"station_id":"SW","line":2,"time":2,"distance":906,"station_name":"Sawah Besar","i_lat":-6.160725},{"is_transit":false,"i_long":106.828284,"station_id":"JUA","i_lat":-6.166716,"line":2,"transit":false,"distance":1149,"time":2,"station_name":"Juanda"},{"i_long":106.832183,"is_transit":false,"time":4,"station_id":"GDD","transit":false,"station_name":"Gondangdia","i_lat":-6.186295,"distance":2015,"line":2},{"station_name":"Cikini","station_id":"CKI","i_long":106.840169,"distance":1750,"time":3,"is_transit":false,"transit":false,"i_lat":-6.198556,"line":2},{"distance":1590,"station_name":"Manggarai","station_id":"MRI","i_lat":-6.209883,"i_long":106.84912,"time":4,"is_transit":false,"transit":false,"line":2},{"transit":false,"station_id":"TEB","distance":2610,"i_long":106.857948,"is_transit":false,"station_name":"Tebet","line":2,"time":4,"i_lat":-6.226659},{"is_transit":false,"station_name":"Cawang","time":2,"transit":false,"i_long":106.856607,"distance":1230,"station_id":"CW","i_lat":-6.242512,"line":2},{"station_name":"Duren Kalibata","i_lat":-6.255332,"is_transit":false,"station_id":"DRN","distance":1546,"line":2,"transit":false,"i_long":106.85449,"time":3},{"i_lat":-6.263214,"distance":824,"line":2,"time":2,"transit":false,"is_transit":false,"station_id":"PSMB","station_name":"Pasar Minggu Baru","i_long":106.851577},{"time":2,"i_long":106.843999,"distance":2380,"transit":false,"station_id":"PSM","i_lat":-6.2842400000000005,"line":2,"is_transit":false,"station_name":"Pasar Minggu"},{"distance":2820,"is_transit":false,"line":2,"i_long":106.838896,"station_name":"Tanjung Barat","time":4,"transit":false,"i_lat":-6.3080680000000005,"station_id":"TNT"},{"is_transit":false,"station_id":"LNA","distance":2671,"i_long":106.832616,"i_lat":-6.330363,"line":2,"time":3,"station_name":"Lenteng Agung","transit":false},{"i_lat":-6.339291,"transit":false,"line":2,"time":2,"is_transit":false,"station_id":"UP","i_long":106.834175,"station_name":"Univ. Pancasila","distance":1029},{"station_id":"UI","transit":false,"line":2,"is_transit":false,"station_name":"Univ. Indonesia","distance":2264,"time":3,"i_long":106.831474,"i_lat":-6.360749},{"i_long":106.831114,"time":2,"i_lat":-6.369073,"station_name":"Pondok Cina","line":2,"transit":false,"is_transit":false,"distance":1109,"station_id":"POC"},{"transit":false,"time":4,"station_id":"DPB","distance":2727,"is_transit":false,"i_lat":-6.391065,"i_long":106.819451,"station_name":"Depokbaru","line":2},{"i_long":106.816926,"station_id":"DP","transit":false,"is_transit":false,"i_lat":-6.405256,"line":2,"time":3,"distance":1584,"station_name":"Depok"}],[{"time":0,"station_id":"THB","line":1,"distance":0,"i_lat":-6.185545,"transit":false,"is_transit":false,"i_long":106.811091,"station_name":"Tanah Abang"},{"time":8,"is_transit":false,"i_lat":-6.155215,"i_long":106.800832,"line":1,"transit":false,"distance":3632,"station_id":"DU","station_name":"Duri"},{"i_long":106.79867,"line":1,"i_lat":-6.144674,"station_id":"AK","transit":false,"station_name":"Angke","time":4,"distance":1230,"is_transit":false},{"line":4,"distance":4102,"i_lat":-6.132549,"station_name":"Kampung Bandan","is_transit":true,"time":9,"i_long":106.826365,"station_id":"KPB","transit":true},{"is_transit":false,"station_id":"RJW","station_name":"Rajawali","i_long":106.836569,"line":11,"i_lat":-6.14505,"distance":1444,"time":3,"transit":false},{"transit":false,"i_lat":-6.161728,"i_long":106.839204,"is_transit":false,"time":5,"line":11,"station_id":"KMO","distance":1901,"station_name":"Kemayoran"},{"time":4,"station_name":"Pasar Senen","distance":1436,"i_long":106.84368,"station_id":"PSE","is_transit":false,"i_lat":-6.174784,"transit":false,"line":11},{"i_long":106.850107,"transit":false,"distance":1567,"time":8,"station_name":"Gang Sentiong","is_transit":false,"i_lat":-6.185975,"station_id":"GST","line":11},{"time":1,"is_transit":false,"transit":false,"i_lat":-6.193792,"line":11,"i_long":106.855437,"station_id":"KMT","station_name":"Kramat","distance":973},{"station_name":"Pondok Jati","distance":1829,"transit":false,"station_id":"POK","i_long":106.861737,"is_transit":false,"i_lat":-6.209188,"time":2,"line":11},{"is_transit":true,"transit":true,"station_id":"JNG","i_long":106.86807400000001,"time":9,"station_name":"Jatinegara","distance":1236,"line":1,"i_lat":-6.215091},{"is_transit":false,"station_name":"Matraman","i_long":106.858896,"transit":false,"i_lat":-6.212485,"station_id":"MTR","time":2,"distance":1377,"line":1},{"is_transit":true,"line":2,"transit":true,"time":2,"station_id":"MRI","distance":1275,"i_lat":-6.209883,"i_long":106.84912,"station_name":"Manggarai"},{"time":4,"station_name":"Tebet","transit":false,"i_long":106.857948,"distance":2610,"is_transit":false,"station_id":"TEB","i_lat":-6.226659,"line":2},{"line":2,"station_id":"CW","station_name":"Cawang","transit":false,"i_long":106.856607,"time":2,"is_transit":false,"distance":1230,"i_lat":-6.242512},{"time":3,"transit":false,"is_transit":false,"i_lat":-6.255332,"station_id":"DRN","line":2,"station_name":"Duren Kalibata","distance":1546,"i_long":106.85449},{"i_long":106.851577,"time":2,"distance":824,"station_name":"Pasar Minggu Baru","line":2,"is_transit":false,"transit":false,"station_id":"PSMB","i_lat":-6.263214},{"transit":false,"i_long":106.843999,"time":2,"is_transit":false,"station_name":"Pasar Minggu","line":2,"distance":2380,"station_id":"PSM","i_lat":-6.2842400000000005},{"station_name":"Tanjung Barat","i_lat":-6.3080680000000005,"distance":2820,"is_transit":false,"transit":false,"station_id":"TNT","i_long":106.838896,"line":2,"time":4},{"line":2,"time":3,"station_name":"Lenteng Agung","i_lat":-6.330363,"station_id":"LNA","distance":2671,"transit":false,"i_long":106.832616,"is_transit":false},{"station_name":"Univ. Pancasila","i_lat":-6.339291,"is_transit":false,"line":2,"time":2,"station_id":"UP","i_long":106.834175,"distance":1029,"transit":false},{"is_transit":false,"station_name":"Univ. Indonesia","i_lat":-6.360749,"distance":2264,"time":3,"transit":false,"line":2,"station_id":"UI","i_long":106.831474},{"i_long":106.831114,"is_transit":false,"transit":false,"station_id":"POC","time":2,"station_name":"Pondok Cina","i_lat":-6.369073,"distance":1109,"line":2},{"transit":false,"i_long":106.819451,"line":2,"distance":2727,"is_transit":false,"station_id":"DPB","time":4,"i_lat":-6.391065,"station_name":"Depokbaru"},{"distance":1584,"is_transit":false,"i_lat":-6.405256,"station_id":"DP","station_name":"Depok","line":2,"transit":false,"time":3,"i_long":106.816926}]]}