{"data":[[{"transit":false,"distance":0,"station_name":"Tanah Abang","i_long":106.811091,"line":1,"station_id":"THB","i_lat":-6.185545,"time":0,"is_transit":false},{"i_long":106.800832,"distance":3632,"line":1,"transit":false,"station_name":"Duri","time":8,"station_id":"DU","is_transit":false,"i_lat":-6.155215},{"line":1,"i_long":106.79867,"is_transit":false,"station_name":"Angke","transit":false,"time":4,"distance":1230,"i_lat":-6.144674,"station_id":"AK"},{"line":4,"station_id":"KPB","station_name":"Kampung Bandan","distance":4102,"transit":false,"is_transit":false,"i_lat":-6.132549,"time":9,"i_long":106.826365}],[{"station_name":"Tanah Abang","is_transit":false,"i_lat":-6.185545,"i_long":106.811091,"distance":0,"line":1,"station_id":"THB","time":0,"transit":false},{"station_name":"Karet","time":5,"is_transit":false,"transit":false,"station_id":"KAT","line":1,"distance":2029,"i_long":106.816351,"i_lat":-6.20132},{"time":1,"transit":false,"station_name":"Sudirman Baru","i_long":106.819881,"distance":471,"is_transit":false,"station_id":"SUDB","i_lat":-6.201433,"line":1},{"transit":false,"station_name":"Sudirman","distance":280,"time":1,"is_transit":false,"i_long":106.822649,"line":1,"station_id":"SUD","i_lat":-6.202263},{"station_id":"MRI","line":2,"is_transit":true,"transit":true,"station_name":"Manggarai","time":4,"distance":3186,"i_lat":-6.209883,"i_long":106.84912},{"i_long":106.840169,"station_id":"CKI","i_lat":-6.198556,"transit":false,"distance":1590,"time":4,"is_transit":false,"line":2,"station_name":"Cikini"},{"time":3,"station_name":"Gondangdia","i_long":106.832183,"i_lat":-6.186295,"distance":1750,"line":2,"station_id":"GDD","is_transit":false,"transit":false},{"distance":2015,"is_transit":false,"station_id":"JUA","time":4,"transit":false,"i_lat":-6.166716,"i_long":106.828284,"station_name":"Juanda","line":2},{"station_id":"SW","i_lat":-6.160725,"is_transit":false,"distance":1149,"i_long":106.827103,"station_name":"Sawah Besar","time":2,"line":2,"transit":false},{"i_lat":-6.149769,"i_long":106.82482,"line":2,"station_name":"Manggabesar","station_id":"MGB","is_transit":false,"transit":false,"time":2,"distance":906},{"is_transit":false,"line":2,"time":2,"i_long":106.820901,"distance":1080,"i_lat":-6.141205,"station_id":"JAY","transit":false,"station_name":"Jayakarta"},{"station_id":"JAKK","transit":true,"line":2,"time":4,"i_lat":-6.137569,"station_name":"Jakarta Kota","is_transit":true,"distance":1264,"i_long":106.812439},{"i_long":106.826365,"time":3,"station_name":"Kampung Bandan","line":4,"station_id":"KPB","is_transit":false,"distance":1364,"transit":false,"i_lat":-6.132549}],[{"time":0,"station_id":"THB","station_name":"Tanah Abang","is_transit":false,"transit":false,"line":1,"distance":0,"i_long":106.811091,"i_lat":-6.185545},{"time":5,"transit":false,"i_lat":-6.20132,"i_long":106.816351,"station_id":"KAT","station_name":"Karet","distance":2029,"is_transit":false,"line":1},{"distance":471,"transit":false,"i_long":106.819881,"line":1,"time":1,"i_lat":-6.201433,"station_name":"Sudirman Baru","station_id":"SUDB","is_transit":false},{"distance":280,"i_long":106.822649,"line":1,"station_id":"SUD","time":1,"transit":false,"station_name":"Sudirman","is_transit":false,"i_lat":-6.202263},{"station_id":"MRI","line":2,"time":4,"is_transit":false,"transit":false,"i_long":106.84912,"distance":3186,"i_lat":-6.209883,"station_name":"Manggarai"},{"station_name":"Matraman","distance":1275,"station_id":"MTR","transit":false,"i_lat":-6.212485,"i_long":106.858896,"is_transit":false,"line":1,"time":2},{"time":8,"line":1,"distance":1377,"is_transit":true,"station_id":"JNG","station_name":"Jatinegara","transit":true,"i_lat":-6.215091,"i_long":106.86807400000001},{"is_transit":false,"i_lat":-6.209188,"distance":1236,"station_name":"Pondok Jati","i_long":106.861737,"transit":false,"line":11,"time":2,"station_id":"POK"},{"time":2,"station_id":"KMT","station_name":"Kramat","line":11,"distance":1829,"is_transit":false,"i_lat":-6.193792,"i_long":106.855437,"transit":false},{"station_name":"Gang Sentiong","time":1,"distance":973,"station_id":"GST","i_lat":-6.185975,"is_transit":false,"line":11,"i_long":106.850107,"transit":false},{"distance":1567,"station_id":"PSE","transit":false,"time":8,"is_transit":false,"i_long":106.84368,"i_lat":-6.174784,"line":11,"station_name":"Pasar Senen"},{"station_name":"Kemayoran","transit":false,"time":4,"i_long":106.839204,"i_lat":-6.161728,"station_id":"KMO","is_transit":false,"line":11,"distance":1436},{"time":5,"station_id":"RJW","transit":false,"distance":1901,"i_lat":-6.14505,"is_transit":false,"line":11,"i_long":106.836569,"station_name":"Rajawali"},{"i_lat":-6.132549,"line":4,"station_id":"KPB","distance":1444,"is_transit":false,"time":3,"i_long":106.826365,"station_name":"Kampung Bandan","transit":false}]]}