{"data":[[{"time":0,"is_transit":false,"distance":0,"station_name":"Tanah Abang","transit":false,"station_id":"THB","i_long":106.811091,"i_lat":-6.185545,"line":1},{"line":1,"transit":false,"is_transit":false,"station_id":"KAT","distance":2029,"time":5,"station_name":"Karet","i_long":106.816351,"i_lat":-6.20132},{"distance":471,"i_lat":-6.201433,"i_long":106.819881,"station_id":"SUDB","station_name":"Sudirman Baru","transit":false,"line":1,"time":1,"is_transit":false},{"distance":280,"i_long":106.822649,"station_id":"SUD","time":1,"line":1,"is_transit":false,"i_lat":-6.202263,"transit":false,"station_name":"Sudirman"},{"i_lat":-6.209883,"line":2,"i_long":106.84912,"is_transit":true,"station_id":"MRI","station_name":"Manggarai","time":4,"distance":3186,"transit":true},{"station_id":"TEB","transit":false,"i_long":106.857948,"i_lat":-6.226659,"time":4,"line":2,"station_name":"Tebet","distance":2610,"is_transit":false},{"transit":false,"station_name":"Cawang","i_lat":-6.242512,"is_transit":false,"line":2,"distance":1230,"i_long":106.856607,"station_id":"CW","time":2},{"station_name":"Duren Kalibata","transit":false,"i_long":106.85449,"is_transit":false,"distance":1546,"station_id":"DRN","time":3,"i_lat":-6.255332,"line":2}],[{"i_lat":-6.185545,"i_long":106.811091,"transit":false,"station_name":"Tanah Abang","line":1,"time":0,"is_transit":false,"station_id":"THB","distance":0},{"distance":3632,"i_lat":-6.155215,"is_transit":false,"transit":false,"station_name":"Duri","i_long":106.800832,"line":1,"time":8,"station_id":"DU"},{"station_name":"Angke","time":4,"station_id":"AK","is_transit":false,"line":1,"i_long":106.79867,"transit":false,"distance":1230,"i_lat":-6.144674},{"station_name":"Kampung Bandan","i_lat":-6.132549,"is_transit":true,"transit":true,"time":9,"line":4,"station_id":"KPB","distance":4102,"i_long":106.826365},{"transit":true,"line":2,"station_name":"Jakarta Kota","distance":1364,"time":3,"i_lat":-6.137569,"is_transit":true,"i_long":106.812439,"station_id":"JAKK"},{"line":2,"station_name":"Jayakarta","distance":1264,"time":4,"is_transit":false,"station_id":"JAY","transit":false,"i_lat":-6.141205,"i_long":106.820901},{"i_lat":-6.149769,"i_long":106.82482,"station_name":"Manggabesar","line":2,"is_transit":false,"station_id":"MGB","distance":1080,"transit":false,"time":2},{"transit":false,"i_lat":-6.160725,"line":2,"is_transit":false,"i_long":106.827103,"distance":906,"station_id":"SW","station_name":"Sawah Besar","time":2},{"is_transit":false,"station_id":"JUA","station_name":"Juanda","i_long":106.828284,"line":2,"time":2,"transit":false,"i_lat":-6.166716,"distance":1149},{"line":2,"station_id":"GDD","is_transit":false,"station_name":"Gondangdia","distance":2015,"time":4,"i_lat":-6.186295,"transit":false,"i_long":106.832183},{"station_name":"Cikini","distance":1750,"station_id":"CKI","is_transit":false,"i_lat":-6.198556,"i_long":106.840169,"line":2,"transit":false,"time":3},{"station_id":"MRI","line":2,"distance":1590,"i_long":106.84912,"time":4,"i_lat":-6.209883,"station_name":"Manggarai","is_transit":false,"transit":false},{"station_id":"TEB","is_transit":false,"transit":false,"time":4,"i_lat":-6.226659,"distance":2610,"line":2,"station_name":"Tebet","i_long":106.857948},{"line":2,"station_id":"CW","station_name":"Cawang","transit":false,"is_transit":false,"time":2,"i_lat":-6.242512,"i_long":106.856607,"distance":1230},{"line":2,"time":3,"station_id":"DRN","i_long":106.85449,"is_transit":false,"i_lat":-6.255332,"distance":1546,"transit":false,"station_name":"Duren Kalibata"}],[{"station_id":"THB","distance":0,"station_name":"Tanah Abang","is_transit":false,"transit":false,"i_long":106.811091,"time":0,"line":1,"i_lat":-6.185545},{"i_long":106.800832,"station_id":"DU","line":1,"is_transit":false,"time":8,"station_name":"Duri","distance":3632,"transit":false,"i_lat":-6.155215},{"distance":1230,"station_id":"AK","line":1,"is_transit":false,"i_lat":-6.144674,"time":4,"i_long":106.79867,"transit":false,"station_name":"Angke"},{"i_lat":-6.132549,"time":9,"transit":true,"station_name":"Kampung Bandan","line":4,"is_transit":true,"distance":4102,"i_long":106.826365,"station_id":"KPB"},{"station_id":"RJW","is_transit":false,"transit":false,"i_long":106.836569,"line":11,"distance":1444,"time":3,"station_name":"Rajawali","i_lat":-6.14505},{"station_name":"Kemayoran","transit":false,"time":5,"distance":1901,"i_long":106.839204,"station_id":"KMO","line":11,"i_lat":-6.161728,"is_transit":false},{"transit":false,"i_lat":-6.174784,"distance":1436,"is_transit":false,"station_name":"Pasar Senen","i_long":106.84368,"station_id":"PSE","line":11,"time":4},{"station_name":"Gang Sentiong","station_id":"GST","i_lat":-6.185975,"is_transit":false,"transit":false,"time":8,"i_long":106.850107,"line":11,"distance":1567},{"station_name":"Kramat","distance":973,"time":1,"station_id":"KMT","is_transit":false,"line":11,"transit":false,"i_long":106.855437,"i_lat":-6.193792},{"station_name":"Pondok Jati","station_id":"POK","is_transit":false,"time":2,"distance":1829,"transit":false,"line":11,"i_lat":-6.209188,"i_long":106.861737},{"station_id":"JNG","is_transit":true,"i_long":106.86807400000001,"station_name":"Jatinegara","time":9,"transit":true,"line":1,"i_lat":-6.215091,"distance":1236},{"i_long":106.858896,"i_lat":-6.212485,"station_name":"Matraman","is_transit":false,"transit":false,"station_id":"MTR","line":1,"distance":1377,"time":2},{"line":2,"distance":1275,"transit":true,"station_id":"MRI","station_name":"Manggarai","time":2,"i_lat":-6.209883,"i_long":106.84912,"is_transit":true},{"time":4,"station_name":"Tebet","line":2,"is_transit":false,"transit":false,"i_long":106.857948,"distance":2610,"station_id":"TEB","i_lat":-6.226659},{"station_id":"CW","distance":1230,"transit":false,"station_name":"Cawang","i_long":106.856607,"is_transit":false,"time":2,"i_lat":-6.242512,"line":2},{"time":3,"is_transit":false,"i_long":106.85449,"transit":false,"line":2,"station_name":"Duren Kalibata","station_id":"DRN","distance":1546,"i_lat":-6.255332}]]}