{"data":[[{"distance":0,"station_id":"THB","i_long":106.811091,"station_name":"Tanah Abang","is_transit":false,"line":1,"time":0,"i_lat":-6.185545,"transit":false},{"time":5,"i_lat":-6.20132,"station_name":"Karet","transit":false,"i_long":106.816351,"station_id":"KAT","line":1,"distance":2029,"is_transit":false},{"time":1,"station_id":"SUDB","i_lat":-6.201433,"distance":471,"i_long":106.819881,"line":1,"station_name":"Sudirman Baru","is_transit":false,"transit":false},{"distance":280,"station_name":"Sudirman","i_long":106.822649,"time":1,"transit":false,"station_id":"SUD","is_transit":false,"i_lat":-6.202263,"line":1},{"time":4,"is_transit":true,"station_id":"MRI","station_name":"Manggarai","transit":true,"i_long":106.84912,"i_lat":-6.209883,"line":2,"distance":3186},{"i_long":106.857948,"station_id":"TEB","time":4,"i_lat":-6.226659,"line":2,"transit":false,"station_name":"Tebet","distance":2610,"is_transit":false},{"distance":1230,"i_lat":-6.242512,"station_id":"CW","transit":false,"i_long":106.856607,"line":2,"station_name":"Cawang","is_transit":false,"time":2},{"line":2,"station_name":"Duren Kalibata","station_id":"DRN","transit":false,"is_transit":false,"time":3,"i_lat":-6.255332,"distance":1546,"i_long":106.85449}],[{"time":0,"i_lat":-6.185545,"station_id":"THB","line":1,"distance":0,"station_name":"Tanah Abang","transit":false,"i_long":106.811091,"is_transit":false},{"i_lat":-6.155215,"is_transit":false,"time":8,"distance":3632,"i_long":106.800832,"transit":false,"station_name":"Duri","station_id":"DU","line":1},{"time":4,"transit":false,"station_name":"Angke","is_transit":false,"distance":1230,"line":1,"i_long":106.79867,"station_id":"AK","i_lat":-6.144674},{"transit":true,"time":9,"station_id":"KPB","i_lat":-6.132549,"station_name":"Kampung Bandan","line":4,"distance":4102,"is_transit":true,"i_long":106.826365},{"transit":true,"time":3,"i_lat":-6.137569,"i_long":106.812439,"line":2,"is_transit":true,"station_name":"Jakarta Kota","station_id":"JAKK","distance":1364},{"station_name":"Jayakarta","i_lat":-6.141205,"distance":1264,"is_transit":false,"transit":false,"station_id":"JAY","time":4,"i_long":106.820901,"line":2},{"time":2,"i_long":106.82482,"is_transit":false,"station_name":"Manggabesar","transit":false,"distance":1080,"line":2,"i_lat":-6.149769,"station_id":"MGB"},{"transit":false,"is_transit":false,"station_id":"SW","time":2,"station_name":"Sawah Besar","line":2,"i_long":106.827103,"i_lat":-6.160725,"distance":906},{"station_id":"JUA","time":2,"i_long":106.828284,"line":2,"station_name":"Juanda","is_transit":false,"distance":1149,"transit":false,"i_lat":-6.166716},{"time":4,"distance":2015,"i_long":106.832183,"station_name":"Gondangdia","i_lat":-6.186295,"transit":false,"is_transit":false,"line":2,"station_id":"GDD"},{"station_name":"Cikini","station_id":"CKI","time":3,"is_transit":false,"distance":1750,"line":2,"i_long":106.840169,"transit":false,"i_lat":-6.198556},{"transit":false,"is_transit":false,"station_name":"Manggarai","i_long":106.84912,"line":2,"station_id":"MRI","i_lat":-6.209883,"distance":1590,"time":4},{"i_long":106.857948,"line":2,"is_transit":false,"transit":false,"station_id":"TEB","i_lat":-6.226659,"time":4,"distance":2610,"station_name":"Tebet"},{"station_name":"Cawang","time":2,"transit":false,"distance":1230,"is_transit":false,"station_id":"CW","i_lat":-6.242512,"line":2,"i_long":106.856607},{"transit":false,"i_long":106.85449,"station_id":"DRN","i_lat":-6.255332,"distance":1546,"is_transit":false,"line":2,"station_name":"Duren Kalibata","time":3}],[{"is_transit":false,"time":0,"line":1,"transit":false,"i_long":106.811091,"i_lat":-6.185545,"station_id":"THB","distance":0,"station_name":"Tanah Abang"},{"transit":false,"station_name":"Duri","distance":3632,"line":1,"time":8,"station_id":"DU","i_lat":-6.155215,"i_long":106.800832,"is_transit":false},{"is_transit":false,"station_name":"Angke","time":4,"distance":1230,"transit":false,"i_long":106.79867,"station_id":"AK","line":1,"i_lat":-6.144674},{"transit":true,"station_name":"Kampung Bandan","i_long":106.826365,"line":4,"is_transit":true,"time":9,"station_id":"KPB","i_lat":-6.132549,"distance":4102},{"station_id":"RJW","i_long":106.836569,"station_name":"Rajawali","i_lat":-6.14505,"time":3,"transit":false,"is_transit":false,"line":11,"distance":1444},{"time":5,"is_transit":false,"i_long":106.839204,"transit":false,"distance":1901,"line":11,"i_lat":-6.161728,"station_name":"Kemayoran","station_id":"KMO"},{"i_long":106.84368,"transit":false,"station_id":"PSE","is_transit":false,"time":4,"distance":1436,"i_lat":-6.174784,"station_name":"Pasar Senen","line":11},{"time":8,"line":11,"i_lat":-6.185975,"i_long":106.850107,"station_id":"GST","transit":false,"station_name":"Gang Sentiong","distance":1567,"is_transit":false},{"station_id":"KMT","station_name":"Kramat","i_lat":-6.193792,"transit":false,"distance":973,"time":1,"is_transit":false,"i_long":106.855437,"line":11},{"is_transit":false,"station_name":"Pondok Jati","distance":1829,"station_id":"POK","i_lat":-6.209188,"line":11,"i_long":106.861737,"time":2,"transit":false},{"i_long":106.86807400000001,"distance":1236,"transit":true,"time":9,"station_id":"JNG","line":1,"station_name":"Jatinegara","i_lat":-6.215091,"is_transit":true},{"station_id":"MTR","i_long":106.858896,"is_transit":false,"line":1,"distance":1377,"station_name":"Matraman","i_lat":-6.212485,"transit":false,"time":2},{"distance":1275,"i_long":106.84912,"i_lat":-6.209883,"station_name":"Manggarai","station_id":"MRI","transit":true,"line":2,"is_transit":true,"time":2},{"station_name":"Tebet","is_transit":false,"line":2,"transit":false,"i_lat":-6.226659,"time":4,"station_id":"TEB","i_long":106.857948,"distance":2610},{"time":2,"transit":false,"distance":1230,"station_id":"CW","station_name":"Cawang","i_lat":-6.242512,"line":2,"is_transit":false,"i_long":106.856607},{"station_name":"Duren Kalibata","station_id":"DRN","distance":1546,"line":2,"time":3,"i_lat":-6.255332,"transit":false,"is_transit":false,"i_long":106.85449}]]}