{"data":[[{"i_lat":-6.185545,"i_long":106.811091,"line":1,"transit":false,"station_name":"Tanah Abang","is_transit":false,"time":0,"distance":0,"station_id":"THB"},{"time":5,"i_lat":-6.20132,"i_long":106.816351,"station_id":"KAT","is_transit":false,"transit":false,"station_name":"Karet","line":1,"distance":2029},{"i_lat":-6.201433,"is_transit":false,"line":1,"time":1,"distance":471,"station_id":"SUDB","i_long":106.819881,"station_name":"Sudirman Baru","transit":false},{"i_lat":-6.202263,"is_transit":false,"line":1,"distance":280,"station_id":"SUD","station_name":"Sudirman","i_long":106.822649,"time":1,"transit":false},{"distance":3186,"is_transit":false,"station_name":"Manggarai","i_lat":-6.209883,"time":4,"transit":false,"station_id":"MRI","i_long":106.84912,"line":2},{"i_long":106.858896,"station_name":"Matraman","i_lat":-6.212485,"time":2,"distance":1275,"station_id":"MTR","transit":false,"is_transit":false,"line":1},{"station_id":"JNG","is_transit":false,"station_name":"Jatinegara","i_long":106.86807400000001,"distance":1377,"line":1,"time":8,"i_lat":-6.215091,"transit":false},{"station_id":"KLD","distance":3395,"is_transit":false,"transit":false,"station_name":"Klender","i_long":106.899548,"line":1,"time":3,"i_lat":-6.2135},{"transit":false,"line":1,"station_id":"BUA","is_transit":false,"i_lat":-6.215568,"distance":3100,"station_name":"Buaran","i_long":106.922662,"time":2},{"time":1,"is_transit":false,"station_id":"KLDB","station_name":"Klenderbaru","i_long":106.939679,"i_lat":-6.217455,"distance":1305,"transit":false,"line":1},{"is_transit":false,"time":8,"transit":false,"distance":1385,"station_id":"CUK","station_name":"Cakung","line":1,"i_lat":-6.219053,"i_long":106.951283},{"i_lat":-6.224515,"station_id":"KRI","line":1,"distance":3097,"transit":false,"time":3,"is_transit":false,"station_name":"Kranji","i_long":106.977657},{"distance":2520,"time":4,"station_name":"Bekasi","transit":false,"line":1,"i_lat":-6.236616,"i_long":106.997013,"is_transit":false,"station_id":"BKS"}],[{"station_name":"Tanah Abang","time":0,"is_transit":false,"transit":false,"i_long":106.811091,"distance":0,"station_id":"THB","line":1,"i_lat":-6.185545},{"station_id":"DU","is_transit":false,"i_lat":-6.155215,"station_name":"Duri","distance":3632,"time":8,"i_long":106.800832,"transit":false,"line":1},{"i_lat":-6.144674,"i_long":106.79867,"line":1,"time":4,"is_transit":false,"station_id":"AK","station_name":"Angke","transit":false,"distance":1230},{"time":9,"line":4,"station_name":"Kampung Bandan","i_long":106.826365,"is_transit":true,"transit":true,"i_lat":-6.132549,"station_id":"KPB","distance":4102},{"is_transit":false,"distance":1444,"station_id":"RJW","station_name":"Rajawali","line":11,"time":3,"i_lat":-6.14505,"transit":false,"i_long":106.836569},{"is_transit":false,"distance":1901,"line":11,"transit":false,"time":5,"station_id":"KMO","station_name":"Kemayoran","i_long":106.839204,"i_lat":-6.161728},{"is_transit":false,"station_id":"PSE","transit":false,"i_lat":-6.174784,"time":4,"line":11,"distance":1436,"station_name":"Pasar Senen","i_long":106.84368},{"distance":1567,"i_long":106.850107,"station_name":"Gang Sentiong","transit":false,"i_lat":-6.185975,"is_transit":false,"time":8,"station_id":"GST","line":11},{"i_lat":-6.193792,"distance":973,"station_id":"KMT","station_name":"Kramat","transit":false,"time":1,"is_transit":false,"i_long":106.855437,"line":11},{"i_long":106.861737,"line":11,"distance":1829,"station_id":"POK","station_name":"Pondok Jati","i_lat":-6.209188,"is_transit":false,"transit":false,"time":2},{"station_id":"JNG","transit":true,"is_transit":true,"i_lat":-6.215091,"time":9,"line":1,"station_name":"Jatinegara","distance":1236,"i_long":106.86807400000001},{"transit":false,"time":3,"is_transit":false,"line":1,"station_id":"KLD","distance":3395,"i_long":106.899548,"i_lat":-6.2135,"station_name":"Klender"},{"i_long":106.922662,"line":1,"transit":false,"station_name":"Buaran","station_id":"BUA","time":2,"is_transit":false,"i_lat":-6.215568,"distance":3100},{"distance":1305,"i_lat":-6.217455,"i_long":106.939679,"line":1,"transit":false,"station_id":"KLDB","time":1,"station_name":"Klenderbaru","is_transit":false},{"distance":1385,"transit":false,"line":1,"i_long":106.951283,"is_transit":false,"time":8,"station_name":"Cakung","i_lat":-6.219053,"station_id":"CUK"},{"station_id":"KRI","time":3,"transit":false,"is_transit":false,"i_lat":-6.224515,"line":1,"distance":3097,"station_name":"Kranji","i_long":106.977657},{"distance":2520,"time":4,"i_long":106.997013,"i_lat":-6.236616,"station_name":"Bekasi","station_id":"BKS","transit":false,"line":1,"is_transit":false}],[{"distance":0,"station_id":"THB","transit":false,"i_lat":-6.185545,"i_long":106.811091,"station_name":"Tanah Abang","line":1,"is_transit":false,"time":0},{"transit":false,"time":8,"line":1,"is_transit":false,"distance":3632,"station_name":"Duri","i_lat":-6.155215,"station_id":"DU","i_long":106.800832},{"time":4,"i_lat":-6.144674,"distance":1230,"is_transit":false,"station_name":"Angke","station_id":"AK","line":1,"transit":false,"i_long":106.79867},{"is_transit":true,"distance":4102,"station_name":"Kampung Bandan","i_lat":-6.132549,"transit":true,"line":4,"time":9,"station_id":"KPB","i_long":106.826365},{"time":3,"station_id":"JAKK","i_long":106.812439,"station_name":"Jakarta Kota","is_transit":true,"distance":1364,"i_lat":-6.137569,"line":2,"transit":true},{"time":4,"line":2,"distance":1264,"is_transit":false,"transit":false,"i_lat":-6.141205,"i_long":106.820901,"station_name":"Jayakarta","station_id":"JAY"},{"transit":false,"station_name":"Manggabesar","time":2,"is_transit":false,"i_lat":-6.149769,"station_id":"MGB","line":2,"distance":1080,"i_long":106.82482},{"distance":906,"time":2,"is_transit":false,"transit":false,"station_name":"Sawah Besar","line":2,"i_long":106.827103,"station_id":"SW","i_lat":-6.160725},{"station_id":"JUA","i_long":106.828284,"distance":1149,"is_transit":false,"i_lat":-6.166716,"transit":false,"time":2,"station_name":"Juanda","line":2},{"i_long":106.832183,"transit":false,"line":2,"station_name":"Gondangdia","time":4,"station_id":"GDD","is_transit":false,"distance":2015,"i_lat":-6.186295},{"time":3,"transit":false,"line":2,"is_transit":false,"distance":1750,"i_long":106.840169,"station_id":"CKI","station_name":"Cikini","i_lat":-6.198556},{"station_id":"MRI","time":4,"is_transit":true,"transit":true,"station_name":"Manggarai","i_lat":-6.209883,"i_long":106.84912,"distance":1590,"line":2},{"is_transit":false,"i_long":106.858896,"i_lat":-6.212485,"station_id":"MTR","transit":false,"distance":1275,"time":2,"station_name":"Matraman","line":1},{"distance":1377,"station_name":"Jatinegara","transit":false,"line":1,"station_id":"JNG","time":8,"i_lat":-6.215091,"i_long":106.86807400000001,"is_transit":false},{"i_long":106.899548,"is_transit":false,"time":3,"transit":false,"station_id":"KLD","distance":3395,"line":1,"station_name":"Klender","i_lat":-6.2135},{"distance":3100,"i_long":106.922662,"station_id":"BUA","i_lat":-6.215568,"line":1,"station_name":"Buaran","time":2,"is_transit":false,"transit":false},{"station_id":"KLDB","line":1,"time":1,"distance":1305,"i_lat":-6.217455,"is_transit":false,"station_name":"Klenderbaru","i_long":106.939679,"transit":false},{"transit":false,"is_transit":false,"distance":1385,"time":8,"line":1,"i_lat":-6.219053,"i_long":106.951283,"station_name":"Cakung","station_id":"CUK"},{"station_id":"KRI","i_lat":-6.224515,"i_long":106.977657,"distance":3097,"station_name":"Kranji","line":1,"transit":false,"is_transit":false,"time":3},{"station_id":"BKS","i_lat":-6.236616,"i_long":106.997013,"station_name":"Bekasi","time":4,"distance":2520,"is_transit":false,"transit":false,"line":1}],[{"is_transit":false,"line":1,"station_name":"Tanah Abang","i_lat":-6.185545,"distance":0,"transit":false,"time":0,"station_id":"THB","i_long":106.811091},{"time":5,"transit":false,"i_lat":-6.20132,"station_name":"Karet","station_id":"KAT","line":1,"is_transit":false,"i_long":106.816351,"distance":2029},{"transit":false,"station_name":"Sudirman Baru","is_transit":false,"i_lat":-6.201433,"distance":471,"i_long":106.819881,"time":1,"station_id":"SUDB","line":1},{"transit":false,"time":1,"line":1,"i_long":106.822649,"station_name":"Sudirman","station_id":"SUD","i_lat":-6.202263,"distance":280,"is_transit":false},{"station_name":"Manggarai","i_long":106.84912,"time":4,"distance":3186,"i_lat":-6.209883,"station_id":"MRI","transit":true,"line":2,"is_transit":true},{"distance":1590,"i_long":106.840169,"time":4,"is_transit":false,"station_id":"CKI","transit":false,"line":2,"station_name":"Cikini","i_lat":-6.198556},{"line":2,"time":3,"distance":1750,"station_id":"GDD","transit":false,"is_transit":false,"station_name":"Gondangdia","i_lat":-6.186295,"i_long":106.832183},{"is_transit":false,"i_lat":-6.166716,"line":2,"station_name":"Juanda","transit":false,"station_id":"JUA","time":4,"i_long":106.828284,"distance":2015},{"i_long":106.827103,"time":2,"distance":1149,"transit":false,"is_transit":false,"station_id":"SW","station_name":"Sawah Besar","i_lat":-6.160725,"line":2},{"distance":906,"i_long":106.82482,"is_transit":false,"time":2,"station_id":"MGB","transit":false,"station_name":"Manggabesar","line":2,"i_lat":-6.149769},{"i_lat":-6.141205,"is_transit":false,"station_name":"Jayakarta","transit":false,"time":2,"i_long":106.820901,"station_id":"JAY","line":2,"distance":1080},{"time":4,"i_lat":-6.137569,"line":2,"distance":1264,"station_id":"JAKK","i_long":106.812439,"station_name":"Jakarta Kota","transit":true,"is_transit":true},{"station_name":"Kampung Bandan","i_long":106.826365,"distance":1364,"i_lat":-6.132549,"is_transit":true,"line":4,"transit":true,"station_id":"KPB","time":3},{"i_lat":-6.14505,"station_id":"RJW","station_name":"Rajawali","i_long":106.836569,"line":11,"is_transit":false,"distance":1444,"time":3,"transit":false},{"is_transit":false,"i_long":106.839204,"line":11,"i_lat":-6.161728,"station_name":"Kemayoran","distance":1901,"time":5,"station_id":"KMO","transit":false},{"i_lat":-6.174784,"transit":false,"time":4,"distance":1436,"i_long":106.84368,"is_transit":false,"station_id":"PSE","line":11,"station_name":"Pasar Senen"},{"is_transit":false,"station_name":"Gang Sentiong","time":8,"line":11,"i_long":106.850107,"distance":1567,"i_lat":-6.185975,"transit":false,"station_id":"GST"},{"is_transit":false,"time":1,"station_id":"KMT","i_lat":-6.193792,"transit":false,"distance":973,"i_long":106.855437,"station_name":"Kramat","line":11},{"i_lat":-6.209188,"time":2,"is_transit":false,"station_name":"Pondok Jati","transit":false,"i_long":106.861737,"station_id":"POK","line":11,"distance":1829},{"distance":1236,"station_name":"Jatinegara","is_transit":true,"station_id":"JNG","i_lat":-6.215091,"time":9,"transit":true,"i_long":106.86807400000001,"line":1},{"is_transit":false,"time":3,"transit":false,"i_long":106.899548,"distance":3395,"station_id":"KLD","line":1,"i_lat":-6.2135,"station_name":"Klender"},{"station_name":"Buaran","transit":false,"is_transit":false,"i_long":106.922662,"line":1,"distance":3100,"time":2,"station_id":"BUA","i_lat":-6.215568},{"time":1,"station_id":"KLDB","transit":false,"i_long":106.939679,"line":1,"distance":1305,"is_transit":false,"station_name":"Klenderbaru","i_lat":-6.217455},{"is_transit":false,"line":1,"time":8,"transit":false,"station_name":"Cakung","i_lat":-6.219053,"station_id":"CUK","i_long":106.951283,"distance":1385},{"i_lat":-6.224515,"station_id":"KRI","line":1,"transit":false,"is_transit":false,"station_name":"Kranji","time":3,"distance":3097,"i_long":106.977657},{"i_lat":-6.236616,"i_long":106.997013,"transit":false,"is_transit":false,"line":1,"time":4,"distance":2520,"station_name":"Bekasi","station_id":"BKS"}]]}