{"data":[[{"is_transit":false,"transit":false,"station_name":"Tanah Abang","i_lat":-6.185545,"distance":0,"i_long":106.811091,"time":0,"line":1,"station_id":"THB"},{"i_lat":-6.207404,"line":6,"is_transit":false,"time":6,"transit":false,"i_long":106.79689,"station_name":"Palmerah","distance":3191,"station_id":"PLM"},{"line":6,"station_name":"Kebayoran","is_transit":false,"i_long":106.780334,"i_lat":-6.237242,"time":7,"station_id":"KBY","transit":false,"distance":3737},{"station_id":"PDJ","station_name":"Pondokranji","i_long":106.74273,"line":6,"is_transit":false,"time":8,"distance":6218,"transit":false,"i_lat":-6.276362},{"i_lat":-6.288927,"distance":2179,"i_long":106.728916,"time":3,"transit":false,"station_name":"Jurangmangu","is_transit":false,"station_id":"JMU","line":6}]]}