{"data":[[{"station_id":"THB","transit":false,"i_lat":-6.185545,"line":1,"i_long":106.811091,"station_name":"Tanah Abang","time":0,"distance":0,"is_transit":true},{"line":6,"time":6,"i_long":106.79689,"is_transit":false,"station_id":"PLM","station_name":"Palmerah","transit":false,"distance":3191,"i_lat":-6.207404},{"line":6,"distance":3737,"station_name":"Kebayoran","time":7,"station_id":"KBY","i_lat":-6.237242,"i_long":106.780334,"is_transit":false,"transit":false},{"station_name":"Pondokranji","i_long":106.74273,"distance":6218,"i_lat":-6.276362,"is_transit":false,"station_id":"PDJ","transit":false,"line":6,"time":8},{"line":6,"station_id":"JMU","i_long":106.728916,"i_lat":-6.288927,"distance":2179,"transit":false,"time":3,"station_name":"Jurangmangu","is_transit":false},{"time":4,"is_transit":false,"station_name":"Sudimara","station_id":"SDM","distance":1994,"i_long":106.712277,"line":6,"i_lat":-6.296963,"transit":false},{"station_id":"RU","line":6,"is_transit":false,"station_name":"Rawa Buntu","distance":4566,"i_lat":-6.314823,"i_long":106.675475,"time":6,"transit":false},{"station_name":"Serpong","transit":false,"distance":2413,"i_long":106.66566,"is_transit":false,"station_id":"SRP","time":4,"i_lat":-6.319871,"line":6},{"transit":false,"i_lat":-6.32484,"is_transit":false,"station_id":"CSK","time":4,"distance":1784,"i_long":106.640411,"line":0,"station_name":"Cisauk"},{"time":4,"is_transit":false,"transit":false,"distance":2519,"station_id":"CC","station_name":"Cicayur","i_lat":-6.329547,"i_long":106.617853,"line":0},{"is_transit":false,"station_id":"PRP","transit":false,"i_long":106.568863,"line":6,"station_name":"Parung Panjang","time":8,"distance":5968,"i_lat":-6.3441410000000005},{"station_name":"Cilejit","distance":7025,"time":9,"line":0,"i_long":106.508482,"station_id":"CJT","is_transit":false,"i_lat":-6.354349,"transit":false},{"is_transit":false,"transit":false,"i_lat":-6.338021,"station_id":"DAR","station_name":"Daru","i_long":106.491338,"distance":2675,"time":6,"line":0},{"transit":false,"distance":3902,"line":6,"station_id":"TEJ","i_lat":-6.327251,"time":5,"is_transit":false,"station_name":"Tenjo","i_long":106.460812},{"transit":false,"station_name":"Tigaraksa","distance":2974,"time":5,"i_long":106.425991,"line":6,"is_transit":false,"i_lat":-6.328533,"station_id":"TGS"},{"i_long":106.411216,"i_lat":-6.33561,"distance":2651,"station_id":"CKY","station_name":"Cikoya","is_transit":false,"transit":false,"line":0,"time":3},{"transit":false,"station_name":"Maja","distance":1853,"time":4,"station_id":"MJ","i_lat":-6.332307,"i_long":106.394373,"line":6,"is_transit":false},{"is_transit":false,"transit":false,"distance":7293,"i_long":106.332092,"i_lat":-6.334892,"time":10,"station_name":"Citeras","line":0,"station_id":"CTR"}]]}