{"data":[[{"line":1,"is_transit":true,"distance":0,"station_id":"THB","station_name":"Tanah Abang","transit":false,"i_lat":-6.185545,"i_long":106.811091,"time":0},{"line":6,"distance":3191,"station_id":"PLM","time":6,"i_lat":-6.207404,"i_long":106.79689,"station_name":"Palmerah","transit":false,"is_transit":false},{"station_id":"KBY","distance":3737,"time":7,"i_long":106.780334,"line":6,"transit":false,"is_transit":false,"station_name":"Kebayoran","i_lat":-6.237242},{"transit":false,"station_id":"PDJ","i_lat":-6.276362,"station_name":"Pondokranji","time":8,"line":6,"i_long":106.74273,"distance":6218,"is_transit":false},{"station_name":"Jurangmangu","transit":false,"i_long":106.728916,"time":3,"is_transit":false,"line":6,"i_lat":-6.288927,"station_id":"JMU","distance":2179}]]}