{"data":[[{"line":1,"time":0,"station_name":"Tanah Abang","i_lat":-6.185545,"distance":0,"station_id":"THB","transit":false,"i_long":106.811091,"is_transit":false},{"line":1,"distance":2029,"time":5,"transit":false,"station_id":"KAT","i_long":106.816351,"is_transit":false,"station_name":"Karet","i_lat":-6.20132},{"is_transit":false,"station_name":"Sudirman Baru","station_id":"SUDB","i_lat":-6.201433,"line":1,"transit":false,"time":1,"distance":471,"i_long":106.819881},{"line":1,"is_transit":false,"station_id":"SUD","station_name":"Sudirman","time":1,"distance":280,"i_long":106.822649,"i_lat":-6.202263,"transit":false}],[{"station_name":"Tanah Abang","transit":false,"i_lat":-6.185545,"is_transit":false,"station_id":"THB","i_long":106.811091,"time":0,"line":1,"distance":0},{"is_transit":false,"i_long":106.800832,"i_lat":-6.155215,"line":1,"time":8,"transit":false,"station_name":"Duri","distance":3632,"station_id":"DU"},{"line":1,"is_transit":false,"station_name":"Angke","distance":1230,"time":4,"i_lat":-6.144674,"transit":false,"station_id":"AK","i_long":106.79867},{"i_lat":-6.132549,"i_long":106.826365,"station_id":"KPB","station_name":"Kampung Bandan","is_transit":true,"transit":true,"line":4,"time":9,"distance":4102},{"line":2,"i_lat":-6.137569,"distance":1364,"i_long":106.812439,"station_name":"Jakarta Kota","station_id":"JAKK","time":3,"is_transit":true,"transit":true},{"station_id":"JAY","time":4,"transit":false,"station_name":"Jayakarta","i_lat":-6.141205,"distance":1264,"is_transit":false,"i_long":106.820901,"line":2},{"station_name":"Manggabesar","i_long":106.82482,"time":2,"line":2,"station_id":"MGB","is_transit":false,"i_lat":-6.149769,"distance":1080,"transit":false},{"i_lat":-6.160725,"station_id":"SW","transit":false,"time":2,"distance":906,"is_transit":false,"station_name":"Sawah Besar","i_long":106.827103,"line":2},{"transit":false,"line":2,"is_transit":false,"distance":1149,"station_id":"JUA","i_lat":-6.166716,"time":2,"i_long":106.828284,"station_name":"Juanda"},{"i_lat":-6.186295,"time":4,"station_name":"Gondangdia","transit":false,"is_transit":false,"i_long":106.832183,"station_id":"GDD","line":2,"distance":2015},{"i_lat":-6.198556,"transit":false,"station_name":"Cikini","line":2,"distance":1750,"station_id":"CKI","is_transit":false,"time":3,"i_long":106.840169},{"distance":1590,"transit":true,"i_long":106.84912,"is_transit":true,"station_id":"MRI","i_lat":-6.209883,"line":2,"station_name":"Manggarai","time":4},{"i_long":106.822649,"i_lat":-6.202263,"station_name":"Sudirman","distance":3186,"station_id":"SUD","is_transit":false,"transit":false,"line":1,"time":4}],[{"is_transit":false,"station_name":"Tanah Abang","distance":0,"i_long":106.811091,"time":0,"transit":false,"i_lat":-6.185545,"station_id":"THB","line":1},{"station_name":"Duri","is_transit":false,"transit":false,"i_long":106.800832,"line":1,"time":8,"i_lat":-6.155215,"distance":3632,"station_id":"DU"},{"station_id":"AK","time":4,"i_long":106.79867,"station_name":"Angke","is_transit":false,"line":1,"distance":1230,"transit":false,"i_lat":-6.144674},{"i_lat":-6.132549,"is_transit":true,"i_long":106.826365,"transit":true,"station_name":"Kampung Bandan","station_id":"KPB","line":4,"distance":4102,"time":9},{"is_transit":false,"i_lat":-6.14505,"station_id":"RJW","time":3,"distance":1444,"i_long":106.836569,"line":11,"transit":false,"station_name":"Rajawali"},{"time":5,"i_lat":-6.161728,"station_name":"Kemayoran","line":11,"is_transit":false,"i_long":106.839204,"station_id":"KMO","transit":false,"distance":1901},{"distance":1436,"line":11,"station_id":"PSE","station_name":"Pasar Senen","i_lat":-6.174784,"is_transit":false,"transit":false,"time":4,"i_long":106.84368},{"distance":1567,"i_lat":-6.185975,"transit":false,"station_name":"Gang Sentiong","time":8,"station_id":"GST","i_long":106.850107,"is_transit":false,"line":11},{"station_id":"KMT","transit":false,"line":11,"station_name":"Kramat","distance":973,"is_transit":false,"i_long":106.855437,"i_lat":-6.193792,"time":1},{"time":2,"station_id":"POK","is_transit":false,"transit":false,"line":11,"station_name":"Pondok Jati","distance":1829,"i_long":106.861737,"i_lat":-6.209188},{"i_lat":-6.215091,"line":1,"is_transit":true,"time":9,"station_name":"Jatinegara","i_long":106.86807400000001,"transit":true,"distance":1236,"station_id":"JNG"},{"i_lat":-6.212485,"line":1,"time":2,"station_name":"Matraman","transit":false,"distance":1377,"i_long":106.858896,"is_transit":false,"station_id":"MTR"},{"time":2,"station_id":"MRI","transit":false,"station_name":"Manggarai","distance":1275,"i_lat":-6.209883,"i_long":106.84912,"line":2,"is_transit":false},{"i_lat":-6.202263,"station_id":"SUD","time":4,"distance":3186,"i_long":106.822649,"line":1,"transit":false,"station_name":"Sudirman","is_transit":false}]]}