{"data":[[{"line":1,"i_long":106.811091,"station_id":"THB","time":0,"distance":0,"station_name":"Tanah Abang","transit":false,"i_lat":-6.185545,"is_transit":true},{"distance":2029,"station_name":"Karet","station_id":"KAT","i_lat":-6.20132,"line":1,"time":5,"is_transit":false,"i_long":106.816351,"transit":false},{"is_transit":false,"distance":471,"station_name":"Sudirman Baru","transit":false,"time":1,"i_lat":-6.201433,"line":1,"station_id":"SUDB","i_long":106.819881},{"time":1,"i_lat":-6.202263,"is_transit":false,"i_long":106.822649,"station_id":"SUD","distance":280,"line":1,"station_name":"Sudirman","transit":false},{"i_lat":-6.209883,"is_transit":true,"station_id":"MRI","distance":3186,"station_name":"Manggarai","transit":true,"i_long":106.84912,"line":0,"time":4},{"distance":2610,"station_name":"Tebet","transit":false,"i_lat":-6.226659,"i_long":106.857948,"line":2,"is_transit":false,"time":4,"station_id":"TEB"},{"line":0,"transit":false,"station_id":"CW","station_name":"Cawang","distance":1230,"is_transit":false,"i_long":106.856607,"time":2,"i_lat":-6.242512},{"transit":false,"i_lat":-6.255332,"is_transit":false,"distance":1546,"line":0,"station_name":"Duren Kalibata","i_long":106.85449,"station_id":"DRN","time":3},{"transit":false,"i_long":106.851577,"line":2,"station_id":"PSMB","station_name":"Pasar Minggu Baru","i_lat":-6.263214,"is_transit":false,"time":2,"distance":824},{"is_transit":false,"distance":2380,"station_name":"Pasar Minggu","i_long":106.843999,"station_id":"PSM","transit":false,"line":2,"time":2,"i_lat":-6.2842400000000005},{"distance":2820,"i_lat":-6.3080680000000005,"station_name":"Tanjung Barat","transit":false,"time":4,"i_long":106.838896,"is_transit":false,"station_id":"TNT","line":2},{"i_lat":-6.330363,"is_transit":false,"transit":false,"line":2,"i_long":106.832616,"station_name":"Lenteng Agung","station_id":"LNA","time":3,"distance":2671},{"i_lat":-6.339291,"time":2,"line":2,"is_transit":false,"i_long":106.834175,"distance":1029,"station_id":"UP","station_name":"Univ. Pancasila","transit":false},{"line":2,"station_name":"Univ. Indonesia","time":3,"distance":2264,"is_transit":false,"transit":false,"i_lat":-6.360749,"station_id":"UI","i_long":106.831474},{"distance":1109,"transit":false,"time":2,"i_lat":-6.369073,"is_transit":false,"station_id":"POC","i_long":106.831114,"station_name":"Pondok Cina","line":2},{"time":4,"station_id":"DPB","transit":false,"line":0,"i_long":106.819451,"station_name":"Depokbaru","distance":2727,"i_lat":-6.391065,"is_transit":false},{"station_name":"Depok","time":3,"line":0,"station_id":"DP","transit":false,"i_lat":-6.405256,"i_long":106.816926,"is_transit":false,"distance":1584},{"is_transit":true,"transit":false,"i_lat":-6.448811,"time":6,"i_long":106.800298,"station_name":"Citayam","line":1,"station_id":"CTA","distance":5084},{"time":5,"line":0,"distance":5197,"is_transit":false,"station_name":"Bojonggede","i_lat":-6.493243,"transit":false,"i_long":106.792719,"station_id":"BJD"},{"transit":false,"time":5,"station_name":"Cilebut","station_id":"CLT","i_long":106.800016,"distance":4331,"line":0,"is_transit":false,"i_lat":-6.530544},{"transit":false,"station_name":"Bogor","station_id":"BOO","time":9,"i_long":106.790574,"i_lat":-6.594596,"line":1,"distance":7514,"is_transit":true}],[{"line":1,"transit":false,"i_lat":-6.185545,"time":0,"is_transit":true,"i_long":106.811091,"distance":0,"station_id":"THB","station_name":"Tanah Abang"},{"station_name":"Duri","is_transit":true,"distance":3632,"i_long":106.800832,"line":1,"station_id":"DU","transit":true,"time":8,"i_lat":-6.155215},{"transit":false,"i_lat":-6.144674,"time":4,"line":0,"station_name":"Angke","i_long":106.79867,"distance":1230,"is_transit":false,"station_id":"AK"},{"station_id":"KPB","station_name":"Kampung Bandan","line":0,"is_transit":true,"transit":false,"i_lat":-6.132549,"distance":4102,"time":9,"i_long":106.826365},{"station_name":"Jakarta Kota","is_transit":true,"transit":true,"i_lat":-6.137569,"station_id":"JAKK","line":0,"time":3,"distance":1364,"i_long":106.812439},{"time":4,"distance":1264,"is_transit":false,"i_long":106.820901,"transit":false,"station_name":"Jayakarta","i_lat":-6.141205,"line":7,"station_id":"JAY"},{"line":2,"station_id":"MGB","station_name":"Manggabesar","transit":false,"is_transit":false,"time":2,"i_lat":-6.149769,"i_long":106.82482,"distance":1080},{"i_lat":-6.160725,"is_transit":false,"time":2,"station_name":"Sawah Besar","i_long":106.827103,"line":2,"distance":906,"station_id":"SW","transit":false},{"station_name":"Juanda","transit":false,"i_lat":-6.166716,"distance":1149,"is_transit":false,"station_id":"JUA","time":2,"i_long":106.828284,"line":2},{"station_name":"Gondangdia","time":4,"distance":2015,"i_lat":-6.186295,"i_long":106.832183,"line":2,"transit":false,"is_transit":false,"station_id":"GDD"},{"time":3,"distance":1750,"station_id":"CKI","line":0,"i_lat":-6.198556,"transit":false,"i_long":106.840169,"station_name":"Cikini","is_transit":false},{"station_id":"MRI","transit":true,"is_transit":true,"i_lat":-6.209883,"time":4,"i_long":106.84912,"station_name":"Manggarai","line":0,"distance":1590},{"i_long":106.857948,"is_transit":false,"transit":false,"time":4,"distance":2610,"line":2,"station_id":"TEB","i_lat":-6.226659,"station_name":"Tebet"},{"line":0,"station_name":"Cawang","i_lat":-6.242512,"time":2,"transit":false,"station_id":"CW","i_long":106.856607,"is_transit":false,"distance":1230},{"time":3,"station_name":"Duren Kalibata","station_id":"DRN","i_long":106.85449,"is_transit":false,"i_lat":-6.255332,"line":0,"transit":false,"distance":1546},{"transit":false,"i_lat":-6.263214,"station_id":"PSMB","time":2,"distance":824,"is_transit":false,"i_long":106.851577,"line":2,"station_name":"Pasar Minggu Baru"},{"line":2,"distance":2380,"i_long":106.843999,"is_transit":false,"station_name":"Pasar Minggu","station_id":"PSM","transit":false,"time":2,"i_lat":-6.2842400000000005},{"distance":2820,"station_name":"Tanjung Barat","i_lat":-6.3080680000000005,"is_transit":false,"transit":false,"station_id":"TNT","time":4,"i_long":106.838896,"line":2},{"line":2,"station_id":"LNA","is_transit":false,"distance":2671,"time":3,"transit":false,"i_lat":-6.330363,"station_name":"Lenteng Agung","i_long":106.832616},{"station_name":"Univ. Pancasila","station_id":"UP","time":2,"i_long":106.834175,"is_transit":false,"line":2,"transit":false,"i_lat":-6.339291,"distance":1029},{"is_transit":false,"transit":false,"station_name":"Univ. Indonesia","i_long":106.831474,"i_lat":-6.360749,"time":3,"line":2,"station_id":"UI","distance":2264},{"station_name":"Pondok Cina","line":2,"transit":false,"is_transit":false,"i_lat":-6.369073,"distance":1109,"time":2,"i_long":106.831114,"station_id":"POC"},{"i_long":106.819451,"station_id":"DPB","line":0,"station_name":"Depokbaru","distance":2727,"is_transit":false,"transit":false,"time":4,"i_lat":-6.391065},{"is_transit":false,"distance":1584,"station_id":"DP","time":3,"station_name":"Depok","transit":false,"i_lat":-6.405256,"line":0,"i_long":106.816926},{"transit":false,"time":6,"station_id":"CTA","i_lat":-6.448811,"i_long":106.800298,"station_name":"Citayam","is_transit":true,"line":1,"distance":5084},{"i_long":106.792719,"station_name":"Bojonggede","transit":false,"time":5,"line":0,"station_id":"BJD","is_transit":false,"i_lat":-6.493243,"distance":5197},{"station_name":"Cilebut","distance":4331,"i_long":106.800016,"station_id":"CLT","i_lat":-6.530544,"is_transit":false,"transit":false,"time":5,"line":0},{"i_long":106.790574,"line":1,"station_name":"Bogor","time":9,"is_transit":true,"transit":false,"i_lat":-6.594596,"station_id":"BOO","distance":7514}],[{"transit":false,"station_id":"THB","time":0,"i_lat":-6.185545,"line":1,"is_transit":true,"i_long":106.811091,"station_name":"Tanah Abang","distance":0},{"station_id":"DU","station_name":"Duri","distance":3632,"transit":true,"time":8,"line":1,"i_long":106.800832,"i_lat":-6.155215,"is_transit":true},{"station_name":"Angke","is_transit":false,"transit":false,"line":0,"distance":1230,"station_id":"AK","time":4,"i_lat":-6.144674,"i_long":106.79867},{"transit":true,"station_name":"Kampung Bandan","time":9,"i_lat":-6.132549,"i_long":106.826365,"line":0,"is_transit":true,"distance":4102,"station_id":"KPB"},{"is_transit":false,"station_id":"RJW","distance":1444,"transit":false,"time":3,"i_long":106.836569,"line":11,"i_lat":-6.14505,"station_name":"Rajawali"},{"distance":1901,"station_id":"KMO","line":11,"is_transit":false,"time":5,"transit":false,"i_lat":-6.161728,"i_long":106.839204,"station_name":"Kemayoran"},{"i_long":106.84368,"line":11,"i_lat":-6.174784,"distance":1436,"is_transit":false,"station_id":"PSE","station_name":"Pasar Senen","transit":false,"time":4},{"i_long":106.850107,"transit":false,"distance":1567,"station_id":"GST","i_lat":-6.185975,"is_transit":false,"station_name":"Gang Sentiong","time":8,"line":11},{"transit":false,"station_id":"KMT","i_lat":-6.193792,"line":11,"time":1,"distance":973,"station_name":"Kramat","is_transit":false,"i_long":106.855437},{"is_transit":false,"i_long":106.861737,"distance":1829,"station_name":"Pondok Jati","station_id":"POK","time":2,"line":11,"i_lat":-6.209188,"transit":false},{"distance":1236,"i_long":106.86807400000001,"station_id":"JNG","is_transit":true,"line":0,"time":9,"transit":true,"i_lat":-6.215091,"station_name":"Jatinegara"},{"station_name":"Matraman","line":1,"time":2,"is_transit":false,"i_lat":-6.212485,"transit":false,"distance":1377,"i_long":106.858896,"station_id":"MTR"},{"station_id":"MRI","line":0,"i_lat":-6.209883,"time":2,"station_name":"Manggarai","i_long":106.84912,"is_transit":true,"distance":1275,"transit":true},{"distance":2610,"time":4,"station_id":"TEB","line":2,"i_long":106.857948,"is_transit":false,"station_name":"Tebet","transit":false,"i_lat":-6.226659},{"station_id":"CW","is_transit":false,"station_name":"Cawang","line":0,"distance":1230,"transit":false,"time":2,"i_lat":-6.242512,"i_long":106.856607},{"transit":false,"is_transit":false,"station_name":"Duren Kalibata","time":3,"i_long":106.85449,"i_lat":-6.255332,"line":0,"station_id":"DRN","distance":1546},{"line":2,"station_id":"PSMB","transit":false,"station_name":"Pasar Minggu Baru","time":2,"i_long":106.851577,"distance":824,"is_transit":false,"i_lat":-6.263214},{"is_transit":false,"transit":false,"i_lat":-6.2842400000000005,"time":2,"i_long":106.843999,"line":2,"station_name":"Pasar Minggu","station_id":"PSM","distance":2380},{"station_id":"TNT","i_lat":-6.3080680000000005,"is_transit":false,"transit":false,"distance":2820,"time":4,"i_long":106.838896,"station_name":"Tanjung Barat","line":2},{"distance":2671,"transit":false,"station_id":"LNA","i_long":106.832616,"station_name":"Lenteng Agung","line":2,"is_transit":false,"i_lat":-6.330363,"time":3},{"transit":false,"i_long":106.834175,"station_id":"UP","line":2,"station_name":"Univ. Pancasila","i_lat":-6.339291,"distance":1029,"is_transit":false,"time":2},{"time":3,"i_long":106.831474,"i_lat":-6.360749,"station_name":"Univ. Indonesia","line":2,"station_id":"UI","is_transit":false,"distance":2264,"transit":false},{"is_transit":false,"transit":false,"station_name":"Pondok Cina","station_id":"POC","distance":1109,"time":2,"i_lat":-6.369073,"i_long":106.831114,"line":2},{"transit":false,"i_lat":-6.391065,"line":0,"station_name":"Depokbaru","i_long":106.819451,"distance":2727,"time":4,"station_id":"DPB","is_transit":false},{"is_transit":false,"time":3,"distance":1584,"i_long":106.816926,"i_lat":-6.405256,"line":0,"transit":false,"station_name":"Depok","station_id":"DP"},{"station_id":"CTA","is_transit":true,"distance":5084,"station_name":"Citayam","transit":false,"i_long":106.800298,"time":6,"i_lat":-6.448811,"line":1},{"transit":false,"station_id":"BJD","line":0,"is_transit":false,"distance":5197,"station_name":"Bojonggede","time":5,"i_long":106.792719,"i_lat":-6.493243},{"time":5,"station_id":"CLT","transit":false,"i_lat":-6.530544,"i_long":106.800016,"distance":4331,"line":0,"station_name":"Cilebut","is_transit":false},{"line":1,"station_id":"BOO","i_lat":-6.594596,"station_name":"Bogor","is_transit":true,"transit":false,"distance":7514,"time":9,"i_long":106.790574}]]}