{"data":[[{"station_name":"Tanah Abang","i_long":106.811091,"line":1,"distance":0,"transit":false,"time":0,"i_lat":-6.185545,"station_id":"THB","is_transit":true},{"time":8,"station_id":"DU","distance":3632,"is_transit":true,"i_long":106.800832,"line":1,"station_name":"Duri","i_lat":-6.155215,"transit":true},{"station_id":"GGL","time":3,"transit":false,"line":5,"i_lat":-6.162021,"station_name":"Grogol","i_long":106.788277,"distance":1700,"is_transit":false}],[{"i_long":106.811091,"station_name":"Tanah Abang","line":1,"transit":false,"is_transit":true,"station_id":"THB","distance":0,"time":0,"i_lat":-6.185545},{"station_name":"Karet","i_long":106.816351,"i_lat":-6.20132,"station_id":"KAT","time":5,"line":1,"transit":false,"is_transit":false,"distance":2029},{"i_lat":-6.201433,"transit":false,"time":1,"i_long":106.819881,"is_transit":false,"line":1,"distance":471,"station_name":"Sudirman Baru","station_id":"SUDB"},{"i_long":106.822649,"transit":false,"distance":280,"station_name":"Sudirman","i_lat":-6.202263,"line":1,"is_transit":false,"station_id":"SUD","time":1},{"is_transit":true,"station_id":"MRI","time":4,"distance":3186,"transit":true,"line":0,"i_lat":-6.209883,"i_long":106.84912,"station_name":"Manggarai"},{"time":4,"station_name":"Cikini","distance":1590,"i_long":106.840169,"station_id":"CKI","is_transit":false,"transit":false,"line":0,"i_lat":-6.198556},{"station_name":"Gondangdia","time":3,"transit":false,"station_id":"GDD","i_lat":-6.186295,"distance":1750,"is_transit":false,"i_long":106.832183,"line":2},{"distance":2015,"station_id":"JUA","station_name":"Juanda","i_long":106.828284,"line":2,"i_lat":-6.166716,"time":4,"is_transit":false,"transit":false},{"station_id":"SW","i_lat":-6.160725,"is_transit":false,"i_long":106.827103,"line":2,"distance":1149,"station_name":"Sawah Besar","transit":false,"time":2},{"line":2,"i_lat":-6.149769,"transit":false,"distance":906,"station_name":"Manggabesar","time":2,"is_transit":false,"station_id":"MGB","i_long":106.82482},{"time":2,"i_lat":-6.141205,"line":7,"transit":false,"station_id":"JAY","station_name":"Jayakarta","i_long":106.820901,"distance":1080,"is_transit":false},{"station_id":"JAKK","time":4,"distance":1264,"is_transit":true,"i_lat":-6.137569,"transit":true,"line":0,"station_name":"Jakarta Kota","i_long":106.812439},{"distance":1364,"is_transit":true,"station_id":"KPB","line":0,"transit":false,"station_name":"Kampung Bandan","time":3,"i_lat":-6.132549,"i_long":106.826365},{"is_transit":false,"transit":false,"i_long":106.79867,"line":0,"station_id":"AK","i_lat":-6.144674,"time":9,"station_name":"Angke","distance":4102},{"line":1,"is_transit":true,"transit":true,"station_name":"Duri","i_lat":-6.155215,"station_id":"DU","i_long":106.800832,"distance":1230,"time":4},{"distance":1700,"i_long":106.788277,"line":5,"station_id":"GGL","is_transit":false,"station_name":"Grogol","transit":false,"time":3,"i_lat":-6.162021}],[{"time":0,"distance":0,"line":1,"station_id":"THB","station_name":"Tanah Abang","transit":false,"i_lat":-6.185545,"i_long":106.811091,"is_transit":true},{"is_transit":false,"station_name":"Karet","station_id":"KAT","transit":false,"i_long":106.816351,"line":1,"i_lat":-6.20132,"distance":2029,"time":5},{"is_transit":false,"station_id":"SUDB","station_name":"Sudirman Baru","distance":471,"line":1,"transit":false,"i_lat":-6.201433,"i_long":106.819881,"time":1},{"station_name":"Sudirman","is_transit":false,"distance":280,"line":1,"transit":false,"i_lat":-6.202263,"i_long":106.822649,"time":1,"station_id":"SUD"},{"is_transit":true,"station_name":"Manggarai","line":0,"transit":false,"time":4,"distance":3186,"i_long":106.84912,"station_id":"MRI","i_lat":-6.209883},{"distance":1275,"transit":false,"is_transit":false,"time":2,"i_lat":-6.212485,"station_id":"MTR","station_name":"Matraman","i_long":106.858896,"line":1},{"station_name":"Jatinegara","i_long":106.86807400000001,"line":0,"time":8,"i_lat":-6.215091,"station_id":"JNG","is_transit":true,"transit":true,"distance":1377},{"line":11,"station_name":"Pondok Jati","i_long":106.861737,"transit":false,"is_transit":false,"distance":1236,"time":2,"i_lat":-6.209188,"station_id":"POK"},{"transit":false,"time":2,"station_id":"KMT","is_transit":false,"i_lat":-6.193792,"i_long":106.855437,"line":11,"station_name":"Kramat","distance":1829},{"transit":false,"i_lat":-6.185975,"line":11,"i_long":106.850107,"station_name":"Gang Sentiong","time":1,"is_transit":false,"station_id":"GST","distance":973},{"time":8,"station_name":"Pasar Senen","transit":false,"i_lat":-6.174784,"i_long":106.84368,"station_id":"PSE","distance":1567,"is_transit":false,"line":11},{"transit":false,"i_long":106.839204,"station_id":"KMO","station_name":"Kemayoran","i_lat":-6.161728,"time":4,"line":11,"distance":1436,"is_transit":false},{"distance":1901,"is_transit":false,"transit":false,"station_name":"Rajawali","time":5,"line":11,"i_long":106.836569,"station_id":"RJW","i_lat":-6.14505},{"time":3,"station_name":"Kampung Bandan","is_transit":true,"i_lat":-6.132549,"distance":1444,"station_id":"KPB","line":0,"i_long":106.826365,"transit":true},{"i_long":106.79867,"time":9,"station_name":"Angke","line":0,"distance":4102,"i_lat":-6.144674,"station_id":"AK","transit":false,"is_transit":false},{"station_id":"DU","transit":true,"i_long":106.800832,"is_transit":true,"distance":1230,"i_lat":-6.155215,"line":1,"station_name":"Duri","time":4},{"distance":1700,"transit":false,"station_id":"GGL","i_lat":-6.162021,"i_long":106.788277,"line":5,"time":3,"is_transit":false,"station_name":"Grogol"}]]}