{"data":[[{"time":0,"transit":false,"i_lat":-6.185545,"i_long":106.811091,"is_transit":false,"distance":0,"station_id":"THB","line":1,"station_name":"Tanah Abang"},{"station_id":"PLM","transit":false,"i_long":106.79689,"distance":3191,"station_name":"Palmerah","i_lat":-6.207404,"time":6,"line":6,"is_transit":false},{"is_transit":false,"time":7,"i_long":106.780334,"station_id":"KBY","i_lat":-6.237242,"distance":3737,"line":6,"transit":false,"station_name":"Kebayoran"},{"transit":false,"time":8,"distance":6218,"i_long":106.74273,"line":6,"station_name":"Pondokranji","i_lat":-6.276362,"station_id":"PDJ","is_transit":false},{"distance":2179,"i_lat":-6.288927,"line":6,"station_name":"Jurangmangu","is_transit":false,"station_id":"JMU","transit":false,"i_long":106.728916,"time":3},{"i_long":106.712277,"line":6,"station_name":"Sudimara","station_id":"SDM","transit":false,"i_lat":-6.296963,"is_transit":false,"distance":1994,"time":4},{"distance":4566,"i_lat":-6.314823,"station_id":"RU","transit":false,"station_name":"Rawa Buntu","line":6,"time":6,"is_transit":false,"i_long":106.675475},{"distance":2413,"time":4,"is_transit":false,"transit":false,"station_name":"Serpong","station_id":"SRP","line":6,"i_lat":-6.319871,"i_long":106.66566},{"is_transit":false,"time":4,"distance":1784,"station_name":"Cisauk","i_long":106.640411,"station_id":"CSK","line":3,"transit":false,"i_lat":-6.32484},{"distance":2519,"i_long":106.617853,"i_lat":-6.329547,"time":4,"station_id":"CC","line":3,"is_transit":false,"transit":false,"station_name":"Cicayur"},{"transit":false,"station_id":"PRP","line":6,"is_transit":false,"i_long":106.568863,"i_lat":-6.3441410000000005,"time":8,"station_name":"Parung Panjang","distance":5968},{"station_id":"CJT","transit":false,"is_transit":false,"i_long":106.508482,"i_lat":-6.354349,"distance":7025,"line":3,"time":9,"station_name":"Cilejit"},{"i_lat":-6.338021,"time":6,"is_transit":false,"station_name":"Daru","transit":false,"i_long":106.491338,"line":0,"station_id":"DAR","distance":2675},{"i_long":106.460812,"station_name":"Tenjo","is_transit":false,"time":5,"i_lat":-6.327251,"line":6,"station_id":"TEJ","distance":3902,"transit":false},{"distance":2974,"time":5,"line":6,"station_id":"TGS","i_lat":-6.328533,"station_name":"Tigaraksa","transit":false,"i_long":106.425991,"is_transit":false},{"line":3,"i_lat":-6.33561,"time":3,"transit":false,"station_name":"Cikoya","station_id":"CKY","i_long":106.411216,"is_transit":false,"distance":2651}]]}