{"data":[[{"station_id":"THB","transit":false,"station_name":"Tanah Abang","i_lat":-6.185545,"i_long":106.811091,"distance":0,"time":0,"is_transit":false,"line":1},{"time":8,"i_lat":-6.155215,"transit":true,"station_id":"DU","station_name":"Duri","i_long":106.800832,"line":1,"is_transit":true,"distance":3632},{"distance":1700,"time":3,"station_id":"GGL","i_long":106.788277,"i_lat":-6.162021,"transit":false,"is_transit":false,"station_name":"Grogol","line":5}],[{"time":0,"station_id":"THB","distance":0,"is_transit":false,"transit":false,"station_name":"Tanah Abang","i_lat":-6.185545,"i_long":106.811091,"line":1},{"station_id":"KAT","time":5,"transit":false,"station_name":"Karet","is_transit":false,"i_lat":-6.20132,"line":1,"i_long":106.816351,"distance":2029},{"station_name":"Sudirman Baru","i_long":106.819881,"time":1,"line":1,"is_transit":false,"transit":false,"distance":471,"station_id":"SUDB","i_lat":-6.201433},{"transit":false,"distance":280,"i_lat":-6.202263,"line":1,"station_name":"Sudirman","time":1,"station_id":"SUD","i_long":106.822649,"is_transit":false},{"time":4,"i_lat":-6.209883,"transit":true,"station_name":"Manggarai","line":2,"distance":3186,"station_id":"MRI","is_transit":true,"i_long":106.84912},{"distance":1590,"time":4,"station_id":"CKI","i_lat":-6.198556,"line":2,"station_name":"Cikini","i_long":106.840169,"transit":false,"is_transit":false},{"distance":1750,"station_name":"Gondangdia","i_lat":-6.186295,"is_transit":false,"time":3,"line":2,"station_id":"GDD","transit":false,"i_long":106.832183},{"time":4,"line":2,"i_lat":-6.166716,"distance":2015,"station_id":"JUA","transit":false,"station_name":"Juanda","is_transit":false,"i_long":106.828284},{"time":2,"i_long":106.827103,"transit":false,"distance":1149,"is_transit":false,"station_id":"SW","station_name":"Sawah Besar","i_lat":-6.160725,"line":2},{"transit":false,"i_long":106.82482,"station_id":"MGB","is_transit":false,"time":2,"line":2,"i_lat":-6.149769,"station_name":"Manggabesar","distance":906},{"transit":false,"time":2,"line":2,"distance":1080,"station_id":"JAY","i_lat":-6.141205,"station_name":"Jayakarta","is_transit":false,"i_long":106.820901},{"distance":1264,"i_long":106.812439,"i_lat":-6.137569,"station_id":"JAKK","time":4,"is_transit":true,"line":2,"transit":true,"station_name":"Jakarta Kota"},{"transit":true,"station_name":"Kampung Bandan","i_lat":-6.132549,"distance":1364,"station_id":"KPB","time":3,"is_transit":true,"i_long":106.826365,"line":4},{"time":9,"station_id":"AK","i_lat":-6.144674,"line":1,"transit":false,"is_transit":false,"station_name":"Angke","i_long":106.79867,"distance":4102},{"is_transit":true,"station_name":"Duri","transit":true,"i_lat":-6.155215,"distance":1230,"i_long":106.800832,"station_id":"DU","time":4,"line":1},{"line":5,"distance":1700,"i_long":106.788277,"i_lat":-6.162021,"time":3,"is_transit":false,"station_id":"GGL","transit":false,"station_name":"Grogol"}],[{"transit":false,"i_lat":-6.185545,"station_id":"THB","station_name":"Tanah Abang","i_long":106.811091,"line":1,"distance":0,"time":0,"is_transit":false},{"time":5,"station_id":"KAT","transit":false,"station_name":"Karet","i_lat":-6.20132,"i_long":106.816351,"line":1,"is_transit":false,"distance":2029},{"time":1,"station_id":"SUDB","line":1,"transit":false,"i_long":106.819881,"station_name":"Sudirman Baru","is_transit":false,"i_lat":-6.201433,"distance":471},{"transit":false,"time":1,"line":1,"distance":280,"i_long":106.822649,"station_name":"Sudirman","i_lat":-6.202263,"station_id":"SUD","is_transit":false},{"station_name":"Manggarai","distance":3186,"time":4,"i_long":106.84912,"i_lat":-6.209883,"is_transit":false,"transit":false,"station_id":"MRI","line":2},{"line":1,"time":2,"is_transit":false,"station_id":"MTR","i_lat":-6.212485,"i_long":106.858896,"transit":false,"distance":1275,"station_name":"Matraman"},{"i_lat":-6.215091,"line":1,"station_name":"Jatinegara","is_transit":true,"transit":true,"i_long":106.86807400000001,"time":8,"station_id":"JNG","distance":1377},{"line":11,"station_id":"POK","transit":false,"distance":1236,"time":2,"is_transit":false,"i_lat":-6.209188,"station_name":"Pondok Jati","i_long":106.861737},{"i_lat":-6.193792,"distance":1829,"i_long":106.855437,"transit":false,"line":11,"time":2,"station_id":"KMT","is_transit":false,"station_name":"Kramat"},{"station_name":"Gang Sentiong","transit":false,"time":1,"distance":973,"station_id":"GST","i_lat":-6.185975,"is_transit":false,"i_long":106.850107,"line":11},{"is_transit":false,"line":11,"i_lat":-6.174784,"transit":false,"distance":1567,"station_id":"PSE","time":8,"i_long":106.84368,"station_name":"Pasar Senen"},{"line":11,"station_id":"KMO","transit":false,"is_transit":false,"i_lat":-6.161728,"distance":1436,"i_long":106.839204,"time":4,"station_name":"Kemayoran"},{"i_long":106.836569,"i_lat":-6.14505,"station_name":"Rajawali","line":11,"time":5,"distance":1901,"is_transit":false,"transit":false,"station_id":"RJW"},{"station_name":"Kampung Bandan","distance":1444,"time":3,"transit":true,"line":4,"station_id":"KPB","i_long":106.826365,"is_transit":true,"i_lat":-6.132549},{"i_lat":-6.144674,"i_long":106.79867,"station_name":"Angke","line":1,"time":9,"is_transit":false,"transit":false,"station_id":"AK","distance":4102},{"distance":1230,"time":4,"is_transit":true,"station_id":"DU","i_lat":-6.155215,"line":1,"transit":true,"station_name":"Duri","i_long":106.800832},{"station_name":"Grogol","is_transit":false,"station_id":"GGL","time":3,"i_lat":-6.162021,"distance":1700,"transit":false,"i_long":106.788277,"line":5}]]}