{"data":[[{"distance":0,"time":0,"is_transit":false,"station_name":"Tanah Abang","i_long":106.811091,"station_id":"THB","transit":false,"i_lat":-6.185545,"line":1},{"time":5,"i_lat":-6.20132,"is_transit":false,"station_name":"Karet","i_long":106.816351,"distance":2029,"line":1,"transit":false,"station_id":"KAT"},{"line":1,"is_transit":false,"transit":false,"time":1,"station_name":"Sudirman Baru","i_long":106.819881,"distance":471,"station_id":"SUDB","i_lat":-6.201433},{"station_id":"SUD","station_name":"Sudirman","line":1,"is_transit":false,"i_lat":-6.202263,"distance":280,"transit":false,"i_long":106.822649,"time":1},{"station_id":"MRI","is_transit":true,"station_name":"Manggarai","transit":true,"i_long":106.84912,"distance":3186,"line":2,"time":4,"i_lat":-6.209883},{"i_long":106.857948,"time":4,"station_id":"TEB","distance":2610,"is_transit":false,"station_name":"Tebet","i_lat":-6.226659,"transit":false,"line":2},{"time":2,"i_long":106.856607,"transit":false,"station_name":"Cawang","station_id":"CW","is_transit":false,"line":2,"distance":1230,"i_lat":-6.242512},{"station_id":"DRN","station_name":"Duren Kalibata","line":2,"is_transit":false,"transit":false,"distance":1546,"i_long":106.85449,"i_lat":-6.255332,"time":3},{"distance":824,"time":2,"line":2,"is_transit":false,"station_name":"Pasar Minggu Baru","i_lat":-6.263214,"station_id":"PSMB","i_long":106.851577,"transit":false},{"i_long":106.843999,"is_transit":false,"line":2,"time":2,"transit":false,"station_id":"PSM","distance":2380,"station_name":"Pasar Minggu","i_lat":-6.2842400000000005},{"is_transit":false,"i_lat":-6.3080680000000005,"time":4,"transit":false,"station_id":"TNT","line":2,"station_name":"Tanjung Barat","distance":2820,"i_long":106.838896},{"station_id":"LNA","is_transit":false,"station_name":"Lenteng Agung","distance":2671,"time":3,"transit":false,"i_lat":-6.330363,"line":2,"i_long":106.832616},{"station_id":"UP","i_long":106.834175,"transit":false,"i_lat":-6.339291,"time":2,"is_transit":false,"line":2,"distance":1029,"station_name":"Univ. Pancasila"},{"station_id":"UI","i_long":106.831474,"line":2,"time":3,"station_name":"Univ. Indonesia","is_transit":false,"i_lat":-6.360749,"transit":false,"distance":2264},{"i_long":106.831114,"station_name":"Pondok Cina","is_transit":false,"i_lat":-6.369073,"time":2,"station_id":"POC","line":2,"transit":false,"distance":1109},{"i_long":106.819451,"distance":2727,"station_id":"DPB","time":4,"is_transit":false,"station_name":"Depokbaru","transit":false,"i_lat":-6.391065,"line":2},{"is_transit":false,"station_name":"Depok","i_lat":-6.405256,"time":3,"station_id":"DP","transit":false,"i_long":106.816926,"line":2,"distance":1584}],[{"time":0,"transit":false,"distance":0,"station_id":"THB","station_name":"Tanah Abang","i_long":106.811091,"i_lat":-6.185545,"line":1,"is_transit":false},{"station_id":"DU","time":8,"station_name":"Duri","i_long":106.800832,"i_lat":-6.155215,"line":1,"transit":false,"is_transit":false,"distance":3632},{"station_name":"Angke","i_long":106.79867,"transit":false,"station_id":"AK","is_transit":false,"line":1,"time":4,"distance":1230,"i_lat":-6.144674},{"is_transit":true,"transit":true,"station_name":"Kampung Bandan","station_id":"KPB","time":9,"i_lat":-6.132549,"line":4,"i_long":106.826365,"distance":4102},{"time":3,"is_transit":true,"distance":1364,"station_id":"JAKK","i_lat":-6.137569,"i_long":106.812439,"transit":true,"station_name":"Jakarta Kota","line":2},{"time":4,"station_name":"Jayakarta","i_lat":-6.141205,"is_transit":false,"line":2,"station_id":"JAY","distance":1264,"i_long":106.820901,"transit":false},{"time":2,"line":2,"transit":false,"is_transit":false,"i_long":106.82482,"distance":1080,"station_id":"MGB","station_name":"Manggabesar","i_lat":-6.149769},{"is_transit":false,"i_lat":-6.160725,"line":2,"transit":false,"distance":906,"station_name":"Sawah Besar","i_long":106.827103,"time":2,"station_id":"SW"},{"i_long":106.828284,"is_transit":false,"i_lat":-6.166716,"line":2,"time":2,"station_name":"Juanda","distance":1149,"station_id":"JUA","transit":false},{"distance":2015,"i_lat":-6.186295,"i_long":106.832183,"transit":false,"station_id":"GDD","station_name":"Gondangdia","line":2,"is_transit":false,"time":4},{"distance":1750,"i_lat":-6.198556,"transit":false,"i_long":106.840169,"is_transit":false,"station_id":"CKI","station_name":"Cikini","time":3,"line":2},{"time":4,"station_name":"Manggarai","line":2,"is_transit":false,"station_id":"MRI","transit":false,"i_lat":-6.209883,"i_long":106.84912,"distance":1590},{"distance":2610,"time":4,"i_lat":-6.226659,"line":2,"transit":false,"station_id":"TEB","is_transit":false,"i_long":106.857948,"station_name":"Tebet"},{"station_id":"CW","time":2,"transit":false,"is_transit":false,"distance":1230,"i_long":106.856607,"i_lat":-6.242512,"station_name":"Cawang","line":2},{"distance":1546,"station_id":"DRN","is_transit":false,"transit":false,"i_long":106.85449,"station_name":"Duren Kalibata","i_lat":-6.255332,"line":2,"time":3},{"line":2,"is_transit":false,"station_name":"Pasar Minggu Baru","transit":false,"station_id":"PSMB","i_long":106.851577,"time":2,"i_lat":-6.263214,"distance":824},{"line":2,"station_name":"Pasar Minggu","distance":2380,"station_id":"PSM","time":2,"i_lat":-6.2842400000000005,"transit":false,"i_long":106.843999,"is_transit":false},{"transit":false,"time":4,"is_transit":false,"i_long":106.838896,"station_id":"TNT","distance":2820,"line":2,"station_name":"Tanjung Barat","i_lat":-6.3080680000000005},{"line":2,"time":3,"transit":false,"distance":2671,"station_name":"Lenteng Agung","station_id":"LNA","i_long":106.832616,"is_transit":false,"i_lat":-6.330363},{"transit":false,"i_lat":-6.339291,"i_long":106.834175,"line":2,"is_transit":false,"station_name":"Univ. Pancasila","station_id":"UP","time":2,"distance":1029},{"is_transit":false,"time":3,"i_lat":-6.360749,"transit":false,"line":2,"station_id":"UI","i_long":106.831474,"station_name":"Univ. Indonesia","distance":2264},{"station_id":"POC","i_lat":-6.369073,"transit":false,"distance":1109,"station_name":"Pondok Cina","is_transit":false,"i_long":106.831114,"line":2,"time":2},{"station_name":"Depokbaru","time":4,"i_long":106.819451,"i_lat":-6.391065,"transit":false,"distance":2727,"is_transit":false,"line":2,"station_id":"DPB"},{"transit":false,"distance":1584,"is_transit":false,"time":3,"station_name":"Depok","station_id":"DP","i_lat":-6.405256,"i_long":106.816926,"line":2}],[{"distance":0,"time":0,"is_transit":false,"i_lat":-6.185545,"transit":false,"station_name":"Tanah Abang","i_long":106.811091,"station_id":"THB","line":1},{"i_lat":-6.155215,"line":1,"distance":3632,"is_transit":false,"i_long":106.800832,"time":8,"station_id":"DU","transit":false,"station_name":"Duri"},{"i_lat":-6.144674,"i_long":106.79867,"line":1,"is_transit":false,"station_name":"Angke","station_id":"AK","distance":1230,"transit":false,"time":4},{"distance":4102,"transit":true,"i_lat":-6.132549,"station_name":"Kampung Bandan","line":4,"is_transit":true,"station_id":"KPB","time":9,"i_long":106.826365},{"station_name":"Rajawali","time":3,"transit":false,"i_lat":-6.14505,"line":11,"distance":1444,"is_transit":false,"station_id":"RJW","i_long":106.836569},{"line":11,"time":5,"distance":1901,"station_name":"Kemayoran","is_transit":false,"transit":false,"i_lat":-6.161728,"station_id":"KMO","i_long":106.839204},{"station_id":"PSE","transit":false,"station_name":"Pasar Senen","time":4,"is_transit":false,"i_lat":-6.174784,"line":11,"i_long":106.84368,"distance":1436},{"station_id":"GST","is_transit":false,"transit":false,"i_long":106.850107,"distance":1567,"time":8,"station_name":"Gang Sentiong","i_lat":-6.185975,"line":11},{"is_transit":false,"station_name":"Kramat","i_long":106.855437,"line":11,"distance":973,"transit":false,"time":1,"i_lat":-6.193792,"station_id":"KMT"},{"station_name":"Pondok Jati","i_long":106.861737,"transit":false,"i_lat":-6.209188,"time":2,"is_transit":false,"distance":1829,"line":11,"station_id":"POK"},{"transit":true,"station_id":"JNG","time":9,"distance":1236,"station_name":"Jatinegara","is_transit":true,"line":1,"i_lat":-6.215091,"i_long":106.86807400000001},{"station_id":"MTR","distance":1377,"is_transit":false,"station_name":"Matraman","i_lat":-6.212485,"transit":false,"line":1,"i_long":106.858896,"time":2},{"station_name":"Manggarai","line":2,"i_lat":-6.209883,"transit":true,"i_long":106.84912,"distance":1275,"time":2,"is_transit":true,"station_id":"MRI"},{"line":2,"station_name":"Tebet","i_lat":-6.226659,"distance":2610,"station_id":"TEB","is_transit":false,"transit":false,"time":4,"i_long":106.857948},{"i_lat":-6.242512,"i_long":106.856607,"time":2,"is_transit":false,"station_name":"Cawang","distance":1230,"line":2,"transit":false,"station_id":"CW"},{"station_id":"DRN","distance":1546,"i_lat":-6.255332,"transit":false,"time":3,"station_name":"Duren Kalibata","i_long":106.85449,"line":2,"is_transit":false},{"i_long":106.851577,"line":2,"station_name":"Pasar Minggu Baru","i_lat":-6.263214,"station_id":"PSMB","distance":824,"time":2,"transit":false,"is_transit":false},{"i_lat":-6.2842400000000005,"station_name":"Pasar Minggu","transit":false,"time":2,"line":2,"distance":2380,"is_transit":false,"i_long":106.843999,"station_id":"PSM"},{"distance":2820,"time":4,"station_name":"Tanjung Barat","i_long":106.838896,"station_id":"TNT","is_transit":false,"line":2,"i_lat":-6.3080680000000005,"transit":false},{"is_transit":false,"line":2,"station_name":"Lenteng Agung","i_lat":-6.330363,"distance":2671,"station_id":"LNA","transit":false,"time":3,"i_long":106.832616},{"is_transit":false,"station_name":"Univ. Pancasila","i_lat":-6.339291,"i_long":106.834175,"time":2,"transit":false,"line":2,"distance":1029,"station_id":"UP"},{"transit":false,"is_transit":false,"i_long":106.831474,"station_name":"Univ. Indonesia","i_lat":-6.360749,"line":2,"time":3,"station_id":"UI","distance":2264},{"station_id":"POC","i_long":106.831114,"distance":1109,"line":2,"transit":false,"station_name":"Pondok Cina","is_transit":false,"time":2,"i_lat":-6.369073},{"distance":2727,"line":2,"transit":false,"station_id":"DPB","i_long":106.819451,"i_lat":-6.391065,"station_name":"Depokbaru","time":4,"is_transit":false},{"i_long":106.816926,"station_id":"DP","distance":1584,"line":2,"time":3,"transit":false,"i_lat":-6.405256,"is_transit":false,"station_name":"Depok"}]]}