{"data":[[{"is_transit":false,"transit":false,"distance":0,"line":1,"time":0,"station_name":"Tanah Abang","i_lat":-6.185545,"station_id":"THB","i_long":106.811091},{"time":5,"line":1,"i_lat":-6.20132,"distance":2029,"station_name":"Karet","station_id":"KAT","i_long":106.816351,"transit":false,"is_transit":false},{"station_id":"SUDB","line":1,"distance":471,"i_long":106.819881,"is_transit":false,"time":1,"i_lat":-6.201433,"station_name":"Sudirman Baru","transit":false},{"station_name":"Sudirman","station_id":"SUD","is_transit":false,"time":1,"line":1,"transit":false,"distance":280,"i_lat":-6.202263,"i_long":106.822649},{"station_id":"MRI","line":2,"time":4,"i_long":106.84912,"i_lat":-6.209883,"transit":true,"station_name":"Manggarai","is_transit":true,"distance":3186},{"line":2,"i_long":106.857948,"i_lat":-6.226659,"station_name":"Tebet","time":4,"transit":false,"distance":2610,"station_id":"TEB","is_transit":false},{"time":2,"station_name":"Cawang","distance":1230,"is_transit":false,"line":2,"station_id":"CW","i_lat":-6.242512,"transit":false,"i_long":106.856607},{"i_long":106.85449,"line":2,"station_name":"Duren Kalibata","is_transit":false,"time":3,"i_lat":-6.255332,"distance":1546,"transit":false,"station_id":"DRN"},{"i_lat":-6.263214,"station_id":"PSMB","transit":false,"i_long":106.851577,"is_transit":false,"time":2,"distance":824,"line":2,"station_name":"Pasar Minggu Baru"},{"station_name":"Pasar Minggu","i_long":106.843999,"transit":false,"is_transit":false,"station_id":"PSM","line":2,"i_lat":-6.2842400000000005,"time":2,"distance":2380},{"distance":2820,"i_long":106.838896,"station_name":"Tanjung Barat","line":2,"i_lat":-6.3080680000000005,"time":4,"station_id":"TNT","transit":false,"is_transit":false},{"line":2,"is_transit":false,"time":3,"distance":2671,"station_name":"Lenteng Agung","i_lat":-6.330363,"i_long":106.832616,"transit":false,"station_id":"LNA"},{"transit":false,"is_transit":false,"distance":1029,"i_long":106.834175,"station_id":"UP","i_lat":-6.339291,"time":2,"station_name":"Univ. Pancasila","line":2},{"is_transit":false,"i_long":106.831474,"line":2,"distance":2264,"time":3,"station_name":"Univ. Indonesia","transit":false,"i_lat":-6.360749,"station_id":"UI"},{"i_long":106.831114,"station_id":"POC","i_lat":-6.369073,"transit":false,"distance":1109,"line":2,"station_name":"Pondok Cina","is_transit":false,"time":2},{"is_transit":false,"i_lat":-6.391065,"transit":false,"station_name":"Depokbaru","station_id":"DPB","time":4,"distance":2727,"i_long":106.819451,"line":2},{"station_name":"Depok","i_lat":-6.405256,"is_transit":false,"distance":1584,"transit":false,"time":3,"i_long":106.816926,"station_id":"DP","line":2},{"i_lat":-6.448811,"i_long":106.800298,"distance":5084,"transit":true,"time":6,"station_id":"CTA","line":2,"is_transit":true,"station_name":"Citayam"},{"distance":0,"station_name":"Pondok Rajeg","is_transit":false,"i_long":106.824374,"line":21,"time":0,"station_id":"PDRG","i_lat":-6.460735,"transit":false},{"station_id":"CBN","line":21,"i_long":106.851978,"station_name":"Cibinong","time":0,"distance":0,"transit":false,"is_transit":false,"i_lat":-6.46424}],[{"distance":0,"transit":false,"i_long":106.811091,"i_lat":-6.185545,"station_name":"Tanah Abang","station_id":"THB","time":0,"is_transit":false,"line":1},{"distance":3632,"line":1,"station_id":"DU","is_transit":false,"i_lat":-6.155215,"time":8,"i_long":106.800832,"station_name":"Duri","transit":false},{"station_id":"AK","transit":false,"station_name":"Angke","is_transit":false,"time":4,"distance":1230,"line":1,"i_long":106.79867,"i_lat":-6.144674},{"is_transit":true,"i_long":106.826365,"transit":true,"line":4,"i_lat":-6.132549,"distance":4102,"time":9,"station_name":"Kampung Bandan","station_id":"KPB"},{"time":3,"i_long":106.812439,"i_lat":-6.137569,"transit":true,"is_transit":true,"station_name":"Jakarta Kota","station_id":"JAKK","distance":1364,"line":2},{"i_lat":-6.141205,"line":2,"is_transit":false,"i_long":106.820901,"transit":false,"station_name":"Jayakarta","station_id":"JAY","time":4,"distance":1264},{"time":2,"i_long":106.82482,"is_transit":false,"distance":1080,"transit":false,"station_id":"MGB","station_name":"Manggabesar","i_lat":-6.149769,"line":2},{"time":2,"station_id":"SW","transit":false,"station_name":"Sawah Besar","is_transit":false,"i_lat":-6.160725,"line":2,"distance":906,"i_long":106.827103},{"time":2,"station_name":"Juanda","line":2,"station_id":"JUA","is_transit":false,"i_lat":-6.166716,"distance":1149,"transit":false,"i_long":106.828284},{"time":4,"transit":false,"distance":2015,"i_long":106.832183,"line":2,"station_name":"Gondangdia","i_lat":-6.186295,"station_id":"GDD","is_transit":false},{"i_long":106.840169,"transit":false,"is_transit":false,"line":2,"station_id":"CKI","time":3,"station_name":"Cikini","distance":1750,"i_lat":-6.198556},{"transit":false,"distance":1590,"time":4,"i_lat":-6.209883,"i_long":106.84912,"station_name":"Manggarai","line":2,"station_id":"MRI","is_transit":false},{"time":4,"i_lat":-6.226659,"station_name":"Tebet","i_long":106.857948,"line":2,"station_id":"TEB","is_transit":false,"transit":false,"distance":2610},{"is_transit":false,"line":2,"i_lat":-6.242512,"station_name":"Cawang","distance":1230,"transit":false,"time":2,"station_id":"CW","i_long":106.856607},{"is_transit":false,"station_name":"Duren Kalibata","station_id":"DRN","i_lat":-6.255332,"time":3,"distance":1546,"transit":false,"i_long":106.85449,"line":2},{"i_long":106.851577,"distance":824,"station_name":"Pasar Minggu Baru","line":2,"transit":false,"time":2,"station_id":"PSMB","is_transit":false,"i_lat":-6.263214},{"station_name":"Pasar Minggu","station_id":"PSM","line":2,"distance":2380,"i_long":106.843999,"transit":false,"is_transit":false,"time":2,"i_lat":-6.2842400000000005},{"distance":2820,"i_lat":-6.3080680000000005,"i_long":106.838896,"transit":false,"station_name":"Tanjung Barat","station_id":"TNT","time":4,"line":2,"is_transit":false},{"is_transit":false,"distance":2671,"i_long":106.832616,"transit":false,"station_name":"Lenteng Agung","i_lat":-6.330363,"time":3,"station_id":"LNA","line":2},{"station_name":"Univ. Pancasila","distance":1029,"line":2,"time":2,"is_transit":false,"i_lat":-6.339291,"station_id":"UP","i_long":106.834175,"transit":false},{"is_transit":false,"time":3,"station_id":"UI","i_long":106.831474,"line":2,"i_lat":-6.360749,"distance":2264,"transit":false,"station_name":"Univ. Indonesia"},{"i_lat":-6.369073,"i_long":106.831114,"transit":false,"line":2,"station_id":"POC","distance":1109,"station_name":"Pondok Cina","is_transit":false,"time":2},{"time":4,"station_name":"Depokbaru","distance":2727,"i_long":106.819451,"is_transit":false,"i_lat":-6.391065,"line":2,"transit":false,"station_id":"DPB"},{"station_id":"DP","time":3,"distance":1584,"i_lat":-6.405256,"i_long":106.816926,"line":2,"is_transit":false,"transit":false,"station_name":"Depok"},{"i_lat":-6.448811,"station_id":"CTA","time":6,"distance":5084,"i_long":106.800298,"transit":true,"station_name":"Citayam","line":2,"is_transit":true},{"i_long":106.824374,"station_id":"PDRG","distance":0,"i_lat":-6.460735,"is_transit":false,"transit":false,"station_name":"Pondok Rajeg","time":0,"line":21},{"distance":0,"i_long":106.851978,"station_id":"CBN","transit":false,"time":0,"i_lat":-6.46424,"is_transit":false,"station_name":"Cibinong","line":21}],[{"time":0,"is_transit":false,"station_name":"Tanah Abang","line":1,"distance":0,"transit":false,"i_lat":-6.185545,"station_id":"THB","i_long":106.811091},{"i_lat":-6.155215,"i_long":106.800832,"station_id":"DU","line":1,"transit":false,"is_transit":false,"station_name":"Duri","distance":3632,"time":8},{"station_name":"Angke","i_lat":-6.144674,"line":1,"is_transit":false,"transit":false,"time":4,"station_id":"AK","i_long":106.79867,"distance":1230},{"is_transit":true,"i_lat":-6.132549,"time":9,"distance":4102,"i_long":106.826365,"transit":true,"station_name":"Kampung Bandan","station_id":"KPB","line":4},{"is_transit":false,"time":3,"i_long":106.836569,"transit":false,"station_name":"Rajawali","i_lat":-6.14505,"distance":1444,"line":11,"station_id":"RJW"},{"time":5,"i_long":106.839204,"i_lat":-6.161728,"line":11,"transit":false,"station_name":"Kemayoran","station_id":"KMO","is_transit":false,"distance":1901},{"is_transit":false,"i_long":106.84368,"distance":1436,"i_lat":-6.174784,"time":4,"line":11,"transit":false,"station_name":"Pasar Senen","station_id":"PSE"},{"station_id":"GST","i_long":106.850107,"transit":false,"station_name":"Gang Sentiong","line":11,"is_transit":false,"time":8,"i_lat":-6.185975,"distance":1567},{"i_lat":-6.193792,"line":11,"station_name":"Kramat","transit":false,"station_id":"KMT","i_long":106.855437,"time":1,"is_transit":false,"distance":973},{"transit":false,"station_id":"POK","is_transit":false,"i_lat":-6.209188,"time":2,"distance":1829,"i_long":106.861737,"line":11,"station_name":"Pondok Jati"},{"station_id":"JNG","distance":1236,"time":9,"station_name":"Jatinegara","transit":true,"i_lat":-6.215091,"i_long":106.86807400000001,"line":1,"is_transit":true},{"i_long":106.858896,"station_name":"Matraman","transit":false,"is_transit":false,"time":2,"i_lat":-6.212485,"line":1,"distance":1377,"station_id":"MTR"},{"station_id":"MRI","distance":1275,"line":2,"i_long":106.84912,"station_name":"Manggarai","is_transit":true,"time":2,"transit":true,"i_lat":-6.209883},{"is_transit":false,"station_name":"Tebet","transit":false,"i_long":106.857948,"distance":2610,"i_lat":-6.226659,"line":2,"station_id":"TEB","time":4},{"station_name":"Cawang","distance":1230,"is_transit":false,"transit":false,"time":2,"line":2,"i_long":106.856607,"i_lat":-6.242512,"station_id":"CW"},{"transit":false,"line":2,"distance":1546,"is_transit":false,"i_long":106.85449,"i_lat":-6.255332,"station_name":"Duren Kalibata","station_id":"DRN","time":3},{"distance":824,"station_id":"PSMB","time":2,"i_lat":-6.263214,"i_long":106.851577,"station_name":"Pasar Minggu Baru","line":2,"is_transit":false,"transit":false},{"transit":false,"time":2,"is_transit":false,"line":2,"i_lat":-6.2842400000000005,"distance":2380,"station_name":"Pasar Minggu","station_id":"PSM","i_long":106.843999},{"time":4,"is_transit":false,"i_long":106.838896,"station_name":"Tanjung Barat","distance":2820,"station_id":"TNT","transit":false,"line":2,"i_lat":-6.3080680000000005},{"is_transit":false,"i_long":106.832616,"station_name":"Lenteng Agung","station_id":"LNA","transit":false,"time":3,"distance":2671,"i_lat":-6.330363,"line":2},{"station_id":"UP","station_name":"Univ. Pancasila","is_transit":false,"time":2,"distance":1029,"i_long":106.834175,"line":2,"transit":false,"i_lat":-6.339291},{"distance":2264,"station_name":"Univ. Indonesia","transit":false,"station_id":"UI","i_lat":-6.360749,"is_transit":false,"time":3,"line":2,"i_long":106.831474},{"station_name":"Pondok Cina","distance":1109,"line":2,"i_lat":-6.369073,"time":2,"transit":false,"is_transit":false,"station_id":"POC","i_long":106.831114},{"station_id":"DPB","distance":2727,"i_long":106.819451,"station_name":"Depokbaru","time":4,"transit":false,"is_transit":false,"i_lat":-6.391065,"line":2},{"i_long":106.816926,"station_name":"Depok","is_transit":false,"distance":1584,"time":3,"transit":false,"station_id":"DP","line":2,"i_lat":-6.405256},{"i_long":106.800298,"is_transit":true,"transit":true,"distance":5084,"line":2,"time":6,"i_lat":-6.448811,"station_name":"Citayam","station_id":"CTA"},{"transit":false,"station_id":"PDRG","line":21,"is_transit":false,"time":0,"distance":0,"station_name":"Pondok Rajeg","i_lat":-6.460735,"i_long":106.824374},{"is_transit":false,"distance":0,"i_long":106.851978,"line":21,"station_name":"Cibinong","station_id":"CBN","i_lat":-6.46424,"time":0,"transit":false}]]}