{"data":[[{"station_id":"THB","line":1,"transit":false,"is_transit":false,"i_long":106.811091,"i_lat":-6.185545,"station_name":"Tanah Abang","time":0,"distance":0},{"is_transit":false,"time":6,"distance":3191,"station_id":"PLM","transit":false,"i_long":106.79689,"i_lat":-6.207404,"station_name":"Palmerah","line":6},{"distance":3737,"i_lat":-6.237242,"i_long":106.780334,"transit":false,"line":6,"station_id":"KBY","is_transit":false,"time":7,"station_name":"Kebayoran"},{"station_id":"PDJ","time":8,"i_lat":-6.276362,"is_transit":false,"station_name":"Pondokranji","distance":6218,"transit":false,"i_long":106.74273,"line":6},{"i_long":106.728916,"transit":false,"distance":2179,"is_transit":false,"station_id":"JMU","time":3,"i_lat":-6.288927,"station_name":"Jurangmangu","line":6},{"is_transit":false,"station_id":"SDM","transit":false,"distance":1994,"time":4,"line":6,"station_name":"Sudimara","i_long":106.712277,"i_lat":-6.296963},{"transit":false,"i_lat":-6.314823,"distance":4566,"station_id":"RU","is_transit":false,"i_long":106.675475,"station_name":"Rawa Buntu","time":6,"line":6},{"station_id":"SRP","i_lat":-6.319871,"is_transit":false,"time":4,"station_name":"Serpong","i_long":106.66566,"line":6,"transit":false,"distance":2413},{"i_lat":-6.32484,"distance":1784,"i_long":106.640411,"time":4,"line":3,"transit":false,"station_id":"CSK","is_transit":false,"station_name":"Cisauk"},{"transit":false,"distance":2519,"i_long":106.617853,"line":3,"station_id":"CC","is_transit":false,"time":4,"station_name":"Cicayur","i_lat":-6.329547},{"distance":5968,"station_id":"PRP","transit":false,"i_long":106.568863,"line":6,"is_transit":false,"i_lat":-6.3441410000000005,"time":8,"station_name":"Parung Panjang"},{"i_long":106.508482,"i_lat":-6.354349,"line":3,"is_transit":false,"station_id":"CJT","distance":7025,"time":9,"transit":false,"station_name":"Cilejit"},{"station_name":"Daru","transit":false,"time":6,"i_long":106.491338,"station_id":"DAR","is_transit":false,"i_lat":-6.338021,"line":0,"distance":2675}]]}