{"data":[[{"transit":false,"i_lat":-6.185545,"i_long":106.811091,"station_id":"THB","is_transit":false,"distance":0,"line":1,"time":0,"station_name":"Tanah Abang"},{"time":5,"distance":2029,"station_name":"Karet","i_lat":-6.20132,"station_id":"KAT","is_transit":false,"line":1,"transit":false,"i_long":106.816351},{"line":1,"i_lat":-6.201433,"station_name":"Sudirman Baru","is_transit":false,"distance":471,"station_id":"SUDB","i_long":106.819881,"time":1,"transit":false},{"i_lat":-6.202263,"i_long":106.822649,"line":1,"station_name":"Sudirman","transit":false,"is_transit":false,"time":1,"distance":280,"station_id":"SUD"},{"i_lat":-6.209883,"i_long":106.84912,"line":2,"station_id":"MRI","distance":3186,"station_name":"Manggarai","is_transit":true,"transit":true,"time":4},{"transit":false,"time":4,"station_name":"Tebet","is_transit":false,"i_lat":-6.226659,"i_long":106.857948,"line":2,"distance":2610,"station_id":"TEB"},{"distance":1230,"time":2,"station_id":"CW","i_lat":-6.242512,"i_long":106.856607,"transit":false,"is_transit":false,"station_name":"Cawang","line":2},{"is_transit":false,"distance":1546,"i_lat":-6.255332,"station_name":"Duren Kalibata","transit":false,"line":2,"station_id":"DRN","time":3,"i_long":106.85449},{"i_long":106.851577,"transit":false,"station_name":"Pasar Minggu Baru","is_transit":false,"time":2,"line":2,"distance":824,"station_id":"PSMB","i_lat":-6.263214},{"distance":2380,"time":2,"transit":false,"i_lat":-6.2842400000000005,"i_long":106.843999,"line":2,"station_name":"Pasar Minggu","is_transit":false,"station_id":"PSM"},{"i_lat":-6.3080680000000005,"transit":false,"time":4,"distance":2820,"station_id":"TNT","station_name":"Tanjung Barat","is_transit":false,"i_long":106.838896,"line":2},{"is_transit":false,"line":2,"i_long":106.832616,"time":3,"transit":false,"station_id":"LNA","i_lat":-6.330363,"distance":2671,"station_name":"Lenteng Agung"},{"i_long":106.834175,"time":2,"line":2,"transit":false,"distance":1029,"station_name":"Univ. Pancasila","i_lat":-6.339291,"station_id":"UP","is_transit":false},{"i_long":106.831474,"station_id":"UI","is_transit":false,"time":3,"transit":false,"i_lat":-6.360749,"line":2,"distance":2264,"station_name":"Univ. Indonesia"},{"i_long":106.831114,"distance":1109,"station_name":"Pondok Cina","i_lat":-6.369073,"station_id":"POC","is_transit":false,"time":2,"transit":false,"line":2},{"transit":false,"distance":2727,"time":4,"i_long":106.819451,"station_name":"Depokbaru","line":2,"i_lat":-6.391065,"station_id":"DPB","is_transit":false},{"distance":1584,"transit":false,"time":3,"i_long":106.816926,"line":2,"i_lat":-6.405256,"station_id":"DP","is_transit":false,"station_name":"Depok"},{"i_lat":-6.448811,"time":6,"transit":false,"line":2,"station_id":"CTA","i_long":106.800298,"distance":5084,"is_transit":false,"station_name":"Citayam"},{"time":5,"station_name":"Bojonggede","distance":5197,"station_id":"BJD","i_long":106.792719,"line":2,"transit":false,"is_transit":false,"i_lat":-6.493243},{"i_long":106.800016,"distance":4331,"is_transit":false,"transit":false,"time":5,"station_name":"Cilebut","station_id":"CLT","line":2,"i_lat":-6.530544},{"distance":7514,"station_name":"Bogor","station_id":"BOO","i_lat":-6.594596,"transit":false,"i_long":106.790574,"line":2,"is_transit":false,"time":9}],[{"i_lat":-6.185545,"is_transit":false,"distance":0,"transit":false,"i_long":106.811091,"station_name":"Tanah Abang","line":1,"time":0,"station_id":"THB"},{"line":1,"station_id":"DU","is_transit":false,"distance":3632,"i_lat":-6.155215,"time":8,"transit":false,"station_name":"Duri","i_long":106.800832},{"time":4,"i_lat":-6.144674,"is_transit":false,"station_id":"AK","distance":1230,"line":1,"transit":false,"i_long":106.79867,"station_name":"Angke"},{"line":4,"transit":true,"station_id":"KPB","time":9,"i_lat":-6.132549,"is_transit":true,"distance":4102,"station_name":"Kampung Bandan","i_long":106.826365},{"station_name":"Jakarta Kota","i_lat":-6.137569,"i_long":106.812439,"transit":true,"line":2,"distance":1364,"time":3,"is_transit":true,"station_id":"JAKK"},{"station_name":"Jayakarta","distance":1264,"i_long":106.820901,"time":4,"i_lat":-6.141205,"is_transit":false,"transit":false,"station_id":"JAY","line":2},{"time":2,"is_transit":false,"transit":false,"i_long":106.82482,"line":2,"distance":1080,"i_lat":-6.149769,"station_name":"Manggabesar","station_id":"MGB"},{"i_lat":-6.160725,"distance":906,"time":2,"transit":false,"station_id":"SW","line":2,"station_name":"Sawah Besar","is_transit":false,"i_long":106.827103},{"i_lat":-6.166716,"time":2,"is_transit":false,"distance":1149,"line":2,"station_name":"Juanda","i_long":106.828284,"transit":false,"station_id":"JUA"},{"is_transit":false,"station_name":"Gondangdia","transit":false,"station_id":"GDD","i_lat":-6.186295,"line":2,"distance":2015,"time":4,"i_long":106.832183},{"i_long":106.840169,"is_transit":false,"transit":false,"station_id":"CKI","i_lat":-6.198556,"station_name":"Cikini","line":2,"time":3,"distance":1750},{"i_long":106.84912,"transit":false,"i_lat":-6.209883,"distance":1590,"time":4,"is_transit":false,"station_name":"Manggarai","line":2,"station_id":"MRI"},{"i_long":106.857948,"line":2,"time":4,"distance":2610,"is_transit":false,"station_name":"Tebet","i_lat":-6.226659,"transit":false,"station_id":"TEB"},{"time":2,"station_id":"CW","i_long":106.856607,"distance":1230,"line":2,"transit":false,"station_name":"Cawang","is_transit":false,"i_lat":-6.242512},{"i_long":106.85449,"station_id":"DRN","distance":1546,"i_lat":-6.255332,"line":2,"transit":false,"is_transit":false,"station_name":"Duren Kalibata","time":3},{"line":2,"station_name":"Pasar Minggu Baru","time":2,"i_long":106.851577,"distance":824,"is_transit":false,"transit":false,"i_lat":-6.263214,"station_id":"PSMB"},{"is_transit":false,"i_lat":-6.2842400000000005,"station_id":"PSM","i_long":106.843999,"transit":false,"time":2,"distance":2380,"station_name":"Pasar Minggu","line":2},{"distance":2820,"station_name":"Tanjung Barat","station_id":"TNT","time":4,"is_transit":false,"line":2,"transit":false,"i_lat":-6.3080680000000005,"i_long":106.838896},{"line":2,"station_name":"Lenteng Agung","distance":2671,"station_id":"LNA","i_long":106.832616,"time":3,"transit":false,"is_transit":false,"i_lat":-6.330363},{"station_name":"Univ. Pancasila","transit":false,"station_id":"UP","is_transit":false,"line":2,"distance":1029,"i_lat":-6.339291,"i_long":106.834175,"time":2},{"distance":2264,"station_name":"Univ. Indonesia","time":3,"line":2,"transit":false,"i_lat":-6.360749,"i_long":106.831474,"is_transit":false,"station_id":"UI"},{"is_transit":false,"i_lat":-6.369073,"line":2,"distance":1109,"transit":false,"station_name":"Pondok Cina","time":2,"station_id":"POC","i_long":106.831114},{"distance":2727,"i_lat":-6.391065,"transit":false,"i_long":106.819451,"station_name":"Depokbaru","is_transit":false,"station_id":"DPB","line":2,"time":4},{"transit":false,"station_name":"Depok","time":3,"is_transit":false,"line":2,"i_long":106.816926,"i_lat":-6.405256,"station_id":"DP","distance":1584},{"station_id":"CTA","i_lat":-6.448811,"is_transit":false,"time":6,"transit":false,"line":2,"distance":5084,"i_long":106.800298,"station_name":"Citayam"},{"line":2,"time":5,"is_transit":false,"i_lat":-6.493243,"station_name":"Bojonggede","distance":5197,"transit":false,"station_id":"BJD","i_long":106.792719},{"time":5,"i_lat":-6.530544,"distance":4331,"transit":false,"station_id":"CLT","is_transit":false,"i_long":106.800016,"line":2,"station_name":"Cilebut"},{"line":2,"transit":false,"distance":7514,"station_id":"BOO","is_transit":false,"i_long":106.790574,"time":9,"station_name":"Bogor","i_lat":-6.594596}],[{"distance":0,"line":1,"is_transit":false,"station_name":"Tanah Abang","time":0,"i_lat":-6.185545,"transit":false,"station_id":"THB","i_long":106.811091},{"i_lat":-6.155215,"distance":3632,"transit":false,"is_transit":false,"line":1,"i_long":106.800832,"station_name":"Duri","station_id":"DU","time":8},{"time":4,"transit":false,"line":1,"station_name":"Angke","is_transit":false,"i_lat":-6.144674,"i_long":106.79867,"distance":1230,"station_id":"AK"},{"i_long":106.826365,"is_transit":true,"line":4,"transit":true,"station_id":"KPB","station_name":"Kampung Bandan","time":9,"distance":4102,"i_lat":-6.132549},{"line":11,"station_name":"Rajawali","time":3,"i_lat":-6.14505,"distance":1444,"i_long":106.836569,"transit":false,"station_id":"RJW","is_transit":false},{"i_long":106.839204,"distance":1901,"station_id":"KMO","i_lat":-6.161728,"line":11,"station_name":"Kemayoran","time":5,"is_transit":false,"transit":false},{"station_id":"PSE","transit":false,"is_transit":false,"station_name":"Pasar Senen","i_lat":-6.174784,"i_long":106.84368,"distance":1436,"time":4,"line":11},{"station_id":"GST","station_name":"Gang Sentiong","time":8,"i_lat":-6.185975,"is_transit":false,"i_long":106.850107,"line":11,"distance":1567,"transit":false},{"line":11,"i_lat":-6.193792,"station_id":"KMT","distance":973,"transit":false,"station_name":"Kramat","time":1,"is_transit":false,"i_long":106.855437},{"line":11,"time":2,"station_id":"POK","is_transit":false,"station_name":"Pondok Jati","distance":1829,"i_lat":-6.209188,"i_long":106.861737,"transit":false},{"transit":true,"line":1,"time":9,"distance":1236,"station_id":"JNG","is_transit":true,"station_name":"Jatinegara","i_long":106.86807400000001,"i_lat":-6.215091},{"time":2,"is_transit":false,"station_id":"MTR","line":1,"station_name":"Matraman","transit":false,"i_lat":-6.212485,"i_long":106.858896,"distance":1377},{"is_transit":true,"line":2,"time":2,"transit":true,"station_name":"Manggarai","i_lat":-6.209883,"distance":1275,"i_long":106.84912,"station_id":"MRI"},{"station_id":"TEB","is_transit":false,"transit":false,"time":4,"i_long":106.857948,"line":2,"station_name":"Tebet","i_lat":-6.226659,"distance":2610},{"station_name":"Cawang","distance":1230,"time":2,"is_transit":false,"i_lat":-6.242512,"line":2,"i_long":106.856607,"transit":false,"station_id":"CW"},{"i_lat":-6.255332,"station_name":"Duren Kalibata","station_id":"DRN","distance":1546,"i_long":106.85449,"line":2,"is_transit":false,"time":3,"transit":false},{"line":2,"station_id":"PSMB","i_long":106.851577,"i_lat":-6.263214,"station_name":"Pasar Minggu Baru","is_transit":false,"transit":false,"time":2,"distance":824},{"transit":false,"station_id":"PSM","station_name":"Pasar Minggu","time":2,"i_long":106.843999,"distance":2380,"line":2,"is_transit":false,"i_lat":-6.2842400000000005},{"i_lat":-6.3080680000000005,"is_transit":false,"distance":2820,"station_id":"TNT","line":2,"time":4,"i_long":106.838896,"transit":false,"station_name":"Tanjung Barat"},{"distance":2671,"station_id":"LNA","i_long":106.832616,"time":3,"i_lat":-6.330363,"transit":false,"station_name":"Lenteng Agung","is_transit":false,"line":2},{"i_long":106.834175,"i_lat":-6.339291,"time":2,"transit":false,"station_id":"UP","station_name":"Univ. Pancasila","is_transit":false,"distance":1029,"line":2},{"time":3,"distance":2264,"transit":false,"i_long":106.831474,"station_id":"UI","line":2,"i_lat":-6.360749,"is_transit":false,"station_name":"Univ. Indonesia"},{"time":2,"station_id":"POC","is_transit":false,"transit":false,"i_lat":-6.369073,"station_name":"Pondok Cina","distance":1109,"i_long":106.831114,"line":2},{"distance":2727,"i_long":106.819451,"station_name":"Depokbaru","time":4,"line":2,"is_transit":false,"i_lat":-6.391065,"station_id":"DPB","transit":false},{"i_lat":-6.405256,"station_id":"DP","transit":false,"i_long":106.816926,"distance":1584,"time":3,"is_transit":false,"line":2,"station_name":"Depok"},{"i_long":106.800298,"line":2,"time":6,"station_name":"Citayam","transit":false,"i_lat":-6.448811,"station_id":"CTA","distance":5084,"is_transit":false},{"is_transit":false,"distance":5197,"i_lat":-6.493243,"station_name":"Bojonggede","station_id":"BJD","time":5,"i_long":106.792719,"transit":false,"line":2},{"i_long":106.800016,"transit":false,"distance":4331,"time":5,"line":2,"is_transit":false,"station_name":"Cilebut","i_lat":-6.530544,"station_id":"CLT"},{"transit":false,"station_name":"Bogor","time":9,"distance":7514,"is_transit":false,"line":2,"i_lat":-6.594596,"i_long":106.790574,"station_id":"BOO"}]]}