{"data":[[{"i_long":106.64657,"line":5,"is_transit":false,"station_id":"THI","time":0,"station_name":"Tanah Tinggi","transit":false,"i_lat":-6.17331,"distance":0},{"station_id":"BPR","line":5,"transit":false,"distance":2028,"i_lat":-6.171811,"station_name":"Batuceper","time":3,"i_long":106.665036,"is_transit":false},{"time":3,"i_lat":-6.169933,"line":5,"transit":false,"station_id":"PI","distance":1834,"station_name":"Poris","i_long":106.679458,"is_transit":false},{"distance":2548,"transit":false,"i_long":106.701612,"i_lat":-6.166068,"line":5,"station_name":"Kalideres","is_transit":false,"time":3,"station_id":"KDS"},{"i_lat":-6.162758,"transit":false,"line":5,"i_long":106.723064,"station_name":"Rawa Buaya","station_id":"RW","is_transit":false,"time":3,"distance":2504},{"station_id":"BOI","i_lat":-6.159876,"distance":1152,"is_transit":false,"i_long":106.737035,"time":4,"station_name":"Bojongindah","transit":false,"line":5},{"line":5,"i_lat":-6.1587309999999995,"time":2,"is_transit":false,"i_long":106.756522,"station_name":"Taman Kota","transit":false,"distance":2334,"station_id":"TKO"},{"transit":false,"station_name":"Pesing","distance":1614,"i_lat":-6.161433,"line":5,"i_long":106.771379,"time":2,"station_id":"PSG","is_transit":false},{"is_transit":false,"i_long":106.788277,"distance":2036,"i_lat":-6.162021,"station_name":"Grogol","transit":false,"line":5,"station_id":"GRG","time":2},{"i_lat":-6.155215,"line":1,"station_id":"DU","i_long":106.800832,"transit":true,"is_transit":true,"time":3,"station_name":"Duri","distance":1700},{"transit":false,"station_name":"Angke","distance":1230,"i_lat":-6.144674,"is_transit":false,"station_id":"AK","i_long":106.79867,"line":1,"time":4},{"distance":4102,"station_name":"Kampung Bandan","station_id":"KPB","time":9,"i_lat":-6.132549,"i_long":106.826365,"line":4,"transit":true,"is_transit":true},{"transit":false,"time":4,"i_lat":-6.128023,"i_long":106.84464,"is_transit":false,"distance":2185,"station_name":"Ancol","station_id":"AC","line":4},{"station_id":"TPK","is_transit":false,"line":4,"station_name":"Tanjung Priuk","time":9,"i_long":106.880089,"transit":false,"distance":4566,"i_lat":-6.1109480000000005}],[{"is_transit":false,"transit":false,"station_name":"Tanah Tinggi","i_long":106.64657,"i_lat":-6.17331,"station_id":"THI","distance":0,"time":0,"line":5},{"time":3,"station_name":"Batuceper","station_id":"BPR","is_transit":false,"transit":false,"i_lat":-6.171811,"distance":2028,"i_long":106.665036,"line":5},{"time":3,"i_long":106.679458,"station_name":"Poris","station_id":"PI","is_transit":false,"transit":false,"line":5,"distance":1834,"i_lat":-6.169933},{"line":5,"is_transit":false,"i_lat":-6.166068,"station_id":"KDS","transit":false,"i_long":106.701612,"station_name":"Kalideres","time":3,"distance":2548},{"transit":false,"station_id":"RW","i_long":106.723064,"time":3,"i_lat":-6.162758,"is_transit":false,"line":5,"station_name":"Rawa Buaya","distance":2504},{"i_long":106.737035,"transit":false,"station_id":"BOI","line":5,"time":4,"distance":1152,"station_name":"Bojongindah","is_transit":false,"i_lat":-6.159876},{"i_lat":-6.1587309999999995,"i_long":106.756522,"line":5,"station_id":"TKO","is_transit":false,"time":2,"distance":2334,"station_name":"Taman Kota","transit":false},{"line":5,"i_lat":-6.161433,"distance":1614,"i_long":106.771379,"transit":false,"time":2,"station_name":"Pesing","is_transit":false,"station_id":"PSG"},{"i_long":106.788277,"line":5,"time":2,"distance":2036,"is_transit":false,"i_lat":-6.162021,"station_name":"Grogol","station_id":"GRG","transit":false},{"station_id":"DU","time":3,"transit":true,"line":1,"i_lat":-6.155215,"i_long":106.800832,"station_name":"Duri","is_transit":true,"distance":1700},{"distance":3632,"transit":false,"time":8,"is_transit":false,"line":1,"i_lat":-6.185545,"station_id":"THB","i_long":106.811091,"station_name":"Tanah Abang"},{"time":5,"i_lat":-6.20132,"i_long":106.816351,"station_id":"KAT","distance":2029,"station_name":"Karet","transit":false,"line":1,"is_transit":false},{"time":1,"station_id":"SUDB","station_name":"Sudirman Baru","is_transit":false,"distance":471,"line":1,"i_lat":-6.201433,"transit":false,"i_long":106.819881},{"distance":280,"is_transit":false,"time":1,"i_lat":-6.202263,"station_name":"Sudirman","transit":false,"line":1,"i_long":106.822649,"station_id":"SUD"},{"transit":true,"i_long":106.84912,"i_lat":-6.209883,"is_transit":true,"station_name":"Manggarai","line":2,"distance":3186,"time":4,"station_id":"MRI"},{"i_long":106.840169,"line":2,"time":4,"transit":false,"station_id":"CKI","station_name":"Cikini","is_transit":false,"distance":1590,"i_lat":-6.198556},{"station_id":"GDD","i_long":106.832183,"line":2,"transit":false,"time":3,"station_name":"Gondangdia","distance":1750,"is_transit":false,"i_lat":-6.186295},{"i_lat":-6.166716,"i_long":106.828284,"line":2,"station_name":"Juanda","time":4,"is_transit":false,"transit":false,"station_id":"JUA","distance":2015},{"transit":false,"station_name":"Sawah Besar","line":2,"distance":1149,"is_transit":false,"i_lat":-6.160725,"i_long":106.827103,"time":2,"station_id":"SW"},{"station_name":"Manggabesar","i_long":106.82482,"distance":906,"i_lat":-6.149769,"time":2,"line":2,"transit":false,"is_transit":false,"station_id":"MGB"},{"transit":false,"is_transit":false,"i_lat":-6.141205,"i_long":106.820901,"line":2,"time":2,"station_name":"Jayakarta","station_id":"JAY","distance":1080},{"distance":1264,"station_id":"JAKK","transit":true,"is_transit":true,"i_long":106.812439,"station_name":"Jakarta Kota","line":2,"time":4,"i_lat":-6.137569},{"transit":true,"time":3,"i_lat":-6.132549,"distance":1364,"station_id":"KPB","is_transit":true,"station_name":"Kampung Bandan","i_long":106.826365,"line":4},{"time":4,"line":4,"i_lat":-6.128023,"transit":false,"station_id":"AC","station_name":"Ancol","distance":2185,"is_transit":false,"i_long":106.84464},{"distance":4566,"transit":false,"i_lat":-6.1109480000000005,"i_long":106.880089,"station_id":"TPK","station_name":"Tanjung Priuk","is_transit":false,"line":4,"time":9}],[{"station_id":"THI","is_transit":false,"i_lat":-6.17331,"transit":false,"station_name":"Tanah Tinggi","line":5,"time":0,"distance":0,"i_long":106.64657},{"i_long":106.665036,"is_transit":false,"distance":2028,"time":3,"i_lat":-6.171811,"line":5,"station_id":"BPR","transit":false,"station_name":"Batuceper"},{"station_id":"PI","i_long":106.679458,"time":3,"station_name":"Poris","line":5,"i_lat":-6.169933,"distance":1834,"is_transit":false,"transit":false},{"time":3,"station_id":"KDS","line":5,"transit":false,"i_long":106.701612,"distance":2548,"is_transit":false,"i_lat":-6.166068,"station_name":"Kalideres"},{"station_name":"Rawa Buaya","line":5,"is_transit":false,"time":3,"station_id":"RW","i_lat":-6.162758,"i_long":106.723064,"transit":false,"distance":2504},{"distance":1152,"station_id":"BOI","station_name":"Bojongindah","i_long":106.737035,"transit":false,"line":5,"time":4,"i_lat":-6.159876,"is_transit":false},{"transit":false,"station_id":"TKO","time":2,"i_lat":-6.1587309999999995,"distance":2334,"is_transit":false,"station_name":"Taman Kota","line":5,"i_long":106.756522},{"i_long":106.771379,"transit":false,"time":2,"station_name":"Pesing","line":5,"distance":1614,"station_id":"PSG","i_lat":-6.161433,"is_transit":false},{"station_name":"Grogol","time":2,"is_transit":false,"i_long":106.788277,"line":5,"distance":2036,"transit":false,"i_lat":-6.162021,"station_id":"GRG"},{"line":1,"is_transit":true,"i_lat":-6.155215,"transit":true,"distance":1700,"station_id":"DU","i_long":106.800832,"time":3,"station_name":"Duri"},{"distance":3632,"i_lat":-6.185545,"line":1,"is_transit":false,"transit":false,"station_name":"Tanah Abang","station_id":"THB","i_long":106.811091,"time":8},{"station_name":"Karet","line":1,"i_long":106.816351,"is_transit":false,"station_id":"KAT","time":5,"transit":false,"i_lat":-6.20132,"distance":2029},{"i_lat":-6.201433,"is_transit":false,"station_name":"Sudirman Baru","station_id":"SUDB","time":1,"line":1,"i_long":106.819881,"distance":471,"transit":false},{"line":1,"i_long":106.822649,"time":1,"distance":280,"station_name":"Sudirman","station_id":"SUD","is_transit":false,"transit":false,"i_lat":-6.202263},{"is_transit":false,"station_name":"Manggarai","i_lat":-6.209883,"time":4,"transit":false,"station_id":"MRI","line":2,"distance":3186,"i_long":106.84912},{"transit":false,"i_long":106.858896,"is_transit":false,"station_id":"MTR","distance":1275,"line":1,"station_name":"Matraman","i_lat":-6.212485,"time":2},{"line":1,"station_id":"JNG","is_transit":true,"i_lat":-6.215091,"transit":true,"time":8,"i_long":106.86807400000001,"distance":1377,"station_name":"Jatinegara"},{"station_name":"Pondok Jati","transit":false,"distance":1236,"station_id":"POK","i_lat":-6.209188,"i_long":106.861737,"is_transit":false,"line":11,"time":2},{"distance":1829,"i_long":106.855437,"i_lat":-6.193792,"time":2,"transit":false,"station_name":"Kramat","station_id":"KMT","is_transit":false,"line":11},{"i_long":106.850107,"station_name":"Gang Sentiong","is_transit":false,"transit":false,"time":1,"station_id":"GST","i_lat":-6.185975,"line":11,"distance":973},{"time":8,"i_lat":-6.174784,"is_transit":false,"transit":false,"line":11,"station_id":"PSE","distance":1567,"i_long":106.84368,"station_name":"Pasar Senen"},{"line":11,"station_id":"KMO","station_name":"Kemayoran","time":4,"i_long":106.839204,"distance":1436,"i_lat":-6.161728,"transit":false,"is_transit":false},{"station_id":"RJW","is_transit":false,"time":5,"station_name":"Rajawali","line":11,"distance":1901,"i_long":106.836569,"transit":false,"i_lat":-6.14505},{"line":4,"distance":1444,"is_transit":true,"time":3,"station_name":"Kampung Bandan","i_lat":-6.132549,"i_long":106.826365,"transit":true,"station_id":"KPB"},{"i_lat":-6.128023,"station_id":"AC","is_transit":false,"line":4,"distance":2185,"i_long":106.84464,"time":4,"transit":false,"station_name":"Ancol"},{"distance":4566,"time":9,"line":4,"i_long":106.880089,"is_transit":false,"station_name":"Tanjung Priuk","i_lat":-6.1109480000000005,"transit":false,"station_id":"TPK"}]]}