{"data":[[{"transit":false,"line":5,"i_lat":-6.17331,"i_long":106.64657,"is_transit":false,"time":0,"distance":0,"station_id":"THI","station_name":"Tanah Tinggi"},{"distance":2028,"is_transit":false,"time":3,"line":5,"transit":false,"station_name":"Batuceper","i_lat":-6.171811,"i_long":106.665036,"station_id":"BPR"},{"time":3,"station_id":"PI","station_name":"Poris","transit":false,"i_long":106.679458,"line":5,"distance":1834,"is_transit":false,"i_lat":-6.169933},{"is_transit":false,"time":3,"line":5,"station_name":"Kalideres","i_lat":-6.166068,"distance":2548,"transit":false,"i_long":106.701612,"station_id":"KDS"},{"time":3,"is_transit":false,"transit":false,"i_lat":-6.162758,"distance":2504,"station_name":"Rawa Buaya","i_long":106.723064,"station_id":"RW","line":5},{"transit":false,"i_long":106.737035,"i_lat":-6.159876,"is_transit":false,"line":5,"time":4,"station_id":"BOI","distance":1152,"station_name":"Bojongindah"},{"time":2,"distance":2334,"station_id":"TKO","is_transit":false,"station_name":"Taman Kota","i_long":106.756522,"line":5,"transit":false,"i_lat":-6.1587309999999995},{"transit":false,"distance":1614,"line":5,"station_id":"PSG","i_long":106.771379,"station_name":"Pesing","time":2,"is_transit":false,"i_lat":-6.161433},{"distance":2036,"is_transit":false,"transit":false,"i_lat":-6.162021,"i_long":106.788277,"line":5,"time":2,"station_id":"GRG","station_name":"Grogol"},{"is_transit":true,"transit":true,"i_lat":-6.155215,"station_id":"DU","time":3,"distance":1700,"i_long":106.800832,"line":1,"station_name":"Duri"},{"i_lat":-6.185545,"station_id":"THB","distance":3632,"is_transit":false,"transit":false,"station_name":"Tanah Abang","i_long":106.811091,"line":1,"time":8},{"transit":false,"time":5,"station_name":"Karet","distance":2029,"is_transit":false,"i_long":106.816351,"station_id":"KAT","i_lat":-6.20132,"line":1},{"line":1,"i_lat":-6.201433,"i_long":106.819881,"station_name":"Sudirman Baru","station_id":"SUDB","transit":false,"time":1,"is_transit":false,"distance":471},{"station_id":"SUD","is_transit":false,"time":1,"station_name":"Sudirman","line":1,"distance":280,"transit":false,"i_lat":-6.202263,"i_long":106.822649},{"station_name":"Manggarai","distance":3186,"time":4,"station_id":"MRI","is_transit":true,"transit":true,"i_long":106.84912,"i_lat":-6.209883,"line":2},{"station_name":"Cikini","transit":false,"station_id":"CKI","i_lat":-6.198556,"i_long":106.840169,"line":2,"is_transit":false,"time":4,"distance":1590}],[{"i_lat":-6.17331,"station_name":"Tanah Tinggi","line":5,"time":0,"station_id":"THI","distance":0,"i_long":106.64657,"transit":false,"is_transit":false},{"i_long":106.665036,"distance":2028,"station_name":"Batuceper","is_transit":false,"i_lat":-6.171811,"line":5,"time":3,"transit":false,"station_id":"BPR"},{"station_name":"Poris","time":3,"distance":1834,"line":5,"i_long":106.679458,"i_lat":-6.169933,"is_transit":false,"transit":false,"station_id":"PI"},{"station_id":"KDS","time":3,"transit":false,"i_lat":-6.166068,"i_long":106.701612,"station_name":"Kalideres","is_transit":false,"line":5,"distance":2548},{"line":5,"time":3,"station_id":"RW","station_name":"Rawa Buaya","distance":2504,"i_lat":-6.162758,"i_long":106.723064,"transit":false,"is_transit":false},{"station_id":"BOI","distance":1152,"is_transit":false,"transit":false,"i_long":106.737035,"line":5,"i_lat":-6.159876,"time":4,"station_name":"Bojongindah"},{"line":5,"station_id":"TKO","distance":2334,"station_name":"Taman Kota","i_long":106.756522,"i_lat":-6.1587309999999995,"transit":false,"time":2,"is_transit":false},{"distance":1614,"i_lat":-6.161433,"time":2,"i_long":106.771379,"station_name":"Pesing","is_transit":false,"station_id":"PSG","transit":false,"line":5},{"transit":false,"time":2,"station_id":"GRG","is_transit":false,"i_lat":-6.162021,"i_long":106.788277,"station_name":"Grogol","line":5,"distance":2036},{"i_long":106.800832,"line":1,"i_lat":-6.155215,"distance":1700,"transit":true,"time":3,"is_transit":true,"station_name":"Duri","station_id":"DU"},{"station_id":"AK","is_transit":false,"time":4,"i_lat":-6.144674,"i_long":106.79867,"transit":false,"line":1,"station_name":"Angke","distance":1230},{"time":9,"distance":4102,"station_id":"KPB","i_lat":-6.132549,"line":4,"is_transit":true,"station_name":"Kampung Bandan","transit":true,"i_long":106.826365},{"i_long":106.812439,"line":2,"station_name":"Jakarta Kota","station_id":"JAKK","transit":true,"is_transit":true,"time":3,"distance":1364,"i_lat":-6.137569},{"is_transit":false,"station_name":"Jayakarta","i_lat":-6.141205,"transit":false,"i_long":106.820901,"distance":1264,"station_id":"JAY","line":2,"time":4},{"line":2,"i_long":106.82482,"time":2,"station_id":"MGB","station_name":"Manggabesar","is_transit":false,"i_lat":-6.149769,"transit":false,"distance":1080},{"i_long":106.827103,"is_transit":false,"line":2,"distance":906,"i_lat":-6.160725,"time":2,"station_name":"Sawah Besar","transit":false,"station_id":"SW"},{"i_long":106.828284,"station_id":"JUA","line":2,"transit":false,"is_transit":false,"time":2,"station_name":"Juanda","i_lat":-6.166716,"distance":1149},{"i_lat":-6.186295,"time":4,"distance":2015,"station_name":"Gondangdia","i_long":106.832183,"is_transit":false,"line":2,"transit":false,"station_id":"GDD"},{"transit":false,"station_id":"CKI","i_long":106.840169,"line":2,"is_transit":false,"i_lat":-6.198556,"distance":1750,"station_name":"Cikini","time":3}],[{"line":5,"distance":0,"time":0,"transit":false,"is_transit":false,"station_id":"THI","station_name":"Tanah Tinggi","i_lat":-6.17331,"i_long":106.64657},{"time":3,"i_lat":-6.171811,"transit":false,"distance":2028,"station_name":"Batuceper","i_long":106.665036,"is_transit":false,"line":5,"station_id":"BPR"},{"is_transit":false,"transit":false,"station_name":"Poris","time":3,"i_lat":-6.169933,"i_long":106.679458,"station_id":"PI","distance":1834,"line":5},{"station_name":"Kalideres","station_id":"KDS","distance":2548,"i_long":106.701612,"line":5,"is_transit":false,"i_lat":-6.166068,"transit":false,"time":3},{"i_long":106.723064,"transit":false,"is_transit":false,"distance":2504,"line":5,"time":3,"i_lat":-6.162758,"station_name":"Rawa Buaya","station_id":"RW"},{"station_id":"BOI","i_long":106.737035,"line":5,"i_lat":-6.159876,"is_transit":false,"transit":false,"time":4,"station_name":"Bojongindah","distance":1152},{"is_transit":false,"i_long":106.756522,"distance":2334,"station_name":"Taman Kota","transit":false,"i_lat":-6.1587309999999995,"line":5,"time":2,"station_id":"TKO"},{"station_name":"Pesing","i_lat":-6.161433,"i_long":106.771379,"time":2,"distance":1614,"transit":false,"station_id":"PSG","line":5,"is_transit":false},{"station_name":"Grogol","time":2,"distance":2036,"transit":false,"i_lat":-6.162021,"station_id":"GRG","i_long":106.788277,"line":5,"is_transit":false},{"line":1,"is_transit":true,"i_lat":-6.155215,"time":3,"station_name":"Duri","station_id":"DU","i_long":106.800832,"distance":1700,"transit":true},{"distance":1230,"is_transit":false,"station_name":"Angke","time":4,"i_long":106.79867,"transit":false,"station_id":"AK","i_lat":-6.144674,"line":1},{"i_lat":-6.132549,"station_name":"Kampung Bandan","station_id":"KPB","i_long":106.826365,"transit":true,"line":4,"time":9,"distance":4102,"is_transit":true},{"station_name":"Rajawali","distance":1444,"i_long":106.836569,"i_lat":-6.14505,"line":11,"is_transit":false,"transit":false,"time":3,"station_id":"RJW"},{"i_lat":-6.161728,"time":5,"distance":1901,"is_transit":false,"transit":false,"i_long":106.839204,"line":11,"station_name":"Kemayoran","station_id":"KMO"},{"station_id":"PSE","i_long":106.84368,"distance":1436,"time":4,"i_lat":-6.174784,"line":11,"transit":false,"is_transit":false,"station_name":"Pasar Senen"},{"station_id":"GST","distance":1567,"station_name":"Gang Sentiong","is_transit":false,"i_long":106.850107,"time":8,"i_lat":-6.185975,"transit":false,"line":11},{"is_transit":false,"station_name":"Kramat","transit":false,"line":11,"time":1,"distance":973,"i_long":106.855437,"station_id":"KMT","i_lat":-6.193792},{"station_name":"Pondok Jati","is_transit":false,"transit":false,"distance":1829,"station_id":"POK","i_long":106.861737,"line":11,"i_lat":-6.209188,"time":2},{"station_name":"Jatinegara","station_id":"JNG","time":9,"is_transit":true,"i_lat":-6.215091,"distance":1236,"transit":true,"i_long":106.86807400000001,"line":1},{"transit":false,"station_name":"Matraman","station_id":"MTR","distance":1377,"time":2,"i_lat":-6.212485,"line":1,"i_long":106.858896,"is_transit":false},{"is_transit":true,"i_long":106.84912,"line":2,"station_id":"MRI","time":2,"distance":1275,"transit":true,"i_lat":-6.209883,"station_name":"Manggarai"},{"station_name":"Cikini","distance":1590,"i_lat":-6.198556,"line":2,"i_long":106.840169,"time":4,"is_transit":false,"transit":false,"station_id":"CKI"}],[{"i_long":106.64657,"line":5,"distance":0,"station_id":"THI","station_name":"Tanah Tinggi","transit":false,"i_lat":-6.17331,"time":0,"is_transit":false},{"i_lat":-6.171811,"i_long":106.665036,"station_name":"Batuceper","distance":2028,"transit":false,"is_transit":false,"line":5,"time":3,"station_id":"BPR"},{"is_transit":false,"i_lat":-6.169933,"station_id":"PI","station_name":"Poris","i_long":106.679458,"transit":false,"distance":1834,"time":3,"line":5},{"station_name":"Kalideres","i_lat":-6.166068,"i_long":106.701612,"station_id":"KDS","time":3,"transit":false,"line":5,"distance":2548,"is_transit":false},{"distance":2504,"station_name":"Rawa Buaya","transit":false,"is_transit":false,"station_id":"RW","i_lat":-6.162758,"line":5,"i_long":106.723064,"time":3},{"is_transit":false,"i_long":106.737035,"i_lat":-6.159876,"distance":1152,"transit":false,"time":4,"station_id":"BOI","station_name":"Bojongindah","line":5},{"distance":2334,"line":5,"time":2,"station_id":"TKO","station_name":"Taman Kota","i_lat":-6.1587309999999995,"i_long":106.756522,"is_transit":false,"transit":false},{"line":5,"is_transit":false,"time":2,"distance":1614,"station_name":"Pesing","i_long":106.771379,"transit":false,"i_lat":-6.161433,"station_id":"PSG"},{"i_lat":-6.162021,"time":2,"distance":2036,"transit":false,"station_name":"Grogol","is_transit":false,"i_long":106.788277,"station_id":"GRG","line":5},{"i_lat":-6.155215,"distance":1700,"transit":true,"time":3,"is_transit":true,"station_name":"Duri","i_long":106.800832,"station_id":"DU","line":1},{"is_transit":false,"station_name":"Tanah Abang","station_id":"THB","time":8,"i_lat":-6.185545,"transit":false,"i_long":106.811091,"line":1,"distance":3632},{"is_transit":false,"transit":false,"station_id":"KAT","i_lat":-6.20132,"i_long":106.816351,"time":5,"station_name":"Karet","line":1,"distance":2029},{"line":1,"transit":false,"time":1,"station_id":"SUDB","i_long":106.819881,"station_name":"Sudirman Baru","distance":471,"is_transit":false,"i_lat":-6.201433},{"distance":280,"time":1,"station_name":"Sudirman","station_id":"SUD","line":1,"i_long":106.822649,"is_transit":false,"i_lat":-6.202263,"transit":false},{"station_id":"MRI","time":4,"station_name":"Manggarai","i_long":106.84912,"line":2,"is_transit":false,"distance":3186,"transit":false,"i_lat":-6.209883},{"station_id":"MTR","transit":false,"station_name":"Matraman","is_transit":false,"line":1,"distance":1275,"i_lat":-6.212485,"time":2,"i_long":106.858896},{"distance":1377,"station_name":"Jatinegara","station_id":"JNG","is_transit":true,"i_lat":-6.215091,"line":1,"time":8,"transit":true,"i_long":106.86807400000001},{"i_lat":-6.209188,"distance":1236,"is_transit":false,"time":2,"station_id":"POK","i_long":106.861737,"line":11,"transit":false,"station_name":"Pondok Jati"},{"i_lat":-6.193792,"i_long":106.855437,"transit":false,"station_id":"KMT","line":11,"distance":1829,"time":2,"station_name":"Kramat","is_transit":false},{"station_id":"GST","i_long":106.850107,"distance":973,"station_name":"Gang Sentiong","is_transit":false,"line":11,"transit":false,"time":1,"i_lat":-6.185975},{"station_id":"PSE","i_lat":-6.174784,"transit":false,"time":8,"i_long":106.84368,"line":11,"is_transit":false,"station_name":"Pasar Senen","distance":1567},{"i_long":106.839204,"transit":false,"line":11,"station_name":"Kemayoran","distance":1436,"station_id":"KMO","i_lat":-6.161728,"time":4,"is_transit":false},{"distance":1901,"line":11,"time":5,"is_transit":false,"i_long":106.836569,"station_id":"RJW","transit":false,"station_name":"Rajawali","i_lat":-6.14505},{"transit":true,"station_name":"Kampung Bandan","distance":1444,"i_lat":-6.132549,"station_id":"KPB","i_long":106.826365,"line":4,"time":3,"is_transit":true},{"line":2,"i_lat":-6.137569,"time":3,"transit":true,"is_transit":true,"distance":1364,"station_id":"JAKK","station_name":"Jakarta Kota","i_long":106.812439},{"transit":false,"time":4,"station_id":"JAY","station_name":"Jayakarta","i_long":106.820901,"line":2,"distance":1264,"is_transit":false,"i_lat":-6.141205},{"transit":false,"line":2,"time":2,"is_transit":false,"station_id":"MGB","distance":1080,"station_name":"Manggabesar","i_long":106.82482,"i_lat":-6.149769},{"time":2,"line":2,"i_lat":-6.160725,"transit":false,"station_name":"Sawah Besar","is_transit":false,"distance":906,"i_long":106.827103,"station_id":"SW"},{"i_lat":-6.166716,"station_name":"Juanda","is_transit":false,"distance":1149,"station_id":"JUA","transit":false,"i_long":106.828284,"time":2,"line":2},{"transit":false,"distance":2015,"station_id":"GDD","time":4,"i_lat":-6.186295,"station_name":"Gondangdia","is_transit":false,"i_long":106.832183,"line":2},{"station_id":"CKI","time":3,"transit":false,"i_lat":-6.198556,"i_long":106.840169,"line":2,"station_name":"Cikini","is_transit":false,"distance":1750}]]}