{"data":[[{"line":5,"i_lat":-6.17331,"i_long":106.64657,"station_name":"Tanah Tinggi","transit":false,"time":0,"distance":0,"is_transit":false,"station_id":"THI"},{"time":3,"is_transit":false,"station_name":"Batuceper","i_lat":-6.171811,"i_long":106.665036,"station_id":"BPR","line":5,"distance":2028,"transit":false},{"station_id":"PI","station_name":"Poris","i_lat":-6.169933,"is_transit":false,"transit":false,"i_long":106.679458,"line":5,"time":3,"distance":1834},{"station_id":"KDS","time":3,"distance":2548,"i_long":106.701612,"station_name":"Kalideres","transit":false,"line":5,"is_transit":false,"i_lat":-6.166068},{"transit":false,"time":3,"is_transit":false,"i_long":106.723064,"station_id":"RW","line":5,"i_lat":-6.162758,"distance":2504,"station_name":"Rawa Buaya"},{"line":5,"i_lat":-6.159876,"i_long":106.737035,"distance":1152,"time":4,"is_transit":false,"transit":false,"station_id":"BOI","station_name":"Bojongindah"}]]}