{"data":[[{"distance":0,"station_name":"Tanah Tinggi","is_transit":false,"time":0,"i_long":106.64657,"station_id":"THI","transit":false,"i_lat":-6.17331,"line":5},{"i_lat":-6.171811,"station_name":"Batuceper","station_id":"BPR","i_long":106.665036,"transit":false,"line":5,"time":3,"distance":2028,"is_transit":false},{"station_name":"Poris","distance":1834,"i_long":106.679458,"i_lat":-6.169933,"line":5,"is_transit":false,"transit":false,"time":3,"station_id":"PI"},{"i_lat":-6.166068,"time":3,"distance":2548,"is_transit":false,"transit":false,"i_long":106.701612,"line":5,"station_name":"Kalideres","station_id":"KDS"},{"station_name":"Rawa Buaya","i_long":106.723064,"distance":2504,"time":3,"i_lat":-6.162758,"line":5,"transit":false,"is_transit":false,"station_id":"RW"},{"station_id":"BOI","distance":1152,"station_name":"Bojongindah","is_transit":false,"i_long":106.737035,"time":4,"i_lat":-6.159876,"transit":false,"line":5},{"is_transit":false,"station_name":"Taman Kota","transit":false,"line":5,"time":2,"distance":2334,"i_long":106.756522,"station_id":"TKO","i_lat":-6.1587309999999995},{"transit":false,"station_id":"PSG","distance":1614,"time":2,"i_lat":-6.161433,"i_long":106.771379,"station_name":"Pesing","line":5,"is_transit":false},{"i_lat":-6.162021,"i_long":106.788277,"station_name":"Grogol","time":2,"station_id":"GRG","line":5,"is_transit":false,"distance":2036,"transit":false},{"station_name":"Duri","i_long":106.800832,"station_id":"DU","transit":true,"i_lat":-6.155215,"line":1,"distance":1700,"is_transit":true,"time":3},{"time":4,"i_long":106.79867,"station_name":"Angke","distance":1230,"is_transit":false,"i_lat":-6.144674,"line":1,"station_id":"AK","transit":false},{"i_lat":-6.132549,"station_name":"Kampung Bandan","distance":4102,"time":9,"station_id":"KPB","i_long":106.826365,"is_transit":false,"line":4,"transit":false}],[{"distance":0,"station_name":"Tanah Tinggi","i_long":106.64657,"time":0,"transit":false,"station_id":"THI","i_lat":-6.17331,"is_transit":false,"line":5},{"time":3,"distance":2028,"station_name":"Batuceper","transit":false,"i_lat":-6.171811,"line":5,"station_id":"BPR","is_transit":false,"i_long":106.665036},{"is_transit":false,"transit":false,"time":3,"station_name":"Poris","distance":1834,"station_id":"PI","i_lat":-6.169933,"line":5,"i_long":106.679458},{"station_id":"KDS","i_long":106.701612,"transit":false,"time":3,"distance":2548,"line":5,"is_transit":false,"i_lat":-6.166068,"station_name":"Kalideres"},{"i_lat":-6.162758,"is_transit":false,"time":3,"station_name":"Rawa Buaya","line":5,"i_long":106.723064,"transit":false,"station_id":"RW","distance":2504},{"is_transit":false,"station_id":"BOI","time":4,"i_long":106.737035,"line":5,"distance":1152,"transit":false,"i_lat":-6.159876,"station_name":"Bojongindah"},{"line":5,"station_id":"TKO","transit":false,"i_lat":-6.1587309999999995,"time":2,"i_long":106.756522,"is_transit":false,"distance":2334,"station_name":"Taman Kota"},{"line":5,"distance":1614,"time":2,"transit":false,"station_id":"PSG","i_long":106.771379,"is_transit":false,"station_name":"Pesing","i_lat":-6.161433},{"station_name":"Grogol","station_id":"GRG","line":5,"transit":false,"is_transit":false,"i_lat":-6.162021,"i_long":106.788277,"time":2,"distance":2036},{"i_lat":-6.155215,"station_id":"DU","i_long":106.800832,"station_name":"Duri","transit":true,"line":1,"distance":1700,"is_transit":true,"time":3},{"i_lat":-6.185545,"time":8,"distance":3632,"is_transit":false,"station_id":"THB","station_name":"Tanah Abang","transit":false,"i_long":106.811091,"line":1},{"i_lat":-6.20132,"station_name":"Karet","distance":2029,"line":1,"time":5,"station_id":"KAT","i_long":106.816351,"is_transit":false,"transit":false},{"line":1,"station_id":"SUDB","i_lat":-6.201433,"station_name":"Sudirman Baru","transit":false,"i_long":106.819881,"is_transit":false,"distance":471,"time":1},{"i_long":106.822649,"line":1,"station_name":"Sudirman","time":1,"transit":false,"station_id":"SUD","is_transit":false,"i_lat":-6.202263,"distance":280},{"line":2,"station_id":"MRI","i_lat":-6.209883,"distance":3186,"station_name":"Manggarai","is_transit":true,"i_long":106.84912,"time":4,"transit":true},{"station_name":"Cikini","distance":1590,"is_transit":false,"time":4,"i_lat":-6.198556,"line":2,"i_long":106.840169,"station_id":"CKI","transit":false},{"transit":false,"time":3,"station_name":"Gondangdia","i_lat":-6.186295,"i_long":106.832183,"station_id":"GDD","is_transit":false,"line":2,"distance":1750},{"time":4,"is_transit":false,"transit":false,"i_lat":-6.166716,"distance":2015,"station_name":"Juanda","line":2,"i_long":106.828284,"station_id":"JUA"},{"distance":1149,"i_lat":-6.160725,"i_long":106.827103,"line":2,"station_name":"Sawah Besar","station_id":"SW","transit":false,"is_transit":false,"time":2},{"is_transit":false,"time":2,"distance":906,"station_name":"Manggabesar","station_id":"MGB","i_long":106.82482,"i_lat":-6.149769,"line":2,"transit":false},{"i_long":106.820901,"i_lat":-6.141205,"station_name":"Jayakarta","station_id":"JAY","time":2,"is_transit":false,"transit":false,"distance":1080,"line":2},{"time":4,"i_lat":-6.137569,"i_long":106.812439,"line":2,"station_name":"Jakarta Kota","station_id":"JAKK","distance":1264,"is_transit":true,"transit":true},{"i_long":106.826365,"line":4,"time":3,"station_id":"KPB","transit":false,"station_name":"Kampung Bandan","distance":1364,"i_lat":-6.132549,"is_transit":false}],[{"transit":false,"station_name":"Tanah Tinggi","line":5,"distance":0,"station_id":"THI","time":0,"i_lat":-6.17331,"i_long":106.64657,"is_transit":false},{"line":5,"i_lat":-6.171811,"is_transit":false,"station_name":"Batuceper","station_id":"BPR","distance":2028,"time":3,"transit":false,"i_long":106.665036},{"distance":1834,"time":3,"is_transit":false,"station_id":"PI","station_name":"Poris","i_lat":-6.169933,"transit":false,"i_long":106.679458,"line":5},{"time":3,"transit":false,"i_lat":-6.166068,"station_name":"Kalideres","line":5,"is_transit":false,"station_id":"KDS","i_long":106.701612,"distance":2548},{"station_name":"Rawa Buaya","i_long":106.723064,"i_lat":-6.162758,"is_transit":false,"line":5,"distance":2504,"transit":false,"station_id":"RW","time":3},{"station_name":"Bojongindah","transit":false,"time":4,"i_lat":-6.159876,"is_transit":false,"i_long":106.737035,"line":5,"distance":1152,"station_id":"BOI"},{"time":2,"is_transit":false,"station_name":"Taman Kota","distance":2334,"line":5,"i_lat":-6.1587309999999995,"transit":false,"station_id":"TKO","i_long":106.756522},{"line":5,"time":2,"i_long":106.771379,"station_id":"PSG","transit":false,"station_name":"Pesing","is_transit":false,"distance":1614,"i_lat":-6.161433},{"line":5,"station_name":"Grogol","i_lat":-6.162021,"station_id":"GRG","distance":2036,"transit":false,"is_transit":false,"i_long":106.788277,"time":2},{"line":1,"i_long":106.800832,"distance":1700,"is_transit":true,"i_lat":-6.155215,"time":3,"transit":true,"station_name":"Duri","station_id":"DU"},{"distance":3632,"time":8,"transit":false,"station_name":"Tanah Abang","i_long":106.811091,"i_lat":-6.185545,"line":1,"is_transit":false,"station_id":"THB"},{"i_lat":-6.20132,"line":1,"station_id":"KAT","time":5,"station_name":"Karet","i_long":106.816351,"is_transit":false,"distance":2029,"transit":false},{"distance":471,"is_transit":false,"station_name":"Sudirman Baru","transit":false,"i_lat":-6.201433,"i_long":106.819881,"line":1,"station_id":"SUDB","time":1},{"is_transit":false,"station_name":"Sudirman","line":1,"distance":280,"station_id":"SUD","time":1,"transit":false,"i_long":106.822649,"i_lat":-6.202263},{"distance":3186,"line":2,"transit":false,"station_name":"Manggarai","station_id":"MRI","i_lat":-6.209883,"i_long":106.84912,"time":4,"is_transit":false},{"time":2,"distance":1275,"station_name":"Matraman","station_id":"MTR","i_lat":-6.212485,"i_long":106.858896,"line":1,"is_transit":false,"transit":false},{"is_transit":true,"station_id":"JNG","line":1,"time":8,"transit":true,"i_lat":-6.215091,"i_long":106.86807400000001,"distance":1377,"station_name":"Jatinegara"},{"distance":1236,"station_name":"Pondok Jati","i_lat":-6.209188,"line":11,"time":2,"station_id":"POK","i_long":106.861737,"is_transit":false,"transit":false},{"i_long":106.855437,"line":11,"i_lat":-6.193792,"time":2,"is_transit":false,"distance":1829,"station_name":"Kramat","station_id":"KMT","transit":false},{"station_name":"Gang Sentiong","line":11,"transit":false,"is_transit":false,"i_lat":-6.185975,"station_id":"GST","distance":973,"i_long":106.850107,"time":1},{"line":11,"i_lat":-6.174784,"station_id":"PSE","station_name":"Pasar Senen","is_transit":false,"transit":false,"time":8,"distance":1567,"i_long":106.84368},{"line":11,"distance":1436,"is_transit":false,"time":4,"station_name":"Kemayoran","station_id":"KMO","i_long":106.839204,"transit":false,"i_lat":-6.161728},{"line":11,"i_lat":-6.14505,"station_id":"RJW","time":5,"i_long":106.836569,"transit":false,"is_transit":false,"distance":1901,"station_name":"Rajawali"},{"is_transit":false,"i_lat":-6.132549,"line":4,"time":3,"station_id":"KPB","station_name":"Kampung Bandan","transit":false,"i_long":106.826365,"distance":1444}]]}