{"data":[[{"i_long":106.64657,"station_name":"Tanah Tinggi","is_transit":false,"transit":false,"distance":0,"line":5,"time":0,"station_id":"THI","i_lat":-6.17331},{"line":5,"time":3,"station_id":"BPR","distance":2028,"i_long":106.665036,"is_transit":false,"station_name":"Batuceper","i_lat":-6.171811,"transit":false},{"transit":false,"line":5,"station_id":"PI","i_lat":-6.169933,"is_transit":false,"time":3,"distance":1834,"station_name":"Poris","i_long":106.679458},{"i_long":106.701612,"distance":2548,"station_id":"KDS","is_transit":false,"time":3,"transit":false,"line":5,"station_name":"Kalideres","i_lat":-6.166068},{"distance":2504,"i_long":106.723064,"transit":false,"station_id":"RW","time":3,"station_name":"Rawa Buaya","is_transit":false,"i_lat":-6.162758,"line":5},{"is_transit":false,"station_name":"Bojongindah","i_lat":-6.159876,"i_long":106.737035,"transit":false,"time":4,"distance":1152,"station_id":"BOI","line":5},{"distance":2334,"i_lat":-6.1587309999999995,"station_id":"TKO","transit":false,"is_transit":false,"station_name":"Taman Kota","i_long":106.756522,"line":5,"time":2},{"i_long":106.771379,"is_transit":false,"distance":1614,"line":5,"transit":false,"station_name":"Pesing","i_lat":-6.161433,"time":2,"station_id":"PSG"},{"i_lat":-6.162021,"distance":2036,"station_name":"Grogol","time":2,"i_long":106.788277,"is_transit":false,"station_id":"GRG","transit":false,"line":5},{"is_transit":true,"time":3,"transit":true,"i_long":106.800832,"i_lat":-6.155215,"distance":1700,"line":1,"station_id":"DU","station_name":"Duri"},{"distance":3632,"transit":true,"time":8,"station_name":"Tanah Abang","i_long":106.811091,"line":1,"station_id":"THB","is_transit":true,"i_lat":-6.185545},{"line":6,"i_lat":-6.207404,"station_name":"Palmerah","transit":false,"i_long":106.79689,"distance":3191,"is_transit":false,"time":6,"station_id":"PLM"}],[{"transit":false,"i_lat":-6.17331,"i_long":106.64657,"time":0,"is_transit":false,"line":5,"station_name":"Tanah Tinggi","distance":0,"station_id":"THI"},{"distance":2028,"i_lat":-6.171811,"time":3,"station_id":"BPR","station_name":"Batuceper","transit":false,"i_long":106.665036,"is_transit":false,"line":5},{"station_name":"Poris","is_transit":false,"time":3,"distance":1834,"line":5,"i_lat":-6.169933,"station_id":"PI","i_long":106.679458,"transit":false},{"distance":2548,"station_name":"Kalideres","station_id":"KDS","is_transit":false,"line":5,"i_lat":-6.166068,"transit":false,"i_long":106.701612,"time":3},{"station_id":"RW","is_transit":false,"station_name":"Rawa Buaya","i_lat":-6.162758,"i_long":106.723064,"time":3,"distance":2504,"transit":false,"line":5},{"line":5,"station_name":"Bojongindah","distance":1152,"is_transit":false,"station_id":"BOI","transit":false,"i_long":106.737035,"i_lat":-6.159876,"time":4},{"is_transit":false,"transit":false,"station_id":"TKO","line":5,"time":2,"distance":2334,"i_long":106.756522,"station_name":"Taman Kota","i_lat":-6.1587309999999995},{"line":5,"station_name":"Pesing","is_transit":false,"time":2,"distance":1614,"station_id":"PSG","transit":false,"i_lat":-6.161433,"i_long":106.771379},{"i_long":106.788277,"station_name":"Grogol","transit":false,"i_lat":-6.162021,"is_transit":false,"distance":2036,"line":5,"time":2,"station_id":"GRG"},{"time":3,"transit":true,"station_name":"Duri","distance":1700,"i_lat":-6.155215,"line":1,"is_transit":true,"i_long":106.800832,"station_id":"DU"},{"distance":1230,"i_long":106.79867,"transit":false,"is_transit":false,"station_name":"Angke","time":4,"station_id":"AK","i_lat":-6.144674,"line":1},{"station_name":"Kampung Bandan","is_transit":true,"time":9,"distance":4102,"transit":true,"station_id":"KPB","line":4,"i_long":106.826365,"i_lat":-6.132549},{"is_transit":true,"distance":1364,"station_name":"Jakarta Kota","transit":true,"i_lat":-6.137569,"time":3,"station_id":"JAKK","i_long":106.812439,"line":2},{"time":4,"station_name":"Jayakarta","station_id":"JAY","is_transit":false,"i_lat":-6.141205,"transit":false,"distance":1264,"line":2,"i_long":106.820901},{"station_id":"MGB","distance":1080,"time":2,"line":2,"i_long":106.82482,"station_name":"Manggabesar","is_transit":false,"transit":false,"i_lat":-6.149769},{"line":2,"station_name":"Sawah Besar","i_long":106.827103,"distance":906,"is_transit":false,"station_id":"SW","time":2,"transit":false,"i_lat":-6.160725},{"station_name":"Juanda","is_transit":false,"i_long":106.828284,"station_id":"JUA","line":2,"time":2,"transit":false,"distance":1149,"i_lat":-6.166716},{"distance":2015,"station_name":"Gondangdia","i_long":106.832183,"transit":false,"line":2,"time":4,"station_id":"GDD","i_lat":-6.186295,"is_transit":false},{"transit":false,"is_transit":false,"station_id":"CKI","time":3,"i_long":106.840169,"i_lat":-6.198556,"station_name":"Cikini","line":2,"distance":1750},{"distance":1590,"station_id":"MRI","time":4,"transit":true,"station_name":"Manggarai","i_long":106.84912,"line":2,"i_lat":-6.209883,"is_transit":true},{"station_name":"Sudirman","station_id":"SUD","i_lat":-6.202263,"is_transit":false,"time":4,"distance":3186,"transit":false,"line":1,"i_long":106.822649},{"station_id":"SUDB","is_transit":false,"i_lat":-6.201433,"i_long":106.819881,"line":1,"distance":280,"time":1,"transit":false,"station_name":"Sudirman Baru"},{"is_transit":false,"transit":false,"station_name":"Karet","i_lat":-6.20132,"line":1,"time":1,"distance":471,"station_id":"KAT","i_long":106.816351},{"distance":2029,"line":1,"is_transit":true,"i_lat":-6.185545,"time":5,"station_name":"Tanah Abang","station_id":"THB","transit":true,"i_long":106.811091},{"distance":3191,"transit":false,"is_transit":false,"station_id":"PLM","line":6,"i_lat":-6.207404,"time":6,"station_name":"Palmerah","i_long":106.79689}],[{"distance":0,"is_transit":false,"time":0,"i_long":106.64657,"station_name":"Tanah Tinggi","line":5,"station_id":"THI","transit":false,"i_lat":-6.17331},{"distance":2028,"station_id":"BPR","time":3,"transit":false,"is_transit":false,"station_name":"Batuceper","i_lat":-6.171811,"i_long":106.665036,"line":5},{"is_transit":false,"transit":false,"i_long":106.679458,"line":5,"time":3,"distance":1834,"station_name":"Poris","station_id":"PI","i_lat":-6.169933},{"station_id":"KDS","station_name":"Kalideres","time":3,"i_long":106.701612,"i_lat":-6.166068,"is_transit":false,"line":5,"distance":2548,"transit":false},{"distance":2504,"line":5,"i_lat":-6.162758,"is_transit":false,"time":3,"station_id":"RW","i_long":106.723064,"transit":false,"station_name":"Rawa Buaya"},{"transit":false,"i_long":106.737035,"time":4,"station_id":"BOI","is_transit":false,"station_name":"Bojongindah","i_lat":-6.159876,"line":5,"distance":1152},{"distance":2334,"station_id":"TKO","i_lat":-6.1587309999999995,"time":2,"station_name":"Taman Kota","is_transit":false,"transit":false,"i_long":106.756522,"line":5},{"line":5,"time":2,"distance":1614,"i_long":106.771379,"station_id":"PSG","is_transit":false,"transit":false,"station_name":"Pesing","i_lat":-6.161433},{"is_transit":false,"station_id":"GRG","time":2,"distance":2036,"transit":false,"i_lat":-6.162021,"line":5,"station_name":"Grogol","i_long":106.788277},{"time":3,"i_lat":-6.155215,"i_long":106.800832,"station_id":"DU","transit":true,"station_name":"Duri","line":1,"distance":1700,"is_transit":true},{"station_id":"AK","transit":false,"line":1,"station_name":"Angke","i_lat":-6.144674,"is_transit":false,"i_long":106.79867,"time":4,"distance":1230},{"line":4,"distance":4102,"time":9,"station_name":"Kampung Bandan","station_id":"KPB","i_lat":-6.132549,"is_transit":true,"transit":true,"i_long":106.826365},{"transit":false,"distance":1444,"i_long":106.836569,"is_transit":false,"station_id":"RJW","station_name":"Rajawali","time":3,"i_lat":-6.14505,"line":11},{"line":11,"is_transit":false,"station_id":"KMO","distance":1901,"transit":false,"i_lat":-6.161728,"i_long":106.839204,"station_name":"Kemayoran","time":5},{"line":11,"station_id":"PSE","i_long":106.84368,"i_lat":-6.174784,"station_name":"Pasar Senen","transit":false,"time":4,"distance":1436,"is_transit":false},{"i_long":106.850107,"distance":1567,"time":8,"is_transit":false,"line":11,"station_id":"GST","transit":false,"i_lat":-6.185975,"station_name":"Gang Sentiong"},{"transit":false,"station_name":"Kramat","station_id":"KMT","i_lat":-6.193792,"i_long":106.855437,"distance":973,"time":1,"line":11,"is_transit":false},{"i_long":106.861737,"time":2,"is_transit":false,"i_lat":-6.209188,"transit":false,"line":11,"distance":1829,"station_id":"POK","station_name":"Pondok Jati"},{"time":9,"transit":true,"i_lat":-6.215091,"station_name":"Jatinegara","station_id":"JNG","line":1,"distance":1236,"i_long":106.86807400000001,"is_transit":true},{"distance":1377,"time":2,"station_name":"Matraman","i_lat":-6.212485,"transit":false,"line":1,"i_long":106.858896,"is_transit":false,"station_id":"MTR"},{"is_transit":false,"line":2,"station_name":"Manggarai","time":2,"i_long":106.84912,"distance":1275,"i_lat":-6.209883,"station_id":"MRI","transit":false},{"line":1,"is_transit":false,"station_id":"SUD","station_name":"Sudirman","transit":false,"time":4,"distance":3186,"i_lat":-6.202263,"i_long":106.822649},{"station_id":"SUDB","i_long":106.819881,"line":1,"distance":280,"station_name":"Sudirman Baru","transit":false,"i_lat":-6.201433,"is_transit":false,"time":1},{"transit":false,"i_long":106.816351,"station_name":"Karet","station_id":"KAT","is_transit":false,"line":1,"distance":471,"i_lat":-6.20132,"time":1},{"station_name":"Tanah Abang","i_lat":-6.185545,"transit":true,"is_transit":true,"line":1,"time":5,"i_long":106.811091,"distance":2029,"station_id":"THB"},{"distance":3191,"line":6,"station_name":"Palmerah","time":6,"station_id":"PLM","i_lat":-6.207404,"i_long":106.79689,"transit":false,"is_transit":false}]]}