{"data":[[{"station_name":"Taman Kota","time":0,"i_lat":-6.1587309999999995,"line":5,"is_transit":false,"station_id":"TKO","i_long":106.756522,"distance":0,"transit":false},{"station_name":"Bojongindah","i_lat":-6.159876,"station_id":"BOI","time":2,"i_long":106.737035,"is_transit":false,"distance":2334,"transit":false,"line":5},{"time":4,"distance":1152,"station_id":"RW","i_long":106.723064,"station_name":"Rawa Buaya","i_lat":-6.162758,"transit":false,"line":5,"is_transit":false},{"transit":false,"time":3,"is_transit":false,"i_lat":-6.166068,"station_name":"Kalideres","i_long":106.701612,"line":5,"distance":2504,"station_id":"KDS"},{"time":3,"is_transit":false,"i_long":106.679458,"i_lat":-6.169933,"station_name":"Poris","distance":2548,"transit":false,"station_id":"PI","line":5},{"is_transit":false,"distance":1834,"i_long":106.665036,"line":5,"transit":false,"time":3,"i_lat":-6.171811,"station_name":"Batuceper","station_id":"BPR"},{"station_name":"Tanah Tinggi","is_transit":false,"i_lat":-6.17331,"i_long":106.64657,"time":3,"distance":2028,"station_id":"THI","line":5,"transit":false}]]}