{"data":[[{"distance":0,"station_id":"TKO","is_transit":false,"transit":false,"time":0,"i_long":106.756522,"station_name":"Taman Kota","i_lat":-6.1587309999999995,"line":5},{"distance":1614,"station_name":"Pesing","transit":false,"time":2,"i_long":106.771379,"is_transit":false,"station_id":"PSG","line":5,"i_lat":-6.161433},{"is_transit":false,"station_id":"GRG","i_lat":-6.162021,"station_name":"Grogol","time":2,"distance":2036,"i_long":106.788277,"line":5,"transit":false},{"i_lat":-6.155215,"line":1,"time":3,"transit":true,"i_long":106.800832,"is_transit":true,"station_name":"Duri","station_id":"DU","distance":1700},{"station_id":"THB","line":1,"is_transit":false,"time":8,"station_name":"Tanah Abang","transit":false,"i_lat":-6.185545,"distance":3632,"i_long":106.811091},{"distance":2029,"i_long":106.816351,"time":5,"is_transit":false,"station_name":"Karet","i_lat":-6.20132,"line":1,"station_id":"KAT","transit":false},{"station_name":"Sudirman Baru","i_lat":-6.201433,"is_transit":false,"transit":false,"time":1,"i_long":106.819881,"line":1,"distance":471,"station_id":"SUDB"},{"station_name":"Sudirman","is_transit":false,"i_long":106.822649,"line":1,"station_id":"SUD","distance":280,"i_lat":-6.202263,"time":1,"transit":false},{"line":2,"station_id":"MRI","transit":false,"time":4,"station_name":"Manggarai","i_lat":-6.209883,"is_transit":false,"distance":3186,"i_long":106.84912},{"time":2,"station_id":"MTR","i_lat":-6.212485,"station_name":"Matraman","is_transit":false,"distance":1275,"transit":false,"i_long":106.858896,"line":1},{"line":1,"time":8,"transit":false,"station_name":"Jatinegara","i_long":106.86807400000001,"distance":1377,"station_id":"JNG","is_transit":false,"i_lat":-6.215091},{"transit":false,"i_lat":-6.2135,"station_id":"KLD","i_long":106.899548,"station_name":"Klender","time":3,"line":1,"is_transit":false,"distance":3395},{"distance":3100,"station_name":"Buaran","transit":false,"station_id":"BUA","line":1,"i_lat":-6.215568,"time":2,"is_transit":false,"i_long":106.922662},{"i_lat":-6.217455,"is_transit":false,"transit":false,"line":1,"station_name":"Klenderbaru","i_long":106.939679,"time":1,"station_id":"KLDB","distance":1305},{"line":1,"transit":false,"station_id":"CUK","is_transit":false,"time":8,"i_long":106.951283,"station_name":"Cakung","distance":1385,"i_lat":-6.219053},{"is_transit":false,"time":3,"distance":3097,"i_long":106.977657,"station_name":"Kranji","i_lat":-6.224515,"station_id":"KRI","transit":false,"line":1},{"time":4,"i_long":106.997013,"transit":false,"distance":2520,"i_lat":-6.236616,"station_name":"Bekasi","line":1,"is_transit":false,"station_id":"BKS"}],[{"i_lat":-6.1587309999999995,"line":5,"is_transit":false,"transit":false,"station_name":"Taman Kota","i_long":106.756522,"station_id":"TKO","distance":0,"time":0},{"distance":1614,"is_transit":false,"i_lat":-6.161433,"station_id":"PSG","line":5,"time":2,"transit":false,"i_long":106.771379,"station_name":"Pesing"},{"is_transit":false,"line":5,"station_id":"GRG","time":2,"distance":2036,"station_name":"Grogol","transit":false,"i_lat":-6.162021,"i_long":106.788277},{"station_name":"Duri","i_long":106.800832,"i_lat":-6.155215,"time":3,"station_id":"DU","line":1,"distance":1700,"is_transit":true,"transit":true},{"station_name":"Angke","distance":1230,"transit":false,"station_id":"AK","time":4,"is_transit":false,"line":1,"i_lat":-6.144674,"i_long":106.79867},{"i_long":106.826365,"station_name":"Kampung Bandan","line":4,"time":9,"station_id":"KPB","is_transit":true,"transit":true,"distance":4102,"i_lat":-6.132549},{"i_lat":-6.14505,"i_long":106.836569,"distance":1444,"time":3,"station_name":"Rajawali","station_id":"RJW","transit":false,"is_transit":false,"line":11},{"station_name":"Kemayoran","transit":false,"line":11,"station_id":"KMO","is_transit":false,"i_long":106.839204,"i_lat":-6.161728,"time":5,"distance":1901},{"station_name":"Pasar Senen","i_lat":-6.174784,"i_long":106.84368,"line":11,"distance":1436,"transit":false,"time":4,"is_transit":false,"station_id":"PSE"},{"is_transit":false,"station_id":"GST","line":11,"station_name":"Gang Sentiong","transit":false,"time":8,"i_lat":-6.185975,"distance":1567,"i_long":106.850107},{"i_lat":-6.193792,"station_id":"KMT","time":1,"station_name":"Kramat","line":11,"is_transit":false,"distance":973,"transit":false,"i_long":106.855437},{"i_long":106.861737,"distance":1829,"transit":false,"line":11,"station_name":"Pondok Jati","is_transit":false,"station_id":"POK","i_lat":-6.209188,"time":2},{"time":9,"line":1,"distance":1236,"station_name":"Jatinegara","is_transit":true,"transit":true,"station_id":"JNG","i_lat":-6.215091,"i_long":106.86807400000001},{"i_long":106.899548,"distance":3395,"is_transit":false,"station_name":"Klender","time":3,"station_id":"KLD","i_lat":-6.2135,"line":1,"transit":false},{"line":1,"is_transit":false,"transit":false,"i_long":106.922662,"distance":3100,"station_id":"BUA","station_name":"Buaran","time":2,"i_lat":-6.215568},{"i_long":106.939679,"transit":false,"line":1,"distance":1305,"station_name":"Klenderbaru","station_id":"KLDB","i_lat":-6.217455,"time":1,"is_transit":false},{"is_transit":false,"transit":false,"i_long":106.951283,"time":8,"station_name":"Cakung","i_lat":-6.219053,"distance":1385,"station_id":"CUK","line":1},{"line":1,"i_long":106.977657,"station_name":"Kranji","transit":false,"i_lat":-6.224515,"distance":3097,"is_transit":false,"station_id":"KRI","time":3},{"i_lat":-6.236616,"is_transit":false,"time":4,"station_name":"Bekasi","station_id":"BKS","distance":2520,"i_long":106.997013,"line":1,"transit":false}],[{"distance":0,"station_id":"TKO","i_lat":-6.1587309999999995,"transit":false,"is_transit":false,"station_name":"Taman Kota","i_long":106.756522,"line":5,"time":0},{"station_name":"Pesing","time":2,"distance":1614,"station_id":"PSG","i_lat":-6.161433,"line":5,"is_transit":false,"transit":false,"i_long":106.771379},{"line":5,"station_id":"GRG","i_lat":-6.162021,"transit":false,"time":2,"i_long":106.788277,"is_transit":false,"distance":2036,"station_name":"Grogol"},{"station_id":"DU","distance":1700,"i_lat":-6.155215,"transit":true,"time":3,"station_name":"Duri","line":1,"is_transit":true,"i_long":106.800832},{"transit":false,"i_lat":-6.144674,"station_id":"AK","time":4,"is_transit":false,"i_long":106.79867,"distance":1230,"line":1,"station_name":"Angke"},{"i_lat":-6.132549,"station_name":"Kampung Bandan","i_long":106.826365,"time":9,"distance":4102,"transit":true,"line":4,"station_id":"KPB","is_transit":true},{"time":3,"station_id":"JAKK","transit":true,"is_transit":true,"i_long":106.812439,"distance":1364,"line":2,"station_name":"Jakarta Kota","i_lat":-6.137569},{"is_transit":false,"i_long":106.820901,"time":4,"transit":false,"distance":1264,"line":2,"station_name":"Jayakarta","i_lat":-6.141205,"station_id":"JAY"},{"is_transit":false,"station_id":"MGB","transit":false,"time":2,"i_lat":-6.149769,"i_long":106.82482,"line":2,"station_name":"Manggabesar","distance":1080},{"line":2,"station_id":"SW","transit":false,"time":2,"is_transit":false,"station_name":"Sawah Besar","i_long":106.827103,"i_lat":-6.160725,"distance":906},{"is_transit":false,"i_long":106.828284,"time":2,"station_id":"JUA","distance":1149,"line":2,"i_lat":-6.166716,"transit":false,"station_name":"Juanda"},{"station_id":"GDD","transit":false,"time":4,"station_name":"Gondangdia","i_lat":-6.186295,"is_transit":false,"distance":2015,"i_long":106.832183,"line":2},{"transit":false,"time":3,"station_id":"CKI","i_lat":-6.198556,"distance":1750,"line":2,"station_name":"Cikini","i_long":106.840169,"is_transit":false},{"i_long":106.84912,"i_lat":-6.209883,"station_name":"Manggarai","distance":1590,"transit":true,"station_id":"MRI","line":2,"time":4,"is_transit":true},{"time":2,"distance":1275,"i_lat":-6.212485,"station_name":"Matraman","is_transit":false,"line":1,"station_id":"MTR","transit":false,"i_long":106.858896},{"transit":false,"i_long":106.86807400000001,"i_lat":-6.215091,"station_id":"JNG","line":1,"is_transit":false,"time":8,"distance":1377,"station_name":"Jatinegara"},{"time":3,"station_name":"Klender","distance":3395,"station_id":"KLD","line":1,"i_lat":-6.2135,"is_transit":false,"transit":false,"i_long":106.899548},{"i_lat":-6.215568,"time":2,"distance":3100,"station_name":"Buaran","station_id":"BUA","is_transit":false,"line":1,"i_long":106.922662,"transit":false},{"distance":1305,"is_transit":false,"time":1,"station_id":"KLDB","transit":false,"i_lat":-6.217455,"station_name":"Klenderbaru","line":1,"i_long":106.939679},{"is_transit":false,"i_long":106.951283,"station_name":"Cakung","station_id":"CUK","distance":1385,"time":8,"line":1,"transit":false,"i_lat":-6.219053},{"transit":false,"station_name":"Kranji","station_id":"KRI","line":1,"i_lat":-6.224515,"time":3,"is_transit":false,"i_long":106.977657,"distance":3097},{"i_long":106.997013,"is_transit":false,"distance":2520,"station_id":"BKS","station_name":"Bekasi","i_lat":-6.236616,"time":4,"transit":false,"line":1}],[{"line":5,"station_name":"Taman Kota","time":0,"station_id":"TKO","transit":false,"distance":0,"i_lat":-6.1587309999999995,"i_long":106.756522,"is_transit":false},{"i_lat":-6.161433,"distance":1614,"station_id":"PSG","station_name":"Pesing","transit":false,"i_long":106.771379,"line":5,"time":2,"is_transit":false},{"transit":false,"time":2,"station_id":"GRG","line":5,"station_name":"Grogol","i_lat":-6.162021,"i_long":106.788277,"is_transit":false,"distance":2036},{"time":3,"i_long":106.800832,"distance":1700,"station_id":"DU","transit":true,"is_transit":true,"line":1,"station_name":"Duri","i_lat":-6.155215},{"transit":false,"i_lat":-6.185545,"distance":3632,"station_id":"THB","i_long":106.811091,"time":8,"station_name":"Tanah Abang","is_transit":false,"line":1},{"line":1,"i_long":106.816351,"is_transit":false,"station_id":"KAT","transit":false,"distance":2029,"i_lat":-6.20132,"time":5,"station_name":"Karet"},{"is_transit":false,"time":1,"station_name":"Sudirman Baru","distance":471,"i_long":106.819881,"line":1,"station_id":"SUDB","transit":false,"i_lat":-6.201433},{"station_id":"SUD","is_transit":false,"line":1,"i_long":106.822649,"distance":280,"i_lat":-6.202263,"transit":false,"time":1,"station_name":"Sudirman"},{"station_name":"Manggarai","i_long":106.84912,"transit":true,"is_transit":true,"time":4,"station_id":"MRI","distance":3186,"i_lat":-6.209883,"line":2},{"distance":1590,"transit":false,"i_lat":-6.198556,"i_long":106.840169,"station_name":"Cikini","time":4,"line":2,"is_transit":false,"station_id":"CKI"},{"time":3,"i_long":106.832183,"i_lat":-6.186295,"line":2,"station_id":"GDD","distance":1750,"transit":false,"station_name":"Gondangdia","is_transit":false},{"time":4,"i_long":106.828284,"station_id":"JUA","distance":2015,"line":2,"station_name":"Juanda","is_transit":false,"transit":false,"i_lat":-6.166716},{"time":2,"transit":false,"station_id":"SW","is_transit":false,"i_long":106.827103,"station_name":"Sawah Besar","i_lat":-6.160725,"line":2,"distance":1149},{"is_transit":false,"i_lat":-6.149769,"transit":false,"distance":906,"time":2,"station_id":"MGB","station_name":"Manggabesar","i_long":106.82482,"line":2},{"is_transit":false,"station_name":"Jayakarta","line":2,"time":2,"i_lat":-6.141205,"distance":1080,"station_id":"JAY","i_long":106.820901,"transit":false},{"station_name":"Jakarta Kota","is_transit":true,"i_long":106.812439,"transit":true,"time":4,"i_lat":-6.137569,"station_id":"JAKK","distance":1264,"line":2},{"time":3,"station_name":"Kampung Bandan","i_lat":-6.132549,"i_long":106.826365,"line":4,"distance":1364,"transit":true,"station_id":"KPB","is_transit":true},{"i_lat":-6.14505,"distance":1444,"line":11,"time":3,"station_id":"RJW","station_name":"Rajawali","transit":false,"i_long":106.836569,"is_transit":false},{"is_transit":false,"transit":false,"station_id":"KMO","i_lat":-6.161728,"distance":1901,"station_name":"Kemayoran","i_long":106.839204,"time":5,"line":11},{"line":11,"station_id":"PSE","transit":false,"i_long":106.84368,"station_name":"Pasar Senen","time":4,"distance":1436,"i_lat":-6.174784,"is_transit":false},{"i_lat":-6.185975,"distance":1567,"station_id":"GST","station_name":"Gang Sentiong","transit":false,"time":8,"is_transit":false,"line":11,"i_long":106.850107},{"transit":false,"line":11,"is_transit":false,"distance":973,"time":1,"station_id":"KMT","station_name":"Kramat","i_lat":-6.193792,"i_long":106.855437},{"station_id":"POK","transit":false,"station_name":"Pondok Jati","is_transit":false,"distance":1829,"time":2,"i_lat":-6.209188,"line":11,"i_long":106.861737},{"line":1,"distance":1236,"station_name":"Jatinegara","station_id":"JNG","i_long":106.86807400000001,"time":9,"transit":true,"is_transit":true,"i_lat":-6.215091},{"distance":3395,"i_lat":-6.2135,"is_transit":false,"time":3,"line":1,"station_id":"KLD","station_name":"Klender","i_long":106.899548,"transit":false},{"time":2,"transit":false,"line":1,"i_long":106.922662,"is_transit":false,"i_lat":-6.215568,"distance":3100,"station_id":"BUA","station_name":"Buaran"},{"line":1,"distance":1305,"station_id":"KLDB","is_transit":false,"i_lat":-6.217455,"transit":false,"i_long":106.939679,"station_name":"Klenderbaru","time":1},{"i_lat":-6.219053,"station_name":"Cakung","i_long":106.951283,"is_transit":false,"time":8,"distance":1385,"transit":false,"line":1,"station_id":"CUK"},{"transit":false,"i_lat":-6.224515,"station_name":"Kranji","line":1,"distance":3097,"station_id":"KRI","time":3,"is_transit":false,"i_long":106.977657},{"i_lat":-6.236616,"time":4,"i_long":106.997013,"distance":2520,"line":1,"is_transit":false,"station_id":"BKS","transit":false,"station_name":"Bekasi"}]]}