{"data":[[{"is_transit":false,"transit":false,"i_long":106.756522,"station_id":"TKO","distance":0,"station_name":"Taman Kota","time":0,"i_lat":-6.1587309999999995,"line":5},{"is_transit":false,"i_lat":-6.161433,"distance":1614,"station_name":"Pesing","station_id":"PSG","i_long":106.771379,"time":2,"line":5,"transit":false},{"distance":2036,"line":5,"station_id":"GGL","is_transit":false,"station_name":"Grogol","time":2,"transit":false,"i_long":106.788277,"i_lat":-6.162021},{"line":1,"transit":true,"i_lat":-6.155215,"distance":1700,"station_id":"DU","is_transit":true,"time":3,"station_name":"Duri","i_long":106.800832},{"station_id":"AK","distance":1230,"line":1,"time":4,"transit":false,"is_transit":false,"i_lat":-6.144674,"station_name":"Angke","i_long":106.79867},{"station_id":"KPB","is_transit":true,"time":9,"transit":true,"line":4,"station_name":"Kampung Bandan","distance":4102,"i_lat":-6.132549,"i_long":106.826365},{"station_name":"Jakarta Kota","i_lat":-6.137569,"i_long":106.812439,"station_id":"JAKK","transit":false,"is_transit":false,"time":3,"line":2,"distance":1364}],[{"distance":0,"i_lat":-6.1587309999999995,"transit":false,"station_name":"Taman Kota","time":0,"station_id":"TKO","is_transit":false,"i_long":106.756522,"line":5},{"is_transit":false,"station_name":"Pesing","time":2,"i_long":106.771379,"line":5,"station_id":"PSG","transit":false,"distance":1614,"i_lat":-6.161433},{"line":5,"station_name":"Grogol","transit":false,"time":2,"station_id":"GGL","is_transit":false,"i_long":106.788277,"distance":2036,"i_lat":-6.162021},{"station_name":"Duri","is_transit":true,"i_lat":-6.155215,"time":3,"i_long":106.800832,"station_id":"DU","distance":1700,"transit":true,"line":1},{"time":8,"i_lat":-6.185545,"line":1,"is_transit":false,"transit":false,"i_long":106.811091,"distance":3632,"station_id":"THB","station_name":"Tanah Abang"},{"time":5,"transit":false,"i_long":106.816351,"line":1,"i_lat":-6.20132,"station_id":"KAT","station_name":"Karet","distance":2029,"is_transit":false},{"distance":471,"transit":false,"station_name":"Sudirman Baru","line":1,"is_transit":false,"station_id":"SUDB","i_lat":-6.201433,"time":1,"i_long":106.819881},{"line":1,"transit":false,"station_id":"SUD","station_name":"Sudirman","is_transit":false,"i_lat":-6.202263,"i_long":106.822649,"distance":280,"time":1},{"is_transit":true,"distance":3186,"station_name":"Manggarai","time":4,"i_lat":-6.209883,"line":2,"transit":true,"i_long":106.84912,"station_id":"MRI"},{"station_name":"Cikini","time":4,"transit":false,"i_lat":-6.198556,"station_id":"CKI","i_long":106.840169,"is_transit":false,"distance":1590,"line":2},{"line":2,"i_long":106.832183,"distance":1750,"station_id":"GDD","time":3,"i_lat":-6.186295,"is_transit":false,"station_name":"Gondangdia","transit":false},{"i_long":106.828284,"line":2,"station_id":"JUA","time":4,"is_transit":false,"station_name":"Juanda","transit":false,"distance":2015,"i_lat":-6.166716},{"station_id":"SW","is_transit":false,"transit":false,"distance":1149,"time":2,"station_name":"Sawah Besar","i_lat":-6.160725,"i_long":106.827103,"line":2},{"i_long":106.82482,"line":2,"distance":906,"time":2,"is_transit":false,"station_id":"MGB","station_name":"Manggabesar","transit":false,"i_lat":-6.149769},{"station_id":"JAY","transit":false,"station_name":"Jayakarta","i_long":106.820901,"line":2,"distance":1080,"is_transit":false,"time":2,"i_lat":-6.141205},{"distance":1264,"i_lat":-6.137569,"station_id":"JAKK","line":2,"station_name":"Jakarta Kota","transit":false,"i_long":106.812439,"is_transit":false,"time":4}],[{"i_lat":-6.1587309999999995,"line":5,"i_long":106.756522,"time":0,"station_name":"Taman Kota","distance":0,"is_transit":false,"transit":false,"station_id":"TKO"},{"station_name":"Pesing","i_lat":-6.161433,"i_long":106.771379,"line":5,"is_transit":false,"distance":1614,"station_id":"PSG","time":2,"transit":false},{"is_transit":false,"distance":2036,"i_long":106.788277,"station_id":"GGL","station_name":"Grogol","line":5,"transit":false,"time":2,"i_lat":-6.162021},{"i_long":106.800832,"line":1,"time":3,"transit":true,"distance":1700,"is_transit":true,"station_id":"DU","i_lat":-6.155215,"station_name":"Duri"},{"transit":false,"line":1,"station_name":"Tanah Abang","i_long":106.811091,"is_transit":false,"i_lat":-6.185545,"time":8,"distance":3632,"station_id":"THB"},{"station_id":"KAT","line":1,"distance":2029,"i_long":106.816351,"is_transit":false,"time":5,"station_name":"Karet","transit":false,"i_lat":-6.20132},{"i_lat":-6.201433,"is_transit":false,"distance":471,"time":1,"transit":false,"station_name":"Sudirman Baru","line":1,"station_id":"SUDB","i_long":106.819881},{"distance":280,"time":1,"i_lat":-6.202263,"station_id":"SUD","is_transit":false,"transit":false,"i_long":106.822649,"station_name":"Sudirman","line":1},{"transit":false,"line":2,"station_id":"MRI","distance":3186,"station_name":"Manggarai","i_long":106.84912,"time":4,"is_transit":false,"i_lat":-6.209883},{"distance":1275,"station_name":"Matraman","time":2,"is_transit":false,"i_long":106.858896,"line":1,"transit":false,"station_id":"MTR","i_lat":-6.212485},{"is_transit":true,"station_name":"Jatinegara","i_long":106.86807400000001,"i_lat":-6.215091,"station_id":"JNG","transit":true,"line":1,"time":8,"distance":1377},{"i_lat":-6.209188,"i_long":106.861737,"station_id":"POK","line":11,"distance":1236,"time":2,"station_name":"Pondok Jati","is_transit":false,"transit":false},{"station_id":"KMT","station_name":"Kramat","distance":1829,"is_transit":false,"transit":false,"i_long":106.855437,"line":11,"time":2,"i_lat":-6.193792},{"i_long":106.850107,"is_transit":false,"line":11,"time":1,"distance":973,"station_id":"GST","station_name":"Gang Sentiong","i_lat":-6.185975,"transit":false},{"station_id":"PSE","station_name":"Pasar Senen","transit":false,"i_long":106.84368,"line":11,"is_transit":false,"time":8,"i_lat":-6.174784,"distance":1567},{"time":4,"i_long":106.839204,"distance":1436,"line":11,"station_name":"Kemayoran","station_id":"KMO","i_lat":-6.161728,"is_transit":false,"transit":false},{"is_transit":false,"line":11,"i_long":106.836569,"distance":1901,"transit":false,"station_name":"Rajawali","time":5,"i_lat":-6.14505,"station_id":"RJW"},{"i_long":106.826365,"time":3,"transit":true,"station_id":"KPB","line":4,"is_transit":true,"station_name":"Kampung Bandan","distance":1444,"i_lat":-6.132549},{"i_lat":-6.137569,"line":2,"station_name":"Jakarta Kota","station_id":"JAKK","i_long":106.812439,"transit":false,"distance":1364,"time":3,"is_transit":false}],[{"station_name":"Taman Kota","station_id":"TKO","i_long":106.756522,"is_transit":false,"line":5,"time":0,"i_lat":-6.1587309999999995,"transit":false,"distance":0},{"is_transit":false,"station_id":"PSG","time":2,"i_lat":-6.161433,"transit":false,"i_long":106.771379,"station_name":"Pesing","line":5,"distance":1614},{"distance":2036,"i_lat":-6.162021,"station_id":"GGL","time":2,"line":5,"is_transit":false,"station_name":"Grogol","transit":false,"i_long":106.788277},{"line":1,"distance":1700,"station_id":"DU","i_long":106.800832,"transit":true,"i_lat":-6.155215,"station_name":"Duri","is_transit":true,"time":3},{"time":4,"i_lat":-6.144674,"line":1,"transit":false,"i_long":106.79867,"station_name":"Angke","distance":1230,"station_id":"AK","is_transit":false},{"line":4,"transit":true,"station_name":"Kampung Bandan","i_lat":-6.132549,"distance":4102,"is_transit":true,"time":9,"i_long":106.826365,"station_id":"KPB"},{"time":3,"line":11,"i_long":106.836569,"i_lat":-6.14505,"distance":1444,"is_transit":false,"station_id":"RJW","transit":false,"station_name":"Rajawali"},{"station_id":"KMO","line":11,"distance":1901,"i_long":106.839204,"station_name":"Kemayoran","transit":false,"is_transit":false,"i_lat":-6.161728,"time":5},{"is_transit":false,"i_lat":-6.174784,"station_id":"PSE","line":11,"distance":1436,"i_long":106.84368,"time":4,"transit":false,"station_name":"Pasar Senen"},{"transit":false,"station_id":"GST","i_long":106.850107,"line":11,"i_lat":-6.185975,"time":8,"is_transit":false,"station_name":"Gang Sentiong","distance":1567},{"is_transit":false,"i_lat":-6.193792,"transit":false,"time":1,"station_name":"Kramat","station_id":"KMT","line":11,"distance":973,"i_long":106.855437},{"transit":false,"is_transit":false,"station_name":"Pondok Jati","i_long":106.861737,"i_lat":-6.209188,"line":11,"time":2,"distance":1829,"station_id":"POK"},{"distance":1236,"i_long":106.86807400000001,"is_transit":true,"station_id":"JNG","line":1,"time":9,"station_name":"Jatinegara","i_lat":-6.215091,"transit":true},{"station_name":"Matraman","i_lat":-6.212485,"i_long":106.858896,"distance":1377,"station_id":"MTR","transit":false,"line":1,"time":2,"is_transit":false},{"line":2,"is_transit":true,"i_long":106.84912,"station_name":"Manggarai","distance":1275,"time":2,"station_id":"MRI","i_lat":-6.209883,"transit":true},{"station_name":"Cikini","station_id":"CKI","transit":false,"line":2,"time":4,"i_lat":-6.198556,"i_long":106.840169,"distance":1590,"is_transit":false},{"line":2,"station_name":"Gondangdia","transit":false,"time":3,"distance":1750,"is_transit":false,"station_id":"GDD","i_long":106.832183,"i_lat":-6.186295},{"time":4,"i_long":106.828284,"station_name":"Juanda","i_lat":-6.166716,"is_transit":false,"line":2,"distance":2015,"station_id":"JUA","transit":false},{"time":2,"is_transit":false,"i_long":106.827103,"station_id":"SW","i_lat":-6.160725,"station_name":"Sawah Besar","line":2,"distance":1149,"transit":false},{"line":2,"i_long":106.82482,"is_transit":false,"station_id":"MGB","transit":false,"time":2,"station_name":"Manggabesar","distance":906,"i_lat":-6.149769},{"is_transit":false,"line":2,"distance":1080,"transit":false,"station_name":"Jayakarta","station_id":"JAY","time":2,"i_long":106.820901,"i_lat":-6.141205},{"distance":1264,"i_lat":-6.137569,"station_name":"Jakarta Kota","station_id":"JAKK","is_transit":false,"time":4,"line":2,"i_long":106.812439,"transit":false}]]}