{"data":[[{"time":0,"distance":0,"i_lat":-6.1587309999999995,"line":5,"is_transit":false,"station_name":"Taman Kota","station_id":"TKO","transit":false,"i_long":106.756522},{"line":5,"i_long":106.771379,"time":2,"i_lat":-6.161433,"station_id":"PSG","station_name":"Pesing","transit":false,"distance":1614,"is_transit":false},{"is_transit":false,"time":2,"station_id":"GGL","i_lat":-6.162021,"station_name":"Grogol","i_long":106.788277,"line":5,"distance":2036,"transit":false},{"i_long":106.800832,"time":3,"line":1,"i_lat":-6.155215,"station_id":"DU","distance":1700,"transit":true,"station_name":"Duri","is_transit":true},{"station_id":"THB","distance":3632,"i_long":106.811091,"transit":false,"station_name":"Tanah Abang","i_lat":-6.185545,"line":1,"time":8,"is_transit":false},{"distance":2029,"station_name":"Karet","station_id":"KAT","time":5,"line":1,"is_transit":false,"transit":false,"i_lat":-6.20132,"i_long":106.816351},{"time":1,"station_name":"Sudirman Baru","station_id":"SUDB","i_lat":-6.201433,"is_transit":false,"distance":471,"transit":false,"i_long":106.819881,"line":1},{"is_transit":false,"station_name":"Sudirman","transit":false,"time":1,"i_long":106.822649,"i_lat":-6.202263,"distance":280,"line":1,"station_id":"SUD"},{"time":4,"station_id":"MRI","transit":true,"line":2,"i_lat":-6.209883,"is_transit":true,"station_name":"Manggarai","i_long":106.84912,"distance":3186},{"line":2,"distance":2610,"station_id":"TEB","station_name":"Tebet","time":4,"is_transit":false,"i_lat":-6.226659,"transit":false,"i_long":106.857948},{"is_transit":false,"station_id":"CW","line":2,"distance":1230,"transit":false,"i_long":106.856607,"i_lat":-6.242512,"station_name":"Cawang","time":2},{"transit":false,"line":2,"time":3,"station_id":"DRN","station_name":"Duren Kalibata","distance":1546,"is_transit":false,"i_lat":-6.255332,"i_long":106.85449},{"i_lat":-6.263214,"is_transit":false,"time":2,"station_name":"Pasar Minggu Baru","distance":824,"station_id":"PSMB","line":2,"transit":false,"i_long":106.851577},{"distance":2380,"station_id":"PSM","i_lat":-6.2842400000000005,"is_transit":false,"time":2,"line":2,"station_name":"Pasar Minggu","i_long":106.843999,"transit":false},{"transit":false,"time":4,"distance":2820,"is_transit":false,"station_name":"Tanjung Barat","station_id":"TNT","i_long":106.838896,"line":2,"i_lat":-6.3080680000000005},{"distance":2671,"station_name":"Lenteng Agung","i_lat":-6.330363,"station_id":"LNA","time":3,"is_transit":false,"line":2,"i_long":106.832616,"transit":false},{"transit":false,"station_name":"Univ. Pancasila","line":2,"is_transit":false,"distance":1029,"station_id":"UP","time":2,"i_long":106.834175,"i_lat":-6.339291},{"i_lat":-6.360749,"i_long":106.831474,"distance":2264,"line":2,"station_id":"UI","transit":false,"is_transit":false,"time":3,"station_name":"Univ. Indonesia"},{"line":2,"is_transit":false,"station_id":"POC","transit":false,"i_long":106.831114,"station_name":"Pondok Cina","distance":1109,"time":2,"i_lat":-6.369073},{"station_id":"DPB","is_transit":false,"station_name":"Depokbaru","distance":2727,"line":2,"i_lat":-6.391065,"i_long":106.819451,"transit":false,"time":4},{"i_long":106.816926,"transit":false,"station_name":"Depok","station_id":"DP","i_lat":-6.405256,"time":3,"distance":1584,"is_transit":false,"line":2},{"line":2,"station_id":"CTA","is_transit":false,"time":6,"transit":false,"station_name":"Citayam","distance":5084,"i_lat":-6.448811,"i_long":106.800298},{"transit":false,"i_lat":-6.493243,"station_id":"BJD","i_long":106.792719,"time":5,"line":2,"distance":5197,"is_transit":false,"station_name":"Bojonggede"},{"station_name":"Cilebut","line":2,"distance":4331,"i_lat":-6.530544,"station_id":"CLT","time":5,"i_long":106.800016,"is_transit":false,"transit":false}],[{"time":0,"distance":0,"i_long":106.756522,"station_name":"Taman Kota","station_id":"TKO","transit":false,"i_lat":-6.1587309999999995,"is_transit":false,"line":5},{"i_lat":-6.161433,"station_id":"PSG","distance":1614,"transit":false,"line":5,"i_long":106.771379,"station_name":"Pesing","is_transit":false,"time":2},{"i_long":106.788277,"is_transit":false,"station_name":"Grogol","distance":2036,"i_lat":-6.162021,"line":5,"time":2,"transit":false,"station_id":"GGL"},{"i_long":106.800832,"is_transit":true,"station_id":"DU","line":1,"transit":true,"i_lat":-6.155215,"station_name":"Duri","time":3,"distance":1700},{"transit":false,"i_lat":-6.144674,"station_name":"Angke","time":4,"distance":1230,"i_long":106.79867,"is_transit":false,"station_id":"AK","line":1},{"station_name":"Kampung Bandan","distance":4102,"is_transit":true,"station_id":"KPB","transit":true,"i_long":106.826365,"time":9,"line":4,"i_lat":-6.132549},{"station_name":"Jakarta Kota","i_lat":-6.137569,"i_long":106.812439,"time":3,"transit":true,"is_transit":true,"distance":1364,"line":2,"station_id":"JAKK"},{"time":4,"station_id":"JAY","transit":false,"line":2,"station_name":"Jayakarta","is_transit":false,"distance":1264,"i_long":106.820901,"i_lat":-6.141205},{"station_id":"MGB","i_lat":-6.149769,"transit":false,"time":2,"distance":1080,"i_long":106.82482,"line":2,"is_transit":false,"station_name":"Manggabesar"},{"i_lat":-6.160725,"transit":false,"distance":906,"station_name":"Sawah Besar","station_id":"SW","time":2,"i_long":106.827103,"line":2,"is_transit":false},{"line":2,"i_lat":-6.166716,"station_name":"Juanda","time":2,"distance":1149,"i_long":106.828284,"transit":false,"is_transit":false,"station_id":"JUA"},{"distance":2015,"station_id":"GDD","is_transit":false,"line":2,"time":4,"station_name":"Gondangdia","i_lat":-6.186295,"i_long":106.832183,"transit":false},{"transit":false,"time":3,"line":2,"station_name":"Cikini","is_transit":false,"distance":1750,"station_id":"CKI","i_lat":-6.198556,"i_long":106.840169},{"time":4,"transit":false,"station_name":"Manggarai","station_id":"MRI","i_lat":-6.209883,"is_transit":false,"i_long":106.84912,"line":2,"distance":1590},{"distance":2610,"line":2,"transit":false,"i_long":106.857948,"time":4,"is_transit":false,"station_id":"TEB","i_lat":-6.226659,"station_name":"Tebet"},{"line":2,"time":2,"i_lat":-6.242512,"i_long":106.856607,"is_transit":false,"station_name":"Cawang","station_id":"CW","transit":false,"distance":1230},{"line":2,"transit":false,"station_id":"DRN","i_lat":-6.255332,"i_long":106.85449,"station_name":"Duren Kalibata","is_transit":false,"distance":1546,"time":3},{"line":2,"station_id":"PSMB","transit":false,"distance":824,"i_long":106.851577,"station_name":"Pasar Minggu Baru","i_lat":-6.263214,"is_transit":false,"time":2},{"station_name":"Pasar Minggu","station_id":"PSM","i_lat":-6.2842400000000005,"distance":2380,"time":2,"i_long":106.843999,"transit":false,"is_transit":false,"line":2},{"time":4,"station_id":"TNT","station_name":"Tanjung Barat","transit":false,"line":2,"i_lat":-6.3080680000000005,"is_transit":false,"distance":2820,"i_long":106.838896},{"line":2,"station_id":"LNA","distance":2671,"time":3,"is_transit":false,"station_name":"Lenteng Agung","transit":false,"i_lat":-6.330363,"i_long":106.832616},{"station_name":"Univ. Pancasila","time":2,"station_id":"UP","is_transit":false,"distance":1029,"i_lat":-6.339291,"transit":false,"i_long":106.834175,"line":2},{"i_long":106.831474,"is_transit":false,"time":3,"line":2,"station_name":"Univ. Indonesia","transit":false,"station_id":"UI","distance":2264,"i_lat":-6.360749},{"distance":1109,"i_long":106.831114,"station_name":"Pondok Cina","line":2,"transit":false,"is_transit":false,"time":2,"i_lat":-6.369073,"station_id":"POC"},{"distance":2727,"is_transit":false,"time":4,"station_id":"DPB","transit":false,"i_long":106.819451,"line":2,"i_lat":-6.391065,"station_name":"Depokbaru"},{"distance":1584,"station_id":"DP","transit":false,"is_transit":false,"time":3,"station_name":"Depok","line":2,"i_lat":-6.405256,"i_long":106.816926},{"transit":false,"distance":5084,"station_id":"CTA","is_transit":false,"line":2,"i_lat":-6.448811,"station_name":"Citayam","time":6,"i_long":106.800298},{"station_name":"Bojonggede","time":5,"station_id":"BJD","transit":false,"i_lat":-6.493243,"i_long":106.792719,"line":2,"distance":5197,"is_transit":false},{"distance":4331,"station_name":"Cilebut","is_transit":false,"time":5,"station_id":"CLT","line":2,"transit":false,"i_lat":-6.530544,"i_long":106.800016}],[{"station_id":"TKO","time":0,"i_long":106.756522,"line":5,"station_name":"Taman Kota","i_lat":-6.1587309999999995,"is_transit":false,"transit":false,"distance":0},{"is_transit":false,"transit":false,"station_name":"Pesing","distance":1614,"i_lat":-6.161433,"i_long":106.771379,"time":2,"station_id":"PSG","line":5},{"i_long":106.788277,"is_transit":false,"distance":2036,"transit":false,"i_lat":-6.162021,"time":2,"station_name":"Grogol","line":5,"station_id":"GGL"},{"is_transit":true,"station_id":"DU","transit":true,"i_lat":-6.155215,"line":1,"i_long":106.800832,"station_name":"Duri","time":3,"distance":1700},{"station_name":"Angke","is_transit":false,"time":4,"i_long":106.79867,"transit":false,"i_lat":-6.144674,"line":1,"distance":1230,"station_id":"AK"},{"transit":true,"i_lat":-6.132549,"is_transit":true,"i_long":106.826365,"distance":4102,"time":9,"line":4,"station_name":"Kampung Bandan","station_id":"KPB"},{"distance":1444,"transit":false,"i_lat":-6.14505,"time":3,"line":11,"i_long":106.836569,"is_transit":false,"station_id":"RJW","station_name":"Rajawali"},{"is_transit":false,"distance":1901,"station_name":"Kemayoran","station_id":"KMO","time":5,"transit":false,"i_lat":-6.161728,"i_long":106.839204,"line":11},{"distance":1436,"is_transit":false,"i_lat":-6.174784,"station_name":"Pasar Senen","station_id":"PSE","transit":false,"time":4,"i_long":106.84368,"line":11},{"line":11,"time":8,"is_transit":false,"distance":1567,"station_id":"GST","i_long":106.850107,"station_name":"Gang Sentiong","transit":false,"i_lat":-6.185975},{"station_id":"KMT","line":11,"distance":973,"i_lat":-6.193792,"time":1,"station_name":"Kramat","is_transit":false,"transit":false,"i_long":106.855437},{"distance":1829,"i_lat":-6.209188,"station_id":"POK","is_transit":false,"i_long":106.861737,"station_name":"Pondok Jati","time":2,"transit":false,"line":11},{"time":9,"i_lat":-6.215091,"line":1,"is_transit":true,"transit":true,"station_id":"JNG","station_name":"Jatinegara","distance":1236,"i_long":106.86807400000001},{"time":2,"i_long":106.858896,"is_transit":false,"station_id":"MTR","transit":false,"distance":1377,"i_lat":-6.212485,"line":1,"station_name":"Matraman"},{"transit":true,"distance":1275,"station_id":"MRI","i_lat":-6.209883,"station_name":"Manggarai","i_long":106.84912,"time":2,"is_transit":true,"line":2},{"i_long":106.857948,"station_name":"Tebet","is_transit":false,"time":4,"transit":false,"station_id":"TEB","i_lat":-6.226659,"line":2,"distance":2610},{"is_transit":false,"distance":1230,"station_id":"CW","i_lat":-6.242512,"transit":false,"line":2,"time":2,"station_name":"Cawang","i_long":106.856607},{"is_transit":false,"i_long":106.85449,"station_name":"Duren Kalibata","time":3,"station_id":"DRN","i_lat":-6.255332,"line":2,"transit":false,"distance":1546},{"station_name":"Pasar Minggu Baru","is_transit":false,"distance":824,"time":2,"station_id":"PSMB","i_lat":-6.263214,"i_long":106.851577,"line":2,"transit":false},{"i_lat":-6.2842400000000005,"station_id":"PSM","station_name":"Pasar Minggu","transit":false,"line":2,"is_transit":false,"distance":2380,"i_long":106.843999,"time":2},{"distance":2820,"i_long":106.838896,"station_name":"Tanjung Barat","is_transit":false,"transit":false,"line":2,"station_id":"TNT","time":4,"i_lat":-6.3080680000000005},{"station_id":"LNA","i_lat":-6.330363,"transit":false,"is_transit":false,"station_name":"Lenteng Agung","distance":2671,"time":3,"i_long":106.832616,"line":2},{"is_transit":false,"i_long":106.834175,"line":2,"station_id":"UP","i_lat":-6.339291,"station_name":"Univ. Pancasila","distance":1029,"transit":false,"time":2},{"time":3,"line":2,"distance":2264,"is_transit":false,"transit":false,"station_name":"Univ. Indonesia","station_id":"UI","i_lat":-6.360749,"i_long":106.831474},{"time":2,"transit":false,"distance":1109,"i_lat":-6.369073,"line":2,"station_id":"POC","i_long":106.831114,"station_name":"Pondok Cina","is_transit":false},{"time":4,"station_id":"DPB","transit":false,"i_lat":-6.391065,"line":2,"distance":2727,"i_long":106.819451,"is_transit":false,"station_name":"Depokbaru"},{"transit":false,"distance":1584,"i_lat":-6.405256,"line":2,"station_name":"Depok","time":3,"is_transit":false,"station_id":"DP","i_long":106.816926},{"i_lat":-6.448811,"time":6,"distance":5084,"i_long":106.800298,"is_transit":false,"transit":false,"line":2,"station_name":"Citayam","station_id":"CTA"},{"transit":false,"i_lat":-6.493243,"line":2,"time":5,"i_long":106.792719,"distance":5197,"station_id":"BJD","station_name":"Bojonggede","is_transit":false},{"station_name":"Cilebut","transit":false,"is_transit":false,"distance":4331,"i_lat":-6.530544,"i_long":106.800016,"time":5,"line":2,"station_id":"CLT"}]]}