{"data":[[{"station_id":"TKO","line":5,"i_long":106.756522,"transit":false,"is_transit":false,"time":0,"station_name":"Taman Kota","i_lat":-6.1587309999999995,"distance":0},{"i_lat":-6.161433,"i_long":106.771379,"line":5,"transit":false,"station_name":"Pesing","is_transit":false,"distance":1614,"station_id":"PSG","time":2},{"i_lat":-6.162021,"i_long":106.788277,"is_transit":false,"station_name":"Grogol","transit":false,"time":2,"distance":2036,"station_id":"GGL","line":5},{"station_name":"Duri","is_transit":true,"i_long":106.800832,"station_id":"DU","time":3,"distance":1700,"line":1,"transit":true,"i_lat":-6.155215},{"i_long":106.79867,"station_name":"Angke","i_lat":-6.144674,"station_id":"AK","is_transit":false,"distance":1230,"time":4,"transit":false,"line":1},{"i_lat":-6.132549,"time":9,"station_name":"Kampung Bandan","is_transit":true,"distance":4102,"station_id":"KPB","i_long":106.826365,"line":4,"transit":true},{"line":11,"transit":false,"i_lat":-6.14505,"i_long":106.836569,"distance":1444,"time":3,"station_id":"RJW","is_transit":false,"station_name":"Rajawali"}],[{"time":0,"transit":false,"i_lat":-6.1587309999999995,"is_transit":false,"line":5,"station_name":"Taman Kota","i_long":106.756522,"distance":0,"station_id":"TKO"},{"is_transit":false,"i_lat":-6.161433,"time":2,"line":5,"i_long":106.771379,"station_id":"PSG","distance":1614,"transit":false,"station_name":"Pesing"},{"station_name":"Grogol","station_id":"GGL","i_lat":-6.162021,"transit":false,"is_transit":false,"time":2,"distance":2036,"line":5,"i_long":106.788277},{"transit":true,"i_long":106.800832,"station_id":"DU","time":3,"i_lat":-6.155215,"is_transit":true,"line":1,"distance":1700,"station_name":"Duri"},{"i_long":106.811091,"station_name":"Tanah Abang","station_id":"THB","transit":false,"time":8,"is_transit":false,"distance":3632,"i_lat":-6.185545,"line":1},{"i_lat":-6.20132,"time":5,"distance":2029,"transit":false,"line":1,"i_long":106.816351,"station_name":"Karet","is_transit":false,"station_id":"KAT"},{"i_long":106.819881,"i_lat":-6.201433,"transit":false,"station_id":"SUDB","is_transit":false,"time":1,"distance":471,"station_name":"Sudirman Baru","line":1},{"station_id":"SUD","i_lat":-6.202263,"i_long":106.822649,"is_transit":false,"line":1,"time":1,"station_name":"Sudirman","transit":false,"distance":280},{"station_id":"MRI","distance":3186,"i_long":106.84912,"transit":false,"station_name":"Manggarai","line":2,"i_lat":-6.209883,"time":4,"is_transit":false},{"line":1,"station_name":"Matraman","i_lat":-6.212485,"i_long":106.858896,"station_id":"MTR","is_transit":false,"distance":1275,"transit":false,"time":2},{"station_name":"Jatinegara","station_id":"JNG","is_transit":true,"distance":1377,"i_lat":-6.215091,"i_long":106.86807400000001,"transit":true,"time":8,"line":1},{"transit":false,"time":2,"distance":1236,"line":11,"i_long":106.861737,"i_lat":-6.209188,"station_name":"Pondok Jati","station_id":"POK","is_transit":false},{"is_transit":false,"time":2,"station_id":"KMT","i_long":106.855437,"line":11,"transit":false,"distance":1829,"i_lat":-6.193792,"station_name":"Kramat"},{"i_lat":-6.185975,"line":11,"time":1,"i_long":106.850107,"station_id":"GST","distance":973,"is_transit":false,"transit":false,"station_name":"Gang Sentiong"},{"time":8,"distance":1567,"station_name":"Pasar Senen","station_id":"PSE","i_lat":-6.174784,"line":11,"transit":false,"is_transit":false,"i_long":106.84368},{"station_id":"KMO","time":4,"i_lat":-6.161728,"transit":false,"is_transit":false,"distance":1436,"line":11,"station_name":"Kemayoran","i_long":106.839204},{"is_transit":false,"line":11,"station_name":"Rajawali","station_id":"RJW","distance":1901,"i_long":106.836569,"time":5,"i_lat":-6.14505,"transit":false}],[{"is_transit":false,"i_lat":-6.1587309999999995,"line":5,"transit":false,"station_name":"Taman Kota","station_id":"TKO","i_long":106.756522,"distance":0,"time":0},{"transit":false,"distance":1614,"i_lat":-6.161433,"station_id":"PSG","station_name":"Pesing","i_long":106.771379,"time":2,"line":5,"is_transit":false},{"time":2,"transit":false,"station_id":"GGL","is_transit":false,"distance":2036,"i_lat":-6.162021,"station_name":"Grogol","i_long":106.788277,"line":5},{"i_long":106.800832,"station_id":"DU","i_lat":-6.155215,"is_transit":true,"line":1,"station_name":"Duri","transit":true,"time":3,"distance":1700},{"station_name":"Tanah Abang","line":1,"i_lat":-6.185545,"distance":3632,"i_long":106.811091,"station_id":"THB","time":8,"transit":false,"is_transit":false},{"is_transit":false,"station_id":"KAT","i_long":106.816351,"transit":false,"station_name":"Karet","distance":2029,"line":1,"time":5,"i_lat":-6.20132},{"station_id":"SUDB","station_name":"Sudirman Baru","i_lat":-6.201433,"is_transit":false,"time":1,"distance":471,"i_long":106.819881,"line":1,"transit":false},{"station_name":"Sudirman","i_long":106.822649,"line":1,"station_id":"SUD","is_transit":false,"time":1,"distance":280,"i_lat":-6.202263,"transit":false},{"station_id":"MRI","is_transit":true,"distance":3186,"transit":true,"i_long":106.84912,"time":4,"i_lat":-6.209883,"line":2,"station_name":"Manggarai"},{"distance":1590,"station_name":"Cikini","is_transit":false,"time":4,"i_lat":-6.198556,"i_long":106.840169,"line":2,"station_id":"CKI","transit":false},{"transit":false,"line":2,"station_name":"Gondangdia","is_transit":false,"station_id":"GDD","time":3,"i_long":106.832183,"distance":1750,"i_lat":-6.186295},{"i_lat":-6.166716,"line":2,"station_id":"JUA","distance":2015,"time":4,"is_transit":false,"station_name":"Juanda","i_long":106.828284,"transit":false},{"is_transit":false,"i_lat":-6.160725,"line":2,"distance":1149,"transit":false,"station_name":"Sawah Besar","time":2,"i_long":106.827103,"station_id":"SW"},{"is_transit":false,"station_name":"Manggabesar","transit":false,"i_lat":-6.149769,"i_long":106.82482,"station_id":"MGB","line":2,"time":2,"distance":906},{"distance":1080,"transit":false,"time":2,"station_id":"JAY","i_lat":-6.141205,"i_long":106.820901,"line":2,"is_transit":false,"station_name":"Jayakarta"},{"distance":1264,"i_lat":-6.137569,"station_id":"JAKK","time":4,"is_transit":true,"i_long":106.812439,"station_name":"Jakarta Kota","line":2,"transit":true},{"i_long":106.826365,"time":3,"distance":1364,"station_id":"KPB","station_name":"Kampung Bandan","i_lat":-6.132549,"line":4,"transit":true,"is_transit":true},{"transit":false,"time":3,"i_lat":-6.14505,"station_id":"RJW","distance":1444,"station_name":"Rajawali","is_transit":false,"i_long":106.836569,"line":11}],[{"i_lat":-6.1587309999999995,"station_id":"TKO","distance":0,"line":5,"is_transit":false,"time":0,"transit":false,"i_long":106.756522,"station_name":"Taman Kota"},{"station_id":"PSG","is_transit":false,"line":5,"i_long":106.771379,"distance":1614,"transit":false,"time":2,"i_lat":-6.161433,"station_name":"Pesing"},{"i_lat":-6.162021,"is_transit":false,"i_long":106.788277,"station_name":"Grogol","time":2,"distance":2036,"station_id":"GGL","line":5,"transit":false},{"i_lat":-6.155215,"is_transit":true,"station_id":"DU","station_name":"Duri","i_long":106.800832,"distance":1700,"line":1,"transit":true,"time":3},{"transit":false,"distance":1230,"station_id":"AK","i_lat":-6.144674,"station_name":"Angke","time":4,"i_long":106.79867,"is_transit":false,"line":1},{"i_long":106.826365,"station_id":"KPB","station_name":"Kampung Bandan","is_transit":true,"time":9,"distance":4102,"i_lat":-6.132549,"line":4,"transit":true},{"line":2,"time":3,"station_id":"JAKK","is_transit":true,"i_lat":-6.137569,"transit":true,"station_name":"Jakarta Kota","distance":1364,"i_long":106.812439},{"station_name":"Jayakarta","distance":1264,"is_transit":false,"i_long":106.820901,"station_id":"JAY","i_lat":-6.141205,"line":2,"time":4,"transit":false},{"line":2,"is_transit":false,"time":2,"i_lat":-6.149769,"i_long":106.82482,"station_id":"MGB","station_name":"Manggabesar","distance":1080,"transit":false},{"i_lat":-6.160725,"transit":false,"i_long":106.827103,"line":2,"station_id":"SW","distance":906,"time":2,"station_name":"Sawah Besar","is_transit":false},{"transit":false,"is_transit":false,"station_id":"JUA","station_name":"Juanda","time":2,"i_long":106.828284,"i_lat":-6.166716,"line":2,"distance":1149},{"station_id":"GDD","station_name":"Gondangdia","time":4,"transit":false,"is_transit":false,"i_long":106.832183,"i_lat":-6.186295,"distance":2015,"line":2},{"transit":false,"station_id":"CKI","distance":1750,"time":3,"i_lat":-6.198556,"i_long":106.840169,"station_name":"Cikini","line":2,"is_transit":false},{"station_id":"MRI","distance":1590,"is_transit":true,"station_name":"Manggarai","time":4,"i_lat":-6.209883,"line":2,"i_long":106.84912,"transit":true},{"station_id":"MTR","time":2,"transit":false,"distance":1275,"is_transit":false,"i_lat":-6.212485,"i_long":106.858896,"line":1,"station_name":"Matraman"},{"transit":true,"i_lat":-6.215091,"is_transit":true,"i_long":106.86807400000001,"station_id":"JNG","distance":1377,"time":8,"station_name":"Jatinegara","line":1},{"i_long":106.861737,"is_transit":false,"transit":false,"time":2,"station_id":"POK","i_lat":-6.209188,"distance":1236,"line":11,"station_name":"Pondok Jati"},{"time":2,"distance":1829,"i_lat":-6.193792,"transit":false,"station_name":"Kramat","is_transit":false,"i_long":106.855437,"line":11,"station_id":"KMT"},{"transit":false,"station_id":"GST","i_long":106.850107,"distance":973,"i_lat":-6.185975,"line":11,"station_name":"Gang Sentiong","time":1,"is_transit":false},{"station_name":"Pasar Senen","i_lat":-6.174784,"transit":false,"i_long":106.84368,"time":8,"distance":1567,"station_id":"PSE","line":11,"is_transit":false},{"i_long":106.839204,"line":11,"time":4,"distance":1436,"is_transit":false,"transit":false,"station_name":"Kemayoran","station_id":"KMO","i_lat":-6.161728},{"is_transit":false,"transit":false,"i_lat":-6.14505,"line":11,"time":5,"i_long":106.836569,"station_name":"Rajawali","station_id":"RJW","distance":1901}]]}