{"data":[[{"transit":false,"station_name":"Taman Kota","i_lat":-6.1587309999999995,"i_long":106.756522,"station_id":"TKO","time":0,"line":5,"is_transit":false,"distance":0},{"station_name":"Pesing","transit":false,"station_id":"PSG","is_transit":false,"distance":1614,"i_lat":-6.161433,"i_long":106.771379,"line":5,"time":2},{"i_lat":-6.162021,"station_id":"GGL","transit":false,"time":2,"is_transit":false,"distance":2036,"station_name":"Grogol","i_long":106.788277,"line":5},{"time":3,"is_transit":true,"distance":1700,"line":1,"i_long":106.800832,"i_lat":-6.155215,"station_name":"Duri","station_id":"DU","transit":true},{"station_name":"Tanah Abang","distance":3632,"is_transit":false,"time":8,"station_id":"THB","transit":false,"i_lat":-6.185545,"i_long":106.811091,"line":1},{"i_long":106.816351,"line":1,"station_id":"KAT","transit":false,"is_transit":false,"distance":2029,"station_name":"Karet","time":5,"i_lat":-6.20132},{"station_id":"SUDB","is_transit":false,"distance":471,"line":1,"station_name":"Sudirman Baru","i_lat":-6.201433,"i_long":106.819881,"time":1,"transit":false},{"i_long":106.822649,"is_transit":false,"i_lat":-6.202263,"transit":false,"station_name":"Sudirman","time":1,"distance":280,"station_id":"SUD","line":1},{"station_name":"Manggarai","i_long":106.84912,"transit":true,"station_id":"MRI","line":2,"distance":3186,"i_lat":-6.209883,"is_transit":true,"time":4},{"station_name":"Tebet","transit":false,"time":4,"distance":2610,"station_id":"TEB","line":2,"i_lat":-6.226659,"i_long":106.857948,"is_transit":false},{"i_long":106.856607,"station_id":"CW","time":2,"transit":false,"is_transit":false,"line":2,"i_lat":-6.242512,"station_name":"Cawang","distance":1230},{"is_transit":false,"line":2,"station_id":"DRN","time":3,"transit":false,"distance":1546,"station_name":"Duren Kalibata","i_lat":-6.255332,"i_long":106.85449},{"transit":false,"i_lat":-6.263214,"i_long":106.851577,"station_id":"PSMB","is_transit":false,"time":2,"distance":824,"station_name":"Pasar Minggu Baru","line":2},{"i_long":106.843999,"transit":false,"line":2,"station_name":"Pasar Minggu","station_id":"PSM","is_transit":false,"time":2,"i_lat":-6.2842400000000005,"distance":2380},{"time":4,"transit":false,"station_id":"TNT","i_lat":-6.3080680000000005,"is_transit":false,"distance":2820,"i_long":106.838896,"station_name":"Tanjung Barat","line":2},{"i_lat":-6.330363,"station_id":"LNA","is_transit":false,"distance":2671,"i_long":106.832616,"line":2,"time":3,"station_name":"Lenteng Agung","transit":false},{"is_transit":false,"time":2,"i_lat":-6.339291,"station_name":"Univ. Pancasila","distance":1029,"i_long":106.834175,"transit":false,"station_id":"UP","line":2},{"transit":false,"station_id":"UI","station_name":"Univ. Indonesia","is_transit":false,"time":3,"i_lat":-6.360749,"distance":2264,"i_long":106.831474,"line":2},{"station_name":"Pondok Cina","i_long":106.831114,"is_transit":false,"distance":1109,"time":2,"station_id":"POC","i_lat":-6.369073,"line":2,"transit":false},{"station_id":"DPB","time":4,"line":2,"transit":false,"station_name":"Depokbaru","is_transit":false,"distance":2727,"i_long":106.819451,"i_lat":-6.391065},{"station_name":"Depok","i_lat":-6.405256,"i_long":106.816926,"time":3,"transit":false,"station_id":"DP","is_transit":false,"distance":1584,"line":2},{"transit":false,"i_long":106.800298,"distance":5084,"line":2,"is_transit":false,"i_lat":-6.448811,"station_id":"CTA","station_name":"Citayam","time":6},{"station_name":"Bojonggede","i_long":106.792719,"distance":5197,"line":2,"station_id":"BJD","transit":false,"time":5,"i_lat":-6.493243,"is_transit":false}],[{"station_name":"Taman Kota","station_id":"TKO","i_long":106.756522,"i_lat":-6.1587309999999995,"is_transit":false,"line":5,"transit":false,"distance":0,"time":0},{"station_name":"Pesing","i_long":106.771379,"line":5,"transit":false,"time":2,"i_lat":-6.161433,"distance":1614,"station_id":"PSG","is_transit":false},{"time":2,"i_long":106.788277,"i_lat":-6.162021,"station_name":"Grogol","is_transit":false,"station_id":"GGL","transit":false,"distance":2036,"line":5},{"i_long":106.800832,"i_lat":-6.155215,"distance":1700,"transit":true,"station_id":"DU","is_transit":true,"time":3,"line":1,"station_name":"Duri"},{"i_lat":-6.144674,"i_long":106.79867,"transit":false,"is_transit":false,"distance":1230,"line":1,"station_id":"AK","time":4,"station_name":"Angke"},{"transit":true,"is_transit":true,"station_name":"Kampung Bandan","time":9,"station_id":"KPB","distance":4102,"i_lat":-6.132549,"line":4,"i_long":106.826365},{"distance":1364,"line":2,"time":3,"i_long":106.812439,"transit":true,"i_lat":-6.137569,"station_id":"JAKK","is_transit":true,"station_name":"Jakarta Kota"},{"is_transit":false,"i_lat":-6.141205,"transit":false,"station_name":"Jayakarta","station_id":"JAY","time":4,"line":2,"distance":1264,"i_long":106.820901},{"i_long":106.82482,"station_name":"Manggabesar","transit":false,"time":2,"distance":1080,"station_id":"MGB","i_lat":-6.149769,"is_transit":false,"line":2},{"i_lat":-6.160725,"station_name":"Sawah Besar","station_id":"SW","is_transit":false,"time":2,"i_long":106.827103,"line":2,"transit":false,"distance":906},{"transit":false,"station_name":"Juanda","i_lat":-6.166716,"is_transit":false,"i_long":106.828284,"station_id":"JUA","distance":1149,"time":2,"line":2},{"transit":false,"line":2,"i_long":106.832183,"station_id":"GDD","time":4,"distance":2015,"station_name":"Gondangdia","is_transit":false,"i_lat":-6.186295},{"is_transit":false,"distance":1750,"transit":false,"station_name":"Cikini","station_id":"CKI","time":3,"line":2,"i_lat":-6.198556,"i_long":106.840169},{"distance":1590,"time":4,"transit":false,"i_lat":-6.209883,"is_transit":false,"station_id":"MRI","i_long":106.84912,"station_name":"Manggarai","line":2},{"distance":2610,"i_long":106.857948,"transit":false,"station_id":"TEB","station_name":"Tebet","is_transit":false,"line":2,"time":4,"i_lat":-6.226659},{"station_id":"CW","line":2,"is_transit":false,"time":2,"i_lat":-6.242512,"i_long":106.856607,"transit":false,"station_name":"Cawang","distance":1230},{"time":3,"is_transit":false,"station_name":"Duren Kalibata","transit":false,"station_id":"DRN","i_lat":-6.255332,"distance":1546,"i_long":106.85449,"line":2},{"station_id":"PSMB","transit":false,"station_name":"Pasar Minggu Baru","i_long":106.851577,"line":2,"is_transit":false,"i_lat":-6.263214,"time":2,"distance":824},{"transit":false,"i_lat":-6.2842400000000005,"i_long":106.843999,"station_name":"Pasar Minggu","is_transit":false,"line":2,"time":2,"distance":2380,"station_id":"PSM"},{"station_name":"Tanjung Barat","distance":2820,"i_long":106.838896,"is_transit":false,"time":4,"station_id":"TNT","i_lat":-6.3080680000000005,"transit":false,"line":2},{"time":3,"transit":false,"distance":2671,"station_name":"Lenteng Agung","i_long":106.832616,"i_lat":-6.330363,"station_id":"LNA","is_transit":false,"line":2},{"i_long":106.834175,"is_transit":false,"station_name":"Univ. Pancasila","time":2,"line":2,"distance":1029,"station_id":"UP","transit":false,"i_lat":-6.339291},{"distance":2264,"i_lat":-6.360749,"time":3,"line":2,"station_id":"UI","is_transit":false,"station_name":"Univ. Indonesia","transit":false,"i_long":106.831474},{"station_name":"Pondok Cina","i_long":106.831114,"time":2,"station_id":"POC","is_transit":false,"distance":1109,"i_lat":-6.369073,"transit":false,"line":2},{"station_id":"DPB","line":2,"i_lat":-6.391065,"is_transit":false,"station_name":"Depokbaru","distance":2727,"transit":false,"i_long":106.819451,"time":4},{"i_lat":-6.405256,"line":2,"time":3,"is_transit":false,"distance":1584,"i_long":106.816926,"transit":false,"station_name":"Depok","station_id":"DP"},{"station_id":"CTA","is_transit":false,"transit":false,"i_long":106.800298,"station_name":"Citayam","line":2,"distance":5084,"i_lat":-6.448811,"time":6},{"i_long":106.792719,"transit":false,"station_id":"BJD","time":5,"i_lat":-6.493243,"distance":5197,"is_transit":false,"line":2,"station_name":"Bojonggede"}],[{"is_transit":false,"i_long":106.756522,"i_lat":-6.1587309999999995,"time":0,"transit":false,"distance":0,"station_id":"TKO","station_name":"Taman Kota","line":5},{"line":5,"transit":false,"time":2,"i_long":106.771379,"is_transit":false,"station_name":"Pesing","i_lat":-6.161433,"station_id":"PSG","distance":1614},{"transit":false,"line":5,"i_lat":-6.162021,"is_transit":false,"distance":2036,"time":2,"station_id":"GGL","station_name":"Grogol","i_long":106.788277},{"time":3,"is_transit":true,"station_id":"DU","i_long":106.800832,"transit":true,"distance":1700,"line":1,"station_name":"Duri","i_lat":-6.155215},{"distance":1230,"i_lat":-6.144674,"transit":false,"time":4,"is_transit":false,"station_name":"Angke","line":1,"station_id":"AK","i_long":106.79867},{"i_lat":-6.132549,"is_transit":true,"distance":4102,"i_long":106.826365,"station_id":"KPB","line":4,"time":9,"station_name":"Kampung Bandan","transit":true},{"time":3,"distance":1444,"i_lat":-6.14505,"station_name":"Rajawali","station_id":"RJW","i_long":106.836569,"transit":false,"line":11,"is_transit":false},{"i_long":106.839204,"station_name":"Kemayoran","station_id":"KMO","is_transit":false,"distance":1901,"transit":false,"time":5,"line":11,"i_lat":-6.161728},{"is_transit":false,"station_name":"Pasar Senen","transit":false,"time":4,"station_id":"PSE","i_lat":-6.174784,"line":11,"distance":1436,"i_long":106.84368},{"station_id":"GST","transit":false,"station_name":"Gang Sentiong","time":8,"i_long":106.850107,"is_transit":false,"distance":1567,"line":11,"i_lat":-6.185975},{"transit":false,"i_lat":-6.193792,"line":11,"is_transit":false,"station_name":"Kramat","time":1,"station_id":"KMT","distance":973,"i_long":106.855437},{"i_long":106.861737,"station_name":"Pondok Jati","i_lat":-6.209188,"distance":1829,"is_transit":false,"time":2,"line":11,"transit":false,"station_id":"POK"},{"station_id":"JNG","line":1,"is_transit":true,"time":9,"i_lat":-6.215091,"i_long":106.86807400000001,"distance":1236,"station_name":"Jatinegara","transit":true},{"time":2,"station_name":"Matraman","i_lat":-6.212485,"line":1,"transit":false,"station_id":"MTR","distance":1377,"is_transit":false,"i_long":106.858896},{"is_transit":true,"transit":true,"station_name":"Manggarai","i_lat":-6.209883,"line":2,"station_id":"MRI","distance":1275,"time":2,"i_long":106.84912},{"transit":false,"time":4,"is_transit":false,"station_id":"TEB","distance":2610,"i_long":106.857948,"i_lat":-6.226659,"station_name":"Tebet","line":2},{"i_long":106.856607,"station_id":"CW","time":2,"distance":1230,"line":2,"transit":false,"station_name":"Cawang","i_lat":-6.242512,"is_transit":false},{"station_id":"DRN","is_transit":false,"line":2,"transit":false,"distance":1546,"time":3,"station_name":"Duren Kalibata","i_lat":-6.255332,"i_long":106.85449},{"line":2,"i_lat":-6.263214,"time":2,"distance":824,"i_long":106.851577,"is_transit":false,"transit":false,"station_id":"PSMB","station_name":"Pasar Minggu Baru"},{"distance":2380,"i_long":106.843999,"transit":false,"time":2,"line":2,"station_name":"Pasar Minggu","is_transit":false,"i_lat":-6.2842400000000005,"station_id":"PSM"},{"is_transit":false,"i_long":106.838896,"i_lat":-6.3080680000000005,"distance":2820,"transit":false,"line":2,"station_name":"Tanjung Barat","time":4,"station_id":"TNT"},{"time":3,"transit":false,"station_name":"Lenteng Agung","i_lat":-6.330363,"distance":2671,"is_transit":false,"line":2,"station_id":"LNA","i_long":106.832616},{"station_id":"UP","time":2,"i_long":106.834175,"station_name":"Univ. Pancasila","is_transit":false,"line":2,"distance":1029,"transit":false,"i_lat":-6.339291},{"distance":2264,"i_lat":-6.360749,"i_long":106.831474,"station_name":"Univ. Indonesia","time":3,"transit":false,"station_id":"UI","is_transit":false,"line":2},{"time":2,"i_lat":-6.369073,"i_long":106.831114,"distance":1109,"is_transit":false,"line":2,"station_id":"POC","transit":false,"station_name":"Pondok Cina"},{"transit":false,"station_id":"DPB","is_transit":false,"time":4,"distance":2727,"i_lat":-6.391065,"i_long":106.819451,"line":2,"station_name":"Depokbaru"},{"time":3,"station_id":"DP","i_lat":-6.405256,"distance":1584,"transit":false,"i_long":106.816926,"station_name":"Depok","is_transit":false,"line":2},{"station_name":"Citayam","is_transit":false,"i_lat":-6.448811,"station_id":"CTA","time":6,"distance":5084,"i_long":106.800298,"transit":false,"line":2},{"distance":5197,"i_long":106.792719,"line":2,"transit":false,"station_name":"Bojonggede","time":5,"station_id":"BJD","i_lat":-6.493243,"is_transit":false}]]}