{"data":[[{"line":5,"station_id":"TKO","is_transit":false,"i_long":106.756522,"time":0,"transit":false,"station_name":"Taman Kota","i_lat":-6.1587309999999995,"distance":0},{"transit":false,"station_name":"Pesing","line":5,"is_transit":false,"time":2,"i_lat":-6.161433,"i_long":106.771379,"station_id":"PSG","distance":1614},{"is_transit":false,"line":5,"transit":false,"station_id":"GGL","i_long":106.788277,"i_lat":-6.162021,"time":2,"station_name":"Grogol","distance":2036},{"is_transit":true,"distance":1700,"station_name":"Duri","i_lat":-6.155215,"i_long":106.800832,"transit":true,"line":1,"station_id":"DU","time":3},{"transit":false,"i_lat":-6.185545,"i_long":106.811091,"distance":3632,"line":1,"station_id":"THB","station_name":"Tanah Abang","is_transit":false,"time":8},{"distance":2029,"station_id":"KAT","station_name":"Karet","time":5,"transit":false,"i_long":106.816351,"line":1,"i_lat":-6.20132,"is_transit":false},{"distance":471,"station_id":"SUDB","time":1,"line":1,"station_name":"Sudirman Baru","is_transit":false,"i_long":106.819881,"transit":false,"i_lat":-6.201433},{"line":1,"distance":280,"i_lat":-6.202263,"i_long":106.822649,"station_name":"Sudirman","station_id":"SUD","is_transit":false,"time":1,"transit":false},{"distance":3186,"line":2,"i_long":106.84912,"is_transit":true,"transit":true,"time":4,"i_lat":-6.209883,"station_name":"Manggarai","station_id":"MRI"},{"transit":false,"time":4,"line":2,"station_id":"CKI","i_lat":-6.198556,"distance":1590,"i_long":106.840169,"station_name":"Cikini","is_transit":false}],[{"line":5,"station_id":"TKO","is_transit":false,"station_name":"Taman Kota","i_long":106.756522,"transit":false,"distance":0,"time":0,"i_lat":-6.1587309999999995},{"i_long":106.771379,"time":2,"i_lat":-6.161433,"distance":1614,"line":5,"is_transit":false,"station_name":"Pesing","transit":false,"station_id":"PSG"},{"transit":false,"i_long":106.788277,"station_id":"GGL","station_name":"Grogol","line":5,"time":2,"is_transit":false,"i_lat":-6.162021,"distance":2036},{"i_lat":-6.155215,"i_long":106.800832,"is_transit":true,"time":3,"station_name":"Duri","transit":true,"distance":1700,"line":1,"station_id":"DU"},{"is_transit":false,"i_lat":-6.144674,"transit":false,"i_long":106.79867,"station_name":"Angke","line":1,"time":4,"distance":1230,"station_id":"AK"},{"station_id":"KPB","distance":4102,"station_name":"Kampung Bandan","time":9,"transit":true,"line":4,"is_transit":true,"i_lat":-6.132549,"i_long":106.826365},{"is_transit":true,"time":3,"line":2,"station_id":"JAKK","distance":1364,"station_name":"Jakarta Kota","i_lat":-6.137569,"transit":true,"i_long":106.812439},{"distance":1264,"station_id":"JAY","i_long":106.820901,"station_name":"Jayakarta","transit":false,"is_transit":false,"time":4,"line":2,"i_lat":-6.141205},{"transit":false,"line":2,"i_lat":-6.149769,"i_long":106.82482,"time":2,"station_name":"Manggabesar","station_id":"MGB","is_transit":false,"distance":1080},{"station_name":"Sawah Besar","i_lat":-6.160725,"station_id":"SW","is_transit":false,"distance":906,"time":2,"i_long":106.827103,"line":2,"transit":false},{"transit":false,"station_name":"Juanda","line":2,"distance":1149,"station_id":"JUA","i_long":106.828284,"is_transit":false,"time":2,"i_lat":-6.166716},{"station_name":"Gondangdia","time":4,"transit":false,"is_transit":false,"i_lat":-6.186295,"i_long":106.832183,"distance":2015,"line":2,"station_id":"GDD"},{"station_id":"CKI","i_lat":-6.198556,"i_long":106.840169,"distance":1750,"time":3,"is_transit":false,"line":2,"station_name":"Cikini","transit":false}],[{"station_id":"TKO","transit":false,"station_name":"Taman Kota","is_transit":false,"time":0,"line":5,"distance":0,"i_lat":-6.1587309999999995,"i_long":106.756522},{"transit":false,"station_id":"PSG","i_lat":-6.161433,"time":2,"line":5,"distance":1614,"is_transit":false,"i_long":106.771379,"station_name":"Pesing"},{"line":5,"is_transit":false,"i_long":106.788277,"time":2,"transit":false,"station_id":"GGL","distance":2036,"station_name":"Grogol","i_lat":-6.162021},{"i_lat":-6.155215,"line":1,"station_id":"DU","is_transit":true,"transit":true,"distance":1700,"time":3,"i_long":106.800832,"station_name":"Duri"},{"is_transit":false,"station_id":"AK","time":4,"i_long":106.79867,"transit":false,"station_name":"Angke","line":1,"distance":1230,"i_lat":-6.144674},{"i_long":106.826365,"line":4,"distance":4102,"is_transit":true,"transit":true,"station_name":"Kampung Bandan","time":9,"i_lat":-6.132549,"station_id":"KPB"},{"is_transit":false,"station_id":"RJW","transit":false,"i_lat":-6.14505,"time":3,"i_long":106.836569,"station_name":"Rajawali","line":11,"distance":1444},{"is_transit":false,"station_name":"Kemayoran","distance":1901,"i_lat":-6.161728,"i_long":106.839204,"station_id":"KMO","line":11,"time":5,"transit":false},{"time":4,"is_transit":false,"line":11,"i_long":106.84368,"transit":false,"station_name":"Pasar Senen","station_id":"PSE","distance":1436,"i_lat":-6.174784},{"station_name":"Gang Sentiong","i_long":106.850107,"is_transit":false,"station_id":"GST","i_lat":-6.185975,"line":11,"time":8,"distance":1567,"transit":false},{"station_name":"Kramat","line":11,"station_id":"KMT","is_transit":false,"i_lat":-6.193792,"i_long":106.855437,"distance":973,"time":1,"transit":false},{"i_lat":-6.209188,"time":2,"line":11,"transit":false,"i_long":106.861737,"station_name":"Pondok Jati","station_id":"POK","is_transit":false,"distance":1829},{"is_transit":true,"station_id":"JNG","transit":true,"i_long":106.86807400000001,"time":9,"line":1,"distance":1236,"station_name":"Jatinegara","i_lat":-6.215091},{"station_id":"MTR","i_long":106.858896,"station_name":"Matraman","is_transit":false,"transit":false,"distance":1377,"line":1,"time":2,"i_lat":-6.212485},{"station_name":"Manggarai","distance":1275,"transit":true,"time":2,"i_lat":-6.209883,"station_id":"MRI","line":2,"is_transit":true,"i_long":106.84912},{"time":4,"i_lat":-6.198556,"station_name":"Cikini","station_id":"CKI","transit":false,"distance":1590,"i_long":106.840169,"line":2,"is_transit":false}],[{"station_id":"TKO","i_long":106.756522,"time":0,"line":5,"station_name":"Taman Kota","distance":0,"transit":false,"i_lat":-6.1587309999999995,"is_transit":false},{"transit":false,"is_transit":false,"time":2,"station_name":"Pesing","i_lat":-6.161433,"i_long":106.771379,"line":5,"station_id":"PSG","distance":1614},{"line":5,"is_transit":false,"transit":false,"station_id":"GGL","time":2,"i_long":106.788277,"i_lat":-6.162021,"station_name":"Grogol","distance":2036},{"station_name":"Duri","i_lat":-6.155215,"i_long":106.800832,"line":1,"transit":true,"time":3,"distance":1700,"station_id":"DU","is_transit":true},{"i_long":106.811091,"i_lat":-6.185545,"transit":false,"is_transit":false,"line":1,"station_id":"THB","time":8,"distance":3632,"station_name":"Tanah Abang"},{"station_name":"Karet","station_id":"KAT","distance":2029,"transit":false,"i_long":106.816351,"i_lat":-6.20132,"is_transit":false,"time":5,"line":1},{"i_long":106.819881,"is_transit":false,"time":1,"station_id":"SUDB","line":1,"station_name":"Sudirman Baru","distance":471,"transit":false,"i_lat":-6.201433},{"i_long":106.822649,"station_id":"SUD","distance":280,"transit":false,"line":1,"time":1,"station_name":"Sudirman","is_transit":false,"i_lat":-6.202263},{"is_transit":false,"station_id":"MRI","station_name":"Manggarai","i_long":106.84912,"time":4,"distance":3186,"transit":false,"i_lat":-6.209883,"line":2},{"time":2,"station_id":"MTR","i_long":106.858896,"distance":1275,"i_lat":-6.212485,"line":1,"transit":false,"station_name":"Matraman","is_transit":false},{"is_transit":true,"i_lat":-6.215091,"transit":true,"station_id":"JNG","line":1,"distance":1377,"station_name":"Jatinegara","time":8,"i_long":106.86807400000001},{"station_name":"Pondok Jati","is_transit":false,"i_lat":-6.209188,"i_long":106.861737,"line":11,"time":2,"station_id":"POK","distance":1236,"transit":false},{"time":2,"transit":false,"station_id":"KMT","station_name":"Kramat","distance":1829,"i_lat":-6.193792,"is_transit":false,"i_long":106.855437,"line":11},{"time":1,"i_long":106.850107,"line":11,"station_id":"GST","distance":973,"station_name":"Gang Sentiong","i_lat":-6.185975,"transit":false,"is_transit":false},{"distance":1567,"is_transit":false,"station_name":"Pasar Senen","station_id":"PSE","transit":false,"line":11,"i_long":106.84368,"time":8,"i_lat":-6.174784},{"is_transit":false,"distance":1436,"station_name":"Kemayoran","i_lat":-6.161728,"time":4,"i_long":106.839204,"transit":false,"line":11,"station_id":"KMO"},{"i_lat":-6.14505,"distance":1901,"transit":false,"is_transit":false,"i_long":106.836569,"station_name":"Rajawali","station_id":"RJW","time":5,"line":11},{"is_transit":true,"i_long":106.826365,"time":3,"line":4,"transit":true,"station_name":"Kampung Bandan","station_id":"KPB","i_lat":-6.132549,"distance":1444},{"time":3,"distance":1364,"station_name":"Jakarta Kota","i_lat":-6.137569,"line":2,"i_long":106.812439,"transit":true,"station_id":"JAKK","is_transit":true},{"i_long":106.820901,"distance":1264,"station_id":"JAY","time":4,"i_lat":-6.141205,"transit":false,"is_transit":false,"line":2,"station_name":"Jayakarta"},{"is_transit":false,"distance":1080,"station_name":"Manggabesar","station_id":"MGB","time":2,"transit":false,"i_lat":-6.149769,"i_long":106.82482,"line":2},{"is_transit":false,"station_id":"SW","line":2,"station_name":"Sawah Besar","transit":false,"time":2,"i_long":106.827103,"distance":906,"i_lat":-6.160725},{"i_lat":-6.166716,"station_name":"Juanda","transit":false,"is_transit":false,"time":2,"distance":1149,"i_long":106.828284,"line":2,"station_id":"JUA"},{"time":4,"distance":2015,"is_transit":false,"station_name":"Gondangdia","station_id":"GDD","transit":false,"i_lat":-6.186295,"i_long":106.832183,"line":2},{"is_transit":false,"station_name":"Cikini","time":3,"station_id":"CKI","i_lat":-6.198556,"distance":1750,"i_long":106.840169,"transit":false,"line":2}]]}