{"data":[[{"station_id":"TKO","i_lat":-6.1587309999999995,"i_long":106.756522,"is_transit":false,"distance":0,"station_name":"Taman Kota","time":0,"line":5,"transit":false},{"is_transit":false,"distance":1614,"line":5,"transit":false,"i_long":106.771379,"time":2,"station_name":"Pesing","station_id":"PSG","i_lat":-6.161433},{"is_transit":false,"i_long":106.788277,"line":5,"station_id":"GGL","station_name":"Grogol","i_lat":-6.162021,"time":2,"transit":false,"distance":2036},{"i_lat":-6.155215,"i_long":106.800832,"station_name":"Duri","station_id":"DU","transit":true,"line":1,"time":3,"is_transit":true,"distance":1700},{"transit":true,"time":8,"station_id":"THB","station_name":"Tanah Abang","i_lat":-6.185545,"i_long":106.811091,"line":1,"is_transit":true,"distance":3632},{"i_lat":-6.207404,"is_transit":false,"i_long":106.79689,"line":6,"distance":3191,"transit":false,"station_name":"Palmerah","time":6,"station_id":"PLM"},{"station_name":"Kebayoran","i_lat":-6.237242,"transit":false,"station_id":"KBY","is_transit":false,"line":6,"time":7,"distance":3737,"i_long":106.780334},{"transit":false,"station_id":"PDJ","station_name":"Pondokranji","is_transit":false,"time":8,"i_lat":-6.276362,"line":6,"i_long":106.74273,"distance":6218},{"distance":2179,"time":3,"i_lat":-6.288927,"station_name":"Jurangmangu","station_id":"JMU","is_transit":false,"i_long":106.728916,"transit":false,"line":6},{"station_name":"Sudimara","distance":1994,"i_long":106.712277,"time":4,"transit":false,"is_transit":false,"i_lat":-6.296963,"line":6,"station_id":"SDM"},{"time":6,"i_lat":-6.314823,"line":6,"transit":false,"station_id":"RU","i_long":106.675475,"is_transit":false,"distance":4566,"station_name":"Rawa Buntu"},{"transit":false,"i_lat":-6.319871,"i_long":106.66566,"time":4,"station_id":"SRP","station_name":"Serpong","line":6,"is_transit":false,"distance":2413}],[{"i_long":106.756522,"station_name":"Taman Kota","is_transit":false,"line":5,"distance":0,"i_lat":-6.1587309999999995,"transit":false,"time":0,"station_id":"TKO"},{"transit":false,"line":5,"is_transit":false,"station_name":"Pesing","station_id":"PSG","time":2,"distance":1614,"i_long":106.771379,"i_lat":-6.161433},{"is_transit":false,"i_long":106.788277,"station_name":"Grogol","distance":2036,"transit":false,"line":5,"time":2,"station_id":"GGL","i_lat":-6.162021},{"line":1,"is_transit":true,"i_long":106.800832,"transit":true,"station_name":"Duri","station_id":"DU","time":3,"distance":1700,"i_lat":-6.155215},{"line":1,"transit":false,"station_id":"AK","time":4,"i_long":106.79867,"i_lat":-6.144674,"is_transit":false,"station_name":"Angke","distance":1230},{"station_id":"KPB","i_long":106.826365,"is_transit":true,"transit":true,"time":9,"distance":4102,"i_lat":-6.132549,"station_name":"Kampung Bandan","line":4},{"time":3,"station_name":"Jakarta Kota","i_long":106.812439,"line":2,"station_id":"JAKK","transit":true,"i_lat":-6.137569,"is_transit":true,"distance":1364},{"is_transit":false,"transit":false,"station_name":"Jayakarta","station_id":"JAY","i_long":106.820901,"time":4,"line":2,"i_lat":-6.141205,"distance":1264},{"line":2,"station_name":"Manggabesar","transit":false,"is_transit":false,"time":2,"station_id":"MGB","distance":1080,"i_long":106.82482,"i_lat":-6.149769},{"i_long":106.827103,"transit":false,"station_name":"Sawah Besar","distance":906,"station_id":"SW","is_transit":false,"i_lat":-6.160725,"time":2,"line":2},{"transit":false,"station_name":"Juanda","distance":1149,"time":2,"i_long":106.828284,"is_transit":false,"line":2,"station_id":"JUA","i_lat":-6.166716},{"i_long":106.832183,"i_lat":-6.186295,"line":2,"station_name":"Gondangdia","transit":false,"station_id":"GDD","is_transit":false,"distance":2015,"time":4},{"i_lat":-6.198556,"line":2,"transit":false,"station_id":"CKI","is_transit":false,"station_name":"Cikini","time":3,"distance":1750,"i_long":106.840169},{"time":4,"station_id":"MRI","is_transit":true,"i_lat":-6.209883,"i_long":106.84912,"line":2,"transit":true,"distance":1590,"station_name":"Manggarai"},{"time":4,"distance":3186,"station_id":"SUD","transit":false,"i_long":106.822649,"line":1,"station_name":"Sudirman","i_lat":-6.202263,"is_transit":false},{"is_transit":false,"i_long":106.819881,"line":1,"transit":false,"i_lat":-6.201433,"station_name":"Sudirman Baru","station_id":"SUDB","time":1,"distance":280},{"line":1,"time":1,"i_long":106.816351,"transit":false,"station_name":"Karet","distance":471,"i_lat":-6.20132,"is_transit":false,"station_id":"KAT"},{"time":5,"is_transit":true,"i_long":106.811091,"station_name":"Tanah Abang","transit":true,"station_id":"THB","distance":2029,"i_lat":-6.185545,"line":1},{"station_name":"Palmerah","station_id":"PLM","i_lat":-6.207404,"line":6,"time":6,"i_long":106.79689,"is_transit":false,"distance":3191,"transit":false},{"station_name":"Kebayoran","transit":false,"is_transit":false,"distance":3737,"line":6,"time":7,"i_long":106.780334,"station_id":"KBY","i_lat":-6.237242},{"is_transit":false,"distance":6218,"i_long":106.74273,"transit":false,"time":8,"line":6,"station_name":"Pondokranji","i_lat":-6.276362,"station_id":"PDJ"},{"i_lat":-6.288927,"i_long":106.728916,"station_id":"JMU","is_transit":false,"station_name":"Jurangmangu","time":3,"line":6,"transit":false,"distance":2179},{"station_name":"Sudimara","distance":1994,"time":4,"station_id":"SDM","i_lat":-6.296963,"i_long":106.712277,"line":6,"transit":false,"is_transit":false},{"is_transit":false,"station_id":"RU","station_name":"Rawa Buntu","distance":4566,"i_lat":-6.314823,"line":6,"time":6,"transit":false,"i_long":106.675475},{"station_name":"Serpong","i_long":106.66566,"transit":false,"time":4,"i_lat":-6.319871,"line":6,"station_id":"SRP","is_transit":false,"distance":2413}],[{"transit":false,"station_name":"Taman Kota","i_long":106.756522,"time":0,"is_transit":false,"i_lat":-6.1587309999999995,"line":5,"station_id":"TKO","distance":0},{"i_lat":-6.161433,"is_transit":false,"time":2,"line":5,"distance":1614,"station_id":"PSG","station_name":"Pesing","i_long":106.771379,"transit":false},{"station_id":"GGL","line":5,"transit":false,"is_transit":false,"i_lat":-6.162021,"i_long":106.788277,"station_name":"Grogol","distance":2036,"time":2},{"i_long":106.800832,"time":3,"distance":1700,"station_id":"DU","i_lat":-6.155215,"transit":true,"line":1,"station_name":"Duri","is_transit":true},{"station_name":"Angke","is_transit":false,"distance":1230,"line":1,"time":4,"i_lat":-6.144674,"i_long":106.79867,"transit":false,"station_id":"AK"},{"distance":4102,"transit":true,"i_long":106.826365,"time":9,"i_lat":-6.132549,"line":4,"station_id":"KPB","is_transit":true,"station_name":"Kampung Bandan"},{"is_transit":false,"i_lat":-6.14505,"transit":false,"distance":1444,"i_long":106.836569,"line":11,"station_id":"RJW","time":3,"station_name":"Rajawali"},{"distance":1901,"time":5,"transit":false,"i_lat":-6.161728,"station_id":"KMO","station_name":"Kemayoran","line":11,"is_transit":false,"i_long":106.839204},{"time":4,"i_long":106.84368,"is_transit":false,"line":11,"transit":false,"distance":1436,"station_name":"Pasar Senen","station_id":"PSE","i_lat":-6.174784},{"distance":1567,"i_long":106.850107,"line":11,"station_id":"GST","time":8,"is_transit":false,"transit":false,"i_lat":-6.185975,"station_name":"Gang Sentiong"},{"is_transit":false,"station_id":"KMT","i_long":106.855437,"time":1,"transit":false,"distance":973,"i_lat":-6.193792,"line":11,"station_name":"Kramat"},{"transit":false,"line":11,"i_lat":-6.209188,"is_transit":false,"station_name":"Pondok Jati","time":2,"distance":1829,"station_id":"POK","i_long":106.861737},{"time":9,"station_id":"JNG","line":1,"station_name":"Jatinegara","distance":1236,"is_transit":true,"transit":true,"i_lat":-6.215091,"i_long":106.86807400000001},{"station_name":"Matraman","transit":false,"i_long":106.858896,"is_transit":false,"station_id":"MTR","line":1,"i_lat":-6.212485,"time":2,"distance":1377},{"station_name":"Manggarai","station_id":"MRI","is_transit":false,"transit":false,"line":2,"i_lat":-6.209883,"distance":1275,"i_long":106.84912,"time":2},{"i_long":106.822649,"station_id":"SUD","is_transit":false,"time":4,"line":1,"transit":false,"station_name":"Sudirman","i_lat":-6.202263,"distance":3186},{"i_long":106.819881,"line":1,"station_name":"Sudirman Baru","i_lat":-6.201433,"distance":280,"is_transit":false,"time":1,"transit":false,"station_id":"SUDB"},{"station_name":"Karet","distance":471,"station_id":"KAT","time":1,"is_transit":false,"i_lat":-6.20132,"line":1,"i_long":106.816351,"transit":false},{"is_transit":true,"i_lat":-6.185545,"line":1,"i_long":106.811091,"station_name":"Tanah Abang","station_id":"THB","time":5,"transit":true,"distance":2029},{"is_transit":false,"distance":3191,"i_lat":-6.207404,"line":6,"station_name":"Palmerah","i_long":106.79689,"time":6,"transit":false,"station_id":"PLM"},{"i_long":106.780334,"transit":false,"time":7,"line":6,"station_name":"Kebayoran","distance":3737,"station_id":"KBY","i_lat":-6.237242,"is_transit":false},{"transit":false,"is_transit":false,"time":8,"station_name":"Pondokranji","distance":6218,"i_lat":-6.276362,"i_long":106.74273,"line":6,"station_id":"PDJ"},{"i_lat":-6.288927,"station_name":"Jurangmangu","is_transit":false,"station_id":"JMU","transit":false,"i_long":106.728916,"distance":2179,"line":6,"time":3},{"is_transit":false,"i_long":106.712277,"time":4,"station_name":"Sudimara","i_lat":-6.296963,"line":6,"distance":1994,"station_id":"SDM","transit":false},{"distance":4566,"time":6,"station_id":"RU","line":6,"is_transit":false,"i_long":106.675475,"station_name":"Rawa Buntu","transit":false,"i_lat":-6.314823},{"transit":false,"i_long":106.66566,"station_id":"SRP","i_lat":-6.319871,"line":6,"time":4,"distance":2413,"is_transit":false,"station_name":"Serpong"}]]}