{"data":[[{"station_name":"Taman Kota","distance":0,"station_id":"TKO","i_lat":-6.1587309999999995,"i_long":106.756522,"line":5,"time":0,"transit":false,"is_transit":false},{"i_lat":-6.161433,"distance":1614,"is_transit":false,"station_id":"PSG","transit":false,"time":2,"station_name":"Pesing","i_long":106.771379,"line":5},{"i_long":106.788277,"station_id":"GGL","distance":2036,"transit":false,"is_transit":false,"line":5,"time":2,"station_name":"Grogol","i_lat":-6.162021},{"line":1,"time":3,"station_name":"Duri","distance":1700,"i_lat":-6.155215,"i_long":106.800832,"transit":true,"station_id":"DU","is_transit":true},{"line":1,"i_long":106.811091,"is_transit":false,"station_name":"Tanah Abang","transit":false,"station_id":"THB","i_lat":-6.185545,"distance":3632,"time":8},{"line":1,"station_id":"KAT","i_long":106.816351,"distance":2029,"i_lat":-6.20132,"time":5,"is_transit":false,"station_name":"Karet","transit":false},{"line":1,"time":1,"station_id":"SUDB","is_transit":false,"station_name":"Sudirman Baru","i_lat":-6.201433,"i_long":106.819881,"transit":false,"distance":471},{"i_lat":-6.202263,"station_id":"SUD","is_transit":false,"distance":280,"time":1,"transit":false,"line":1,"i_long":106.822649,"station_name":"Sudirman"},{"station_name":"Manggarai","time":4,"is_transit":true,"i_lat":-6.209883,"line":2,"transit":true,"station_id":"MRI","i_long":106.84912,"distance":3186},{"time":4,"i_lat":-6.226659,"transit":false,"line":2,"distance":2610,"station_id":"TEB","i_long":106.857948,"is_transit":false,"station_name":"Tebet"},{"line":2,"station_id":"CW","station_name":"Cawang","i_lat":-6.242512,"i_long":106.856607,"distance":1230,"transit":false,"time":2,"is_transit":false},{"station_id":"DRN","station_name":"Duren Kalibata","transit":false,"i_lat":-6.255332,"is_transit":false,"line":2,"distance":1546,"i_long":106.85449,"time":3},{"time":2,"transit":false,"station_name":"Pasar Minggu Baru","i_lat":-6.263214,"line":2,"distance":824,"i_long":106.851577,"station_id":"PSMB","is_transit":false},{"time":2,"is_transit":false,"i_long":106.843999,"station_id":"PSM","i_lat":-6.2842400000000005,"line":2,"distance":2380,"transit":false,"station_name":"Pasar Minggu"},{"is_transit":false,"station_name":"Tanjung Barat","station_id":"TNT","line":2,"time":4,"distance":2820,"transit":false,"i_lat":-6.3080680000000005,"i_long":106.838896},{"distance":2671,"transit":false,"time":3,"is_transit":false,"i_lat":-6.330363,"station_id":"LNA","line":2,"i_long":106.832616,"station_name":"Lenteng Agung"},{"i_lat":-6.339291,"distance":1029,"is_transit":false,"i_long":106.834175,"station_name":"Univ. Pancasila","station_id":"UP","time":2,"transit":false,"line":2},{"time":3,"station_id":"UI","transit":false,"station_name":"Univ. Indonesia","distance":2264,"i_lat":-6.360749,"i_long":106.831474,"line":2,"is_transit":false},{"transit":false,"station_name":"Pondok Cina","station_id":"POC","time":2,"i_long":106.831114,"is_transit":false,"i_lat":-6.369073,"distance":1109,"line":2},{"is_transit":false,"station_id":"DPB","station_name":"Depokbaru","time":4,"i_long":106.819451,"line":2,"transit":false,"distance":2727,"i_lat":-6.391065},{"is_transit":false,"transit":false,"station_name":"Depok","station_id":"DP","i_long":106.816926,"i_lat":-6.405256,"time":3,"line":2,"distance":1584},{"is_transit":true,"i_lat":-6.448811,"line":2,"transit":true,"distance":5084,"station_name":"Citayam","station_id":"CTA","time":6,"i_long":106.800298},{"station_name":"Pondok Rajeg","distance":0,"i_lat":-6.460735,"i_long":106.824374,"line":21,"is_transit":false,"transit":false,"station_id":"PDRG","time":0},{"is_transit":false,"station_name":"Cibinong","station_id":"CBN","i_lat":-6.46424,"time":0,"distance":0,"line":21,"transit":false,"i_long":106.851978},{"station_name":"Nambo","line":21,"transit":false,"is_transit":false,"i_lat":-6.466285,"time":10,"i_long":106.905196,"station_id":"NMO","distance":6527}],[{"transit":false,"i_lat":-6.1587309999999995,"i_long":106.756522,"is_transit":false,"distance":0,"time":0,"station_name":"Taman Kota","line":5,"station_id":"TKO"},{"station_id":"PSG","time":2,"i_long":106.771379,"i_lat":-6.161433,"is_transit":false,"distance":1614,"line":5,"station_name":"Pesing","transit":false},{"i_lat":-6.162021,"is_transit":false,"i_long":106.788277,"transit":false,"station_name":"Grogol","station_id":"GGL","time":2,"line":5,"distance":2036},{"transit":true,"station_id":"DU","time":3,"station_name":"Duri","is_transit":true,"i_lat":-6.155215,"i_long":106.800832,"line":1,"distance":1700},{"is_transit":false,"station_id":"AK","station_name":"Angke","time":4,"distance":1230,"i_long":106.79867,"transit":false,"i_lat":-6.144674,"line":1},{"transit":true,"line":4,"distance":4102,"station_id":"KPB","time":9,"is_transit":true,"i_lat":-6.132549,"station_name":"Kampung Bandan","i_long":106.826365},{"transit":true,"is_transit":true,"line":2,"i_long":106.812439,"time":3,"distance":1364,"station_name":"Jakarta Kota","station_id":"JAKK","i_lat":-6.137569},{"line":2,"i_lat":-6.141205,"transit":false,"station_name":"Jayakarta","time":4,"is_transit":false,"distance":1264,"i_long":106.820901,"station_id":"JAY"},{"time":2,"i_lat":-6.149769,"line":2,"is_transit":false,"transit":false,"station_name":"Manggabesar","station_id":"MGB","distance":1080,"i_long":106.82482},{"transit":false,"i_long":106.827103,"station_id":"SW","time":2,"is_transit":false,"i_lat":-6.160725,"station_name":"Sawah Besar","distance":906,"line":2},{"station_id":"JUA","i_lat":-6.166716,"i_long":106.828284,"line":2,"transit":false,"distance":1149,"time":2,"station_name":"Juanda","is_transit":false},{"i_long":106.832183,"distance":2015,"is_transit":false,"transit":false,"line":2,"i_lat":-6.186295,"station_id":"GDD","station_name":"Gondangdia","time":4},{"station_id":"CKI","line":2,"transit":false,"i_lat":-6.198556,"time":3,"station_name":"Cikini","distance":1750,"is_transit":false,"i_long":106.840169},{"distance":1590,"i_long":106.84912,"line":2,"station_id":"MRI","i_lat":-6.209883,"transit":false,"station_name":"Manggarai","time":4,"is_transit":false},{"is_transit":false,"station_name":"Tebet","i_lat":-6.226659,"transit":false,"time":4,"station_id":"TEB","i_long":106.857948,"line":2,"distance":2610},{"transit":false,"i_lat":-6.242512,"station_name":"Cawang","time":2,"i_long":106.856607,"station_id":"CW","distance":1230,"is_transit":false,"line":2},{"line":2,"station_id":"DRN","is_transit":false,"i_lat":-6.255332,"distance":1546,"time":3,"i_long":106.85449,"transit":false,"station_name":"Duren Kalibata"},{"station_name":"Pasar Minggu Baru","is_transit":false,"line":2,"transit":false,"station_id":"PSMB","time":2,"distance":824,"i_lat":-6.263214,"i_long":106.851577},{"time":2,"is_transit":false,"distance":2380,"i_lat":-6.2842400000000005,"line":2,"i_long":106.843999,"station_name":"Pasar Minggu","station_id":"PSM","transit":false},{"line":2,"i_long":106.838896,"is_transit":false,"distance":2820,"i_lat":-6.3080680000000005,"transit":false,"time":4,"station_name":"Tanjung Barat","station_id":"TNT"},{"station_name":"Lenteng Agung","station_id":"LNA","line":2,"is_transit":false,"time":3,"distance":2671,"i_long":106.832616,"i_lat":-6.330363,"transit":false},{"i_long":106.834175,"transit":false,"station_name":"Univ. Pancasila","station_id":"UP","distance":1029,"is_transit":false,"i_lat":-6.339291,"line":2,"time":2},{"station_name":"Univ. Indonesia","time":3,"line":2,"i_lat":-6.360749,"i_long":106.831474,"station_id":"UI","is_transit":false,"transit":false,"distance":2264},{"distance":1109,"i_lat":-6.369073,"is_transit":false,"station_name":"Pondok Cina","transit":false,"time":2,"station_id":"POC","i_long":106.831114,"line":2},{"transit":false,"i_long":106.819451,"distance":2727,"line":2,"station_name":"Depokbaru","i_lat":-6.391065,"is_transit":false,"station_id":"DPB","time":4},{"transit":false,"time":3,"station_id":"DP","distance":1584,"is_transit":false,"i_lat":-6.405256,"station_name":"Depok","i_long":106.816926,"line":2},{"line":2,"time":6,"is_transit":true,"i_long":106.800298,"station_id":"CTA","transit":true,"distance":5084,"station_name":"Citayam","i_lat":-6.448811},{"line":21,"time":0,"i_lat":-6.460735,"i_long":106.824374,"transit":false,"is_transit":false,"distance":0,"station_name":"Pondok Rajeg","station_id":"PDRG"},{"is_transit":false,"station_name":"Cibinong","i_lat":-6.46424,"line":21,"time":0,"i_long":106.851978,"station_id":"CBN","distance":0,"transit":false},{"i_long":106.905196,"station_name":"Nambo","time":10,"is_transit":false,"transit":false,"distance":6527,"i_lat":-6.466285,"station_id":"NMO","line":21}],[{"transit":false,"i_long":106.756522,"station_id":"TKO","is_transit":false,"station_name":"Taman Kota","i_lat":-6.1587309999999995,"line":5,"time":0,"distance":0},{"transit":false,"station_name":"Pesing","is_transit":false,"station_id":"PSG","time":2,"i_long":106.771379,"line":5,"distance":1614,"i_lat":-6.161433},{"i_lat":-6.162021,"station_name":"Grogol","transit":false,"station_id":"GGL","distance":2036,"line":5,"is_transit":false,"time":2,"i_long":106.788277},{"i_lat":-6.155215,"line":1,"is_transit":true,"i_long":106.800832,"transit":true,"station_id":"DU","time":3,"station_name":"Duri","distance":1700},{"station_name":"Angke","line":1,"i_lat":-6.144674,"station_id":"AK","transit":false,"time":4,"distance":1230,"is_transit":false,"i_long":106.79867},{"i_lat":-6.132549,"distance":4102,"time":9,"is_transit":true,"i_long":106.826365,"line":4,"transit":true,"station_name":"Kampung Bandan","station_id":"KPB"},{"i_lat":-6.14505,"station_id":"RJW","line":11,"station_name":"Rajawali","i_long":106.836569,"transit":false,"time":3,"is_transit":false,"distance":1444},{"is_transit":false,"i_lat":-6.161728,"station_id":"KMO","transit":false,"line":11,"station_name":"Kemayoran","time":5,"distance":1901,"i_long":106.839204},{"station_id":"PSE","time":4,"i_lat":-6.174784,"i_long":106.84368,"line":11,"is_transit":false,"transit":false,"station_name":"Pasar Senen","distance":1436},{"distance":1567,"station_id":"GST","i_lat":-6.185975,"time":8,"i_long":106.850107,"line":11,"is_transit":false,"transit":false,"station_name":"Gang Sentiong"},{"station_id":"KMT","is_transit":false,"i_lat":-6.193792,"station_name":"Kramat","i_long":106.855437,"time":1,"line":11,"distance":973,"transit":false},{"i_lat":-6.209188,"station_name":"Pondok Jati","transit":false,"distance":1829,"line":11,"time":2,"is_transit":false,"station_id":"POK","i_long":106.861737},{"station_name":"Jatinegara","station_id":"JNG","distance":1236,"transit":true,"time":9,"is_transit":true,"i_long":106.86807400000001,"line":1,"i_lat":-6.215091},{"time":2,"station_name":"Matraman","transit":false,"is_transit":false,"i_lat":-6.212485,"station_id":"MTR","line":1,"i_long":106.858896,"distance":1377},{"distance":1275,"station_id":"MRI","i_long":106.84912,"line":2,"transit":true,"time":2,"is_transit":true,"station_name":"Manggarai","i_lat":-6.209883},{"station_id":"TEB","transit":false,"station_name":"Tebet","time":4,"i_lat":-6.226659,"i_long":106.857948,"is_transit":false,"line":2,"distance":2610},{"is_transit":false,"i_lat":-6.242512,"i_long":106.856607,"transit":false,"time":2,"line":2,"distance":1230,"station_id":"CW","station_name":"Cawang"},{"transit":false,"station_name":"Duren Kalibata","i_lat":-6.255332,"i_long":106.85449,"line":2,"station_id":"DRN","is_transit":false,"time":3,"distance":1546},{"station_id":"PSMB","is_transit":false,"i_long":106.851577,"line":2,"transit":false,"time":2,"i_lat":-6.263214,"station_name":"Pasar Minggu Baru","distance":824},{"station_name":"Pasar Minggu","i_lat":-6.2842400000000005,"station_id":"PSM","i_long":106.843999,"transit":false,"time":2,"distance":2380,"line":2,"is_transit":false},{"station_id":"TNT","distance":2820,"transit":false,"is_transit":false,"i_lat":-6.3080680000000005,"time":4,"line":2,"station_name":"Tanjung Barat","i_long":106.838896},{"transit":false,"station_id":"LNA","line":2,"is_transit":false,"station_name":"Lenteng Agung","i_long":106.832616,"time":3,"distance":2671,"i_lat":-6.330363},{"time":2,"station_name":"Univ. Pancasila","i_long":106.834175,"transit":false,"i_lat":-6.339291,"is_transit":false,"distance":1029,"station_id":"UP","line":2},{"time":3,"distance":2264,"i_lat":-6.360749,"station_name":"Univ. Indonesia","line":2,"i_long":106.831474,"station_id":"UI","transit":false,"is_transit":false},{"i_long":106.831114,"transit":false,"station_name":"Pondok Cina","line":2,"time":2,"distance":1109,"i_lat":-6.369073,"station_id":"POC","is_transit":false},{"station_name":"Depokbaru","line":2,"transit":false,"time":4,"distance":2727,"i_long":106.819451,"station_id":"DPB","is_transit":false,"i_lat":-6.391065},{"i_lat":-6.405256,"distance":1584,"time":3,"i_long":106.816926,"station_name":"Depok","station_id":"DP","is_transit":false,"line":2,"transit":false},{"i_long":106.800298,"station_id":"CTA","line":2,"distance":5084,"station_name":"Citayam","is_transit":true,"time":6,"transit":true,"i_lat":-6.448811},{"is_transit":false,"station_name":"Pondok Rajeg","i_lat":-6.460735,"i_long":106.824374,"line":21,"time":0,"transit":false,"station_id":"PDRG","distance":0},{"station_id":"CBN","station_name":"Cibinong","transit":false,"distance":0,"line":21,"time":0,"i_lat":-6.46424,"is_transit":false,"i_long":106.851978},{"line":21,"distance":6527,"station_name":"Nambo","station_id":"NMO","i_lat":-6.466285,"is_transit":false,"transit":false,"time":10,"i_long":106.905196}]]}