{"data":[[{"station_id":"TKO","line":5,"distance":0,"i_long":106.756522,"is_transit":false,"time":0,"i_lat":-6.1587309999999995,"station_name":"Taman Kota","transit":false},{"i_lat":-6.161433,"station_name":"Pesing","line":5,"distance":1614,"i_long":106.771379,"is_transit":false,"station_id":"PSG","time":2,"transit":false},{"time":2,"i_long":106.788277,"station_id":"GGL","station_name":"Grogol","i_lat":-6.162021,"is_transit":false,"line":5,"transit":false,"distance":2036},{"i_long":106.800832,"distance":1700,"is_transit":true,"station_id":"DU","i_lat":-6.155215,"time":3,"transit":true,"station_name":"Duri","line":1},{"time":8,"is_transit":false,"station_name":"Tanah Abang","station_id":"THB","i_lat":-6.185545,"distance":3632,"line":1,"i_long":106.811091,"transit":false},{"is_transit":false,"time":5,"distance":2029,"transit":false,"line":1,"station_name":"Karet","station_id":"KAT","i_lat":-6.20132,"i_long":106.816351},{"time":1,"station_id":"SUDB","i_lat":-6.201433,"transit":false,"is_transit":false,"distance":471,"station_name":"Sudirman Baru","i_long":106.819881,"line":1},{"i_lat":-6.202263,"station_id":"SUD","transit":false,"distance":280,"time":1,"i_long":106.822649,"station_name":"Sudirman","is_transit":false,"line":1},{"station_name":"Manggarai","time":4,"station_id":"MRI","is_transit":true,"i_lat":-6.209883,"distance":3186,"transit":true,"i_long":106.84912,"line":2},{"i_lat":-6.226659,"station_name":"Tebet","is_transit":false,"transit":false,"distance":2610,"station_id":"TEB","i_long":106.857948,"line":2,"time":4},{"line":2,"transit":false,"i_long":106.856607,"station_id":"CW","is_transit":false,"distance":1230,"i_lat":-6.242512,"time":2,"station_name":"Cawang"}],[{"i_lat":-6.1587309999999995,"time":0,"i_long":106.756522,"line":5,"is_transit":false,"distance":0,"station_id":"TKO","station_name":"Taman Kota","transit":false},{"station_id":"PSG","transit":false,"i_long":106.771379,"time":2,"distance":1614,"is_transit":false,"i_lat":-6.161433,"line":5,"station_name":"Pesing"},{"line":5,"distance":2036,"is_transit":false,"station_id":"GGL","i_lat":-6.162021,"transit":false,"station_name":"Grogol","time":2,"i_long":106.788277},{"i_long":106.800832,"line":1,"station_id":"DU","station_name":"Duri","i_lat":-6.155215,"is_transit":true,"transit":true,"time":3,"distance":1700},{"time":4,"distance":1230,"station_id":"AK","i_long":106.79867,"i_lat":-6.144674,"station_name":"Angke","line":1,"is_transit":false,"transit":false},{"i_lat":-6.132549,"is_transit":true,"i_long":106.826365,"transit":true,"station_id":"KPB","time":9,"line":4,"station_name":"Kampung Bandan","distance":4102},{"i_lat":-6.137569,"station_name":"Jakarta Kota","transit":true,"is_transit":true,"distance":1364,"station_id":"JAKK","time":3,"i_long":106.812439,"line":2},{"transit":false,"time":4,"distance":1264,"is_transit":false,"i_long":106.820901,"i_lat":-6.141205,"line":2,"station_id":"JAY","station_name":"Jayakarta"},{"i_lat":-6.149769,"station_id":"MGB","transit":false,"line":2,"is_transit":false,"i_long":106.82482,"station_name":"Manggabesar","time":2,"distance":1080},{"station_id":"SW","transit":false,"is_transit":false,"station_name":"Sawah Besar","time":2,"distance":906,"i_lat":-6.160725,"line":2,"i_long":106.827103},{"i_lat":-6.166716,"station_id":"JUA","distance":1149,"line":2,"station_name":"Juanda","i_long":106.828284,"is_transit":false,"time":2,"transit":false},{"i_lat":-6.186295,"is_transit":false,"i_long":106.832183,"transit":false,"station_id":"GDD","station_name":"Gondangdia","distance":2015,"time":4,"line":2},{"distance":1750,"is_transit":false,"time":3,"station_id":"CKI","transit":false,"line":2,"i_lat":-6.198556,"i_long":106.840169,"station_name":"Cikini"},{"station_name":"Manggarai","i_lat":-6.209883,"line":2,"is_transit":false,"distance":1590,"station_id":"MRI","time":4,"transit":false,"i_long":106.84912},{"station_name":"Tebet","distance":2610,"station_id":"TEB","i_long":106.857948,"time":4,"is_transit":false,"i_lat":-6.226659,"transit":false,"line":2},{"time":2,"distance":1230,"line":2,"i_lat":-6.242512,"station_name":"Cawang","is_transit":false,"i_long":106.856607,"transit":false,"station_id":"CW"}],[{"time":0,"station_name":"Taman Kota","i_lat":-6.1587309999999995,"i_long":106.756522,"line":5,"distance":0,"station_id":"TKO","is_transit":false,"transit":false},{"distance":1614,"station_id":"PSG","station_name":"Pesing","i_long":106.771379,"i_lat":-6.161433,"line":5,"is_transit":false,"transit":false,"time":2},{"i_long":106.788277,"is_transit":false,"i_lat":-6.162021,"time":2,"station_id":"GGL","station_name":"Grogol","transit":false,"line":5,"distance":2036},{"station_id":"DU","i_lat":-6.155215,"i_long":106.800832,"is_transit":true,"time":3,"distance":1700,"station_name":"Duri","transit":true,"line":1},{"i_long":106.79867,"station_name":"Angke","station_id":"AK","line":1,"time":4,"distance":1230,"is_transit":false,"transit":false,"i_lat":-6.144674},{"i_long":106.826365,"transit":true,"line":4,"station_name":"Kampung Bandan","station_id":"KPB","is_transit":true,"time":9,"distance":4102,"i_lat":-6.132549},{"station_id":"RJW","distance":1444,"is_transit":false,"transit":false,"line":11,"station_name":"Rajawali","time":3,"i_lat":-6.14505,"i_long":106.836569},{"time":5,"station_id":"KMO","station_name":"Kemayoran","transit":false,"i_lat":-6.161728,"i_long":106.839204,"distance":1901,"line":11,"is_transit":false},{"time":4,"station_id":"PSE","transit":false,"distance":1436,"i_long":106.84368,"line":11,"station_name":"Pasar Senen","i_lat":-6.174784,"is_transit":false},{"transit":false,"time":8,"i_long":106.850107,"station_name":"Gang Sentiong","is_transit":false,"i_lat":-6.185975,"station_id":"GST","line":11,"distance":1567},{"i_lat":-6.193792,"distance":973,"time":1,"line":11,"is_transit":false,"station_id":"KMT","transit":false,"station_name":"Kramat","i_long":106.855437},{"station_id":"POK","i_lat":-6.209188,"time":2,"transit":false,"is_transit":false,"i_long":106.861737,"station_name":"Pondok Jati","distance":1829,"line":11},{"transit":true,"station_id":"JNG","station_name":"Jatinegara","distance":1236,"line":1,"is_transit":true,"i_lat":-6.215091,"time":9,"i_long":106.86807400000001},{"station_name":"Matraman","distance":1377,"time":2,"i_long":106.858896,"is_transit":false,"station_id":"MTR","line":1,"i_lat":-6.212485,"transit":false},{"i_long":106.84912,"line":2,"station_name":"Manggarai","is_transit":true,"time":2,"i_lat":-6.209883,"transit":true,"distance":1275,"station_id":"MRI"},{"line":2,"time":4,"i_lat":-6.226659,"transit":false,"station_name":"Tebet","is_transit":false,"distance":2610,"i_long":106.857948,"station_id":"TEB"},{"station_id":"CW","line":2,"is_transit":false,"transit":false,"distance":1230,"i_lat":-6.242512,"i_long":106.856607,"time":2,"station_name":"Cawang"}]]}