{"data":[[{"line":5,"i_lat":-6.1587309999999995,"distance":0,"is_transit":false,"transit":false,"time":0,"station_name":"Taman Kota","i_long":106.756522,"station_id":"TKO"},{"transit":false,"i_lat":-6.161433,"i_long":106.771379,"line":5,"time":2,"station_name":"Pesing","distance":1614,"station_id":"PSG","is_transit":false},{"time":2,"station_name":"Grogol","transit":false,"line":5,"is_transit":false,"distance":2036,"i_lat":-6.162021,"station_id":"GGL","i_long":106.788277},{"transit":true,"time":3,"i_long":106.800832,"station_name":"Duri","i_lat":-6.155215,"distance":1700,"line":1,"station_id":"DU","is_transit":true},{"line":1,"station_id":"THB","i_lat":-6.185545,"station_name":"Tanah Abang","is_transit":false,"transit":false,"i_long":106.811091,"distance":3632,"time":8},{"station_id":"KAT","i_long":106.816351,"distance":2029,"station_name":"Karet","is_transit":false,"line":1,"time":5,"transit":false,"i_lat":-6.20132},{"station_name":"Sudirman Baru","is_transit":false,"time":1,"distance":471,"i_lat":-6.201433,"station_id":"SUDB","i_long":106.819881,"line":1,"transit":false},{"time":1,"transit":false,"station_id":"SUD","station_name":"Sudirman","i_lat":-6.202263,"distance":280,"is_transit":false,"i_long":106.822649,"line":1},{"i_long":106.84912,"station_id":"MRI","transit":true,"time":4,"line":2,"station_name":"Manggarai","i_lat":-6.209883,"distance":3186,"is_transit":true},{"station_name":"Cikini","distance":1590,"transit":false,"i_long":106.840169,"line":2,"is_transit":false,"i_lat":-6.198556,"time":4,"station_id":"CKI"},{"distance":1750,"i_long":106.832183,"station_name":"Gondangdia","time":3,"station_id":"GDD","transit":false,"i_lat":-6.186295,"is_transit":false,"line":2}],[{"station_id":"TKO","distance":0,"i_lat":-6.1587309999999995,"time":0,"line":5,"is_transit":false,"transit":false,"station_name":"Taman Kota","i_long":106.756522},{"transit":false,"station_name":"Pesing","station_id":"PSG","is_transit":false,"distance":1614,"line":5,"time":2,"i_lat":-6.161433,"i_long":106.771379},{"transit":false,"line":5,"time":2,"station_id":"GGL","station_name":"Grogol","i_lat":-6.162021,"distance":2036,"is_transit":false,"i_long":106.788277},{"i_lat":-6.155215,"is_transit":true,"station_id":"DU","distance":1700,"time":3,"station_name":"Duri","i_long":106.800832,"line":1,"transit":true},{"distance":1230,"line":1,"is_transit":false,"station_name":"Angke","transit":false,"i_lat":-6.144674,"time":4,"station_id":"AK","i_long":106.79867},{"station_name":"Kampung Bandan","i_lat":-6.132549,"line":4,"time":9,"station_id":"KPB","i_long":106.826365,"distance":4102,"is_transit":true,"transit":true},{"station_id":"JAKK","transit":true,"distance":1364,"time":3,"station_name":"Jakarta Kota","is_transit":true,"i_lat":-6.137569,"i_long":106.812439,"line":2},{"station_id":"JAY","time":4,"i_long":106.820901,"distance":1264,"line":2,"transit":false,"is_transit":false,"station_name":"Jayakarta","i_lat":-6.141205},{"line":2,"distance":1080,"station_name":"Manggabesar","time":2,"station_id":"MGB","is_transit":false,"transit":false,"i_lat":-6.149769,"i_long":106.82482},{"distance":906,"is_transit":false,"transit":false,"i_lat":-6.160725,"station_name":"Sawah Besar","i_long":106.827103,"line":2,"time":2,"station_id":"SW"},{"station_id":"JUA","transit":false,"station_name":"Juanda","time":2,"i_long":106.828284,"i_lat":-6.166716,"distance":1149,"line":2,"is_transit":false},{"line":2,"transit":false,"distance":2015,"is_transit":false,"i_lat":-6.186295,"station_id":"GDD","i_long":106.832183,"time":4,"station_name":"Gondangdia"}],[{"distance":0,"transit":false,"station_name":"Taman Kota","station_id":"TKO","i_lat":-6.1587309999999995,"is_transit":false,"time":0,"i_long":106.756522,"line":5},{"i_long":106.771379,"time":2,"station_name":"Pesing","line":5,"distance":1614,"is_transit":false,"transit":false,"i_lat":-6.161433,"station_id":"PSG"},{"station_id":"GGL","time":2,"transit":false,"is_transit":false,"station_name":"Grogol","i_lat":-6.162021,"line":5,"distance":2036,"i_long":106.788277},{"i_lat":-6.155215,"distance":1700,"station_id":"DU","is_transit":true,"station_name":"Duri","time":3,"line":1,"transit":true,"i_long":106.800832},{"station_name":"Angke","transit":false,"i_long":106.79867,"distance":1230,"i_lat":-6.144674,"is_transit":false,"line":1,"time":4,"station_id":"AK"},{"distance":4102,"i_lat":-6.132549,"time":9,"is_transit":true,"transit":true,"i_long":106.826365,"line":4,"station_id":"KPB","station_name":"Kampung Bandan"},{"station_id":"RJW","station_name":"Rajawali","is_transit":false,"line":11,"transit":false,"distance":1444,"time":3,"i_lat":-6.14505,"i_long":106.836569},{"i_long":106.839204,"station_id":"KMO","is_transit":false,"transit":false,"line":11,"distance":1901,"time":5,"station_name":"Kemayoran","i_lat":-6.161728},{"transit":false,"is_transit":false,"station_name":"Pasar Senen","distance":1436,"i_lat":-6.174784,"station_id":"PSE","time":4,"i_long":106.84368,"line":11},{"is_transit":false,"time":8,"station_name":"Gang Sentiong","line":11,"i_long":106.850107,"i_lat":-6.185975,"transit":false,"station_id":"GST","distance":1567},{"i_long":106.855437,"i_lat":-6.193792,"distance":973,"line":11,"time":1,"transit":false,"is_transit":false,"station_name":"Kramat","station_id":"KMT"},{"i_lat":-6.209188,"line":11,"transit":false,"station_name":"Pondok Jati","distance":1829,"station_id":"POK","time":2,"is_transit":false,"i_long":106.861737},{"time":9,"transit":true,"i_lat":-6.215091,"is_transit":true,"station_id":"JNG","line":1,"station_name":"Jatinegara","distance":1236,"i_long":106.86807400000001},{"transit":false,"station_name":"Matraman","station_id":"MTR","line":1,"distance":1377,"i_lat":-6.212485,"time":2,"i_long":106.858896,"is_transit":false},{"distance":1275,"i_lat":-6.209883,"transit":true,"time":2,"is_transit":true,"station_id":"MRI","line":2,"station_name":"Manggarai","i_long":106.84912},{"i_long":106.840169,"time":4,"station_id":"CKI","transit":false,"station_name":"Cikini","line":2,"i_lat":-6.198556,"distance":1590,"is_transit":false},{"time":3,"i_lat":-6.186295,"is_transit":false,"station_name":"Gondangdia","transit":false,"distance":1750,"i_long":106.832183,"line":2,"station_id":"GDD"}],[{"i_long":106.756522,"station_name":"Taman Kota","station_id":"TKO","is_transit":false,"i_lat":-6.1587309999999995,"time":0,"transit":false,"distance":0,"line":5},{"time":2,"transit":false,"distance":1614,"station_name":"Pesing","i_lat":-6.161433,"line":5,"station_id":"PSG","i_long":106.771379,"is_transit":false},{"line":5,"i_long":106.788277,"is_transit":false,"station_name":"Grogol","time":2,"distance":2036,"i_lat":-6.162021,"transit":false,"station_id":"GGL"},{"distance":1700,"transit":true,"station_name":"Duri","is_transit":true,"line":1,"time":3,"i_lat":-6.155215,"i_long":106.800832,"station_id":"DU"},{"transit":false,"is_transit":false,"distance":3632,"i_long":106.811091,"station_name":"Tanah Abang","time":8,"line":1,"station_id":"THB","i_lat":-6.185545},{"is_transit":false,"transit":false,"distance":2029,"time":5,"station_id":"KAT","i_lat":-6.20132,"station_name":"Karet","i_long":106.816351,"line":1},{"transit":false,"is_transit":false,"i_long":106.819881,"time":1,"line":1,"station_id":"SUDB","distance":471,"i_lat":-6.201433,"station_name":"Sudirman Baru"},{"line":1,"time":1,"is_transit":false,"station_id":"SUD","i_long":106.822649,"distance":280,"transit":false,"station_name":"Sudirman","i_lat":-6.202263},{"is_transit":false,"station_name":"Manggarai","line":2,"station_id":"MRI","i_lat":-6.209883,"time":4,"i_long":106.84912,"transit":false,"distance":3186},{"line":1,"time":2,"station_id":"MTR","station_name":"Matraman","is_transit":false,"distance":1275,"i_lat":-6.212485,"transit":false,"i_long":106.858896},{"i_long":106.86807400000001,"station_name":"Jatinegara","distance":1377,"is_transit":true,"i_lat":-6.215091,"time":8,"line":1,"station_id":"JNG","transit":true},{"distance":1236,"is_transit":false,"station_name":"Pondok Jati","i_lat":-6.209188,"line":11,"station_id":"POK","i_long":106.861737,"time":2,"transit":false},{"distance":1829,"line":11,"station_name":"Kramat","time":2,"station_id":"KMT","transit":false,"is_transit":false,"i_lat":-6.193792,"i_long":106.855437},{"time":1,"station_id":"GST","station_name":"Gang Sentiong","is_transit":false,"transit":false,"distance":973,"line":11,"i_long":106.850107,"i_lat":-6.185975},{"station_id":"PSE","distance":1567,"time":8,"i_lat":-6.174784,"line":11,"i_long":106.84368,"transit":false,"is_transit":false,"station_name":"Pasar Senen"},{"station_name":"Kemayoran","is_transit":false,"i_lat":-6.161728,"time":4,"distance":1436,"i_long":106.839204,"station_id":"KMO","line":11,"transit":false},{"distance":1901,"transit":false,"time":5,"i_lat":-6.14505,"is_transit":false,"i_long":106.836569,"line":11,"station_name":"Rajawali","station_id":"RJW"},{"i_long":106.826365,"time":3,"station_id":"KPB","i_lat":-6.132549,"distance":1444,"line":4,"transit":true,"is_transit":true,"station_name":"Kampung Bandan"},{"i_lat":-6.137569,"transit":true,"i_long":106.812439,"line":2,"time":3,"station_name":"Jakarta Kota","is_transit":true,"station_id":"JAKK","distance":1364},{"transit":false,"station_id":"JAY","station_name":"Jayakarta","time":4,"i_long":106.820901,"line":2,"i_lat":-6.141205,"is_transit":false,"distance":1264},{"is_transit":false,"distance":1080,"station_name":"Manggabesar","time":2,"line":2,"i_long":106.82482,"station_id":"MGB","i_lat":-6.149769,"transit":false},{"line":2,"station_name":"Sawah Besar","time":2,"station_id":"SW","transit":false,"is_transit":false,"distance":906,"i_lat":-6.160725,"i_long":106.827103},{"i_lat":-6.166716,"line":2,"transit":false,"time":2,"is_transit":false,"i_long":106.828284,"station_name":"Juanda","station_id":"JUA","distance":1149},{"station_id":"GDD","i_lat":-6.186295,"is_transit":false,"distance":2015,"i_long":106.832183,"transit":false,"line":2,"station_name":"Gondangdia","time":4}]]}