{"data":[[{"transit":false,"station_name":"Taman Kota","time":0,"station_id":"TKO","i_lat":-6.1587309999999995,"is_transit":false,"distance":0,"line":5,"i_long":106.756522},{"i_lat":-6.161433,"station_name":"Pesing","time":2,"is_transit":false,"station_id":"PSG","i_long":106.771379,"distance":1614,"transit":false,"line":5},{"i_long":106.788277,"time":2,"transit":false,"station_name":"Grogol","line":5,"distance":2036,"station_id":"GGL","is_transit":false,"i_lat":-6.162021},{"is_transit":true,"station_name":"Duri","station_id":"DU","distance":1700,"i_long":106.800832,"transit":true,"line":1,"i_lat":-6.155215,"time":3},{"station_id":"THB","time":8,"distance":3632,"i_lat":-6.185545,"is_transit":false,"station_name":"Tanah Abang","i_long":106.811091,"line":1,"transit":false},{"station_name":"Karet","station_id":"KAT","i_long":106.816351,"time":5,"transit":false,"distance":2029,"i_lat":-6.20132,"is_transit":false,"line":1},{"is_transit":false,"time":1,"i_long":106.819881,"distance":471,"i_lat":-6.201433,"station_id":"SUDB","line":1,"transit":false,"station_name":"Sudirman Baru"},{"line":1,"i_long":106.822649,"distance":280,"is_transit":false,"time":1,"i_lat":-6.202263,"station_name":"Sudirman","station_id":"SUD","transit":false},{"distance":3186,"station_name":"Manggarai","line":2,"time":4,"is_transit":false,"i_lat":-6.209883,"station_id":"MRI","i_long":106.84912,"transit":false},{"is_transit":false,"i_lat":-6.212485,"transit":false,"i_long":106.858896,"station_name":"Matraman","time":2,"line":1,"station_id":"MTR","distance":1275},{"transit":false,"line":1,"distance":1377,"station_name":"Jatinegara","time":8,"station_id":"JNG","is_transit":false,"i_lat":-6.215091,"i_long":106.86807400000001},{"station_name":"Klender","i_lat":-6.2135,"line":1,"transit":false,"i_long":106.899548,"time":3,"station_id":"KLD","distance":3395,"is_transit":false},{"time":2,"i_long":106.922662,"line":1,"transit":false,"station_id":"BUA","is_transit":false,"station_name":"Buaran","distance":3100,"i_lat":-6.215568},{"i_long":106.939679,"i_lat":-6.217455,"line":1,"distance":1305,"time":1,"station_id":"KLDB","is_transit":false,"transit":false,"station_name":"Klenderbaru"}],[{"station_id":"TKO","is_transit":false,"distance":0,"station_name":"Taman Kota","line":5,"transit":false,"time":0,"i_lat":-6.1587309999999995,"i_long":106.756522},{"is_transit":false,"i_lat":-6.161433,"time":2,"i_long":106.771379,"line":5,"transit":false,"distance":1614,"station_name":"Pesing","station_id":"PSG"},{"time":2,"i_lat":-6.162021,"station_name":"Grogol","station_id":"GGL","is_transit":false,"transit":false,"i_long":106.788277,"line":5,"distance":2036},{"i_lat":-6.155215,"transit":true,"distance":1700,"is_transit":true,"station_name":"Duri","station_id":"DU","i_long":106.800832,"line":1,"time":3},{"is_transit":false,"transit":false,"time":4,"distance":1230,"i_lat":-6.144674,"station_name":"Angke","station_id":"AK","i_long":106.79867,"line":1},{"time":9,"station_id":"KPB","transit":true,"station_name":"Kampung Bandan","i_long":106.826365,"line":4,"is_transit":true,"i_lat":-6.132549,"distance":4102},{"distance":1444,"time":3,"transit":false,"station_name":"Rajawali","i_long":106.836569,"is_transit":false,"line":11,"i_lat":-6.14505,"station_id":"RJW"},{"distance":1901,"station_id":"KMO","i_lat":-6.161728,"i_long":106.839204,"time":5,"line":11,"transit":false,"station_name":"Kemayoran","is_transit":false},{"station_name":"Pasar Senen","distance":1436,"is_transit":false,"i_lat":-6.174784,"time":4,"transit":false,"station_id":"PSE","line":11,"i_long":106.84368},{"is_transit":false,"station_id":"GST","i_long":106.850107,"distance":1567,"time":8,"line":11,"transit":false,"i_lat":-6.185975,"station_name":"Gang Sentiong"},{"i_long":106.855437,"transit":false,"station_id":"KMT","line":11,"i_lat":-6.193792,"station_name":"Kramat","time":1,"distance":973,"is_transit":false},{"distance":1829,"time":2,"station_id":"POK","transit":false,"station_name":"Pondok Jati","i_lat":-6.209188,"i_long":106.861737,"line":11,"is_transit":false},{"station_id":"JNG","is_transit":true,"i_lat":-6.215091,"i_long":106.86807400000001,"line":1,"station_name":"Jatinegara","distance":1236,"time":9,"transit":true},{"time":3,"station_id":"KLD","transit":false,"station_name":"Klender","distance":3395,"i_lat":-6.2135,"i_long":106.899548,"line":1,"is_transit":false},{"transit":false,"station_name":"Buaran","time":2,"station_id":"BUA","i_long":106.922662,"is_transit":false,"i_lat":-6.215568,"distance":3100,"line":1},{"is_transit":false,"station_id":"KLDB","station_name":"Klenderbaru","time":1,"i_long":106.939679,"line":1,"distance":1305,"transit":false,"i_lat":-6.217455}],[{"is_transit":false,"transit":false,"station_id":"TKO","station_name":"Taman Kota","i_long":106.756522,"i_lat":-6.1587309999999995,"time":0,"line":5,"distance":0},{"is_transit":false,"i_lat":-6.161433,"line":5,"transit":false,"distance":1614,"station_name":"Pesing","time":2,"station_id":"PSG","i_long":106.771379},{"distance":2036,"station_name":"Grogol","i_lat":-6.162021,"i_long":106.788277,"line":5,"is_transit":false,"transit":false,"station_id":"GGL","time":2},{"is_transit":true,"station_name":"Duri","station_id":"DU","i_lat":-6.155215,"distance":1700,"time":3,"line":1,"transit":true,"i_long":106.800832},{"station_name":"Angke","line":1,"transit":false,"is_transit":false,"i_lat":-6.144674,"time":4,"i_long":106.79867,"station_id":"AK","distance":1230},{"transit":true,"i_lat":-6.132549,"i_long":106.826365,"distance":4102,"is_transit":true,"time":9,"station_name":"Kampung Bandan","line":4,"station_id":"KPB"},{"station_id":"JAKK","transit":true,"i_long":106.812439,"i_lat":-6.137569,"distance":1364,"is_transit":true,"line":2,"station_name":"Jakarta Kota","time":3},{"i_lat":-6.141205,"is_transit":false,"i_long":106.820901,"transit":false,"station_id":"JAY","time":4,"station_name":"Jayakarta","line":2,"distance":1264},{"transit":false,"time":2,"station_id":"MGB","station_name":"Manggabesar","is_transit":false,"i_lat":-6.149769,"i_long":106.82482,"line":2,"distance":1080},{"is_transit":false,"distance":906,"station_id":"SW","time":2,"station_name":"Sawah Besar","i_long":106.827103,"transit":false,"i_lat":-6.160725,"line":2},{"transit":false,"line":2,"distance":1149,"station_id":"JUA","time":2,"is_transit":false,"i_lat":-6.166716,"station_name":"Juanda","i_long":106.828284},{"transit":false,"is_transit":false,"line":2,"i_long":106.832183,"time":4,"distance":2015,"station_name":"Gondangdia","station_id":"GDD","i_lat":-6.186295},{"line":2,"i_lat":-6.198556,"time":3,"transit":false,"station_name":"Cikini","distance":1750,"is_transit":false,"i_long":106.840169,"station_id":"CKI"},{"time":4,"i_lat":-6.209883,"line":2,"is_transit":true,"transit":true,"station_id":"MRI","distance":1590,"station_name":"Manggarai","i_long":106.84912},{"transit":false,"i_long":106.858896,"time":2,"station_id":"MTR","is_transit":false,"i_lat":-6.212485,"station_name":"Matraman","distance":1275,"line":1},{"station_id":"JNG","i_lat":-6.215091,"i_long":106.86807400000001,"line":1,"transit":false,"distance":1377,"time":8,"station_name":"Jatinegara","is_transit":false},{"i_long":106.899548,"distance":3395,"is_transit":false,"transit":false,"line":1,"i_lat":-6.2135,"station_id":"KLD","station_name":"Klender","time":3},{"time":2,"station_name":"Buaran","i_long":106.922662,"station_id":"BUA","distance":3100,"is_transit":false,"line":1,"i_lat":-6.215568,"transit":false},{"station_name":"Klenderbaru","station_id":"KLDB","i_long":106.939679,"transit":false,"line":1,"distance":1305,"i_lat":-6.217455,"is_transit":false,"time":1}],[{"distance":0,"is_transit":false,"i_lat":-6.1587309999999995,"line":5,"i_long":106.756522,"station_id":"TKO","transit":false,"time":0,"station_name":"Taman Kota"},{"is_transit":false,"station_id":"PSG","transit":false,"station_name":"Pesing","distance":1614,"i_lat":-6.161433,"i_long":106.771379,"line":5,"time":2},{"is_transit":false,"i_lat":-6.162021,"i_long":106.788277,"line":5,"distance":2036,"transit":false,"station_name":"Grogol","station_id":"GGL","time":2},{"distance":1700,"is_transit":true,"i_long":106.800832,"station_id":"DU","i_lat":-6.155215,"transit":true,"line":1,"time":3,"station_name":"Duri"},{"station_id":"THB","i_long":106.811091,"station_name":"Tanah Abang","distance":3632,"is_transit":false,"i_lat":-6.185545,"transit":false,"line":1,"time":8},{"station_name":"Karet","time":5,"i_lat":-6.20132,"transit":false,"is_transit":false,"station_id":"KAT","i_long":106.816351,"line":1,"distance":2029},{"is_transit":false,"station_id":"SUDB","time":1,"i_lat":-6.201433,"station_name":"Sudirman Baru","i_long":106.819881,"distance":471,"transit":false,"line":1},{"time":1,"i_lat":-6.202263,"is_transit":false,"distance":280,"transit":false,"i_long":106.822649,"station_id":"SUD","line":1,"station_name":"Sudirman"},{"station_id":"MRI","time":4,"is_transit":true,"station_name":"Manggarai","line":2,"i_lat":-6.209883,"distance":3186,"transit":true,"i_long":106.84912},{"i_lat":-6.198556,"distance":1590,"station_name":"Cikini","i_long":106.840169,"line":2,"time":4,"is_transit":false,"transit":false,"station_id":"CKI"},{"is_transit":false,"i_long":106.832183,"distance":1750,"line":2,"i_lat":-6.186295,"time":3,"transit":false,"station_id":"GDD","station_name":"Gondangdia"},{"transit":false,"time":4,"line":2,"is_transit":false,"station_id":"JUA","station_name":"Juanda","i_lat":-6.166716,"distance":2015,"i_long":106.828284},{"line":2,"transit":false,"i_lat":-6.160725,"i_long":106.827103,"station_id":"SW","distance":1149,"is_transit":false,"time":2,"station_name":"Sawah Besar"},{"time":2,"i_long":106.82482,"is_transit":false,"i_lat":-6.149769,"line":2,"transit":false,"station_name":"Manggabesar","station_id":"MGB","distance":906},{"station_id":"JAY","distance":1080,"transit":false,"time":2,"i_lat":-6.141205,"station_name":"Jayakarta","is_transit":false,"i_long":106.820901,"line":2},{"station_name":"Jakarta Kota","distance":1264,"i_long":106.812439,"station_id":"JAKK","line":2,"transit":true,"is_transit":true,"time":4,"i_lat":-6.137569},{"i_long":106.826365,"station_id":"KPB","distance":1364,"i_lat":-6.132549,"time":3,"station_name":"Kampung Bandan","is_transit":true,"transit":true,"line":4},{"i_long":106.836569,"line":11,"is_transit":false,"distance":1444,"time":3,"station_name":"Rajawali","station_id":"RJW","transit":false,"i_lat":-6.14505},{"is_transit":false,"station_name":"Kemayoran","time":5,"transit":false,"i_long":106.839204,"i_lat":-6.161728,"distance":1901,"line":11,"station_id":"KMO"},{"station_name":"Pasar Senen","transit":false,"time":4,"i_lat":-6.174784,"is_transit":false,"station_id":"PSE","distance":1436,"line":11,"i_long":106.84368},{"station_name":"Gang Sentiong","time":8,"i_long":106.850107,"distance":1567,"is_transit":false,"i_lat":-6.185975,"transit":false,"line":11,"station_id":"GST"},{"time":1,"i_lat":-6.193792,"i_long":106.855437,"is_transit":false,"line":11,"station_name":"Kramat","distance":973,"transit":false,"station_id":"KMT"},{"transit":false,"i_long":106.861737,"station_name":"Pondok Jati","time":2,"line":11,"i_lat":-6.209188,"distance":1829,"is_transit":false,"station_id":"POK"},{"i_long":106.86807400000001,"station_name":"Jatinegara","station_id":"JNG","transit":true,"line":1,"is_transit":true,"i_lat":-6.215091,"time":9,"distance":1236},{"distance":3395,"station_id":"KLD","i_lat":-6.2135,"line":1,"time":3,"is_transit":false,"i_long":106.899548,"station_name":"Klender","transit":false},{"distance":3100,"station_id":"BUA","i_long":106.922662,"transit":false,"is_transit":false,"line":1,"station_name":"Buaran","time":2,"i_lat":-6.215568},{"distance":1305,"transit":false,"i_lat":-6.217455,"is_transit":false,"time":1,"station_name":"Klenderbaru","station_id":"KLDB","i_long":106.939679,"line":1}]]}