{"data":[[{"is_transit":false,"station_name":"Taman Kota","transit":false,"time":0,"i_long":106.756522,"line":5,"distance":0,"i_lat":-6.1587309999999995,"station_id":"TKO"},{"distance":1614,"i_lat":-6.161433,"transit":false,"station_name":"Pesing","is_transit":false,"i_long":106.771379,"line":5,"station_id":"PSG","time":2},{"is_transit":false,"station_id":"GGL","i_lat":-6.162021,"line":5,"i_long":106.788277,"transit":false,"station_name":"Grogol","time":2,"distance":2036},{"i_long":106.800832,"station_id":"DU","distance":1700,"station_name":"Duri","transit":true,"is_transit":true,"time":3,"line":1,"i_lat":-6.155215},{"distance":3632,"station_name":"Tanah Abang","time":8,"i_lat":-6.185545,"transit":false,"line":1,"i_long":106.811091,"station_id":"THB","is_transit":false},{"time":5,"i_long":106.816351,"line":1,"station_id":"KAT","transit":false,"is_transit":false,"distance":2029,"i_lat":-6.20132,"station_name":"Karet"},{"time":1,"distance":471,"i_long":106.819881,"line":1,"transit":false,"station_id":"SUDB","is_transit":false,"station_name":"Sudirman Baru","i_lat":-6.201433},{"transit":false,"station_id":"SUD","i_lat":-6.202263,"time":1,"is_transit":false,"station_name":"Sudirman","line":1,"distance":280,"i_long":106.822649},{"station_id":"MRI","station_name":"Manggarai","is_transit":true,"line":2,"time":4,"distance":3186,"i_long":106.84912,"transit":true,"i_lat":-6.209883},{"time":4,"line":2,"transit":false,"distance":2610,"i_long":106.857948,"station_name":"Tebet","station_id":"TEB","i_lat":-6.226659,"is_transit":false},{"time":2,"distance":1230,"i_long":106.856607,"station_name":"Cawang","i_lat":-6.242512,"is_transit":false,"transit":false,"line":2,"station_id":"CW"},{"station_name":"Duren Kalibata","transit":false,"is_transit":false,"distance":1546,"i_lat":-6.255332,"line":2,"time":3,"station_id":"DRN","i_long":106.85449},{"transit":false,"i_lat":-6.263214,"line":2,"i_long":106.851577,"distance":824,"station_id":"PSMB","station_name":"Pasar Minggu Baru","time":2,"is_transit":false},{"i_long":106.843999,"is_transit":false,"station_id":"PSM","line":2,"station_name":"Pasar Minggu","transit":false,"distance":2380,"i_lat":-6.2842400000000005,"time":2},{"time":4,"station_id":"TNT","is_transit":false,"i_lat":-6.3080680000000005,"line":2,"transit":false,"i_long":106.838896,"station_name":"Tanjung Barat","distance":2820},{"station_id":"LNA","distance":2671,"line":2,"is_transit":false,"station_name":"Lenteng Agung","transit":false,"i_lat":-6.330363,"i_long":106.832616,"time":3},{"station_name":"Univ. Pancasila","transit":false,"i_long":106.834175,"line":2,"station_id":"UP","distance":1029,"is_transit":false,"i_lat":-6.339291,"time":2},{"station_name":"Univ. Indonesia","time":3,"i_long":106.831474,"station_id":"UI","line":2,"distance":2264,"i_lat":-6.360749,"transit":false,"is_transit":false},{"is_transit":false,"time":2,"transit":false,"station_name":"Pondok Cina","i_lat":-6.369073,"i_long":106.831114,"distance":1109,"line":2,"station_id":"POC"},{"i_long":106.819451,"station_id":"DPB","time":4,"line":2,"transit":false,"i_lat":-6.391065,"station_name":"Depokbaru","is_transit":false,"distance":2727},{"i_long":106.816926,"station_name":"Depok","transit":false,"line":2,"station_id":"DP","is_transit":false,"time":3,"i_lat":-6.405256,"distance":1584},{"station_id":"CTA","i_long":106.800298,"transit":false,"is_transit":false,"distance":5084,"time":6,"i_lat":-6.448811,"line":2,"station_name":"Citayam"},{"line":2,"station_id":"BJD","i_lat":-6.493243,"time":5,"distance":5197,"transit":false,"i_long":106.792719,"station_name":"Bojonggede","is_transit":false},{"is_transit":false,"transit":false,"station_name":"Cilebut","station_id":"CLT","distance":4331,"i_long":106.800016,"i_lat":-6.530544,"line":2,"time":5}],[{"transit":false,"station_id":"TKO","distance":0,"time":0,"i_long":106.756522,"line":5,"i_lat":-6.1587309999999995,"station_name":"Taman Kota","is_transit":false},{"is_transit":false,"i_lat":-6.161433,"line":5,"station_name":"Pesing","station_id":"PSG","transit":false,"time":2,"distance":1614,"i_long":106.771379},{"line":5,"distance":2036,"transit":false,"is_transit":false,"station_name":"Grogol","i_lat":-6.162021,"i_long":106.788277,"time":2,"station_id":"GGL"},{"is_transit":true,"station_name":"Duri","distance":1700,"transit":true,"i_long":106.800832,"line":1,"time":3,"i_lat":-6.155215,"station_id":"DU"},{"distance":1230,"i_long":106.79867,"time":4,"i_lat":-6.144674,"line":1,"transit":false,"station_id":"AK","station_name":"Angke","is_transit":false},{"distance":4102,"line":4,"transit":true,"time":9,"station_id":"KPB","station_name":"Kampung Bandan","i_lat":-6.132549,"i_long":106.826365,"is_transit":true},{"i_long":106.812439,"i_lat":-6.137569,"transit":true,"station_name":"Jakarta Kota","station_id":"JAKK","time":3,"line":2,"distance":1364,"is_transit":true},{"is_transit":false,"station_name":"Jayakarta","distance":1264,"line":2,"station_id":"JAY","transit":false,"i_long":106.820901,"i_lat":-6.141205,"time":4},{"station_name":"Manggabesar","is_transit":false,"time":2,"line":2,"i_lat":-6.149769,"station_id":"MGB","distance":1080,"transit":false,"i_long":106.82482},{"line":2,"transit":false,"distance":906,"station_id":"SW","time":2,"i_lat":-6.160725,"i_long":106.827103,"station_name":"Sawah Besar","is_transit":false},{"station_id":"JUA","transit":false,"station_name":"Juanda","time":2,"distance":1149,"i_lat":-6.166716,"line":2,"is_transit":false,"i_long":106.828284},{"distance":2015,"time":4,"station_name":"Gondangdia","i_long":106.832183,"line":2,"station_id":"GDD","is_transit":false,"i_lat":-6.186295,"transit":false},{"transit":false,"line":2,"station_name":"Cikini","distance":1750,"station_id":"CKI","i_long":106.840169,"time":3,"i_lat":-6.198556,"is_transit":false},{"i_lat":-6.209883,"station_id":"MRI","distance":1590,"time":4,"is_transit":false,"line":2,"station_name":"Manggarai","i_long":106.84912,"transit":false},{"line":2,"i_lat":-6.226659,"station_id":"TEB","is_transit":false,"station_name":"Tebet","transit":false,"time":4,"distance":2610,"i_long":106.857948},{"station_name":"Cawang","is_transit":false,"i_long":106.856607,"transit":false,"station_id":"CW","line":2,"distance":1230,"time":2,"i_lat":-6.242512},{"station_id":"DRN","is_transit":false,"distance":1546,"line":2,"i_lat":-6.255332,"i_long":106.85449,"time":3,"transit":false,"station_name":"Duren Kalibata"},{"is_transit":false,"station_id":"PSMB","station_name":"Pasar Minggu Baru","time":2,"distance":824,"i_lat":-6.263214,"line":2,"i_long":106.851577,"transit":false},{"station_name":"Pasar Minggu","station_id":"PSM","i_lat":-6.2842400000000005,"line":2,"i_long":106.843999,"is_transit":false,"time":2,"transit":false,"distance":2380},{"station_name":"Tanjung Barat","time":4,"transit":false,"station_id":"TNT","i_lat":-6.3080680000000005,"line":2,"is_transit":false,"distance":2820,"i_long":106.838896},{"i_lat":-6.330363,"station_name":"Lenteng Agung","is_transit":false,"station_id":"LNA","distance":2671,"line":2,"transit":false,"time":3,"i_long":106.832616},{"station_name":"Univ. Pancasila","i_long":106.834175,"transit":false,"i_lat":-6.339291,"line":2,"station_id":"UP","time":2,"distance":1029,"is_transit":false},{"station_name":"Univ. Indonesia","transit":false,"line":2,"distance":2264,"is_transit":false,"time":3,"i_lat":-6.360749,"station_id":"UI","i_long":106.831474},{"station_id":"POC","station_name":"Pondok Cina","transit":false,"i_lat":-6.369073,"i_long":106.831114,"line":2,"is_transit":false,"time":2,"distance":1109},{"station_id":"DPB","line":2,"i_lat":-6.391065,"time":4,"transit":false,"station_name":"Depokbaru","distance":2727,"is_transit":false,"i_long":106.819451},{"is_transit":false,"transit":false,"station_name":"Depok","station_id":"DP","time":3,"i_lat":-6.405256,"i_long":106.816926,"line":2,"distance":1584},{"distance":5084,"station_name":"Citayam","station_id":"CTA","is_transit":false,"i_lat":-6.448811,"time":6,"transit":false,"i_long":106.800298,"line":2},{"transit":false,"station_name":"Bojonggede","station_id":"BJD","is_transit":false,"distance":5197,"i_lat":-6.493243,"i_long":106.792719,"line":2,"time":5},{"transit":false,"i_lat":-6.530544,"line":2,"station_name":"Cilebut","time":5,"distance":4331,"is_transit":false,"i_long":106.800016,"station_id":"CLT"}],[{"i_long":106.756522,"line":5,"station_id":"TKO","distance":0,"is_transit":false,"transit":false,"i_lat":-6.1587309999999995,"station_name":"Taman Kota","time":0},{"i_lat":-6.161433,"station_name":"Pesing","station_id":"PSG","i_long":106.771379,"line":5,"is_transit":false,"transit":false,"time":2,"distance":1614},{"is_transit":false,"station_name":"Grogol","time":2,"station_id":"GGL","distance":2036,"i_lat":-6.162021,"transit":false,"i_long":106.788277,"line":5},{"transit":true,"i_long":106.800832,"distance":1700,"station_id":"DU","i_lat":-6.155215,"is_transit":true,"station_name":"Duri","line":1,"time":3},{"i_lat":-6.144674,"time":4,"distance":1230,"i_long":106.79867,"station_name":"Angke","station_id":"AK","line":1,"transit":false,"is_transit":false},{"station_name":"Kampung Bandan","i_lat":-6.132549,"transit":true,"is_transit":true,"station_id":"KPB","time":9,"distance":4102,"i_long":106.826365,"line":4},{"time":3,"i_long":106.836569,"distance":1444,"line":11,"station_name":"Rajawali","is_transit":false,"station_id":"RJW","i_lat":-6.14505,"transit":false},{"is_transit":false,"i_long":106.839204,"station_id":"KMO","time":5,"i_lat":-6.161728,"station_name":"Kemayoran","distance":1901,"transit":false,"line":11},{"transit":false,"i_lat":-6.174784,"station_name":"Pasar Senen","line":11,"station_id":"PSE","i_long":106.84368,"is_transit":false,"distance":1436,"time":4},{"line":11,"i_lat":-6.185975,"station_id":"GST","is_transit":false,"distance":1567,"time":8,"station_name":"Gang Sentiong","transit":false,"i_long":106.850107},{"station_name":"Kramat","station_id":"KMT","distance":973,"i_lat":-6.193792,"i_long":106.855437,"is_transit":false,"transit":false,"line":11,"time":1},{"distance":1829,"is_transit":false,"transit":false,"line":11,"i_long":106.861737,"station_name":"Pondok Jati","time":2,"station_id":"POK","i_lat":-6.209188},{"i_lat":-6.215091,"transit":true,"i_long":106.86807400000001,"time":9,"line":1,"is_transit":true,"station_id":"JNG","distance":1236,"station_name":"Jatinegara"},{"transit":false,"i_long":106.858896,"station_name":"Matraman","time":2,"station_id":"MTR","i_lat":-6.212485,"line":1,"distance":1377,"is_transit":false},{"is_transit":true,"i_long":106.84912,"station_name":"Manggarai","transit":true,"i_lat":-6.209883,"line":2,"time":2,"distance":1275,"station_id":"MRI"},{"transit":false,"is_transit":false,"station_name":"Tebet","station_id":"TEB","time":4,"distance":2610,"line":2,"i_lat":-6.226659,"i_long":106.857948},{"line":2,"is_transit":false,"time":2,"i_lat":-6.242512,"distance":1230,"station_name":"Cawang","station_id":"CW","transit":false,"i_long":106.856607},{"station_name":"Duren Kalibata","i_long":106.85449,"is_transit":false,"transit":false,"station_id":"DRN","time":3,"distance":1546,"i_lat":-6.255332,"line":2},{"station_id":"PSMB","distance":824,"line":2,"i_long":106.851577,"station_name":"Pasar Minggu Baru","is_transit":false,"transit":false,"i_lat":-6.263214,"time":2},{"distance":2380,"station_name":"Pasar Minggu","time":2,"transit":false,"i_lat":-6.2842400000000005,"i_long":106.843999,"line":2,"station_id":"PSM","is_transit":false},{"i_long":106.838896,"time":4,"station_name":"Tanjung Barat","is_transit":false,"line":2,"i_lat":-6.3080680000000005,"transit":false,"station_id":"TNT","distance":2820},{"is_transit":false,"station_name":"Lenteng Agung","line":2,"i_lat":-6.330363,"transit":false,"time":3,"distance":2671,"i_long":106.832616,"station_id":"LNA"},{"line":2,"station_id":"UP","is_transit":false,"distance":1029,"i_lat":-6.339291,"transit":false,"station_name":"Univ. Pancasila","i_long":106.834175,"time":2},{"station_name":"Univ. Indonesia","is_transit":false,"transit":false,"time":3,"line":2,"i_lat":-6.360749,"i_long":106.831474,"distance":2264,"station_id":"UI"},{"transit":false,"time":2,"station_id":"POC","line":2,"i_lat":-6.369073,"distance":1109,"i_long":106.831114,"station_name":"Pondok Cina","is_transit":false},{"i_long":106.819451,"is_transit":false,"line":2,"transit":false,"station_name":"Depokbaru","station_id":"DPB","distance":2727,"time":4,"i_lat":-6.391065},{"transit":false,"time":3,"i_lat":-6.405256,"distance":1584,"i_long":106.816926,"line":2,"station_name":"Depok","station_id":"DP","is_transit":false},{"station_id":"CTA","line":2,"time":6,"station_name":"Citayam","is_transit":false,"distance":5084,"transit":false,"i_lat":-6.448811,"i_long":106.800298},{"is_transit":false,"station_name":"Bojonggede","i_lat":-6.493243,"line":2,"i_long":106.792719,"time":5,"station_id":"BJD","transit":false,"distance":5197},{"time":5,"station_id":"CLT","distance":4331,"is_transit":false,"i_lat":-6.530544,"i_long":106.800016,"station_name":"Cilebut","line":2,"transit":false}]]}