{"data":[[{"is_transit":false,"transit":false,"time":0,"i_lat":-6.1587309999999995,"line":5,"i_long":106.756522,"distance":0,"station_id":"TKO","station_name":"Taman Kota"},{"transit":false,"station_id":"PSG","time":2,"i_long":106.771379,"is_transit":false,"station_name":"Pesing","distance":1614,"line":5,"i_lat":-6.161433},{"i_lat":-6.162021,"is_transit":false,"station_id":"GGL","transit":false,"i_long":106.788277,"line":5,"distance":2036,"station_name":"Grogol","time":2},{"station_name":"Duri","is_transit":true,"transit":true,"distance":1700,"time":3,"i_long":106.800832,"line":1,"station_id":"DU","i_lat":-6.155215},{"i_lat":-6.144674,"is_transit":false,"line":0,"distance":1230,"station_id":"AK","i_long":106.79867,"transit":false,"station_name":"Angke","time":4},{"i_long":106.826365,"is_transit":true,"transit":false,"distance":4102,"station_id":"KPB","station_name":"Kampung Bandan","i_lat":-6.132549,"line":0,"time":9},{"line":0,"time":3,"distance":1364,"station_id":"JAKK","transit":false,"i_long":106.812439,"i_lat":-6.137569,"is_transit":true,"station_name":"Jakarta Kota"}],[{"is_transit":false,"station_id":"TKO","line":5,"distance":0,"i_lat":-6.1587309999999995,"i_long":106.756522,"station_name":"Taman Kota","time":0,"transit":false},{"distance":1614,"i_long":106.771379,"line":5,"station_name":"Pesing","is_transit":false,"i_lat":-6.161433,"station_id":"PSG","time":2,"transit":false},{"line":5,"station_name":"Grogol","time":2,"transit":false,"i_long":106.788277,"is_transit":false,"distance":2036,"station_id":"GGL","i_lat":-6.162021},{"i_lat":-6.155215,"transit":true,"station_name":"Duri","station_id":"DU","is_transit":true,"line":1,"distance":1700,"i_long":106.800832,"time":3},{"station_name":"Tanah Abang","i_lat":-6.185545,"i_long":106.811091,"is_transit":true,"time":8,"transit":false,"station_id":"THB","line":1,"distance":3632},{"is_transit":false,"i_lat":-6.20132,"station_id":"KAT","i_long":106.816351,"time":5,"line":1,"transit":false,"distance":2029,"station_name":"Karet"},{"line":1,"i_long":106.819881,"time":1,"transit":false,"station_name":"Sudirman Baru","is_transit":false,"i_lat":-6.201433,"distance":471,"station_id":"SUDB"},{"i_lat":-6.202263,"distance":280,"i_long":106.822649,"time":1,"line":1,"transit":false,"station_name":"Sudirman","station_id":"SUD","is_transit":false},{"distance":3186,"line":0,"time":4,"i_long":106.84912,"i_lat":-6.209883,"is_transit":true,"station_name":"Manggarai","station_id":"MRI","transit":true},{"i_long":106.840169,"i_lat":-6.198556,"transit":false,"station_id":"CKI","time":4,"line":0,"distance":1590,"station_name":"Cikini","is_transit":false},{"line":2,"i_lat":-6.186295,"distance":1750,"station_id":"GDD","transit":false,"station_name":"Gondangdia","is_transit":false,"time":3,"i_long":106.832183},{"is_transit":false,"station_id":"JUA","i_long":106.828284,"station_name":"Juanda","transit":false,"distance":2015,"line":2,"time":4,"i_lat":-6.166716},{"station_name":"Sawah Besar","distance":1149,"line":2,"i_lat":-6.160725,"i_long":106.827103,"is_transit":false,"transit":false,"time":2,"station_id":"SW"},{"distance":906,"i_long":106.82482,"station_name":"Manggabesar","line":2,"time":2,"i_lat":-6.149769,"is_transit":false,"transit":false,"station_id":"MGB"},{"transit":false,"is_transit":false,"station_id":"JAY","station_name":"Jayakarta","i_long":106.820901,"time":2,"distance":1080,"line":7,"i_lat":-6.141205},{"is_transit":true,"distance":1264,"station_id":"JAKK","time":4,"station_name":"Jakarta Kota","transit":false,"i_lat":-6.137569,"i_long":106.812439,"line":0}],[{"line":5,"station_id":"TKO","transit":false,"station_name":"Taman Kota","time":0,"distance":0,"i_lat":-6.1587309999999995,"i_long":106.756522,"is_transit":false},{"line":5,"time":2,"is_transit":false,"i_lat":-6.161433,"station_name":"Pesing","i_long":106.771379,"transit":false,"distance":1614,"station_id":"PSG"},{"transit":false,"distance":2036,"line":5,"i_lat":-6.162021,"station_id":"GGL","station_name":"Grogol","is_transit":false,"i_long":106.788277,"time":2},{"station_id":"DU","i_long":106.800832,"line":1,"transit":true,"distance":1700,"is_transit":true,"time":3,"i_lat":-6.155215,"station_name":"Duri"},{"line":1,"station_id":"THB","transit":false,"is_transit":true,"distance":3632,"time":8,"i_lat":-6.185545,"i_long":106.811091,"station_name":"Tanah Abang"},{"station_id":"KAT","is_transit":false,"station_name":"Karet","i_lat":-6.20132,"i_long":106.816351,"line":1,"time":5,"transit":false,"distance":2029},{"station_id":"SUDB","station_name":"Sudirman Baru","time":1,"i_long":106.819881,"is_transit":false,"line":1,"transit":false,"distance":471,"i_lat":-6.201433},{"distance":280,"transit":false,"i_lat":-6.202263,"i_long":106.822649,"time":1,"is_transit":false,"station_id":"SUD","station_name":"Sudirman","line":1},{"is_transit":true,"transit":false,"line":0,"station_id":"MRI","time":4,"distance":3186,"station_name":"Manggarai","i_long":106.84912,"i_lat":-6.209883},{"is_transit":false,"i_long":106.858896,"transit":false,"time":2,"i_lat":-6.212485,"distance":1275,"station_name":"Matraman","station_id":"MTR","line":1},{"distance":1377,"station_id":"JNG","transit":true,"time":8,"station_name":"Jatinegara","line":0,"i_long":106.86807400000001,"is_transit":true,"i_lat":-6.215091},{"distance":1236,"i_lat":-6.209188,"i_long":106.861737,"is_transit":false,"station_id":"POK","transit":false,"line":11,"time":2,"station_name":"Pondok Jati"},{"i_long":106.855437,"transit":false,"is_transit":false,"distance":1829,"line":11,"station_id":"KMT","time":2,"station_name":"Kramat","i_lat":-6.193792},{"distance":973,"i_long":106.850107,"line":11,"time":1,"station_id":"GST","is_transit":false,"transit":false,"station_name":"Gang Sentiong","i_lat":-6.185975},{"i_long":106.84368,"line":11,"time":8,"distance":1567,"is_transit":false,"station_id":"PSE","transit":false,"station_name":"Pasar Senen","i_lat":-6.174784},{"station_name":"Kemayoran","time":4,"station_id":"KMO","transit":false,"i_lat":-6.161728,"i_long":106.839204,"distance":1436,"line":11,"is_transit":false},{"station_name":"Rajawali","i_long":106.836569,"i_lat":-6.14505,"station_id":"RJW","is_transit":false,"time":5,"transit":false,"line":11,"distance":1901},{"station_name":"Kampung Bandan","i_lat":-6.132549,"station_id":"KPB","transit":true,"i_long":106.826365,"line":0,"distance":1444,"is_transit":true,"time":3},{"is_transit":true,"station_name":"Jakarta Kota","distance":1364,"i_long":106.812439,"time":3,"station_id":"JAKK","i_lat":-6.137569,"line":0,"transit":false}],[{"station_id":"TKO","station_name":"Taman Kota","i_lat":-6.1587309999999995,"i_long":106.756522,"time":0,"distance":0,"line":5,"is_transit":false,"transit":false},{"is_transit":false,"line":5,"distance":1614,"time":2,"transit":false,"i_lat":-6.161433,"i_long":106.771379,"station_id":"PSG","station_name":"Pesing"},{"distance":2036,"i_lat":-6.162021,"station_name":"Grogol","line":5,"station_id":"GGL","time":2,"i_long":106.788277,"is_transit":false,"transit":false},{"station_id":"DU","station_name":"Duri","transit":true,"is_transit":true,"time":3,"distance":1700,"i_long":106.800832,"line":1,"i_lat":-6.155215},{"station_id":"AK","i_long":106.79867,"line":0,"time":4,"i_lat":-6.144674,"is_transit":false,"distance":1230,"transit":false,"station_name":"Angke"},{"i_long":106.826365,"station_name":"Kampung Bandan","station_id":"KPB","line":0,"is_transit":true,"transit":true,"i_lat":-6.132549,"distance":4102,"time":9},{"distance":1444,"time":3,"transit":false,"line":11,"station_id":"RJW","station_name":"Rajawali","i_lat":-6.14505,"i_long":106.836569,"is_transit":false},{"time":5,"line":11,"is_transit":false,"distance":1901,"i_long":106.839204,"transit":false,"station_id":"KMO","i_lat":-6.161728,"station_name":"Kemayoran"},{"is_transit":false,"transit":false,"station_id":"PSE","time":4,"station_name":"Pasar Senen","i_lat":-6.174784,"i_long":106.84368,"line":11,"distance":1436},{"is_transit":false,"distance":1567,"transit":false,"station_id":"GST","time":8,"line":11,"station_name":"Gang Sentiong","i_lat":-6.185975,"i_long":106.850107},{"station_id":"KMT","i_lat":-6.193792,"i_long":106.855437,"line":11,"transit":false,"distance":973,"time":1,"is_transit":false,"station_name":"Kramat"},{"is_transit":false,"time":2,"station_name":"Pondok Jati","transit":false,"line":11,"distance":1829,"station_id":"POK","i_lat":-6.209188,"i_long":106.861737},{"line":0,"i_lat":-6.215091,"transit":true,"time":9,"i_long":106.86807400000001,"station_id":"JNG","distance":1236,"station_name":"Jatinegara","is_transit":true},{"i_lat":-6.212485,"time":2,"station_name":"Matraman","transit":false,"is_transit":false,"station_id":"MTR","distance":1377,"line":1,"i_long":106.858896},{"station_name":"Manggarai","transit":true,"distance":1275,"time":2,"line":0,"station_id":"MRI","i_lat":-6.209883,"i_long":106.84912,"is_transit":true},{"time":4,"transit":false,"line":0,"is_transit":false,"i_long":106.840169,"distance":1590,"station_id":"CKI","i_lat":-6.198556,"station_name":"Cikini"},{"distance":1750,"i_long":106.832183,"station_id":"GDD","transit":false,"i_lat":-6.186295,"line":2,"station_name":"Gondangdia","time":3,"is_transit":false},{"time":4,"station_id":"JUA","transit":false,"line":2,"is_transit":false,"i_long":106.828284,"station_name":"Juanda","i_lat":-6.166716,"distance":2015},{"transit":false,"station_id":"SW","time":2,"distance":1149,"station_name":"Sawah Besar","is_transit":false,"line":2,"i_lat":-6.160725,"i_long":106.827103},{"transit":false,"i_lat":-6.149769,"line":2,"i_long":106.82482,"time":2,"station_id":"MGB","distance":906,"station_name":"Manggabesar","is_transit":false},{"i_lat":-6.141205,"time":2,"is_transit":false,"station_name":"Jayakarta","distance":1080,"station_id":"JAY","transit":false,"i_long":106.820901,"line":7},{"station_id":"JAKK","time":4,"i_lat":-6.137569,"station_name":"Jakarta Kota","i_long":106.812439,"line":0,"transit":false,"distance":1264,"is_transit":true}]]}