{"data":[[{"is_transit":false,"station_name":"Taman Kota","distance":0,"transit":false,"station_id":"TKO","line":5,"i_long":106.756522,"time":0,"i_lat":-6.1587309999999995},{"is_transit":false,"line":5,"station_id":"PSG","distance":1614,"i_lat":-6.161433,"time":2,"station_name":"Pesing","transit":false,"i_long":106.771379},{"line":5,"is_transit":false,"transit":false,"time":2,"i_long":106.788277,"i_lat":-6.162021,"station_id":"GGL","distance":2036,"station_name":"Grogol"},{"station_id":"DU","transit":true,"i_lat":-6.155215,"distance":1700,"station_name":"Duri","time":3,"is_transit":true,"i_long":106.800832,"line":1},{"time":8,"station_id":"THB","station_name":"Tanah Abang","transit":false,"distance":3632,"i_lat":-6.185545,"line":1,"i_long":106.811091,"is_transit":false},{"station_id":"KAT","i_long":106.816351,"distance":2029,"is_transit":false,"line":1,"i_lat":-6.20132,"time":5,"station_name":"Karet","transit":false},{"station_name":"Sudirman Baru","distance":471,"i_lat":-6.201433,"line":1,"time":1,"is_transit":false,"station_id":"SUDB","i_long":106.819881,"transit":false},{"transit":false,"distance":280,"station_id":"SUD","i_long":106.822649,"line":1,"is_transit":false,"i_lat":-6.202263,"time":1,"station_name":"Sudirman"},{"time":4,"station_id":"MRI","is_transit":true,"transit":true,"distance":3186,"i_lat":-6.209883,"station_name":"Manggarai","i_long":106.84912,"line":2},{"station_id":"CKI","station_name":"Cikini","time":4,"transit":false,"i_lat":-6.198556,"i_long":106.840169,"line":2,"distance":1590,"is_transit":false},{"line":2,"i_long":106.832183,"station_id":"GDD","i_lat":-6.186295,"time":3,"station_name":"Gondangdia","distance":1750,"transit":false,"is_transit":false}],[{"distance":0,"is_transit":false,"line":5,"station_id":"TKO","transit":false,"station_name":"Taman Kota","i_long":106.756522,"time":0,"i_lat":-6.1587309999999995},{"station_id":"PSG","line":5,"distance":1614,"time":2,"is_transit":false,"station_name":"Pesing","transit":false,"i_lat":-6.161433,"i_long":106.771379},{"i_long":106.788277,"time":2,"distance":2036,"line":5,"is_transit":false,"station_id":"GGL","transit":false,"i_lat":-6.162021,"station_name":"Grogol"},{"station_id":"DU","i_long":106.800832,"i_lat":-6.155215,"is_transit":true,"time":3,"station_name":"Duri","line":1,"distance":1700,"transit":true},{"station_name":"Angke","i_lat":-6.144674,"i_long":106.79867,"is_transit":false,"distance":1230,"transit":false,"line":1,"time":4,"station_id":"AK"},{"is_transit":true,"i_long":106.826365,"time":9,"transit":true,"station_name":"Kampung Bandan","station_id":"KPB","i_lat":-6.132549,"line":4,"distance":4102},{"station_name":"Jakarta Kota","station_id":"JAKK","i_long":106.812439,"distance":1364,"i_lat":-6.137569,"time":3,"transit":true,"is_transit":true,"line":2},{"station_id":"JAY","line":2,"transit":false,"station_name":"Jayakarta","i_lat":-6.141205,"distance":1264,"is_transit":false,"i_long":106.820901,"time":4},{"station_id":"MGB","station_name":"Manggabesar","time":2,"i_lat":-6.149769,"transit":false,"distance":1080,"i_long":106.82482,"line":2,"is_transit":false},{"i_long":106.827103,"is_transit":false,"line":2,"station_name":"Sawah Besar","i_lat":-6.160725,"station_id":"SW","transit":false,"distance":906,"time":2},{"time":2,"distance":1149,"station_name":"Juanda","transit":false,"line":2,"i_lat":-6.166716,"i_long":106.828284,"is_transit":false,"station_id":"JUA"},{"i_lat":-6.186295,"i_long":106.832183,"line":2,"distance":2015,"time":4,"station_id":"GDD","is_transit":false,"transit":false,"station_name":"Gondangdia"}],[{"distance":0,"i_lat":-6.1587309999999995,"time":0,"station_id":"TKO","station_name":"Taman Kota","is_transit":false,"i_long":106.756522,"transit":false,"line":5},{"station_name":"Pesing","line":5,"is_transit":false,"i_lat":-6.161433,"station_id":"PSG","time":2,"i_long":106.771379,"distance":1614,"transit":false},{"time":2,"distance":2036,"i_lat":-6.162021,"station_name":"Grogol","i_long":106.788277,"line":5,"is_transit":false,"transit":false,"station_id":"GGL"},{"line":1,"time":3,"station_name":"Duri","i_lat":-6.155215,"transit":true,"is_transit":true,"i_long":106.800832,"station_id":"DU","distance":1700},{"i_long":106.79867,"line":1,"time":4,"transit":false,"distance":1230,"is_transit":false,"station_id":"AK","i_lat":-6.144674,"station_name":"Angke"},{"i_lat":-6.132549,"is_transit":true,"transit":true,"i_long":106.826365,"station_id":"KPB","distance":4102,"station_name":"Kampung Bandan","line":4,"time":9},{"distance":1444,"transit":false,"station_id":"RJW","line":11,"station_name":"Rajawali","i_lat":-6.14505,"i_long":106.836569,"is_transit":false,"time":3},{"i_lat":-6.161728,"station_id":"KMO","i_long":106.839204,"transit":false,"distance":1901,"time":5,"station_name":"Kemayoran","line":11,"is_transit":false},{"i_long":106.84368,"distance":1436,"transit":false,"station_name":"Pasar Senen","i_lat":-6.174784,"line":11,"time":4,"station_id":"PSE","is_transit":false},{"station_name":"Gang Sentiong","i_lat":-6.185975,"transit":false,"i_long":106.850107,"station_id":"GST","time":8,"is_transit":false,"distance":1567,"line":11},{"transit":false,"station_name":"Kramat","station_id":"KMT","is_transit":false,"i_lat":-6.193792,"time":1,"line":11,"distance":973,"i_long":106.855437},{"distance":1829,"time":2,"station_name":"Pondok Jati","is_transit":false,"i_lat":-6.209188,"transit":false,"i_long":106.861737,"station_id":"POK","line":11},{"time":9,"is_transit":true,"line":1,"transit":true,"i_lat":-6.215091,"station_id":"JNG","distance":1236,"station_name":"Jatinegara","i_long":106.86807400000001},{"station_id":"MTR","is_transit":false,"i_long":106.858896,"distance":1377,"i_lat":-6.212485,"station_name":"Matraman","transit":false,"time":2,"line":1},{"station_id":"MRI","transit":true,"i_lat":-6.209883,"i_long":106.84912,"time":2,"distance":1275,"is_transit":true,"station_name":"Manggarai","line":2},{"line":2,"i_long":106.840169,"station_id":"CKI","station_name":"Cikini","time":4,"is_transit":false,"i_lat":-6.198556,"distance":1590,"transit":false},{"line":2,"station_id":"GDD","station_name":"Gondangdia","transit":false,"i_long":106.832183,"time":3,"is_transit":false,"i_lat":-6.186295,"distance":1750}],[{"station_name":"Taman Kota","i_lat":-6.1587309999999995,"i_long":106.756522,"time":0,"distance":0,"line":5,"station_id":"TKO","transit":false,"is_transit":false},{"i_lat":-6.161433,"line":5,"transit":false,"i_long":106.771379,"distance":1614,"station_id":"PSG","is_transit":false,"time":2,"station_name":"Pesing"},{"i_lat":-6.162021,"i_long":106.788277,"is_transit":false,"transit":false,"station_name":"Grogol","line":5,"time":2,"station_id":"GGL","distance":2036},{"station_id":"DU","transit":true,"i_long":106.800832,"distance":1700,"is_transit":true,"station_name":"Duri","i_lat":-6.155215,"line":1,"time":3},{"line":1,"station_name":"Tanah Abang","transit":false,"is_transit":false,"time":8,"distance":3632,"station_id":"THB","i_long":106.811091,"i_lat":-6.185545},{"line":1,"station_name":"Karet","is_transit":false,"i_lat":-6.20132,"i_long":106.816351,"transit":false,"station_id":"KAT","time":5,"distance":2029},{"line":1,"distance":471,"i_long":106.819881,"transit":false,"is_transit":false,"station_name":"Sudirman Baru","station_id":"SUDB","time":1,"i_lat":-6.201433},{"station_id":"SUD","time":1,"distance":280,"i_lat":-6.202263,"station_name":"Sudirman","is_transit":false,"i_long":106.822649,"line":1,"transit":false},{"is_transit":false,"station_id":"MRI","station_name":"Manggarai","transit":false,"time":4,"i_lat":-6.209883,"i_long":106.84912,"line":2,"distance":3186},{"is_transit":false,"time":2,"station_id":"MTR","line":1,"transit":false,"i_lat":-6.212485,"station_name":"Matraman","distance":1275,"i_long":106.858896},{"is_transit":true,"distance":1377,"station_name":"Jatinegara","station_id":"JNG","line":1,"i_long":106.86807400000001,"time":8,"transit":true,"i_lat":-6.215091},{"i_lat":-6.209188,"is_transit":false,"i_long":106.861737,"transit":false,"line":11,"distance":1236,"station_name":"Pondok Jati","time":2,"station_id":"POK"},{"time":2,"station_name":"Kramat","distance":1829,"station_id":"KMT","i_lat":-6.193792,"i_long":106.855437,"line":11,"is_transit":false,"transit":false},{"time":1,"i_lat":-6.185975,"station_name":"Gang Sentiong","line":11,"is_transit":false,"transit":false,"station_id":"GST","i_long":106.850107,"distance":973},{"i_lat":-6.174784,"transit":false,"distance":1567,"is_transit":false,"line":11,"station_name":"Pasar Senen","i_long":106.84368,"time":8,"station_id":"PSE"},{"time":4,"station_name":"Kemayoran","station_id":"KMO","i_lat":-6.161728,"i_long":106.839204,"is_transit":false,"line":11,"transit":false,"distance":1436},{"line":11,"distance":1901,"is_transit":false,"station_id":"RJW","i_lat":-6.14505,"transit":false,"station_name":"Rajawali","time":5,"i_long":106.836569},{"station_name":"Kampung Bandan","line":4,"time":3,"transit":true,"i_long":106.826365,"station_id":"KPB","is_transit":true,"i_lat":-6.132549,"distance":1444},{"station_id":"JAKK","station_name":"Jakarta Kota","distance":1364,"transit":true,"is_transit":true,"i_lat":-6.137569,"time":3,"i_long":106.812439,"line":2},{"distance":1264,"station_id":"JAY","station_name":"Jayakarta","is_transit":false,"i_lat":-6.141205,"line":2,"time":4,"transit":false,"i_long":106.820901},{"is_transit":false,"station_id":"MGB","time":2,"i_long":106.82482,"station_name":"Manggabesar","i_lat":-6.149769,"distance":1080,"line":2,"transit":false},{"station_name":"Sawah Besar","i_long":106.827103,"time":2,"is_transit":false,"station_id":"SW","distance":906,"transit":false,"line":2,"i_lat":-6.160725},{"i_long":106.828284,"time":2,"distance":1149,"station_id":"JUA","transit":false,"is_transit":false,"line":2,"i_lat":-6.166716,"station_name":"Juanda"},{"line":2,"station_id":"GDD","distance":2015,"transit":false,"i_lat":-6.186295,"station_name":"Gondangdia","i_long":106.832183,"is_transit":false,"time":4}]]}