{"data":[[{"is_transit":false,"i_long":106.756522,"time":0,"line":5,"i_lat":-6.1587309999999995,"distance":0,"station_id":"TKO","transit":false,"station_name":"Taman Kota"},{"transit":false,"i_long":106.737035,"line":5,"station_id":"BOI","station_name":"Bojongindah","time":2,"is_transit":false,"distance":2334,"i_lat":-6.159876},{"station_name":"Rawa Buaya","i_lat":-6.162758,"i_long":106.723064,"station_id":"RW","transit":false,"line":5,"time":4,"is_transit":false,"distance":1152},{"line":5,"time":3,"station_name":"Kalideres","station_id":"KDS","is_transit":false,"transit":false,"i_lat":-6.166068,"i_long":106.701612,"distance":2504},{"time":3,"i_long":106.679458,"is_transit":false,"transit":false,"line":5,"i_lat":-6.169933,"distance":2548,"station_id":"PI","station_name":"Poris"},{"i_long":106.665036,"distance":1834,"station_id":"BPR","i_lat":-6.171811,"station_name":"Batuceper","transit":false,"is_transit":false,"time":3,"line":5}]]}