{"data":[[{"station_id":"TKO","i_long":106.756522,"station_name":"Taman Kota","time":0,"i_lat":-6.1587309999999995,"line":5,"distance":0,"transit":false,"is_transit":false},{"distance":1614,"time":2,"is_transit":false,"i_long":106.771379,"line":5,"station_id":"PSG","transit":false,"i_lat":-6.161433,"station_name":"Pesing"},{"station_name":"Grogol","line":5,"distance":2036,"time":2,"transit":false,"is_transit":false,"station_id":"GGL","i_lat":-6.162021,"i_long":106.788277},{"station_id":"DU","distance":1700,"transit":true,"is_transit":true,"time":3,"line":1,"i_lat":-6.155215,"station_name":"Duri","i_long":106.800832},{"time":4,"i_long":106.79867,"i_lat":-6.144674,"distance":1230,"is_transit":false,"station_id":"AK","station_name":"Angke","transit":false,"line":1},{"station_id":"KPB","distance":4102,"transit":true,"station_name":"Kampung Bandan","time":9,"is_transit":true,"i_lat":-6.132549,"i_long":106.826365,"line":4},{"station_id":"RJW","line":11,"i_lat":-6.14505,"time":3,"distance":1444,"is_transit":false,"transit":false,"i_long":106.836569,"station_name":"Rajawali"}],[{"i_long":106.756522,"line":5,"time":0,"i_lat":-6.1587309999999995,"is_transit":false,"distance":0,"station_id":"TKO","station_name":"Taman Kota","transit":false},{"time":2,"station_id":"PSG","is_transit":false,"i_lat":-6.161433,"i_long":106.771379,"transit":false,"distance":1614,"station_name":"Pesing","line":5},{"time":2,"line":5,"station_id":"GGL","station_name":"Grogol","distance":2036,"is_transit":false,"transit":false,"i_lat":-6.162021,"i_long":106.788277},{"station_id":"DU","time":3,"i_long":106.800832,"station_name":"Duri","is_transit":true,"i_lat":-6.155215,"distance":1700,"transit":true,"line":1},{"time":8,"station_name":"Tanah Abang","transit":false,"station_id":"THB","distance":3632,"is_transit":false,"i_long":106.811091,"i_lat":-6.185545,"line":1},{"station_name":"Karet","transit":false,"is_transit":false,"station_id":"KAT","i_lat":-6.20132,"distance":2029,"i_long":106.816351,"line":1,"time":5},{"transit":false,"i_long":106.819881,"time":1,"station_name":"Sudirman Baru","is_transit":false,"i_lat":-6.201433,"line":1,"distance":471,"station_id":"SUDB"},{"time":1,"distance":280,"station_name":"Sudirman","transit":false,"station_id":"SUD","is_transit":false,"i_long":106.822649,"i_lat":-6.202263,"line":1},{"i_lat":-6.209883,"time":4,"station_id":"MRI","i_long":106.84912,"line":2,"is_transit":false,"transit":false,"distance":3186,"station_name":"Manggarai"},{"distance":1275,"transit":false,"station_name":"Matraman","i_lat":-6.212485,"station_id":"MTR","i_long":106.858896,"line":1,"is_transit":false,"time":2},{"i_long":106.86807400000001,"line":1,"is_transit":true,"i_lat":-6.215091,"distance":1377,"station_id":"JNG","time":8,"transit":true,"station_name":"Jatinegara"},{"station_id":"POK","transit":false,"i_lat":-6.209188,"time":2,"line":11,"is_transit":false,"i_long":106.861737,"station_name":"Pondok Jati","distance":1236},{"distance":1829,"time":2,"station_name":"Kramat","line":11,"i_lat":-6.193792,"station_id":"KMT","transit":false,"i_long":106.855437,"is_transit":false},{"station_id":"GST","station_name":"Gang Sentiong","is_transit":false,"i_lat":-6.185975,"time":1,"i_long":106.850107,"line":11,"distance":973,"transit":false},{"i_long":106.84368,"station_name":"Pasar Senen","i_lat":-6.174784,"line":11,"station_id":"PSE","time":8,"transit":false,"is_transit":false,"distance":1567},{"station_id":"KMO","i_lat":-6.161728,"time":4,"is_transit":false,"transit":false,"distance":1436,"station_name":"Kemayoran","i_long":106.839204,"line":11},{"line":11,"station_id":"RJW","i_long":106.836569,"time":5,"transit":false,"is_transit":false,"i_lat":-6.14505,"distance":1901,"station_name":"Rajawali"}],[{"line":5,"station_id":"TKO","transit":false,"is_transit":false,"i_lat":-6.1587309999999995,"i_long":106.756522,"distance":0,"station_name":"Taman Kota","time":0},{"station_name":"Pesing","i_lat":-6.161433,"distance":1614,"time":2,"transit":false,"i_long":106.771379,"line":5,"station_id":"PSG","is_transit":false},{"i_long":106.788277,"time":2,"station_name":"Grogol","line":5,"is_transit":false,"station_id":"GGL","i_lat":-6.162021,"distance":2036,"transit":false},{"i_lat":-6.155215,"distance":1700,"is_transit":true,"time":3,"i_long":106.800832,"station_name":"Duri","transit":true,"line":1,"station_id":"DU"},{"line":1,"distance":3632,"time":8,"transit":false,"station_id":"THB","is_transit":false,"i_long":106.811091,"station_name":"Tanah Abang","i_lat":-6.185545},{"time":5,"distance":2029,"line":1,"transit":false,"station_id":"KAT","is_transit":false,"i_lat":-6.20132,"i_long":106.816351,"station_name":"Karet"},{"line":1,"station_id":"SUDB","station_name":"Sudirman Baru","transit":false,"i_lat":-6.201433,"distance":471,"is_transit":false,"i_long":106.819881,"time":1},{"station_id":"SUD","i_long":106.822649,"station_name":"Sudirman","time":1,"i_lat":-6.202263,"line":1,"transit":false,"distance":280,"is_transit":false},{"time":4,"i_long":106.84912,"line":2,"is_transit":true,"transit":true,"station_id":"MRI","station_name":"Manggarai","distance":3186,"i_lat":-6.209883},{"transit":false,"distance":1590,"time":4,"is_transit":false,"station_id":"CKI","i_lat":-6.198556,"i_long":106.840169,"line":2,"station_name":"Cikini"},{"distance":1750,"i_lat":-6.186295,"line":2,"is_transit":false,"station_name":"Gondangdia","time":3,"transit":false,"station_id":"GDD","i_long":106.832183},{"distance":2015,"is_transit":false,"time":4,"station_id":"JUA","i_long":106.828284,"line":2,"i_lat":-6.166716,"transit":false,"station_name":"Juanda"},{"is_transit":false,"transit":false,"time":2,"station_name":"Sawah Besar","line":2,"i_lat":-6.160725,"station_id":"SW","distance":1149,"i_long":106.827103},{"station_id":"MGB","time":2,"line":2,"i_long":106.82482,"station_name":"Manggabesar","transit":false,"is_transit":false,"distance":906,"i_lat":-6.149769},{"transit":false,"i_lat":-6.141205,"station_name":"Jayakarta","i_long":106.820901,"line":2,"time":2,"distance":1080,"station_id":"JAY","is_transit":false},{"station_name":"Jakarta Kota","is_transit":true,"i_long":106.812439,"transit":true,"i_lat":-6.137569,"line":2,"distance":1264,"station_id":"JAKK","time":4},{"station_id":"KPB","i_long":106.826365,"is_transit":true,"line":4,"station_name":"Kampung Bandan","distance":1364,"i_lat":-6.132549,"time":3,"transit":true},{"i_lat":-6.14505,"i_long":106.836569,"station_id":"RJW","is_transit":false,"time":3,"distance":1444,"station_name":"Rajawali","line":11,"transit":false}],[{"time":0,"i_lat":-6.1587309999999995,"station_name":"Taman Kota","transit":false,"line":5,"i_long":106.756522,"station_id":"TKO","distance":0,"is_transit":false},{"station_id":"PSG","transit":false,"i_long":106.771379,"time":2,"distance":1614,"i_lat":-6.161433,"is_transit":false,"station_name":"Pesing","line":5},{"i_lat":-6.162021,"station_name":"Grogol","is_transit":false,"distance":2036,"time":2,"line":5,"i_long":106.788277,"station_id":"GGL","transit":false},{"distance":1700,"station_id":"DU","time":3,"transit":true,"is_transit":true,"i_long":106.800832,"station_name":"Duri","i_lat":-6.155215,"line":1},{"is_transit":false,"i_lat":-6.144674,"time":4,"transit":false,"i_long":106.79867,"station_id":"AK","distance":1230,"station_name":"Angke","line":1},{"distance":4102,"i_lat":-6.132549,"line":4,"station_name":"Kampung Bandan","transit":true,"i_long":106.826365,"is_transit":true,"station_id":"KPB","time":9},{"time":3,"is_transit":true,"i_lat":-6.137569,"station_id":"JAKK","transit":true,"line":2,"i_long":106.812439,"station_name":"Jakarta Kota","distance":1364},{"is_transit":false,"station_id":"JAY","station_name":"Jayakarta","transit":false,"i_lat":-6.141205,"distance":1264,"time":4,"line":2,"i_long":106.820901},{"i_long":106.82482,"transit":false,"station_id":"MGB","line":2,"time":2,"i_lat":-6.149769,"distance":1080,"is_transit":false,"station_name":"Manggabesar"},{"line":2,"station_name":"Sawah Besar","time":2,"i_long":106.827103,"i_lat":-6.160725,"is_transit":false,"station_id":"SW","distance":906,"transit":false},{"station_name":"Juanda","i_lat":-6.166716,"line":2,"distance":1149,"transit":false,"time":2,"is_transit":false,"i_long":106.828284,"station_id":"JUA"},{"i_long":106.832183,"station_name":"Gondangdia","time":4,"i_lat":-6.186295,"line":2,"transit":false,"is_transit":false,"distance":2015,"station_id":"GDD"},{"i_long":106.840169,"distance":1750,"station_name":"Cikini","i_lat":-6.198556,"station_id":"CKI","time":3,"transit":false,"line":2,"is_transit":false},{"is_transit":true,"distance":1590,"i_lat":-6.209883,"i_long":106.84912,"transit":true,"line":2,"time":4,"station_id":"MRI","station_name":"Manggarai"},{"distance":1275,"station_id":"MTR","station_name":"Matraman","transit":false,"time":2,"is_transit":false,"i_lat":-6.212485,"i_long":106.858896,"line":1},{"line":1,"station_id":"JNG","time":8,"station_name":"Jatinegara","i_long":106.86807400000001,"distance":1377,"is_transit":true,"transit":true,"i_lat":-6.215091},{"line":11,"station_id":"POK","station_name":"Pondok Jati","transit":false,"is_transit":false,"time":2,"i_lat":-6.209188,"i_long":106.861737,"distance":1236},{"line":11,"station_name":"Kramat","time":2,"distance":1829,"i_lat":-6.193792,"is_transit":false,"station_id":"KMT","i_long":106.855437,"transit":false},{"i_lat":-6.185975,"i_long":106.850107,"time":1,"distance":973,"is_transit":false,"station_id":"GST","station_name":"Gang Sentiong","transit":false,"line":11},{"line":11,"time":8,"transit":false,"i_lat":-6.174784,"distance":1567,"station_name":"Pasar Senen","is_transit":false,"i_long":106.84368,"station_id":"PSE"},{"transit":false,"line":11,"i_lat":-6.161728,"distance":1436,"station_name":"Kemayoran","is_transit":false,"i_long":106.839204,"station_id":"KMO","time":4},{"is_transit":false,"time":5,"distance":1901,"station_name":"Rajawali","i_lat":-6.14505,"station_id":"RJW","transit":false,"line":11,"i_long":106.836569}]]}