{"data":[[{"station_name":"Taman Kota","i_lat":-6.1587309999999995,"line":5,"is_transit":false,"time":0,"station_id":"TKO","transit":false,"distance":0,"i_long":106.756522},{"transit":false,"i_long":106.771379,"station_name":"Pesing","is_transit":false,"i_lat":-6.161433,"time":2,"distance":1614,"station_id":"PSG","line":5},{"i_long":106.788277,"distance":2036,"time":2,"transit":false,"line":5,"station_id":"GRG","station_name":"Grogol","is_transit":false,"i_lat":-6.162021},{"station_name":"Duri","is_transit":true,"transit":true,"line":1,"station_id":"DU","i_lat":-6.155215,"i_long":106.800832,"time":3,"distance":1700},{"distance":3632,"i_long":106.811091,"station_id":"THB","station_name":"Tanah Abang","transit":false,"is_transit":false,"i_lat":-6.185545,"line":1,"time":8},{"distance":2029,"is_transit":false,"line":1,"station_id":"KAT","transit":false,"station_name":"Karet","time":5,"i_lat":-6.20132,"i_long":106.816351},{"time":1,"transit":false,"line":1,"station_id":"SUDB","distance":471,"station_name":"Sudirman Baru","i_lat":-6.201433,"i_long":106.819881,"is_transit":false},{"is_transit":false,"i_long":106.822649,"line":1,"time":1,"transit":false,"station_name":"Sudirman","distance":280,"station_id":"SUD","i_lat":-6.202263},{"line":2,"station_name":"Manggarai","distance":3186,"i_long":106.84912,"is_transit":true,"time":4,"transit":true,"i_lat":-6.209883,"station_id":"MRI"},{"transit":false,"i_lat":-6.226659,"time":4,"line":2,"distance":2610,"station_id":"TEB","station_name":"Tebet","is_transit":false,"i_long":106.857948},{"station_id":"CW","is_transit":false,"time":2,"distance":1230,"i_long":106.856607,"transit":false,"i_lat":-6.242512,"station_name":"Cawang","line":2},{"station_name":"Duren Kalibata","transit":false,"i_lat":-6.255332,"line":2,"station_id":"DRN","i_long":106.85449,"distance":1546,"time":3,"is_transit":false},{"distance":824,"i_long":106.851577,"line":2,"station_name":"Pasar Minggu Baru","i_lat":-6.263214,"time":2,"is_transit":false,"station_id":"PSMB","transit":false},{"i_lat":-6.2842400000000005,"line":2,"station_name":"Pasar Minggu","transit":false,"i_long":106.843999,"distance":2380,"is_transit":false,"station_id":"PSM","time":2},{"i_long":106.838896,"line":2,"distance":2820,"is_transit":false,"station_id":"TNT","transit":false,"i_lat":-6.3080680000000005,"time":4,"station_name":"Tanjung Barat"},{"transit":false,"station_id":"LNA","i_long":106.832616,"i_lat":-6.330363,"line":2,"time":3,"station_name":"Lenteng Agung","is_transit":false,"distance":2671}],[{"is_transit":false,"i_lat":-6.1587309999999995,"transit":false,"i_long":106.756522,"station_id":"TKO","distance":0,"line":5,"time":0,"station_name":"Taman Kota"},{"transit":false,"i_long":106.771379,"is_transit":false,"time":2,"station_id":"PSG","station_name":"Pesing","distance":1614,"line":5,"i_lat":-6.161433},{"line":5,"distance":2036,"station_name":"Grogol","time":2,"station_id":"GRG","is_transit":false,"transit":false,"i_lat":-6.162021,"i_long":106.788277},{"time":3,"transit":true,"i_lat":-6.155215,"is_transit":true,"station_name":"Duri","distance":1700,"line":1,"station_id":"DU","i_long":106.800832},{"station_id":"AK","i_lat":-6.144674,"time":4,"i_long":106.79867,"transit":false,"line":1,"distance":1230,"station_name":"Angke","is_transit":false},{"i_lat":-6.132549,"transit":true,"distance":4102,"line":4,"i_long":106.826365,"is_transit":true,"station_id":"KPB","time":9,"station_name":"Kampung Bandan"},{"time":3,"i_lat":-6.137569,"station_id":"JAKK","transit":true,"distance":1364,"station_name":"Jakarta Kota","i_long":106.812439,"is_transit":true,"line":2},{"time":4,"i_lat":-6.141205,"station_id":"JAY","i_long":106.820901,"line":2,"transit":false,"distance":1264,"is_transit":false,"station_name":"Jayakarta"},{"time":2,"i_lat":-6.149769,"transit":false,"distance":1080,"station_id":"MGB","is_transit":false,"line":2,"station_name":"Manggabesar","i_long":106.82482},{"i_lat":-6.160725,"is_transit":false,"transit":false,"line":2,"time":2,"station_name":"Sawah Besar","i_long":106.827103,"distance":906,"station_id":"SW"},{"i_long":106.828284,"is_transit":false,"time":2,"distance":1149,"line":2,"station_id":"JUA","i_lat":-6.166716,"station_name":"Juanda","transit":false},{"time":4,"i_lat":-6.186295,"station_id":"GDD","station_name":"Gondangdia","i_long":106.832183,"is_transit":false,"distance":2015,"transit":false,"line":2},{"transit":false,"i_lat":-6.198556,"station_id":"CKI","line":2,"station_name":"Cikini","time":3,"distance":1750,"i_long":106.840169,"is_transit":false},{"station_id":"MRI","transit":false,"is_transit":false,"distance":1590,"time":4,"station_name":"Manggarai","i_lat":-6.209883,"i_long":106.84912,"line":2},{"time":4,"is_transit":false,"transit":false,"i_lat":-6.226659,"line":2,"distance":2610,"i_long":106.857948,"station_name":"Tebet","station_id":"TEB"},{"line":2,"station_id":"CW","i_lat":-6.242512,"i_long":106.856607,"time":2,"distance":1230,"is_transit":false,"station_name":"Cawang","transit":false},{"line":2,"distance":1546,"time":3,"i_long":106.85449,"station_id":"DRN","station_name":"Duren Kalibata","is_transit":false,"transit":false,"i_lat":-6.255332},{"transit":false,"i_long":106.851577,"time":2,"i_lat":-6.263214,"distance":824,"station_name":"Pasar Minggu Baru","station_id":"PSMB","is_transit":false,"line":2},{"transit":false,"station_name":"Pasar Minggu","i_long":106.843999,"station_id":"PSM","distance":2380,"line":2,"i_lat":-6.2842400000000005,"time":2,"is_transit":false},{"is_transit":false,"distance":2820,"station_name":"Tanjung Barat","line":2,"i_lat":-6.3080680000000005,"i_long":106.838896,"time":4,"transit":false,"station_id":"TNT"},{"time":3,"station_name":"Lenteng Agung","i_lat":-6.330363,"i_long":106.832616,"is_transit":false,"station_id":"LNA","distance":2671,"transit":false,"line":2}],[{"transit":false,"is_transit":false,"time":0,"i_lat":-6.1587309999999995,"station_name":"Taman Kota","i_long":106.756522,"line":5,"distance":0,"station_id":"TKO"},{"station_id":"PSG","i_lat":-6.161433,"line":5,"station_name":"Pesing","distance":1614,"i_long":106.771379,"time":2,"transit":false,"is_transit":false},{"station_name":"Grogol","station_id":"GRG","distance":2036,"i_lat":-6.162021,"line":5,"i_long":106.788277,"time":2,"is_transit":false,"transit":false},{"transit":true,"station_name":"Duri","line":1,"is_transit":true,"time":3,"i_lat":-6.155215,"station_id":"DU","i_long":106.800832,"distance":1700},{"transit":false,"station_name":"Angke","is_transit":false,"distance":1230,"time":4,"i_lat":-6.144674,"i_long":106.79867,"station_id":"AK","line":1},{"station_name":"Kampung Bandan","i_long":106.826365,"time":9,"transit":true,"line":4,"i_lat":-6.132549,"distance":4102,"station_id":"KPB","is_transit":true},{"transit":false,"station_id":"RJW","is_transit":false,"station_name":"Rajawali","time":3,"distance":1444,"i_lat":-6.14505,"line":11,"i_long":106.836569},{"time":5,"i_long":106.839204,"station_name":"Kemayoran","i_lat":-6.161728,"is_transit":false,"transit":false,"distance":1901,"station_id":"KMO","line":11},{"i_lat":-6.174784,"line":11,"distance":1436,"station_id":"PSE","time":4,"i_long":106.84368,"station_name":"Pasar Senen","is_transit":false,"transit":false},{"distance":1567,"is_transit":false,"transit":false,"station_id":"GST","time":8,"station_name":"Gang Sentiong","i_lat":-6.185975,"line":11,"i_long":106.850107},{"time":1,"i_long":106.855437,"is_transit":false,"station_id":"KMT","i_lat":-6.193792,"distance":973,"transit":false,"line":11,"station_name":"Kramat"},{"is_transit":false,"distance":1829,"i_long":106.861737,"time":2,"station_name":"Pondok Jati","transit":false,"line":11,"station_id":"POK","i_lat":-6.209188},{"line":1,"time":9,"distance":1236,"i_lat":-6.215091,"is_transit":true,"station_id":"JNG","station_name":"Jatinegara","i_long":106.86807400000001,"transit":true},{"station_name":"Matraman","is_transit":false,"i_lat":-6.212485,"line":1,"station_id":"MTR","i_long":106.858896,"distance":1377,"time":2,"transit":false},{"i_long":106.84912,"line":2,"station_id":"MRI","distance":1275,"i_lat":-6.209883,"transit":true,"time":2,"station_name":"Manggarai","is_transit":true},{"is_transit":false,"distance":2610,"i_long":106.857948,"time":4,"station_name":"Tebet","station_id":"TEB","transit":false,"line":2,"i_lat":-6.226659},{"distance":1230,"station_id":"CW","time":2,"i_long":106.856607,"station_name":"Cawang","line":2,"is_transit":false,"i_lat":-6.242512,"transit":false},{"time":3,"is_transit":false,"station_name":"Duren Kalibata","station_id":"DRN","line":2,"distance":1546,"transit":false,"i_lat":-6.255332,"i_long":106.85449},{"is_transit":false,"i_lat":-6.263214,"i_long":106.851577,"line":2,"transit":false,"station_name":"Pasar Minggu Baru","station_id":"PSMB","distance":824,"time":2},{"line":2,"transit":false,"time":2,"is_transit":false,"station_id":"PSM","station_name":"Pasar Minggu","i_lat":-6.2842400000000005,"distance":2380,"i_long":106.843999},{"i_long":106.838896,"transit":false,"station_id":"TNT","line":2,"time":4,"distance":2820,"i_lat":-6.3080680000000005,"is_transit":false,"station_name":"Tanjung Barat"},{"station_name":"Lenteng Agung","station_id":"LNA","is_transit":false,"i_lat":-6.330363,"line":2,"i_long":106.832616,"transit":false,"distance":2671,"time":3}]]}