{"data":[[{"line":5,"transit":false,"station_name":"Taman Kota","is_transit":false,"station_id":"TKO","distance":0,"i_long":106.756522,"time":0,"i_lat":-6.1587309999999995},{"is_transit":false,"time":2,"station_name":"Pesing","i_lat":-6.161433,"line":5,"transit":false,"station_id":"PSG","i_long":106.771379,"distance":1614},{"distance":2036,"station_name":"Grogol","line":5,"time":2,"transit":false,"i_long":106.788277,"station_id":"GGL","is_transit":false,"i_lat":-6.162021},{"i_long":106.800832,"line":1,"transit":true,"i_lat":-6.155215,"time":3,"is_transit":true,"distance":1700,"station_name":"Duri","station_id":"DU"},{"i_lat":-6.185545,"line":1,"is_transit":false,"station_id":"THB","station_name":"Tanah Abang","distance":3632,"i_long":106.811091,"transit":false,"time":8},{"distance":2029,"line":1,"time":5,"i_long":106.816351,"station_id":"KAT","is_transit":false,"transit":false,"i_lat":-6.20132,"station_name":"Karet"},{"transit":false,"station_name":"Sudirman Baru","i_long":106.819881,"i_lat":-6.201433,"station_id":"SUDB","line":1,"distance":471,"time":1,"is_transit":false},{"i_long":106.822649,"station_id":"SUD","is_transit":false,"line":1,"station_name":"Sudirman","distance":280,"time":1,"i_lat":-6.202263,"transit":false},{"transit":true,"station_name":"Manggarai","station_id":"MRI","i_lat":-6.209883,"time":4,"i_long":106.84912,"is_transit":true,"distance":3186,"line":2},{"station_name":"Tebet","distance":2610,"time":4,"is_transit":false,"i_long":106.857948,"station_id":"TEB","line":2,"i_lat":-6.226659,"transit":false},{"i_long":106.856607,"time":2,"line":2,"distance":1230,"i_lat":-6.242512,"station_name":"Cawang","station_id":"CW","is_transit":false,"transit":false},{"line":2,"i_long":106.85449,"time":3,"i_lat":-6.255332,"is_transit":false,"station_id":"DRN","transit":false,"station_name":"Duren Kalibata","distance":1546},{"i_lat":-6.263214,"i_long":106.851577,"line":2,"station_name":"Pasar Minggu Baru","distance":824,"time":2,"is_transit":false,"station_id":"PSMB","transit":false},{"i_long":106.843999,"line":2,"station_id":"PSM","station_name":"Pasar Minggu","i_lat":-6.2842400000000005,"time":2,"is_transit":false,"distance":2380,"transit":false},{"i_long":106.838896,"is_transit":false,"i_lat":-6.3080680000000005,"distance":2820,"station_name":"Tanjung Barat","line":2,"time":4,"transit":false,"station_id":"TNT"},{"station_name":"Lenteng Agung","i_long":106.832616,"time":3,"is_transit":false,"transit":false,"i_lat":-6.330363,"line":2,"distance":2671,"station_id":"LNA"},{"is_transit":false,"station_name":"Univ. Pancasila","station_id":"UP","distance":1029,"transit":false,"i_lat":-6.339291,"i_long":106.834175,"line":2,"time":2},{"station_name":"Univ. Indonesia","line":2,"distance":2264,"station_id":"UI","transit":false,"time":3,"is_transit":false,"i_lat":-6.360749,"i_long":106.831474},{"is_transit":false,"station_id":"POC","station_name":"Pondok Cina","transit":false,"distance":1109,"line":2,"time":2,"i_lat":-6.369073,"i_long":106.831114},{"i_long":106.819451,"time":4,"station_id":"DPB","distance":2727,"is_transit":false,"i_lat":-6.391065,"transit":false,"line":2,"station_name":"Depokbaru"},{"i_long":106.816926,"time":3,"is_transit":false,"i_lat":-6.405256,"station_name":"Depok","line":2,"distance":1584,"transit":false,"station_id":"DP"},{"distance":5084,"station_name":"Citayam","time":6,"station_id":"CTA","is_transit":false,"i_long":106.800298,"line":2,"transit":false,"i_lat":-6.448811},{"is_transit":false,"station_name":"Bojonggede","line":2,"distance":5197,"station_id":"BJD","i_lat":-6.493243,"i_long":106.792719,"time":5,"transit":false}],[{"distance":0,"i_lat":-6.1587309999999995,"time":0,"is_transit":false,"station_id":"TKO","transit":false,"station_name":"Taman Kota","i_long":106.756522,"line":5},{"time":2,"line":5,"transit":false,"i_lat":-6.161433,"is_transit":false,"i_long":106.771379,"station_id":"PSG","distance":1614,"station_name":"Pesing"},{"station_name":"Grogol","i_lat":-6.162021,"is_transit":false,"i_long":106.788277,"transit":false,"distance":2036,"line":5,"time":2,"station_id":"GGL"},{"distance":1700,"i_lat":-6.155215,"i_long":106.800832,"time":3,"station_name":"Duri","is_transit":true,"line":1,"transit":true,"station_id":"DU"},{"station_id":"AK","time":4,"i_long":106.79867,"station_name":"Angke","line":1,"i_lat":-6.144674,"distance":1230,"is_transit":false,"transit":false},{"i_lat":-6.132549,"station_id":"KPB","i_long":106.826365,"distance":4102,"is_transit":true,"time":9,"transit":true,"station_name":"Kampung Bandan","line":4},{"i_lat":-6.137569,"i_long":106.812439,"station_id":"JAKK","transit":true,"station_name":"Jakarta Kota","is_transit":true,"distance":1364,"time":3,"line":2},{"transit":false,"i_lat":-6.141205,"distance":1264,"line":2,"i_long":106.820901,"station_name":"Jayakarta","time":4,"is_transit":false,"station_id":"JAY"},{"is_transit":false,"station_id":"MGB","i_long":106.82482,"line":2,"transit":false,"time":2,"distance":1080,"station_name":"Manggabesar","i_lat":-6.149769},{"transit":false,"time":2,"station_id":"SW","i_long":106.827103,"distance":906,"is_transit":false,"i_lat":-6.160725,"station_name":"Sawah Besar","line":2},{"time":2,"is_transit":false,"i_long":106.828284,"line":2,"transit":false,"station_id":"JUA","station_name":"Juanda","distance":1149,"i_lat":-6.166716},{"transit":false,"is_transit":false,"station_name":"Gondangdia","distance":2015,"time":4,"i_lat":-6.186295,"station_id":"GDD","i_long":106.832183,"line":2},{"i_long":106.840169,"is_transit":false,"station_name":"Cikini","time":3,"distance":1750,"transit":false,"line":2,"station_id":"CKI","i_lat":-6.198556},{"transit":false,"line":2,"station_id":"MRI","station_name":"Manggarai","is_transit":false,"i_long":106.84912,"time":4,"distance":1590,"i_lat":-6.209883},{"is_transit":false,"distance":2610,"transit":false,"line":2,"station_id":"TEB","i_lat":-6.226659,"time":4,"i_long":106.857948,"station_name":"Tebet"},{"line":2,"time":2,"distance":1230,"station_name":"Cawang","station_id":"CW","transit":false,"i_lat":-6.242512,"is_transit":false,"i_long":106.856607},{"time":3,"distance":1546,"i_long":106.85449,"line":2,"is_transit":false,"i_lat":-6.255332,"station_name":"Duren Kalibata","transit":false,"station_id":"DRN"},{"station_id":"PSMB","transit":false,"time":2,"distance":824,"station_name":"Pasar Minggu Baru","is_transit":false,"i_lat":-6.263214,"i_long":106.851577,"line":2},{"station_id":"PSM","time":2,"i_long":106.843999,"distance":2380,"line":2,"transit":false,"is_transit":false,"station_name":"Pasar Minggu","i_lat":-6.2842400000000005},{"line":2,"distance":2820,"station_name":"Tanjung Barat","time":4,"is_transit":false,"station_id":"TNT","transit":false,"i_lat":-6.3080680000000005,"i_long":106.838896},{"distance":2671,"is_transit":false,"transit":false,"i_lat":-6.330363,"station_name":"Lenteng Agung","i_long":106.832616,"line":2,"time":3,"station_id":"LNA"},{"station_id":"UP","transit":false,"station_name":"Univ. Pancasila","time":2,"i_long":106.834175,"i_lat":-6.339291,"distance":1029,"line":2,"is_transit":false},{"line":2,"transit":false,"distance":2264,"is_transit":false,"i_lat":-6.360749,"station_id":"UI","i_long":106.831474,"time":3,"station_name":"Univ. Indonesia"},{"distance":1109,"transit":false,"station_name":"Pondok Cina","station_id":"POC","i_lat":-6.369073,"is_transit":false,"time":2,"i_long":106.831114,"line":2},{"i_long":106.819451,"time":4,"station_name":"Depokbaru","line":2,"distance":2727,"is_transit":false,"transit":false,"i_lat":-6.391065,"station_id":"DPB"},{"station_id":"DP","time":3,"transit":false,"is_transit":false,"station_name":"Depok","i_lat":-6.405256,"line":2,"distance":1584,"i_long":106.816926},{"i_lat":-6.448811,"distance":5084,"is_transit":false,"station_id":"CTA","station_name":"Citayam","time":6,"line":2,"transit":false,"i_long":106.800298},{"station_name":"Bojonggede","transit":false,"i_long":106.792719,"distance":5197,"i_lat":-6.493243,"is_transit":false,"line":2,"time":5,"station_id":"BJD"}],[{"distance":0,"i_lat":-6.1587309999999995,"time":0,"is_transit":false,"transit":false,"i_long":106.756522,"line":5,"station_id":"TKO","station_name":"Taman Kota"},{"station_id":"PSG","station_name":"Pesing","is_transit":false,"line":5,"transit":false,"time":2,"distance":1614,"i_lat":-6.161433,"i_long":106.771379},{"i_long":106.788277,"is_transit":false,"station_id":"GGL","transit":false,"line":5,"time":2,"distance":2036,"station_name":"Grogol","i_lat":-6.162021},{"transit":true,"is_transit":true,"station_name":"Duri","distance":1700,"i_lat":-6.155215,"station_id":"DU","time":3,"i_long":106.800832,"line":1},{"station_id":"AK","time":4,"station_name":"Angke","line":1,"i_long":106.79867,"i_lat":-6.144674,"transit":false,"is_transit":false,"distance":1230},{"i_long":106.826365,"i_lat":-6.132549,"distance":4102,"line":4,"time":9,"transit":true,"is_transit":true,"station_name":"Kampung Bandan","station_id":"KPB"},{"i_lat":-6.14505,"line":11,"transit":false,"station_name":"Rajawali","distance":1444,"station_id":"RJW","time":3,"is_transit":false,"i_long":106.836569},{"time":5,"transit":false,"i_lat":-6.161728,"is_transit":false,"station_id":"KMO","line":11,"station_name":"Kemayoran","distance":1901,"i_long":106.839204},{"transit":false,"station_name":"Pasar Senen","station_id":"PSE","line":11,"distance":1436,"i_lat":-6.174784,"time":4,"i_long":106.84368,"is_transit":false},{"distance":1567,"i_lat":-6.185975,"transit":false,"time":8,"is_transit":false,"station_id":"GST","line":11,"station_name":"Gang Sentiong","i_long":106.850107},{"i_long":106.855437,"time":1,"station_id":"KMT","transit":false,"station_name":"Kramat","line":11,"i_lat":-6.193792,"distance":973,"is_transit":false},{"time":2,"i_lat":-6.209188,"is_transit":false,"station_name":"Pondok Jati","transit":false,"distance":1829,"i_long":106.861737,"line":11,"station_id":"POK"},{"i_long":106.86807400000001,"station_id":"JNG","transit":true,"i_lat":-6.215091,"time":9,"station_name":"Jatinegara","distance":1236,"is_transit":true,"line":1},{"is_transit":false,"station_name":"Matraman","i_long":106.858896,"station_id":"MTR","transit":false,"time":2,"line":1,"i_lat":-6.212485,"distance":1377},{"station_id":"MRI","is_transit":true,"i_lat":-6.209883,"line":2,"distance":1275,"i_long":106.84912,"time":2,"station_name":"Manggarai","transit":true},{"i_lat":-6.226659,"time":4,"station_name":"Tebet","station_id":"TEB","is_transit":false,"transit":false,"distance":2610,"i_long":106.857948,"line":2},{"station_name":"Cawang","distance":1230,"line":2,"transit":false,"i_long":106.856607,"time":2,"is_transit":false,"i_lat":-6.242512,"station_id":"CW"},{"time":3,"transit":false,"distance":1546,"is_transit":false,"station_name":"Duren Kalibata","station_id":"DRN","i_lat":-6.255332,"line":2,"i_long":106.85449},{"station_name":"Pasar Minggu Baru","line":2,"station_id":"PSMB","i_lat":-6.263214,"is_transit":false,"distance":824,"transit":false,"i_long":106.851577,"time":2},{"i_lat":-6.2842400000000005,"is_transit":false,"station_name":"Pasar Minggu","transit":false,"station_id":"PSM","i_long":106.843999,"time":2,"distance":2380,"line":2},{"line":2,"i_lat":-6.3080680000000005,"distance":2820,"is_transit":false,"time":4,"station_id":"TNT","transit":false,"station_name":"Tanjung Barat","i_long":106.838896},{"distance":2671,"i_lat":-6.330363,"i_long":106.832616,"transit":false,"time":3,"station_name":"Lenteng Agung","station_id":"LNA","is_transit":false,"line":2},{"i_long":106.834175,"distance":1029,"transit":false,"station_name":"Univ. Pancasila","line":2,"time":2,"station_id":"UP","is_transit":false,"i_lat":-6.339291},{"i_long":106.831474,"i_lat":-6.360749,"distance":2264,"time":3,"is_transit":false,"line":2,"transit":false,"station_name":"Univ. Indonesia","station_id":"UI"},{"is_transit":false,"transit":false,"i_lat":-6.369073,"station_id":"POC","time":2,"i_long":106.831114,"line":2,"distance":1109,"station_name":"Pondok Cina"},{"station_id":"DPB","station_name":"Depokbaru","distance":2727,"line":2,"time":4,"transit":false,"is_transit":false,"i_lat":-6.391065,"i_long":106.819451},{"i_lat":-6.405256,"distance":1584,"station_name":"Depok","i_long":106.816926,"time":3,"station_id":"DP","line":2,"is_transit":false,"transit":false},{"time":6,"station_name":"Citayam","i_lat":-6.448811,"transit":false,"i_long":106.800298,"is_transit":false,"distance":5084,"station_id":"CTA","line":2},{"distance":5197,"i_long":106.792719,"line":2,"station_id":"BJD","i_lat":-6.493243,"time":5,"station_name":"Bojonggede","is_transit":false,"transit":false}]]}