{"data":[[{"transit":false,"is_transit":false,"time":0,"distance":0,"i_lat":-6.1587309999999995,"station_id":"TKO","line":5,"station_name":"Taman Kota","i_long":106.756522},{"station_id":"PSG","is_transit":false,"line":5,"time":2,"i_long":106.771379,"i_lat":-6.161433,"transit":false,"station_name":"Pesing","distance":1614},{"is_transit":false,"line":5,"i_long":106.788277,"i_lat":-6.162021,"transit":false,"station_name":"Grogol","time":2,"distance":2036,"station_id":"GGL"},{"time":3,"i_long":106.800832,"i_lat":-6.155215,"station_id":"DU","station_name":"Duri","distance":1700,"line":1,"is_transit":true,"transit":true},{"distance":3632,"transit":false,"i_lat":-6.185545,"station_id":"THB","time":8,"station_name":"Tanah Abang","i_long":106.811091,"line":1,"is_transit":false},{"is_transit":false,"time":5,"i_lat":-6.20132,"station_name":"Karet","transit":false,"station_id":"KAT","distance":2029,"i_long":106.816351,"line":1},{"i_lat":-6.201433,"i_long":106.819881,"transit":false,"distance":471,"time":1,"line":1,"is_transit":false,"station_id":"SUDB","station_name":"Sudirman Baru"},{"station_name":"Sudirman","distance":280,"transit":false,"i_long":106.822649,"line":1,"is_transit":false,"station_id":"SUD","time":1,"i_lat":-6.202263},{"i_long":106.84912,"transit":true,"distance":3186,"line":2,"station_id":"MRI","station_name":"Manggarai","is_transit":true,"time":4,"i_lat":-6.209883},{"i_lat":-6.198556,"i_long":106.840169,"time":4,"is_transit":false,"station_id":"CKI","station_name":"Cikini","distance":1590,"transit":false,"line":2},{"station_id":"GDD","i_long":106.832183,"transit":false,"line":2,"is_transit":false,"distance":1750,"time":3,"station_name":"Gondangdia","i_lat":-6.186295}],[{"transit":false,"time":0,"i_long":106.756522,"station_id":"TKO","line":5,"station_name":"Taman Kota","i_lat":-6.1587309999999995,"is_transit":false,"distance":0},{"i_lat":-6.161433,"station_name":"Pesing","station_id":"PSG","time":2,"distance":1614,"is_transit":false,"line":5,"i_long":106.771379,"transit":false},{"i_long":106.788277,"transit":false,"is_transit":false,"time":2,"station_id":"GGL","line":5,"station_name":"Grogol","distance":2036,"i_lat":-6.162021},{"i_lat":-6.155215,"transit":true,"is_transit":true,"i_long":106.800832,"line":1,"time":3,"distance":1700,"station_name":"Duri","station_id":"DU"},{"i_lat":-6.144674,"line":1,"time":4,"i_long":106.79867,"station_name":"Angke","transit":false,"station_id":"AK","distance":1230,"is_transit":false},{"time":9,"distance":4102,"is_transit":true,"i_lat":-6.132549,"station_name":"Kampung Bandan","i_long":106.826365,"transit":true,"station_id":"KPB","line":4},{"station_name":"Jakarta Kota","i_long":106.812439,"station_id":"JAKK","transit":true,"distance":1364,"time":3,"line":2,"is_transit":true,"i_lat":-6.137569},{"is_transit":false,"line":2,"i_lat":-6.141205,"distance":1264,"transit":false,"station_name":"Jayakarta","time":4,"i_long":106.820901,"station_id":"JAY"},{"i_lat":-6.149769,"station_id":"MGB","distance":1080,"line":2,"station_name":"Manggabesar","is_transit":false,"i_long":106.82482,"transit":false,"time":2},{"distance":906,"line":2,"station_name":"Sawah Besar","station_id":"SW","is_transit":false,"transit":false,"i_lat":-6.160725,"time":2,"i_long":106.827103},{"is_transit":false,"i_lat":-6.166716,"time":2,"line":2,"station_name":"Juanda","transit":false,"station_id":"JUA","distance":1149,"i_long":106.828284},{"i_long":106.832183,"is_transit":false,"line":2,"station_id":"GDD","station_name":"Gondangdia","i_lat":-6.186295,"transit":false,"time":4,"distance":2015}],[{"station_id":"TKO","distance":0,"station_name":"Taman Kota","i_lat":-6.1587309999999995,"line":5,"time":0,"i_long":106.756522,"transit":false,"is_transit":false},{"i_long":106.771379,"time":2,"line":5,"transit":false,"distance":1614,"i_lat":-6.161433,"station_name":"Pesing","is_transit":false,"station_id":"PSG"},{"station_name":"Grogol","is_transit":false,"i_lat":-6.162021,"line":5,"station_id":"GGL","i_long":106.788277,"transit":false,"time":2,"distance":2036},{"distance":1700,"i_lat":-6.155215,"station_id":"DU","is_transit":true,"station_name":"Duri","line":1,"transit":true,"time":3,"i_long":106.800832},{"line":1,"i_long":106.79867,"station_name":"Angke","is_transit":false,"station_id":"AK","transit":false,"time":4,"distance":1230,"i_lat":-6.144674},{"transit":true,"station_name":"Kampung Bandan","time":9,"station_id":"KPB","i_long":106.826365,"line":4,"distance":4102,"is_transit":true,"i_lat":-6.132549},{"transit":false,"line":11,"i_lat":-6.14505,"i_long":106.836569,"station_id":"RJW","is_transit":false,"station_name":"Rajawali","distance":1444,"time":3},{"distance":1901,"is_transit":false,"station_id":"KMO","transit":false,"station_name":"Kemayoran","i_lat":-6.161728,"i_long":106.839204,"time":5,"line":11},{"i_lat":-6.174784,"station_id":"PSE","time":4,"i_long":106.84368,"distance":1436,"transit":false,"station_name":"Pasar Senen","is_transit":false,"line":11},{"station_name":"Gang Sentiong","station_id":"GST","is_transit":false,"time":8,"i_long":106.850107,"transit":false,"line":11,"distance":1567,"i_lat":-6.185975},{"distance":973,"station_name":"Kramat","station_id":"KMT","is_transit":false,"time":1,"transit":false,"i_long":106.855437,"i_lat":-6.193792,"line":11},{"station_id":"POK","is_transit":false,"i_long":106.861737,"time":2,"station_name":"Pondok Jati","line":11,"transit":false,"distance":1829,"i_lat":-6.209188},{"transit":true,"time":9,"i_long":106.86807400000001,"distance":1236,"i_lat":-6.215091,"station_name":"Jatinegara","line":1,"station_id":"JNG","is_transit":true},{"station_name":"Matraman","time":2,"station_id":"MTR","is_transit":false,"line":1,"i_long":106.858896,"distance":1377,"transit":false,"i_lat":-6.212485},{"distance":1275,"i_lat":-6.209883,"station_id":"MRI","transit":true,"line":2,"station_name":"Manggarai","i_long":106.84912,"is_transit":true,"time":2},{"station_id":"CKI","transit":false,"is_transit":false,"time":4,"line":2,"i_lat":-6.198556,"station_name":"Cikini","distance":1590,"i_long":106.840169},{"station_name":"Gondangdia","time":3,"distance":1750,"line":2,"i_lat":-6.186295,"station_id":"GDD","transit":false,"is_transit":false,"i_long":106.832183}],[{"time":0,"station_name":"Taman Kota","i_lat":-6.1587309999999995,"station_id":"TKO","line":5,"i_long":106.756522,"transit":false,"is_transit":false,"distance":0},{"station_name":"Pesing","i_lat":-6.161433,"time":2,"line":5,"transit":false,"i_long":106.771379,"is_transit":false,"station_id":"PSG","distance":1614},{"transit":false,"station_name":"Grogol","is_transit":false,"station_id":"GGL","i_lat":-6.162021,"time":2,"i_long":106.788277,"line":5,"distance":2036},{"line":1,"station_id":"DU","i_long":106.800832,"transit":true,"i_lat":-6.155215,"time":3,"station_name":"Duri","distance":1700,"is_transit":true},{"i_lat":-6.185545,"is_transit":false,"distance":3632,"i_long":106.811091,"line":1,"transit":false,"station_name":"Tanah Abang","time":8,"station_id":"THB"},{"time":5,"i_lat":-6.20132,"station_id":"KAT","i_long":106.816351,"transit":false,"station_name":"Karet","distance":2029,"line":1,"is_transit":false},{"is_transit":false,"time":1,"transit":false,"i_long":106.819881,"station_name":"Sudirman Baru","line":1,"i_lat":-6.201433,"station_id":"SUDB","distance":471},{"station_name":"Sudirman","is_transit":false,"line":1,"transit":false,"station_id":"SUD","distance":280,"time":1,"i_lat":-6.202263,"i_long":106.822649},{"station_id":"MRI","is_transit":false,"i_long":106.84912,"station_name":"Manggarai","transit":false,"line":2,"distance":3186,"i_lat":-6.209883,"time":4},{"i_long":106.858896,"station_id":"MTR","is_transit":false,"line":1,"i_lat":-6.212485,"time":2,"station_name":"Matraman","distance":1275,"transit":false},{"i_lat":-6.215091,"transit":true,"time":8,"line":1,"distance":1377,"is_transit":true,"station_name":"Jatinegara","station_id":"JNG","i_long":106.86807400000001},{"station_id":"POK","transit":false,"station_name":"Pondok Jati","distance":1236,"line":11,"i_long":106.861737,"is_transit":false,"time":2,"i_lat":-6.209188},{"station_name":"Kramat","distance":1829,"line":11,"station_id":"KMT","i_lat":-6.193792,"time":2,"is_transit":false,"i_long":106.855437,"transit":false},{"distance":973,"i_lat":-6.185975,"i_long":106.850107,"station_id":"GST","is_transit":false,"line":11,"station_name":"Gang Sentiong","time":1,"transit":false},{"station_name":"Pasar Senen","i_lat":-6.174784,"time":8,"transit":false,"is_transit":false,"i_long":106.84368,"line":11,"station_id":"PSE","distance":1567},{"station_name":"Kemayoran","distance":1436,"station_id":"KMO","i_long":106.839204,"line":11,"is_transit":false,"i_lat":-6.161728,"transit":false,"time":4},{"is_transit":false,"time":5,"station_name":"Rajawali","i_long":106.836569,"distance":1901,"transit":false,"station_id":"RJW","i_lat":-6.14505,"line":11},{"station_id":"KPB","is_transit":true,"line":4,"i_lat":-6.132549,"i_long":106.826365,"distance":1444,"time":3,"station_name":"Kampung Bandan","transit":true},{"time":3,"i_long":106.812439,"line":2,"station_id":"JAKK","i_lat":-6.137569,"is_transit":true,"transit":true,"station_name":"Jakarta Kota","distance":1364},{"station_id":"JAY","is_transit":false,"distance":1264,"i_long":106.820901,"time":4,"transit":false,"station_name":"Jayakarta","i_lat":-6.141205,"line":2},{"i_lat":-6.149769,"distance":1080,"station_id":"MGB","is_transit":false,"transit":false,"i_long":106.82482,"line":2,"time":2,"station_name":"Manggabesar"},{"i_lat":-6.160725,"station_name":"Sawah Besar","line":2,"is_transit":false,"i_long":106.827103,"station_id":"SW","transit":false,"time":2,"distance":906},{"line":2,"i_lat":-6.166716,"station_name":"Juanda","transit":false,"is_transit":false,"time":2,"distance":1149,"i_long":106.828284,"station_id":"JUA"},{"station_name":"Gondangdia","distance":2015,"transit":false,"line":2,"station_id":"GDD","i_long":106.832183,"time":4,"is_transit":false,"i_lat":-6.186295}]]}