{"data":[[{"distance":0,"i_long":106.756522,"is_transit":false,"time":0,"transit":false,"station_name":"Taman Kota","i_lat":-6.1587309999999995,"line":5,"station_id":"TKO"},{"distance":1614,"is_transit":false,"line":5,"i_lat":-6.161433,"time":2,"station_name":"Pesing","transit":false,"station_id":"PSG","i_long":106.771379},{"station_name":"Grogol","station_id":"GGL","transit":false,"is_transit":false,"time":2,"distance":2036,"line":5,"i_lat":-6.162021,"i_long":106.788277},{"is_transit":true,"station_name":"Duri","station_id":"DU","time":3,"line":1,"transit":true,"distance":1700,"i_lat":-6.155215,"i_long":106.800832},{"is_transit":true,"station_id":"THB","i_lat":-6.185545,"line":1,"transit":true,"distance":3632,"time":8,"station_name":"Tanah Abang","i_long":106.811091},{"station_name":"Palmerah","time":6,"distance":3191,"is_transit":false,"station_id":"PLM","transit":false,"i_lat":-6.207404,"line":6,"i_long":106.79689},{"i_long":106.780334,"transit":false,"station_name":"Kebayoran","time":7,"is_transit":false,"distance":3737,"station_id":"KBY","line":6,"i_lat":-6.237242},{"station_name":"Pondokranji","distance":6218,"i_long":106.74273,"line":6,"time":8,"is_transit":false,"station_id":"PDJ","transit":false,"i_lat":-6.276362},{"line":6,"time":3,"transit":false,"i_lat":-6.288927,"distance":2179,"is_transit":false,"station_id":"JMU","i_long":106.728916,"station_name":"Jurangmangu"},{"station_name":"Sudimara","i_long":106.712277,"is_transit":false,"station_id":"SDM","distance":1994,"transit":false,"line":6,"i_lat":-6.296963,"time":4},{"time":6,"distance":4566,"i_long":106.675475,"station_id":"RU","transit":false,"i_lat":-6.314823,"line":6,"station_name":"Rawa Buntu","is_transit":false},{"transit":false,"station_name":"Serpong","i_long":106.66566,"line":6,"distance":2413,"is_transit":false,"time":4,"i_lat":-6.319871,"station_id":"SRP"}],[{"i_lat":-6.1587309999999995,"line":5,"transit":false,"distance":0,"station_name":"Taman Kota","station_id":"TKO","is_transit":false,"i_long":106.756522,"time":0},{"time":2,"distance":1614,"is_transit":false,"station_id":"PSG","transit":false,"i_lat":-6.161433,"i_long":106.771379,"line":5,"station_name":"Pesing"},{"i_lat":-6.162021,"is_transit":false,"station_id":"GGL","time":2,"line":5,"i_long":106.788277,"station_name":"Grogol","transit":false,"distance":2036},{"station_name":"Duri","distance":1700,"i_lat":-6.155215,"transit":true,"time":3,"line":1,"is_transit":true,"i_long":106.800832,"station_id":"DU"},{"is_transit":false,"station_id":"AK","transit":false,"i_long":106.79867,"station_name":"Angke","time":4,"i_lat":-6.144674,"line":0,"distance":1230},{"time":9,"is_transit":true,"station_name":"Kampung Bandan","i_lat":-6.132549,"distance":4102,"station_id":"KPB","transit":false,"line":0,"i_long":106.826365},{"transit":true,"station_id":"JAKK","i_lat":-6.137569,"time":3,"i_long":106.812439,"distance":1364,"station_name":"Jakarta Kota","line":0,"is_transit":true},{"is_transit":false,"station_name":"Jayakarta","station_id":"JAY","line":7,"i_lat":-6.141205,"distance":1264,"transit":false,"i_long":106.820901,"time":4},{"i_lat":-6.149769,"station_name":"Manggabesar","station_id":"MGB","is_transit":false,"transit":false,"time":2,"i_long":106.82482,"line":2,"distance":1080},{"i_lat":-6.160725,"is_transit":false,"i_long":106.827103,"line":2,"distance":906,"station_id":"SW","station_name":"Sawah Besar","transit":false,"time":2},{"distance":1149,"time":2,"is_transit":false,"i_long":106.828284,"station_id":"JUA","i_lat":-6.166716,"station_name":"Juanda","transit":false,"line":2},{"time":4,"i_long":106.832183,"distance":2015,"station_name":"Gondangdia","line":2,"i_lat":-6.186295,"station_id":"GDD","transit":false,"is_transit":false},{"station_name":"Cikini","transit":false,"i_lat":-6.198556,"time":3,"i_long":106.840169,"distance":1750,"line":0,"is_transit":false,"station_id":"CKI"},{"transit":true,"distance":1590,"time":4,"is_transit":true,"line":0,"station_name":"Manggarai","i_long":106.84912,"i_lat":-6.209883,"station_id":"MRI"},{"is_transit":false,"station_id":"SUD","station_name":"Sudirman","transit":false,"time":4,"line":1,"i_lat":-6.202263,"i_long":106.822649,"distance":3186},{"is_transit":false,"station_id":"SUDB","station_name":"Sudirman Baru","transit":false,"i_long":106.819881,"line":1,"time":1,"i_lat":-6.201433,"distance":280},{"distance":471,"i_lat":-6.20132,"time":1,"transit":false,"station_id":"KAT","station_name":"Karet","i_long":106.816351,"line":1,"is_transit":false},{"i_lat":-6.185545,"is_transit":true,"station_name":"Tanah Abang","i_long":106.811091,"line":1,"time":5,"transit":true,"station_id":"THB","distance":2029},{"is_transit":false,"transit":false,"i_long":106.79689,"time":6,"station_id":"PLM","line":6,"station_name":"Palmerah","distance":3191,"i_lat":-6.207404},{"time":7,"station_id":"KBY","station_name":"Kebayoran","i_lat":-6.237242,"i_long":106.780334,"line":6,"distance":3737,"is_transit":false,"transit":false},{"i_long":106.74273,"line":6,"is_transit":false,"transit":false,"station_name":"Pondokranji","i_lat":-6.276362,"time":8,"station_id":"PDJ","distance":6218},{"station_name":"Jurangmangu","station_id":"JMU","transit":false,"i_lat":-6.288927,"i_long":106.728916,"distance":2179,"is_transit":false,"time":3,"line":6},{"time":4,"is_transit":false,"distance":1994,"transit":false,"line":6,"i_lat":-6.296963,"station_id":"SDM","station_name":"Sudimara","i_long":106.712277},{"i_long":106.675475,"i_lat":-6.314823,"distance":4566,"station_id":"RU","is_transit":false,"station_name":"Rawa Buntu","line":6,"transit":false,"time":6},{"line":6,"time":4,"is_transit":false,"transit":false,"i_lat":-6.319871,"distance":2413,"station_name":"Serpong","i_long":106.66566,"station_id":"SRP"}],[{"i_lat":-6.1587309999999995,"distance":0,"station_id":"TKO","is_transit":false,"station_name":"Taman Kota","line":5,"transit":false,"time":0,"i_long":106.756522},{"transit":false,"i_long":106.771379,"time":2,"distance":1614,"station_id":"PSG","is_transit":false,"station_name":"Pesing","i_lat":-6.161433,"line":5},{"is_transit":false,"station_id":"GGL","i_lat":-6.162021,"transit":false,"distance":2036,"line":5,"station_name":"Grogol","time":2,"i_long":106.788277},{"transit":true,"is_transit":true,"i_lat":-6.155215,"station_name":"Duri","distance":1700,"station_id":"DU","time":3,"line":1,"i_long":106.800832},{"station_name":"Angke","i_long":106.79867,"is_transit":false,"time":4,"station_id":"AK","line":0,"transit":false,"distance":1230,"i_lat":-6.144674},{"distance":4102,"i_long":106.826365,"station_name":"Kampung Bandan","line":0,"station_id":"KPB","is_transit":true,"transit":true,"time":9,"i_lat":-6.132549},{"transit":false,"is_transit":false,"station_id":"RJW","i_lat":-6.14505,"line":11,"i_long":106.836569,"distance":1444,"station_name":"Rajawali","time":3},{"line":11,"i_lat":-6.161728,"transit":false,"station_name":"Kemayoran","station_id":"KMO","distance":1901,"i_long":106.839204,"time":5,"is_transit":false},{"i_long":106.84368,"station_id":"PSE","i_lat":-6.174784,"line":11,"station_name":"Pasar Senen","is_transit":false,"distance":1436,"transit":false,"time":4},{"line":11,"is_transit":false,"time":8,"i_long":106.850107,"station_name":"Gang Sentiong","i_lat":-6.185975,"transit":false,"distance":1567,"station_id":"GST"},{"station_name":"Kramat","i_lat":-6.193792,"station_id":"KMT","transit":false,"time":1,"i_long":106.855437,"line":11,"distance":973,"is_transit":false},{"station_id":"POK","i_long":106.861737,"is_transit":false,"i_lat":-6.209188,"time":2,"distance":1829,"line":11,"transit":false,"station_name":"Pondok Jati"},{"i_lat":-6.215091,"station_name":"Jatinegara","transit":true,"time":9,"i_long":106.86807400000001,"is_transit":true,"line":0,"distance":1236,"station_id":"JNG"},{"distance":1377,"is_transit":false,"i_lat":-6.212485,"station_name":"Matraman","i_long":106.858896,"transit":false,"line":1,"time":2,"station_id":"MTR"},{"station_id":"MRI","is_transit":true,"transit":false,"time":2,"i_lat":-6.209883,"line":0,"distance":1275,"station_name":"Manggarai","i_long":106.84912},{"transit":false,"is_transit":false,"distance":3186,"line":1,"i_lat":-6.202263,"i_long":106.822649,"station_id":"SUD","station_name":"Sudirman","time":4},{"i_lat":-6.201433,"line":1,"distance":280,"is_transit":false,"station_id":"SUDB","transit":false,"time":1,"i_long":106.819881,"station_name":"Sudirman Baru"},{"station_id":"KAT","i_long":106.816351,"is_transit":false,"i_lat":-6.20132,"time":1,"station_name":"Karet","transit":false,"line":1,"distance":471},{"station_id":"THB","i_lat":-6.185545,"line":1,"station_name":"Tanah Abang","is_transit":true,"time":5,"i_long":106.811091,"transit":true,"distance":2029},{"distance":3191,"i_long":106.79689,"line":6,"is_transit":false,"i_lat":-6.207404,"station_name":"Palmerah","station_id":"PLM","time":6,"transit":false},{"i_long":106.780334,"i_lat":-6.237242,"distance":3737,"line":6,"is_transit":false,"station_id":"KBY","transit":false,"time":7,"station_name":"Kebayoran"},{"distance":6218,"station_id":"PDJ","i_lat":-6.276362,"line":6,"station_name":"Pondokranji","time":8,"i_long":106.74273,"transit":false,"is_transit":false},{"is_transit":false,"station_id":"JMU","line":6,"transit":false,"time":3,"i_long":106.728916,"i_lat":-6.288927,"distance":2179,"station_name":"Jurangmangu"},{"distance":1994,"is_transit":false,"station_name":"Sudimara","station_id":"SDM","i_lat":-6.296963,"time":4,"line":6,"i_long":106.712277,"transit":false},{"station_id":"RU","is_transit":false,"i_long":106.675475,"distance":4566,"station_name":"Rawa Buntu","line":6,"i_lat":-6.314823,"transit":false,"time":6},{"is_transit":false,"i_lat":-6.319871,"station_id":"SRP","time":4,"line":6,"station_name":"Serpong","distance":2413,"transit":false,"i_long":106.66566}]]}