{"data":[[{"transit":false,"time":0,"i_lat":-6.1587309999999995,"station_name":"Taman Kota","station_id":"TKO","is_transit":false,"distance":0,"i_long":106.756522,"line":5},{"i_long":106.771379,"station_id":"PSG","i_lat":-6.161433,"transit":false,"time":2,"is_transit":false,"line":5,"distance":1614,"station_name":"Pesing"},{"station_id":"GGL","station_name":"Grogol","distance":2036,"is_transit":false,"i_lat":-6.162021,"transit":false,"i_long":106.788277,"time":2,"line":5},{"line":1,"transit":true,"is_transit":true,"i_lat":-6.155215,"distance":1700,"time":3,"station_id":"DU","i_long":106.800832,"station_name":"Duri"},{"i_long":106.79867,"is_transit":false,"station_name":"Angke","station_id":"AK","distance":1230,"time":4,"i_lat":-6.144674,"transit":false,"line":1},{"is_transit":true,"line":4,"station_name":"Kampung Bandan","distance":4102,"i_long":106.826365,"station_id":"KPB","i_lat":-6.132549,"time":9,"transit":true},{"time":3,"is_transit":false,"distance":1364,"transit":false,"station_id":"JAKK","i_lat":-6.137569,"i_long":106.812439,"station_name":"Jakarta Kota","line":2}],[{"is_transit":false,"i_long":106.756522,"time":0,"transit":false,"station_name":"Taman Kota","i_lat":-6.1587309999999995,"distance":0,"line":5,"station_id":"TKO"},{"transit":false,"station_name":"Pesing","i_lat":-6.161433,"time":2,"i_long":106.771379,"is_transit":false,"line":5,"distance":1614,"station_id":"PSG"},{"line":5,"transit":false,"time":2,"i_lat":-6.162021,"is_transit":false,"station_name":"Grogol","station_id":"GGL","distance":2036,"i_long":106.788277},{"transit":true,"time":3,"distance":1700,"station_name":"Duri","i_long":106.800832,"line":1,"station_id":"DU","i_lat":-6.155215,"is_transit":true},{"is_transit":false,"time":8,"transit":false,"i_long":106.811091,"distance":3632,"station_name":"Tanah Abang","line":1,"station_id":"THB","i_lat":-6.185545},{"transit":false,"line":1,"is_transit":false,"distance":2029,"station_id":"KAT","time":5,"station_name":"Karet","i_lat":-6.20132,"i_long":106.816351},{"station_id":"SUDB","i_long":106.819881,"transit":false,"line":1,"is_transit":false,"distance":471,"time":1,"station_name":"Sudirman Baru","i_lat":-6.201433},{"transit":false,"line":1,"i_long":106.822649,"station_id":"SUD","is_transit":false,"distance":280,"i_lat":-6.202263,"time":1,"station_name":"Sudirman"},{"distance":3186,"i_lat":-6.209883,"transit":true,"i_long":106.84912,"time":4,"is_transit":true,"line":2,"station_id":"MRI","station_name":"Manggarai"},{"distance":1590,"is_transit":false,"i_long":106.840169,"station_id":"CKI","time":4,"transit":false,"station_name":"Cikini","i_lat":-6.198556,"line":2},{"is_transit":false,"i_long":106.832183,"station_name":"Gondangdia","station_id":"GDD","time":3,"transit":false,"i_lat":-6.186295,"distance":1750,"line":2},{"i_long":106.828284,"i_lat":-6.166716,"line":2,"distance":2015,"time":4,"is_transit":false,"station_name":"Juanda","station_id":"JUA","transit":false},{"i_long":106.827103,"distance":1149,"station_name":"Sawah Besar","is_transit":false,"transit":false,"i_lat":-6.160725,"time":2,"line":2,"station_id":"SW"},{"time":2,"station_id":"MGB","station_name":"Manggabesar","distance":906,"i_lat":-6.149769,"transit":false,"is_transit":false,"i_long":106.82482,"line":2},{"time":2,"i_long":106.820901,"line":2,"station_name":"Jayakarta","i_lat":-6.141205,"station_id":"JAY","is_transit":false,"transit":false,"distance":1080},{"line":2,"station_id":"JAKK","distance":1264,"time":4,"transit":false,"i_lat":-6.137569,"i_long":106.812439,"is_transit":false,"station_name":"Jakarta Kota"}],[{"i_long":106.756522,"i_lat":-6.1587309999999995,"distance":0,"is_transit":false,"line":5,"time":0,"transit":false,"station_name":"Taman Kota","station_id":"TKO"},{"station_name":"Pesing","line":5,"transit":false,"station_id":"PSG","time":2,"is_transit":false,"i_long":106.771379,"distance":1614,"i_lat":-6.161433},{"time":2,"station_id":"GGL","transit":false,"station_name":"Grogol","i_lat":-6.162021,"line":5,"distance":2036,"i_long":106.788277,"is_transit":false},{"distance":1700,"time":3,"station_id":"DU","i_long":106.800832,"transit":true,"line":1,"i_lat":-6.155215,"station_name":"Duri","is_transit":true},{"station_name":"Tanah Abang","transit":false,"i_long":106.811091,"time":8,"is_transit":false,"i_lat":-6.185545,"line":1,"distance":3632,"station_id":"THB"},{"station_id":"KAT","transit":false,"distance":2029,"time":5,"station_name":"Karet","i_lat":-6.20132,"i_long":106.816351,"line":1,"is_transit":false},{"line":1,"i_long":106.819881,"i_lat":-6.201433,"is_transit":false,"station_name":"Sudirman Baru","transit":false,"distance":471,"time":1,"station_id":"SUDB"},{"distance":280,"time":1,"i_lat":-6.202263,"is_transit":false,"line":1,"station_name":"Sudirman","station_id":"SUD","i_long":106.822649,"transit":false},{"i_lat":-6.209883,"is_transit":false,"line":2,"i_long":106.84912,"transit":false,"station_id":"MRI","station_name":"Manggarai","distance":3186,"time":4},{"distance":1275,"time":2,"transit":false,"station_id":"MTR","station_name":"Matraman","i_long":106.858896,"is_transit":false,"line":1,"i_lat":-6.212485},{"transit":true,"i_lat":-6.215091,"i_long":106.86807400000001,"is_transit":true,"distance":1377,"time":8,"station_id":"JNG","station_name":"Jatinegara","line":1},{"i_lat":-6.209188,"distance":1236,"line":11,"station_name":"Pondok Jati","station_id":"POK","time":2,"is_transit":false,"i_long":106.861737,"transit":false},{"station_id":"KMT","distance":1829,"time":2,"station_name":"Kramat","transit":false,"line":11,"i_lat":-6.193792,"is_transit":false,"i_long":106.855437},{"station_name":"Gang Sentiong","line":11,"time":1,"transit":false,"station_id":"GST","distance":973,"is_transit":false,"i_lat":-6.185975,"i_long":106.850107},{"transit":false,"station_name":"Pasar Senen","time":8,"i_lat":-6.174784,"station_id":"PSE","is_transit":false,"i_long":106.84368,"line":11,"distance":1567},{"i_lat":-6.161728,"distance":1436,"line":11,"time":4,"station_id":"KMO","is_transit":false,"transit":false,"station_name":"Kemayoran","i_long":106.839204},{"i_lat":-6.14505,"is_transit":false,"line":11,"time":5,"station_id":"RJW","i_long":106.836569,"distance":1901,"transit":false,"station_name":"Rajawali"},{"transit":true,"i_long":106.826365,"station_id":"KPB","is_transit":true,"station_name":"Kampung Bandan","time":3,"line":4,"i_lat":-6.132549,"distance":1444},{"time":3,"transit":false,"distance":1364,"station_name":"Jakarta Kota","is_transit":false,"station_id":"JAKK","i_lat":-6.137569,"line":2,"i_long":106.812439}],[{"station_name":"Taman Kota","line":5,"station_id":"TKO","i_lat":-6.1587309999999995,"is_transit":false,"transit":false,"distance":0,"i_long":106.756522,"time":0},{"i_lat":-6.161433,"is_transit":false,"station_name":"Pesing","transit":false,"station_id":"PSG","i_long":106.771379,"time":2,"distance":1614,"line":5},{"i_long":106.788277,"transit":false,"station_name":"Grogol","time":2,"distance":2036,"i_lat":-6.162021,"is_transit":false,"line":5,"station_id":"GGL"},{"is_transit":true,"i_long":106.800832,"station_name":"Duri","time":3,"line":1,"distance":1700,"i_lat":-6.155215,"station_id":"DU","transit":true},{"station_name":"Angke","distance":1230,"is_transit":false,"line":1,"i_long":106.79867,"i_lat":-6.144674,"transit":false,"station_id":"AK","time":4},{"is_transit":true,"i_long":106.826365,"station_name":"Kampung Bandan","station_id":"KPB","time":9,"transit":true,"distance":4102,"i_lat":-6.132549,"line":4},{"distance":1444,"i_lat":-6.14505,"is_transit":false,"time":3,"transit":false,"station_name":"Rajawali","station_id":"RJW","i_long":106.836569,"line":11},{"time":5,"transit":false,"station_id":"KMO","is_transit":false,"station_name":"Kemayoran","i_lat":-6.161728,"line":11,"distance":1901,"i_long":106.839204},{"transit":false,"station_name":"Pasar Senen","station_id":"PSE","line":11,"i_long":106.84368,"distance":1436,"is_transit":false,"i_lat":-6.174784,"time":4},{"time":8,"station_name":"Gang Sentiong","is_transit":false,"i_lat":-6.185975,"transit":false,"i_long":106.850107,"line":11,"station_id":"GST","distance":1567},{"transit":false,"distance":973,"time":1,"is_transit":false,"station_name":"Kramat","station_id":"KMT","i_long":106.855437,"line":11,"i_lat":-6.193792},{"line":11,"station_id":"POK","i_long":106.861737,"distance":1829,"station_name":"Pondok Jati","transit":false,"is_transit":false,"time":2,"i_lat":-6.209188},{"distance":1236,"station_name":"Jatinegara","transit":true,"i_long":106.86807400000001,"i_lat":-6.215091,"line":1,"station_id":"JNG","time":9,"is_transit":true},{"is_transit":false,"i_long":106.858896,"station_name":"Matraman","station_id":"MTR","distance":1377,"time":2,"transit":false,"i_lat":-6.212485,"line":1},{"i_lat":-6.209883,"distance":1275,"transit":true,"time":2,"station_id":"MRI","i_long":106.84912,"line":2,"station_name":"Manggarai","is_transit":true},{"distance":1590,"i_long":106.840169,"station_id":"CKI","is_transit":false,"station_name":"Cikini","transit":false,"time":4,"i_lat":-6.198556,"line":2},{"station_id":"GDD","is_transit":false,"transit":false,"station_name":"Gondangdia","time":3,"distance":1750,"i_long":106.832183,"i_lat":-6.186295,"line":2},{"transit":false,"i_lat":-6.166716,"distance":2015,"station_name":"Juanda","i_long":106.828284,"line":2,"is_transit":false,"station_id":"JUA","time":4},{"i_long":106.827103,"i_lat":-6.160725,"distance":1149,"line":2,"is_transit":false,"station_name":"Sawah Besar","transit":false,"station_id":"SW","time":2},{"distance":906,"time":2,"i_long":106.82482,"is_transit":false,"transit":false,"station_name":"Manggabesar","i_lat":-6.149769,"station_id":"MGB","line":2},{"i_long":106.820901,"station_id":"JAY","station_name":"Jayakarta","time":2,"distance":1080,"line":2,"transit":false,"is_transit":false,"i_lat":-6.141205},{"is_transit":false,"station_id":"JAKK","line":2,"station_name":"Jakarta Kota","time":4,"transit":false,"i_lat":-6.137569,"i_long":106.812439,"distance":1264}]]}