{"data":[[{"i_long":106.756522,"is_transit":false,"station_name":"Taman Kota","station_id":"TKO","transit":false,"i_lat":-6.1587309999999995,"line":5,"distance":0,"time":0},{"is_transit":false,"i_long":106.771379,"distance":1614,"i_lat":-6.161433,"station_name":"Pesing","line":5,"station_id":"PSG","time":2,"transit":false},{"time":2,"is_transit":false,"transit":false,"station_name":"Grogol","distance":2036,"station_id":"GGL","i_lat":-6.162021,"i_long":106.788277,"line":5},{"station_id":"DU","station_name":"Duri","time":3,"i_lat":-6.155215,"i_long":106.800832,"transit":true,"distance":1700,"is_transit":true,"line":1},{"distance":3632,"station_id":"THB","time":8,"line":1,"transit":false,"i_lat":-6.185545,"is_transit":false,"station_name":"Tanah Abang","i_long":106.811091},{"line":1,"i_lat":-6.20132,"station_name":"Karet","is_transit":false,"transit":false,"station_id":"KAT","i_long":106.816351,"distance":2029,"time":5},{"i_lat":-6.201433,"transit":false,"station_name":"Sudirman Baru","line":1,"distance":471,"i_long":106.819881,"station_id":"SUDB","time":1,"is_transit":false},{"transit":false,"i_long":106.822649,"line":1,"station_name":"Sudirman","is_transit":false,"time":1,"station_id":"SUD","distance":280,"i_lat":-6.202263},{"time":4,"line":2,"transit":false,"i_lat":-6.209883,"station_id":"MRI","is_transit":false,"station_name":"Manggarai","i_long":106.84912,"distance":3186},{"time":2,"station_id":"MTR","i_long":106.858896,"i_lat":-6.212485,"line":1,"station_name":"Matraman","is_transit":false,"transit":false,"distance":1275},{"station_id":"JNG","time":8,"station_name":"Jatinegara","i_long":106.86807400000001,"i_lat":-6.215091,"is_transit":false,"line":1,"distance":1377,"transit":false},{"station_name":"Klender","distance":3395,"station_id":"KLD","time":3,"transit":false,"i_long":106.899548,"line":1,"i_lat":-6.2135,"is_transit":false},{"is_transit":false,"i_lat":-6.215568,"i_long":106.922662,"station_id":"BUA","line":1,"station_name":"Buaran","transit":false,"distance":3100,"time":2},{"i_lat":-6.217455,"i_long":106.939679,"line":1,"distance":1305,"station_id":"KLDB","station_name":"Klenderbaru","time":1,"is_transit":false,"transit":false},{"time":8,"station_id":"CUK","station_name":"Cakung","distance":1385,"i_lat":-6.219053,"line":1,"i_long":106.951283,"transit":false,"is_transit":false},{"i_long":106.977657,"distance":3097,"line":1,"time":3,"is_transit":false,"transit":false,"station_name":"Kranji","station_id":"KRI","i_lat":-6.224515},{"transit":false,"distance":2520,"station_id":"BKS","i_long":106.997013,"i_lat":-6.236616,"line":1,"time":4,"is_transit":false,"station_name":"Bekasi"}],[{"i_long":106.756522,"time":0,"station_id":"TKO","line":5,"station_name":"Taman Kota","is_transit":false,"i_lat":-6.1587309999999995,"distance":0,"transit":false},{"line":5,"station_name":"Pesing","time":2,"i_lat":-6.161433,"transit":false,"is_transit":false,"station_id":"PSG","distance":1614,"i_long":106.771379},{"distance":2036,"line":5,"i_long":106.788277,"transit":false,"station_id":"GGL","station_name":"Grogol","i_lat":-6.162021,"time":2,"is_transit":false},{"line":1,"station_id":"DU","i_long":106.800832,"station_name":"Duri","is_transit":true,"distance":1700,"i_lat":-6.155215,"transit":true,"time":3},{"i_lat":-6.144674,"line":1,"is_transit":false,"station_id":"AK","transit":false,"time":4,"distance":1230,"station_name":"Angke","i_long":106.79867},{"is_transit":true,"transit":true,"distance":4102,"time":9,"i_lat":-6.132549,"station_id":"KPB","i_long":106.826365,"station_name":"Kampung Bandan","line":4},{"distance":1444,"time":3,"line":11,"i_lat":-6.14505,"i_long":106.836569,"transit":false,"is_transit":false,"station_id":"RJW","station_name":"Rajawali"},{"station_id":"KMO","station_name":"Kemayoran","transit":false,"i_lat":-6.161728,"is_transit":false,"i_long":106.839204,"time":5,"distance":1901,"line":11},{"station_name":"Pasar Senen","line":11,"distance":1436,"i_long":106.84368,"station_id":"PSE","is_transit":false,"i_lat":-6.174784,"transit":false,"time":4},{"line":11,"transit":false,"station_name":"Gang Sentiong","is_transit":false,"i_lat":-6.185975,"time":8,"station_id":"GST","i_long":106.850107,"distance":1567},{"station_name":"Kramat","i_lat":-6.193792,"distance":973,"time":1,"line":11,"station_id":"KMT","transit":false,"is_transit":false,"i_long":106.855437},{"i_lat":-6.209188,"station_name":"Pondok Jati","is_transit":false,"i_long":106.861737,"line":11,"station_id":"POK","time":2,"distance":1829,"transit":false},{"station_name":"Jatinegara","time":9,"line":1,"is_transit":true,"distance":1236,"station_id":"JNG","transit":true,"i_lat":-6.215091,"i_long":106.86807400000001},{"transit":false,"line":1,"station_id":"KLD","time":3,"i_long":106.899548,"station_name":"Klender","distance":3395,"is_transit":false,"i_lat":-6.2135},{"station_name":"Buaran","is_transit":false,"transit":false,"distance":3100,"time":2,"i_lat":-6.215568,"station_id":"BUA","line":1,"i_long":106.922662},{"station_id":"KLDB","i_lat":-6.217455,"time":1,"i_long":106.939679,"distance":1305,"line":1,"station_name":"Klenderbaru","transit":false,"is_transit":false},{"line":1,"distance":1385,"i_long":106.951283,"i_lat":-6.219053,"time":8,"station_name":"Cakung","station_id":"CUK","transit":false,"is_transit":false},{"station_id":"KRI","time":3,"i_long":106.977657,"is_transit":false,"line":1,"distance":3097,"i_lat":-6.224515,"transit":false,"station_name":"Kranji"},{"distance":2520,"i_lat":-6.236616,"is_transit":false,"station_id":"BKS","line":1,"i_long":106.997013,"time":4,"transit":false,"station_name":"Bekasi"}],[{"station_id":"TKO","line":5,"i_lat":-6.1587309999999995,"station_name":"Taman Kota","is_transit":false,"transit":false,"distance":0,"time":0,"i_long":106.756522},{"station_id":"PSG","is_transit":false,"i_long":106.771379,"transit":false,"distance":1614,"i_lat":-6.161433,"line":5,"time":2,"station_name":"Pesing"},{"distance":2036,"is_transit":false,"station_id":"GGL","time":2,"i_long":106.788277,"transit":false,"line":5,"station_name":"Grogol","i_lat":-6.162021},{"transit":true,"station_id":"DU","is_transit":true,"distance":1700,"i_lat":-6.155215,"station_name":"Duri","line":1,"i_long":106.800832,"time":3},{"transit":false,"station_id":"AK","is_transit":false,"i_lat":-6.144674,"time":4,"line":1,"i_long":106.79867,"station_name":"Angke","distance":1230},{"station_id":"KPB","transit":true,"is_transit":true,"i_lat":-6.132549,"time":9,"i_long":106.826365,"line":4,"distance":4102,"station_name":"Kampung Bandan"},{"i_long":106.812439,"distance":1364,"is_transit":true,"i_lat":-6.137569,"line":2,"transit":true,"station_name":"Jakarta Kota","time":3,"station_id":"JAKK"},{"time":4,"station_name":"Jayakarta","distance":1264,"station_id":"JAY","i_long":106.820901,"i_lat":-6.141205,"is_transit":false,"line":2,"transit":false},{"station_name":"Manggabesar","line":2,"is_transit":false,"i_lat":-6.149769,"time":2,"distance":1080,"i_long":106.82482,"station_id":"MGB","transit":false},{"i_lat":-6.160725,"station_id":"SW","i_long":106.827103,"distance":906,"time":2,"station_name":"Sawah Besar","line":2,"transit":false,"is_transit":false},{"i_lat":-6.166716,"station_id":"JUA","distance":1149,"i_long":106.828284,"line":2,"station_name":"Juanda","is_transit":false,"transit":false,"time":2},{"distance":2015,"line":2,"i_lat":-6.186295,"is_transit":false,"station_name":"Gondangdia","station_id":"GDD","time":4,"i_long":106.832183,"transit":false},{"station_name":"Cikini","i_lat":-6.198556,"line":2,"i_long":106.840169,"time":3,"transit":false,"distance":1750,"station_id":"CKI","is_transit":false},{"station_name":"Manggarai","i_long":106.84912,"line":2,"i_lat":-6.209883,"station_id":"MRI","time":4,"is_transit":true,"distance":1590,"transit":true},{"line":1,"transit":false,"station_name":"Matraman","is_transit":false,"i_long":106.858896,"time":2,"station_id":"MTR","i_lat":-6.212485,"distance":1275},{"time":8,"transit":false,"station_name":"Jatinegara","is_transit":false,"distance":1377,"i_lat":-6.215091,"station_id":"JNG","i_long":106.86807400000001,"line":1},{"distance":3395,"i_lat":-6.2135,"transit":false,"station_id":"KLD","station_name":"Klender","is_transit":false,"time":3,"i_long":106.899548,"line":1},{"time":2,"line":1,"station_name":"Buaran","i_long":106.922662,"transit":false,"station_id":"BUA","distance":3100,"i_lat":-6.215568,"is_transit":false},{"i_lat":-6.217455,"i_long":106.939679,"station_name":"Klenderbaru","transit":false,"distance":1305,"time":1,"is_transit":false,"line":1,"station_id":"KLDB"},{"station_name":"Cakung","station_id":"CUK","i_long":106.951283,"line":1,"i_lat":-6.219053,"time":8,"transit":false,"is_transit":false,"distance":1385},{"i_long":106.977657,"i_lat":-6.224515,"distance":3097,"station_name":"Kranji","line":1,"is_transit":false,"transit":false,"station_id":"KRI","time":3},{"transit":false,"is_transit":false,"time":4,"i_lat":-6.236616,"distance":2520,"station_id":"BKS","line":1,"station_name":"Bekasi","i_long":106.997013}],[{"station_id":"TKO","i_lat":-6.1587309999999995,"distance":0,"transit":false,"station_name":"Taman Kota","is_transit":false,"i_long":106.756522,"time":0,"line":5},{"i_long":106.771379,"station_name":"Pesing","transit":false,"i_lat":-6.161433,"line":5,"time":2,"is_transit":false,"distance":1614,"station_id":"PSG"},{"time":2,"i_long":106.788277,"station_id":"GGL","transit":false,"distance":2036,"line":5,"station_name":"Grogol","is_transit":false,"i_lat":-6.162021},{"line":1,"transit":true,"distance":1700,"i_long":106.800832,"is_transit":true,"time":3,"station_name":"Duri","i_lat":-6.155215,"station_id":"DU"},{"i_long":106.811091,"station_name":"Tanah Abang","time":8,"transit":false,"distance":3632,"is_transit":false,"i_lat":-6.185545,"line":1,"station_id":"THB"},{"station_name":"Karet","i_long":106.816351,"transit":false,"distance":2029,"i_lat":-6.20132,"station_id":"KAT","is_transit":false,"time":5,"line":1},{"station_name":"Sudirman Baru","transit":false,"station_id":"SUDB","is_transit":false,"time":1,"i_lat":-6.201433,"distance":471,"i_long":106.819881,"line":1},{"distance":280,"line":1,"time":1,"transit":false,"is_transit":false,"i_lat":-6.202263,"station_name":"Sudirman","i_long":106.822649,"station_id":"SUD"},{"i_lat":-6.209883,"station_name":"Manggarai","i_long":106.84912,"line":2,"transit":true,"distance":3186,"station_id":"MRI","is_transit":true,"time":4},{"transit":false,"line":2,"distance":1590,"station_name":"Cikini","time":4,"i_long":106.840169,"station_id":"CKI","i_lat":-6.198556,"is_transit":false},{"transit":false,"i_long":106.832183,"i_lat":-6.186295,"station_name":"Gondangdia","time":3,"line":2,"station_id":"GDD","distance":1750,"is_transit":false},{"i_long":106.828284,"time":4,"i_lat":-6.166716,"transit":false,"station_id":"JUA","distance":2015,"is_transit":false,"line":2,"station_name":"Juanda"},{"i_lat":-6.160725,"i_long":106.827103,"time":2,"station_id":"SW","is_transit":false,"line":2,"distance":1149,"transit":false,"station_name":"Sawah Besar"},{"line":2,"transit":false,"station_name":"Manggabesar","is_transit":false,"time":2,"distance":906,"i_lat":-6.149769,"station_id":"MGB","i_long":106.82482},{"i_lat":-6.141205,"station_id":"JAY","is_transit":false,"station_name":"Jayakarta","time":2,"transit":false,"i_long":106.820901,"line":2,"distance":1080},{"i_long":106.812439,"is_transit":true,"transit":true,"station_name":"Jakarta Kota","station_id":"JAKK","time":4,"i_lat":-6.137569,"distance":1264,"line":2},{"time":3,"is_transit":true,"distance":1364,"i_long":106.826365,"line":4,"station_id":"KPB","station_name":"Kampung Bandan","transit":true,"i_lat":-6.132549},{"station_id":"RJW","distance":1444,"time":3,"i_lat":-6.14505,"line":11,"i_long":106.836569,"transit":false,"is_transit":false,"station_name":"Rajawali"},{"station_name":"Kemayoran","is_transit":false,"i_lat":-6.161728,"distance":1901,"time":5,"i_long":106.839204,"station_id":"KMO","line":11,"transit":false},{"distance":1436,"transit":false,"time":4,"i_lat":-6.174784,"is_transit":false,"i_long":106.84368,"line":11,"station_name":"Pasar Senen","station_id":"PSE"},{"is_transit":false,"station_name":"Gang Sentiong","distance":1567,"i_long":106.850107,"time":8,"station_id":"GST","line":11,"transit":false,"i_lat":-6.185975},{"i_long":106.855437,"i_lat":-6.193792,"station_id":"KMT","time":1,"station_name":"Kramat","line":11,"transit":false,"is_transit":false,"distance":973},{"line":11,"station_id":"POK","i_lat":-6.209188,"time":2,"i_long":106.861737,"distance":1829,"transit":false,"is_transit":false,"station_name":"Pondok Jati"},{"station_id":"JNG","is_transit":true,"station_name":"Jatinegara","time":9,"line":1,"i_lat":-6.215091,"i_long":106.86807400000001,"transit":true,"distance":1236},{"is_transit":false,"line":1,"transit":false,"station_name":"Klender","distance":3395,"time":3,"i_lat":-6.2135,"i_long":106.899548,"station_id":"KLD"},{"station_id":"BUA","time":2,"is_transit":false,"i_lat":-6.215568,"transit":false,"station_name":"Buaran","line":1,"i_long":106.922662,"distance":3100},{"i_lat":-6.217455,"line":1,"time":1,"station_id":"KLDB","i_long":106.939679,"distance":1305,"transit":false,"station_name":"Klenderbaru","is_transit":false},{"station_name":"Cakung","is_transit":false,"distance":1385,"station_id":"CUK","transit":false,"i_lat":-6.219053,"time":8,"i_long":106.951283,"line":1},{"i_long":106.977657,"station_id":"KRI","time":3,"is_transit":false,"station_name":"Kranji","distance":3097,"line":1,"transit":false,"i_lat":-6.224515},{"station_id":"BKS","is_transit":false,"station_name":"Bekasi","i_long":106.997013,"i_lat":-6.236616,"distance":2520,"time":4,"line":1,"transit":false}]]}