{"data":[[{"station_name":"Taman Kota","line":5,"is_transit":false,"station_id":"TKO","transit":false,"distance":0,"i_lat":-6.1587309999999995,"i_long":106.756522,"time":0},{"transit":false,"distance":1614,"line":5,"is_transit":false,"i_long":106.771379,"station_id":"PSG","i_lat":-6.161433,"time":2,"station_name":"Pesing"},{"station_id":"GGL","station_name":"Grogol","time":2,"distance":2036,"i_lat":-6.162021,"line":5,"is_transit":false,"transit":false,"i_long":106.788277},{"station_name":"Duri","station_id":"DU","transit":true,"time":3,"line":1,"is_transit":true,"i_lat":-6.155215,"i_long":106.800832,"distance":1700},{"transit":false,"i_long":106.811091,"is_transit":false,"station_id":"THB","distance":3632,"i_lat":-6.185545,"line":1,"station_name":"Tanah Abang","time":8},{"station_id":"KAT","i_long":106.816351,"i_lat":-6.20132,"line":1,"station_name":"Karet","is_transit":false,"distance":2029,"time":5,"transit":false},{"i_long":106.819881,"is_transit":false,"time":1,"line":1,"station_name":"Sudirman Baru","station_id":"SUDB","transit":false,"distance":471,"i_lat":-6.201433},{"station_id":"SUD","time":1,"station_name":"Sudirman","is_transit":false,"transit":false,"i_long":106.822649,"distance":280,"i_lat":-6.202263,"line":1},{"distance":3186,"transit":true,"is_transit":true,"time":4,"station_name":"Manggarai","i_long":106.84912,"line":2,"station_id":"MRI","i_lat":-6.209883},{"distance":2610,"station_name":"Tebet","time":4,"transit":false,"line":2,"is_transit":false,"i_lat":-6.226659,"station_id":"TEB","i_long":106.857948},{"station_name":"Cawang","is_transit":false,"time":2,"distance":1230,"i_lat":-6.242512,"station_id":"CW","line":2,"transit":false,"i_long":106.856607},{"station_id":"DRN","transit":false,"line":2,"station_name":"Duren Kalibata","distance":1546,"is_transit":false,"i_long":106.85449,"i_lat":-6.255332,"time":3},{"station_id":"PSMB","i_long":106.851577,"station_name":"Pasar Minggu Baru","distance":824,"is_transit":false,"i_lat":-6.263214,"transit":false,"time":2,"line":2},{"i_lat":-6.2842400000000005,"time":2,"station_id":"PSM","i_long":106.843999,"distance":2380,"station_name":"Pasar Minggu","is_transit":false,"transit":false,"line":2},{"station_name":"Tanjung Barat","i_long":106.838896,"transit":false,"time":4,"i_lat":-6.3080680000000005,"is_transit":false,"distance":2820,"station_id":"TNT","line":2},{"distance":2671,"is_transit":false,"i_lat":-6.330363,"station_name":"Lenteng Agung","station_id":"LNA","time":3,"transit":false,"i_long":106.832616,"line":2}],[{"i_lat":-6.1587309999999995,"station_id":"TKO","distance":0,"is_transit":false,"time":0,"i_long":106.756522,"line":5,"station_name":"Taman Kota","transit":false},{"station_id":"PSG","transit":false,"i_lat":-6.161433,"i_long":106.771379,"time":2,"is_transit":false,"line":5,"station_name":"Pesing","distance":1614},{"i_lat":-6.162021,"station_id":"GGL","station_name":"Grogol","is_transit":false,"i_long":106.788277,"distance":2036,"transit":false,"time":2,"line":5},{"line":1,"is_transit":true,"distance":1700,"station_id":"DU","station_name":"Duri","transit":true,"i_long":106.800832,"time":3,"i_lat":-6.155215},{"transit":false,"i_lat":-6.144674,"line":1,"i_long":106.79867,"is_transit":false,"time":4,"station_id":"AK","station_name":"Angke","distance":1230},{"distance":4102,"time":9,"i_long":106.826365,"i_lat":-6.132549,"line":4,"station_id":"KPB","station_name":"Kampung Bandan","transit":true,"is_transit":true},{"line":2,"i_lat":-6.137569,"i_long":106.812439,"station_name":"Jakarta Kota","time":3,"station_id":"JAKK","distance":1364,"is_transit":true,"transit":true},{"transit":false,"i_lat":-6.141205,"is_transit":false,"distance":1264,"station_name":"Jayakarta","station_id":"JAY","time":4,"line":2,"i_long":106.820901},{"line":2,"i_long":106.82482,"is_transit":false,"time":2,"distance":1080,"station_name":"Manggabesar","transit":false,"station_id":"MGB","i_lat":-6.149769},{"transit":false,"is_transit":false,"distance":906,"i_lat":-6.160725,"station_id":"SW","i_long":106.827103,"station_name":"Sawah Besar","time":2,"line":2},{"i_long":106.828284,"distance":1149,"is_transit":false,"time":2,"transit":false,"line":2,"station_name":"Juanda","i_lat":-6.166716,"station_id":"JUA"},{"i_lat":-6.186295,"station_id":"GDD","i_long":106.832183,"station_name":"Gondangdia","transit":false,"line":2,"distance":2015,"is_transit":false,"time":4},{"station_name":"Cikini","transit":false,"station_id":"CKI","i_long":106.840169,"i_lat":-6.198556,"distance":1750,"is_transit":false,"time":3,"line":2},{"station_id":"MRI","distance":1590,"time":4,"transit":false,"line":2,"i_long":106.84912,"station_name":"Manggarai","is_transit":false,"i_lat":-6.209883},{"station_id":"TEB","distance":2610,"transit":false,"station_name":"Tebet","i_long":106.857948,"line":2,"time":4,"i_lat":-6.226659,"is_transit":false},{"line":2,"i_long":106.856607,"i_lat":-6.242512,"distance":1230,"time":2,"station_name":"Cawang","is_transit":false,"station_id":"CW","transit":false},{"is_transit":false,"i_lat":-6.255332,"line":2,"station_id":"DRN","distance":1546,"time":3,"transit":false,"i_long":106.85449,"station_name":"Duren Kalibata"},{"is_transit":false,"i_long":106.851577,"line":2,"distance":824,"i_lat":-6.263214,"station_id":"PSMB","time":2,"station_name":"Pasar Minggu Baru","transit":false},{"transit":false,"station_id":"PSM","i_lat":-6.2842400000000005,"station_name":"Pasar Minggu","time":2,"i_long":106.843999,"line":2,"distance":2380,"is_transit":false},{"is_transit":false,"line":2,"station_name":"Tanjung Barat","i_lat":-6.3080680000000005,"time":4,"i_long":106.838896,"distance":2820,"station_id":"TNT","transit":false},{"transit":false,"line":2,"station_id":"LNA","distance":2671,"i_lat":-6.330363,"is_transit":false,"station_name":"Lenteng Agung","time":3,"i_long":106.832616}],[{"is_transit":false,"distance":0,"station_name":"Taman Kota","time":0,"i_lat":-6.1587309999999995,"station_id":"TKO","i_long":106.756522,"line":5,"transit":false},{"distance":1614,"line":5,"is_transit":false,"station_id":"PSG","i_long":106.771379,"i_lat":-6.161433,"station_name":"Pesing","transit":false,"time":2},{"station_name":"Grogol","station_id":"GGL","time":2,"line":5,"i_long":106.788277,"transit":false,"i_lat":-6.162021,"distance":2036,"is_transit":false},{"transit":true,"i_long":106.800832,"i_lat":-6.155215,"distance":1700,"station_id":"DU","time":3,"station_name":"Duri","line":1,"is_transit":true},{"i_long":106.79867,"distance":1230,"station_id":"AK","is_transit":false,"station_name":"Angke","time":4,"i_lat":-6.144674,"transit":false,"line":1},{"distance":4102,"station_id":"KPB","transit":true,"i_long":106.826365,"i_lat":-6.132549,"line":4,"time":9,"station_name":"Kampung Bandan","is_transit":true},{"i_long":106.836569,"station_name":"Rajawali","transit":false,"is_transit":false,"time":3,"i_lat":-6.14505,"distance":1444,"station_id":"RJW","line":11},{"station_name":"Kemayoran","time":5,"i_lat":-6.161728,"station_id":"KMO","transit":false,"is_transit":false,"i_long":106.839204,"line":11,"distance":1901},{"transit":false,"time":4,"line":11,"i_long":106.84368,"station_name":"Pasar Senen","station_id":"PSE","distance":1436,"i_lat":-6.174784,"is_transit":false},{"transit":false,"distance":1567,"is_transit":false,"line":11,"station_name":"Gang Sentiong","time":8,"i_lat":-6.185975,"station_id":"GST","i_long":106.850107},{"time":1,"i_lat":-6.193792,"line":11,"is_transit":false,"station_id":"KMT","station_name":"Kramat","distance":973,"i_long":106.855437,"transit":false},{"i_long":106.861737,"is_transit":false,"line":11,"transit":false,"station_name":"Pondok Jati","station_id":"POK","time":2,"i_lat":-6.209188,"distance":1829},{"i_lat":-6.215091,"distance":1236,"station_id":"JNG","line":1,"station_name":"Jatinegara","transit":true,"i_long":106.86807400000001,"is_transit":true,"time":9},{"transit":false,"distance":1377,"time":2,"is_transit":false,"station_id":"MTR","station_name":"Matraman","i_long":106.858896,"line":1,"i_lat":-6.212485},{"time":2,"is_transit":true,"station_id":"MRI","i_lat":-6.209883,"line":2,"station_name":"Manggarai","transit":true,"i_long":106.84912,"distance":1275},{"i_long":106.857948,"i_lat":-6.226659,"station_name":"Tebet","distance":2610,"station_id":"TEB","transit":false,"is_transit":false,"time":4,"line":2},{"i_long":106.856607,"i_lat":-6.242512,"is_transit":false,"station_name":"Cawang","line":2,"distance":1230,"station_id":"CW","transit":false,"time":2},{"time":3,"distance":1546,"station_id":"DRN","is_transit":false,"i_long":106.85449,"transit":false,"i_lat":-6.255332,"line":2,"station_name":"Duren Kalibata"},{"i_lat":-6.263214,"i_long":106.851577,"line":2,"time":2,"station_name":"Pasar Minggu Baru","station_id":"PSMB","distance":824,"transit":false,"is_transit":false},{"line":2,"i_lat":-6.2842400000000005,"station_id":"PSM","transit":false,"distance":2380,"i_long":106.843999,"time":2,"station_name":"Pasar Minggu","is_transit":false},{"i_long":106.838896,"transit":false,"time":4,"station_id":"TNT","station_name":"Tanjung Barat","i_lat":-6.3080680000000005,"is_transit":false,"distance":2820,"line":2},{"line":2,"time":3,"i_long":106.832616,"i_lat":-6.330363,"distance":2671,"station_name":"Lenteng Agung","station_id":"LNA","transit":false,"is_transit":false}]]}