{"data":[[{"i_long":106.756522,"station_name":"Taman Kota","station_id":"TKO","line":5,"transit":false,"is_transit":false,"time":0,"distance":0,"i_lat":-6.1587309999999995},{"station_id":"PSG","i_lat":-6.161433,"i_long":106.771379,"line":5,"distance":1614,"is_transit":false,"transit":false,"station_name":"Pesing","time":2},{"station_id":"GGL","time":2,"distance":2036,"line":5,"transit":false,"is_transit":false,"i_lat":-6.162021,"i_long":106.788277,"station_name":"Grogol"},{"is_transit":true,"station_id":"DU","line":1,"time":3,"i_lat":-6.155215,"station_name":"Duri","transit":true,"i_long":106.800832,"distance":1700},{"distance":3632,"time":8,"i_long":106.811091,"transit":false,"station_id":"THB","is_transit":false,"i_lat":-6.185545,"line":1,"station_name":"Tanah Abang"},{"station_name":"Karet","transit":false,"i_lat":-6.20132,"station_id":"KAT","distance":2029,"time":5,"line":1,"i_long":106.816351,"is_transit":false},{"distance":471,"transit":false,"station_name":"Sudirman Baru","is_transit":false,"line":1,"time":1,"i_long":106.819881,"i_lat":-6.201433,"station_id":"SUDB"},{"station_name":"Sudirman","i_lat":-6.202263,"station_id":"SUD","is_transit":false,"i_long":106.822649,"time":1,"distance":280,"line":1,"transit":false},{"time":4,"line":2,"i_lat":-6.209883,"distance":3186,"station_name":"Manggarai","is_transit":true,"i_long":106.84912,"transit":true,"station_id":"MRI"},{"is_transit":false,"station_id":"TEB","i_lat":-6.226659,"station_name":"Tebet","i_long":106.857948,"transit":false,"line":2,"distance":2610,"time":4},{"distance":1230,"is_transit":false,"station_id":"CW","line":2,"i_long":106.856607,"transit":false,"time":2,"station_name":"Cawang","i_lat":-6.242512},{"station_name":"Duren Kalibata","station_id":"DRN","distance":1546,"time":3,"i_lat":-6.255332,"i_long":106.85449,"is_transit":false,"line":2,"transit":false},{"transit":false,"distance":824,"line":2,"is_transit":false,"station_name":"Pasar Minggu Baru","i_long":106.851577,"time":2,"i_lat":-6.263214,"station_id":"PSMB"},{"i_long":106.843999,"transit":false,"is_transit":false,"line":2,"i_lat":-6.2842400000000005,"time":2,"station_id":"PSM","station_name":"Pasar Minggu","distance":2380},{"line":2,"is_transit":false,"i_lat":-6.3080680000000005,"station_name":"Tanjung Barat","time":4,"transit":false,"distance":2820,"station_id":"TNT","i_long":106.838896},{"i_lat":-6.330363,"line":2,"station_name":"Lenteng Agung","distance":2671,"i_long":106.832616,"is_transit":false,"time":3,"transit":false,"station_id":"LNA"},{"is_transit":false,"station_name":"Univ. Pancasila","i_long":106.834175,"station_id":"UP","i_lat":-6.339291,"distance":1029,"transit":false,"time":2,"line":2},{"transit":false,"station_name":"Univ. Indonesia","i_long":106.831474,"i_lat":-6.360749,"time":3,"is_transit":false,"distance":2264,"line":2,"station_id":"UI"},{"i_lat":-6.369073,"transit":false,"station_name":"Pondok Cina","time":2,"is_transit":false,"i_long":106.831114,"distance":1109,"line":2,"station_id":"POC"},{"station_name":"Depokbaru","time":4,"distance":2727,"station_id":"DPB","i_lat":-6.391065,"i_long":106.819451,"line":2,"is_transit":false,"transit":false},{"is_transit":false,"i_long":106.816926,"distance":1584,"line":2,"time":3,"i_lat":-6.405256,"station_id":"DP","station_name":"Depok","transit":false},{"transit":true,"time":6,"station_name":"Citayam","i_long":106.800298,"distance":5084,"station_id":"CTA","line":2,"i_lat":-6.448811,"is_transit":true},{"is_transit":false,"transit":false,"distance":0,"i_long":106.824374,"line":21,"station_id":"PDRG","time":0,"i_lat":-6.460735,"station_name":"Pondok Rajeg"},{"i_long":106.851978,"station_name":"Cibinong","station_id":"CBN","distance":0,"i_lat":-6.46424,"line":21,"is_transit":false,"transit":false,"time":0},{"station_id":"NMO","i_lat":-6.466285,"time":10,"line":21,"distance":6527,"i_long":106.905196,"is_transit":false,"station_name":"Nambo","transit":false}],[{"transit":false,"is_transit":false,"distance":0,"i_lat":-6.1587309999999995,"station_id":"TKO","line":5,"station_name":"Taman Kota","time":0,"i_long":106.756522},{"transit":false,"line":5,"distance":1614,"station_name":"Pesing","station_id":"PSG","time":2,"i_long":106.771379,"i_lat":-6.161433,"is_transit":false},{"station_id":"GGL","transit":false,"station_name":"Grogol","i_long":106.788277,"time":2,"distance":2036,"line":5,"i_lat":-6.162021,"is_transit":false},{"station_id":"DU","distance":1700,"transit":true,"time":3,"i_long":106.800832,"line":1,"station_name":"Duri","is_transit":true,"i_lat":-6.155215},{"distance":1230,"i_long":106.79867,"station_id":"AK","transit":false,"is_transit":false,"station_name":"Angke","time":4,"i_lat":-6.144674,"line":1},{"distance":4102,"is_transit":true,"transit":true,"i_long":106.826365,"time":9,"i_lat":-6.132549,"station_name":"Kampung Bandan","line":4,"station_id":"KPB"},{"station_name":"Jakarta Kota","station_id":"JAKK","time":3,"i_lat":-6.137569,"i_long":106.812439,"line":2,"transit":true,"distance":1364,"is_transit":true},{"i_long":106.820901,"is_transit":false,"station_name":"Jayakarta","distance":1264,"line":2,"i_lat":-6.141205,"transit":false,"station_id":"JAY","time":4},{"i_long":106.82482,"station_id":"MGB","i_lat":-6.149769,"transit":false,"station_name":"Manggabesar","time":2,"distance":1080,"is_transit":false,"line":2},{"line":2,"i_lat":-6.160725,"transit":false,"time":2,"station_name":"Sawah Besar","is_transit":false,"station_id":"SW","i_long":106.827103,"distance":906},{"station_id":"JUA","distance":1149,"transit":false,"station_name":"Juanda","time":2,"i_long":106.828284,"i_lat":-6.166716,"is_transit":false,"line":2},{"time":4,"i_long":106.832183,"i_lat":-6.186295,"transit":false,"distance":2015,"station_id":"GDD","station_name":"Gondangdia","is_transit":false,"line":2},{"time":3,"i_lat":-6.198556,"transit":false,"i_long":106.840169,"station_id":"CKI","line":2,"station_name":"Cikini","is_transit":false,"distance":1750},{"station_name":"Manggarai","is_transit":false,"i_lat":-6.209883,"line":2,"station_id":"MRI","time":4,"distance":1590,"transit":false,"i_long":106.84912},{"station_id":"TEB","is_transit":false,"station_name":"Tebet","transit":false,"time":4,"distance":2610,"i_long":106.857948,"line":2,"i_lat":-6.226659},{"station_name":"Cawang","distance":1230,"i_lat":-6.242512,"line":2,"transit":false,"is_transit":false,"time":2,"station_id":"CW","i_long":106.856607},{"station_id":"DRN","time":3,"station_name":"Duren Kalibata","i_lat":-6.255332,"transit":false,"i_long":106.85449,"is_transit":false,"line":2,"distance":1546},{"time":2,"i_lat":-6.263214,"is_transit":false,"line":2,"station_name":"Pasar Minggu Baru","transit":false,"station_id":"PSMB","distance":824,"i_long":106.851577},{"is_transit":false,"i_lat":-6.2842400000000005,"transit":false,"time":2,"line":2,"station_name":"Pasar Minggu","station_id":"PSM","distance":2380,"i_long":106.843999},{"station_name":"Tanjung Barat","station_id":"TNT","i_long":106.838896,"is_transit":false,"line":2,"distance":2820,"time":4,"transit":false,"i_lat":-6.3080680000000005},{"line":2,"i_lat":-6.330363,"distance":2671,"transit":false,"is_transit":false,"time":3,"station_name":"Lenteng Agung","station_id":"LNA","i_long":106.832616},{"i_lat":-6.339291,"distance":1029,"i_long":106.834175,"time":2,"station_id":"UP","transit":false,"is_transit":false,"station_name":"Univ. Pancasila","line":2},{"i_lat":-6.360749,"is_transit":false,"line":2,"transit":false,"i_long":106.831474,"distance":2264,"station_id":"UI","station_name":"Univ. Indonesia","time":3},{"is_transit":false,"transit":false,"station_name":"Pondok Cina","time":2,"i_lat":-6.369073,"line":2,"distance":1109,"station_id":"POC","i_long":106.831114},{"station_name":"Depokbaru","transit":false,"i_lat":-6.391065,"distance":2727,"time":4,"i_long":106.819451,"line":2,"is_transit":false,"station_id":"DPB"},{"i_lat":-6.405256,"line":2,"time":3,"station_name":"Depok","i_long":106.816926,"station_id":"DP","distance":1584,"transit":false,"is_transit":false},{"time":6,"i_lat":-6.448811,"station_id":"CTA","station_name":"Citayam","distance":5084,"i_long":106.800298,"line":2,"transit":true,"is_transit":true},{"i_long":106.824374,"station_name":"Pondok Rajeg","line":21,"distance":0,"is_transit":false,"time":0,"i_lat":-6.460735,"station_id":"PDRG","transit":false},{"line":21,"station_name":"Cibinong","i_lat":-6.46424,"station_id":"CBN","distance":0,"i_long":106.851978,"transit":false,"is_transit":false,"time":0},{"station_id":"NMO","is_transit":false,"line":21,"transit":false,"distance":6527,"i_long":106.905196,"station_name":"Nambo","i_lat":-6.466285,"time":10}],[{"is_transit":false,"time":0,"i_long":106.756522,"line":5,"transit":false,"station_id":"TKO","distance":0,"i_lat":-6.1587309999999995,"station_name":"Taman Kota"},{"station_name":"Pesing","distance":1614,"time":2,"i_lat":-6.161433,"is_transit":false,"transit":false,"station_id":"PSG","i_long":106.771379,"line":5},{"time":2,"distance":2036,"i_long":106.788277,"i_lat":-6.162021,"transit":false,"station_name":"Grogol","station_id":"GGL","line":5,"is_transit":false},{"is_transit":true,"distance":1700,"line":1,"station_id":"DU","transit":true,"station_name":"Duri","time":3,"i_lat":-6.155215,"i_long":106.800832},{"i_long":106.79867,"distance":1230,"station_id":"AK","transit":false,"line":1,"i_lat":-6.144674,"station_name":"Angke","time":4,"is_transit":false},{"station_id":"KPB","i_long":106.826365,"distance":4102,"i_lat":-6.132549,"station_name":"Kampung Bandan","is_transit":true,"line":4,"time":9,"transit":true},{"is_transit":false,"distance":1444,"line":11,"station_id":"RJW","station_name":"Rajawali","time":3,"transit":false,"i_lat":-6.14505,"i_long":106.836569},{"station_name":"Kemayoran","distance":1901,"time":5,"is_transit":false,"i_long":106.839204,"transit":false,"station_id":"KMO","line":11,"i_lat":-6.161728},{"station_id":"PSE","i_lat":-6.174784,"line":11,"distance":1436,"transit":false,"i_long":106.84368,"station_name":"Pasar Senen","is_transit":false,"time":4},{"transit":false,"i_long":106.850107,"distance":1567,"line":11,"station_id":"GST","i_lat":-6.185975,"time":8,"station_name":"Gang Sentiong","is_transit":false},{"line":11,"time":1,"i_lat":-6.193792,"i_long":106.855437,"station_id":"KMT","station_name":"Kramat","distance":973,"transit":false,"is_transit":false},{"i_lat":-6.209188,"transit":false,"time":2,"is_transit":false,"station_name":"Pondok Jati","line":11,"distance":1829,"station_id":"POK","i_long":106.861737},{"i_lat":-6.215091,"distance":1236,"line":1,"i_long":106.86807400000001,"station_name":"Jatinegara","transit":true,"station_id":"JNG","is_transit":true,"time":9},{"distance":1377,"station_name":"Matraman","station_id":"MTR","i_lat":-6.212485,"time":2,"transit":false,"is_transit":false,"line":1,"i_long":106.858896},{"time":2,"i_lat":-6.209883,"i_long":106.84912,"station_name":"Manggarai","transit":true,"distance":1275,"line":2,"station_id":"MRI","is_transit":true},{"transit":false,"distance":2610,"time":4,"station_name":"Tebet","station_id":"TEB","i_long":106.857948,"i_lat":-6.226659,"is_transit":false,"line":2},{"line":2,"station_name":"Cawang","distance":1230,"i_long":106.856607,"transit":false,"time":2,"i_lat":-6.242512,"station_id":"CW","is_transit":false},{"station_id":"DRN","i_long":106.85449,"line":2,"station_name":"Duren Kalibata","transit":false,"is_transit":false,"i_lat":-6.255332,"distance":1546,"time":3},{"i_lat":-6.263214,"station_id":"PSMB","is_transit":false,"station_name":"Pasar Minggu Baru","transit":false,"time":2,"distance":824,"i_long":106.851577,"line":2},{"transit":false,"station_name":"Pasar Minggu","is_transit":false,"station_id":"PSM","line":2,"i_lat":-6.2842400000000005,"time":2,"distance":2380,"i_long":106.843999},{"i_long":106.838896,"i_lat":-6.3080680000000005,"transit":false,"line":2,"station_id":"TNT","is_transit":false,"station_name":"Tanjung Barat","time":4,"distance":2820},{"i_lat":-6.330363,"station_name":"Lenteng Agung","time":3,"distance":2671,"station_id":"LNA","i_long":106.832616,"is_transit":false,"line":2,"transit":false},{"transit":false,"distance":1029,"i_lat":-6.339291,"station_name":"Univ. Pancasila","station_id":"UP","line":2,"is_transit":false,"time":2,"i_long":106.834175},{"time":3,"i_long":106.831474,"distance":2264,"station_id":"UI","is_transit":false,"i_lat":-6.360749,"line":2,"transit":false,"station_name":"Univ. Indonesia"},{"is_transit":false,"i_lat":-6.369073,"i_long":106.831114,"station_name":"Pondok Cina","time":2,"transit":false,"line":2,"station_id":"POC","distance":1109},{"station_id":"DPB","time":4,"line":2,"distance":2727,"station_name":"Depokbaru","i_long":106.819451,"is_transit":false,"i_lat":-6.391065,"transit":false},{"distance":1584,"is_transit":false,"i_long":106.816926,"line":2,"time":3,"transit":false,"station_id":"DP","station_name":"Depok","i_lat":-6.405256},{"transit":true,"line":2,"station_id":"CTA","station_name":"Citayam","is_transit":true,"time":6,"i_long":106.800298,"distance":5084,"i_lat":-6.448811},{"station_id":"PDRG","is_transit":false,"line":21,"station_name":"Pondok Rajeg","i_lat":-6.460735,"time":0,"distance":0,"transit":false,"i_long":106.824374},{"is_transit":false,"time":0,"transit":false,"i_long":106.851978,"station_name":"Cibinong","i_lat":-6.46424,"line":21,"distance":0,"station_id":"CBN"},{"line":21,"station_id":"NMO","i_lat":-6.466285,"transit":false,"station_name":"Nambo","time":10,"is_transit":false,"distance":6527,"i_long":106.905196}]]}