{"data":[[{"time":0,"line":5,"is_transit":false,"i_lat":-6.1587309999999995,"distance":0,"station_id":"TKO","transit":false,"i_long":106.756522,"station_name":"Taman Kota"},{"time":2,"is_transit":false,"distance":1614,"station_name":"Pesing","transit":false,"i_long":106.771379,"station_id":"PSG","i_lat":-6.161433,"line":5},{"distance":2036,"station_id":"GRG","transit":false,"i_lat":-6.162021,"line":5,"time":2,"i_long":106.788277,"is_transit":false,"station_name":"Grogol"},{"transit":true,"station_id":"DU","distance":1700,"i_long":106.800832,"time":3,"line":1,"station_name":"Duri","i_lat":-6.155215,"is_transit":true},{"station_name":"Tanah Abang","distance":3632,"i_long":106.811091,"i_lat":-6.185545,"is_transit":false,"time":8,"line":1,"station_id":"THB","transit":false},{"station_name":"Karet","is_transit":false,"transit":false,"line":1,"time":5,"distance":2029,"i_lat":-6.20132,"station_id":"KAT","i_long":106.816351},{"station_id":"SUDB","station_name":"Sudirman Baru","i_long":106.819881,"distance":471,"is_transit":false,"transit":false,"line":1,"time":1,"i_lat":-6.201433},{"transit":false,"station_name":"Sudirman","time":1,"distance":280,"i_long":106.822649,"i_lat":-6.202263,"line":1,"is_transit":false,"station_id":"SUD"},{"is_transit":false,"i_lat":-6.209883,"station_name":"Manggarai","time":4,"distance":3186,"station_id":"MRI","transit":false,"i_long":106.84912,"line":2},{"is_transit":false,"time":2,"line":1,"station_name":"Matraman","i_long":106.858896,"distance":1275,"transit":false,"i_lat":-6.212485,"station_id":"MTR"},{"i_long":106.86807400000001,"time":8,"transit":false,"station_name":"Jatinegara","i_lat":-6.215091,"is_transit":false,"distance":1377,"line":1,"station_id":"JNG"},{"i_long":106.899548,"station_name":"Klender","line":1,"transit":false,"distance":3395,"time":3,"station_id":"KLD","is_transit":false,"i_lat":-6.2135},{"i_lat":-6.215568,"time":2,"transit":false,"distance":3100,"station_name":"Buaran","is_transit":false,"station_id":"BUA","i_long":106.922662,"line":1},{"distance":1305,"station_id":"KLDB","time":1,"is_transit":false,"station_name":"Klenderbaru","i_long":106.939679,"transit":false,"i_lat":-6.217455,"line":1}],[{"transit":false,"i_lat":-6.1587309999999995,"i_long":106.756522,"station_name":"Taman Kota","line":5,"distance":0,"time":0,"is_transit":false,"station_id":"TKO"},{"distance":1614,"is_transit":false,"i_lat":-6.161433,"i_long":106.771379,"station_name":"Pesing","station_id":"PSG","time":2,"line":5,"transit":false},{"transit":false,"line":5,"distance":2036,"station_id":"GRG","i_lat":-6.162021,"is_transit":false,"time":2,"i_long":106.788277,"station_name":"Grogol"},{"line":1,"i_long":106.800832,"distance":1700,"is_transit":true,"station_id":"DU","transit":true,"station_name":"Duri","time":3,"i_lat":-6.155215},{"station_name":"Angke","station_id":"AK","time":4,"line":1,"i_lat":-6.144674,"distance":1230,"is_transit":false,"i_long":106.79867,"transit":false},{"i_long":106.826365,"station_name":"Kampung Bandan","is_transit":true,"time":9,"distance":4102,"transit":true,"i_lat":-6.132549,"line":4,"station_id":"KPB"},{"i_lat":-6.14505,"line":11,"station_id":"RJW","is_transit":false,"station_name":"Rajawali","transit":false,"i_long":106.836569,"time":3,"distance":1444},{"station_id":"KMO","transit":false,"is_transit":false,"i_long":106.839204,"distance":1901,"i_lat":-6.161728,"line":11,"station_name":"Kemayoran","time":5},{"i_long":106.84368,"is_transit":false,"station_name":"Pasar Senen","i_lat":-6.174784,"distance":1436,"transit":false,"station_id":"PSE","line":11,"time":4},{"is_transit":false,"i_long":106.850107,"time":8,"transit":false,"line":11,"station_id":"GST","i_lat":-6.185975,"station_name":"Gang Sentiong","distance":1567},{"transit":false,"line":11,"i_lat":-6.193792,"station_id":"KMT","time":1,"distance":973,"is_transit":false,"i_long":106.855437,"station_name":"Kramat"},{"line":11,"distance":1829,"station_id":"POK","i_lat":-6.209188,"is_transit":false,"station_name":"Pondok Jati","i_long":106.861737,"time":2,"transit":false},{"time":9,"station_name":"Jatinegara","line":1,"i_long":106.86807400000001,"transit":true,"distance":1236,"is_transit":true,"station_id":"JNG","i_lat":-6.215091},{"transit":false,"station_id":"KLD","station_name":"Klender","i_lat":-6.2135,"distance":3395,"time":3,"i_long":106.899548,"is_transit":false,"line":1},{"station_id":"BUA","line":1,"is_transit":false,"station_name":"Buaran","time":2,"i_lat":-6.215568,"i_long":106.922662,"transit":false,"distance":3100},{"is_transit":false,"station_name":"Klenderbaru","time":1,"distance":1305,"i_lat":-6.217455,"station_id":"KLDB","line":1,"i_long":106.939679,"transit":false}],[{"is_transit":false,"transit":false,"line":5,"station_name":"Taman Kota","time":0,"i_lat":-6.1587309999999995,"i_long":106.756522,"station_id":"TKO","distance":0},{"i_long":106.771379,"transit":false,"i_lat":-6.161433,"time":2,"is_transit":false,"station_name":"Pesing","line":5,"station_id":"PSG","distance":1614},{"distance":2036,"transit":false,"line":5,"i_lat":-6.162021,"station_id":"GRG","time":2,"i_long":106.788277,"is_transit":false,"station_name":"Grogol"},{"is_transit":true,"station_name":"Duri","station_id":"DU","i_lat":-6.155215,"transit":true,"distance":1700,"i_long":106.800832,"time":3,"line":1},{"station_id":"AK","is_transit":false,"i_lat":-6.144674,"line":1,"station_name":"Angke","time":4,"transit":false,"distance":1230,"i_long":106.79867},{"time":9,"distance":4102,"i_lat":-6.132549,"i_long":106.826365,"line":4,"transit":true,"station_name":"Kampung Bandan","station_id":"KPB","is_transit":true},{"station_id":"JAKK","transit":true,"line":2,"i_lat":-6.137569,"station_name":"Jakarta Kota","distance":1364,"time":3,"i_long":106.812439,"is_transit":true},{"distance":1264,"station_name":"Jayakarta","line":2,"is_transit":false,"transit":false,"i_lat":-6.141205,"i_long":106.820901,"time":4,"station_id":"JAY"},{"distance":1080,"line":2,"i_lat":-6.149769,"is_transit":false,"time":2,"transit":false,"station_name":"Manggabesar","station_id":"MGB","i_long":106.82482},{"time":2,"distance":906,"transit":false,"is_transit":false,"i_lat":-6.160725,"i_long":106.827103,"station_name":"Sawah Besar","station_id":"SW","line":2},{"station_id":"JUA","is_transit":false,"transit":false,"i_lat":-6.166716,"time":2,"distance":1149,"i_long":106.828284,"station_name":"Juanda","line":2},{"distance":2015,"i_lat":-6.186295,"transit":false,"is_transit":false,"station_id":"GDD","i_long":106.832183,"line":2,"station_name":"Gondangdia","time":4},{"station_id":"CKI","i_lat":-6.198556,"time":3,"distance":1750,"i_long":106.840169,"station_name":"Cikini","is_transit":false,"transit":false,"line":2},{"line":2,"i_lat":-6.209883,"time":4,"station_id":"MRI","i_long":106.84912,"is_transit":true,"station_name":"Manggarai","distance":1590,"transit":true},{"is_transit":false,"time":2,"transit":false,"i_long":106.858896,"line":1,"station_id":"MTR","distance":1275,"i_lat":-6.212485,"station_name":"Matraman"},{"is_transit":false,"line":1,"station_id":"JNG","time":8,"station_name":"Jatinegara","i_long":106.86807400000001,"transit":false,"distance":1377,"i_lat":-6.215091},{"transit":false,"station_id":"KLD","i_lat":-6.2135,"i_long":106.899548,"is_transit":false,"distance":3395,"time":3,"line":1,"station_name":"Klender"},{"i_lat":-6.215568,"station_name":"Buaran","is_transit":false,"station_id":"BUA","time":2,"transit":false,"distance":3100,"i_long":106.922662,"line":1},{"line":1,"station_name":"Klenderbaru","transit":false,"i_lat":-6.217455,"station_id":"KLDB","time":1,"distance":1305,"i_long":106.939679,"is_transit":false}],[{"time":0,"station_id":"TKO","station_name":"Taman Kota","transit":false,"distance":0,"i_lat":-6.1587309999999995,"i_long":106.756522,"line":5,"is_transit":false},{"transit":false,"is_transit":false,"time":2,"distance":1614,"i_long":106.771379,"station_name":"Pesing","station_id":"PSG","i_lat":-6.161433,"line":5},{"distance":2036,"station_id":"GRG","i_lat":-6.162021,"transit":false,"time":2,"line":5,"i_long":106.788277,"is_transit":false,"station_name":"Grogol"},{"station_name":"Duri","i_lat":-6.155215,"time":3,"transit":true,"line":1,"station_id":"DU","is_transit":true,"distance":1700,"i_long":106.800832},{"i_lat":-6.185545,"i_long":106.811091,"line":1,"station_name":"Tanah Abang","is_transit":false,"distance":3632,"station_id":"THB","time":8,"transit":false},{"is_transit":false,"distance":2029,"station_id":"KAT","line":1,"i_lat":-6.20132,"time":5,"transit":false,"station_name":"Karet","i_long":106.816351},{"station_name":"Sudirman Baru","i_lat":-6.201433,"time":1,"distance":471,"line":1,"transit":false,"is_transit":false,"i_long":106.819881,"station_id":"SUDB"},{"station_name":"Sudirman","distance":280,"is_transit":false,"time":1,"i_long":106.822649,"station_id":"SUD","line":1,"transit":false,"i_lat":-6.202263},{"station_name":"Manggarai","distance":3186,"is_transit":true,"time":4,"line":2,"i_long":106.84912,"transit":true,"station_id":"MRI","i_lat":-6.209883},{"i_long":106.840169,"transit":false,"time":4,"line":2,"is_transit":false,"station_name":"Cikini","distance":1590,"station_id":"CKI","i_lat":-6.198556},{"line":2,"transit":false,"is_transit":false,"station_name":"Gondangdia","distance":1750,"time":3,"i_lat":-6.186295,"i_long":106.832183,"station_id":"GDD"},{"time":4,"distance":2015,"i_lat":-6.166716,"station_id":"JUA","station_name":"Juanda","i_long":106.828284,"transit":false,"line":2,"is_transit":false},{"transit":false,"station_name":"Sawah Besar","station_id":"SW","i_lat":-6.160725,"i_long":106.827103,"line":2,"distance":1149,"is_transit":false,"time":2},{"station_name":"Manggabesar","station_id":"MGB","time":2,"i_lat":-6.149769,"distance":906,"is_transit":false,"i_long":106.82482,"transit":false,"line":2},{"transit":false,"i_long":106.820901,"is_transit":false,"station_name":"Jayakarta","i_lat":-6.141205,"line":2,"time":2,"distance":1080,"station_id":"JAY"},{"is_transit":true,"transit":true,"station_name":"Jakarta Kota","time":4,"distance":1264,"station_id":"JAKK","i_lat":-6.137569,"i_long":106.812439,"line":2},{"distance":1364,"i_long":106.826365,"i_lat":-6.132549,"is_transit":true,"station_name":"Kampung Bandan","station_id":"KPB","transit":true,"time":3,"line":4},{"transit":false,"i_lat":-6.14505,"line":11,"distance":1444,"is_transit":false,"i_long":106.836569,"station_name":"Rajawali","time":3,"station_id":"RJW"},{"is_transit":false,"transit":false,"i_long":106.839204,"i_lat":-6.161728,"time":5,"station_name":"Kemayoran","station_id":"KMO","line":11,"distance":1901},{"transit":false,"i_long":106.84368,"station_name":"Pasar Senen","time":4,"distance":1436,"is_transit":false,"line":11,"i_lat":-6.174784,"station_id":"PSE"},{"station_name":"Gang Sentiong","i_long":106.850107,"distance":1567,"time":8,"station_id":"GST","transit":false,"i_lat":-6.185975,"line":11,"is_transit":false},{"i_lat":-6.193792,"time":1,"distance":973,"transit":false,"station_id":"KMT","is_transit":false,"station_name":"Kramat","i_long":106.855437,"line":11},{"station_id":"POK","i_lat":-6.209188,"time":2,"line":11,"transit":false,"is_transit":false,"station_name":"Pondok Jati","i_long":106.861737,"distance":1829},{"transit":true,"station_name":"Jatinegara","i_lat":-6.215091,"distance":1236,"i_long":106.86807400000001,"line":1,"time":9,"is_transit":true,"station_id":"JNG"},{"i_lat":-6.2135,"i_long":106.899548,"time":3,"is_transit":false,"distance":3395,"station_id":"KLD","line":1,"station_name":"Klender","transit":false},{"station_id":"BUA","transit":false,"i_lat":-6.215568,"i_long":106.922662,"line":1,"time":2,"station_name":"Buaran","distance":3100,"is_transit":false},{"time":1,"i_long":106.939679,"station_id":"KLDB","distance":1305,"station_name":"Klenderbaru","i_lat":-6.217455,"is_transit":false,"transit":false,"line":1}]]}