{"data":[[{"time":0,"station_name":"Taman Kota","station_id":"TKO","transit":false,"distance":0,"line":5,"i_long":106.756522,"i_lat":-6.1587309999999995,"is_transit":false},{"distance":1614,"station_id":"PSG","time":2,"i_lat":-6.161433,"is_transit":false,"station_name":"Pesing","transit":false,"i_long":106.771379,"line":5},{"line":5,"transit":false,"station_id":"GGL","time":2,"i_lat":-6.162021,"station_name":"Grogol","distance":2036,"i_long":106.788277,"is_transit":false},{"i_long":106.800832,"distance":1700,"is_transit":true,"i_lat":-6.155215,"station_id":"DU","station_name":"Duri","time":3,"transit":true,"line":1},{"transit":false,"is_transit":false,"distance":3632,"station_name":"Tanah Abang","station_id":"THB","time":8,"i_long":106.811091,"line":1,"i_lat":-6.185545},{"station_id":"KAT","station_name":"Karet","time":5,"distance":2029,"line":1,"is_transit":false,"i_lat":-6.20132,"i_long":106.816351,"transit":false},{"station_id":"SUDB","distance":471,"time":1,"is_transit":false,"i_long":106.819881,"i_lat":-6.201433,"line":1,"transit":false,"station_name":"Sudirman Baru"},{"time":1,"is_transit":false,"transit":false,"line":1,"distance":280,"station_id":"SUD","station_name":"Sudirman","i_long":106.822649,"i_lat":-6.202263},{"distance":3186,"i_lat":-6.209883,"is_transit":true,"i_long":106.84912,"line":2,"time":4,"station_id":"MRI","transit":true,"station_name":"Manggarai"},{"line":2,"transit":false,"i_lat":-6.226659,"distance":2610,"time":4,"station_name":"Tebet","station_id":"TEB","is_transit":false,"i_long":106.857948},{"is_transit":false,"station_name":"Cawang","i_lat":-6.242512,"distance":1230,"line":2,"i_long":106.856607,"transit":false,"time":2,"station_id":"CW"},{"is_transit":false,"i_long":106.85449,"line":2,"time":3,"transit":false,"i_lat":-6.255332,"distance":1546,"station_id":"DRN","station_name":"Duren Kalibata"},{"transit":false,"station_id":"PSMB","i_lat":-6.263214,"is_transit":false,"line":2,"distance":824,"station_name":"Pasar Minggu Baru","time":2,"i_long":106.851577},{"time":2,"is_transit":false,"i_lat":-6.2842400000000005,"i_long":106.843999,"station_id":"PSM","station_name":"Pasar Minggu","line":2,"distance":2380,"transit":false},{"station_id":"TNT","line":2,"is_transit":false,"transit":false,"time":4,"i_lat":-6.3080680000000005,"distance":2820,"station_name":"Tanjung Barat","i_long":106.838896},{"line":2,"station_name":"Lenteng Agung","transit":false,"i_lat":-6.330363,"is_transit":false,"i_long":106.832616,"distance":2671,"station_id":"LNA","time":3},{"is_transit":false,"station_name":"Univ. Pancasila","transit":false,"time":2,"i_lat":-6.339291,"i_long":106.834175,"line":2,"station_id":"UP","distance":1029},{"i_lat":-6.360749,"is_transit":false,"station_name":"Univ. Indonesia","line":2,"distance":2264,"station_id":"UI","i_long":106.831474,"time":3,"transit":false},{"i_lat":-6.369073,"line":2,"time":2,"is_transit":false,"transit":false,"station_name":"Pondok Cina","i_long":106.831114,"station_id":"POC","distance":1109},{"i_lat":-6.391065,"i_long":106.819451,"line":2,"transit":false,"station_id":"DPB","distance":2727,"is_transit":false,"time":4,"station_name":"Depokbaru"},{"is_transit":false,"transit":false,"i_long":106.816926,"station_id":"DP","time":3,"line":2,"station_name":"Depok","distance":1584,"i_lat":-6.405256},{"distance":5084,"station_name":"Citayam","i_lat":-6.448811,"line":2,"transit":true,"is_transit":true,"station_id":"CTA","time":6,"i_long":106.800298},{"time":0,"is_transit":false,"transit":false,"distance":0,"station_id":"PDRG","i_long":106.824374,"station_name":"Pondok Rajeg","line":21,"i_lat":-6.460735},{"i_lat":-6.46424,"i_long":106.851978,"is_transit":false,"transit":false,"station_name":"Cibinong","line":21,"station_id":"CBN","distance":0,"time":0},{"i_lat":-6.466285,"is_transit":false,"station_id":"NMO","transit":false,"station_name":"Nambo","line":21,"i_long":106.905196,"distance":6527,"time":10}],[{"i_lat":-6.1587309999999995,"is_transit":false,"line":5,"i_long":106.756522,"time":0,"transit":false,"station_name":"Taman Kota","station_id":"TKO","distance":0},{"is_transit":false,"i_long":106.771379,"distance":1614,"transit":false,"time":2,"station_id":"PSG","i_lat":-6.161433,"line":5,"station_name":"Pesing"},{"i_lat":-6.162021,"station_name":"Grogol","distance":2036,"time":2,"transit":false,"station_id":"GGL","i_long":106.788277,"line":5,"is_transit":false},{"i_lat":-6.155215,"station_name":"Duri","transit":true,"station_id":"DU","is_transit":true,"distance":1700,"time":3,"i_long":106.800832,"line":1},{"i_lat":-6.144674,"is_transit":false,"time":4,"i_long":106.79867,"distance":1230,"line":1,"station_name":"Angke","transit":false,"station_id":"AK"},{"time":9,"distance":4102,"station_name":"Kampung Bandan","station_id":"KPB","i_lat":-6.132549,"is_transit":true,"line":4,"transit":true,"i_long":106.826365},{"distance":1364,"station_id":"JAKK","is_transit":true,"line":2,"transit":true,"station_name":"Jakarta Kota","time":3,"i_lat":-6.137569,"i_long":106.812439},{"is_transit":false,"distance":1264,"station_id":"JAY","line":2,"i_long":106.820901,"transit":false,"time":4,"station_name":"Jayakarta","i_lat":-6.141205},{"station_name":"Manggabesar","time":2,"is_transit":false,"line":2,"i_long":106.82482,"distance":1080,"station_id":"MGB","i_lat":-6.149769,"transit":false},{"station_id":"SW","is_transit":false,"time":2,"i_lat":-6.160725,"transit":false,"distance":906,"i_long":106.827103,"line":2,"station_name":"Sawah Besar"},{"transit":false,"station_id":"JUA","is_transit":false,"i_long":106.828284,"i_lat":-6.166716,"line":2,"time":2,"distance":1149,"station_name":"Juanda"},{"time":4,"station_id":"GDD","station_name":"Gondangdia","i_lat":-6.186295,"distance":2015,"i_long":106.832183,"is_transit":false,"transit":false,"line":2},{"station_id":"CKI","line":2,"is_transit":false,"distance":1750,"i_long":106.840169,"transit":false,"time":3,"i_lat":-6.198556,"station_name":"Cikini"},{"line":2,"time":4,"distance":1590,"is_transit":false,"transit":false,"i_long":106.84912,"station_name":"Manggarai","i_lat":-6.209883,"station_id":"MRI"},{"is_transit":false,"station_name":"Tebet","time":4,"line":2,"distance":2610,"transit":false,"station_id":"TEB","i_long":106.857948,"i_lat":-6.226659},{"station_name":"Cawang","time":2,"distance":1230,"station_id":"CW","transit":false,"i_lat":-6.242512,"line":2,"i_long":106.856607,"is_transit":false},{"i_long":106.85449,"station_name":"Duren Kalibata","station_id":"DRN","line":2,"time":3,"transit":false,"distance":1546,"is_transit":false,"i_lat":-6.255332},{"transit":false,"station_name":"Pasar Minggu Baru","station_id":"PSMB","i_lat":-6.263214,"distance":824,"i_long":106.851577,"line":2,"is_transit":false,"time":2},{"station_id":"PSM","is_transit":false,"time":2,"station_name":"Pasar Minggu","distance":2380,"i_lat":-6.2842400000000005,"line":2,"transit":false,"i_long":106.843999},{"is_transit":false,"station_id":"TNT","i_long":106.838896,"line":2,"i_lat":-6.3080680000000005,"transit":false,"station_name":"Tanjung Barat","time":4,"distance":2820},{"transit":false,"time":3,"distance":2671,"i_lat":-6.330363,"station_name":"Lenteng Agung","station_id":"LNA","i_long":106.832616,"line":2,"is_transit":false},{"station_name":"Univ. Pancasila","is_transit":false,"station_id":"UP","i_long":106.834175,"time":2,"distance":1029,"transit":false,"i_lat":-6.339291,"line":2},{"time":3,"i_long":106.831474,"line":2,"i_lat":-6.360749,"station_id":"UI","transit":false,"distance":2264,"station_name":"Univ. Indonesia","is_transit":false},{"i_long":106.831114,"station_id":"POC","line":2,"time":2,"transit":false,"station_name":"Pondok Cina","is_transit":false,"distance":1109,"i_lat":-6.369073},{"line":2,"distance":2727,"station_name":"Depokbaru","transit":false,"i_lat":-6.391065,"station_id":"DPB","i_long":106.819451,"time":4,"is_transit":false},{"line":2,"i_lat":-6.405256,"station_name":"Depok","is_transit":false,"i_long":106.816926,"time":3,"distance":1584,"station_id":"DP","transit":false},{"station_name":"Citayam","transit":true,"is_transit":true,"station_id":"CTA","distance":5084,"i_lat":-6.448811,"i_long":106.800298,"line":2,"time":6},{"transit":false,"distance":0,"time":0,"i_lat":-6.460735,"station_id":"PDRG","i_long":106.824374,"line":21,"is_transit":false,"station_name":"Pondok Rajeg"},{"station_id":"CBN","is_transit":false,"station_name":"Cibinong","transit":false,"time":0,"i_long":106.851978,"distance":0,"i_lat":-6.46424,"line":21},{"station_name":"Nambo","is_transit":false,"time":10,"i_lat":-6.466285,"station_id":"NMO","transit":false,"i_long":106.905196,"distance":6527,"line":21}],[{"i_long":106.756522,"i_lat":-6.1587309999999995,"time":0,"is_transit":false,"distance":0,"station_id":"TKO","station_name":"Taman Kota","line":5,"transit":false},{"station_name":"Pesing","station_id":"PSG","time":2,"distance":1614,"transit":false,"i_long":106.771379,"i_lat":-6.161433,"line":5,"is_transit":false},{"time":2,"station_id":"GGL","i_lat":-6.162021,"i_long":106.788277,"is_transit":false,"station_name":"Grogol","transit":false,"distance":2036,"line":5},{"station_id":"DU","transit":true,"is_transit":true,"time":3,"distance":1700,"i_lat":-6.155215,"i_long":106.800832,"station_name":"Duri","line":1},{"station_id":"AK","station_name":"Angke","distance":1230,"time":4,"line":1,"transit":false,"is_transit":false,"i_lat":-6.144674,"i_long":106.79867},{"is_transit":true,"line":4,"i_lat":-6.132549,"station_id":"KPB","transit":true,"station_name":"Kampung Bandan","time":9,"distance":4102,"i_long":106.826365},{"distance":1444,"i_lat":-6.14505,"i_long":106.836569,"line":11,"transit":false,"station_id":"RJW","station_name":"Rajawali","time":3,"is_transit":false},{"line":11,"is_transit":false,"transit":false,"i_lat":-6.161728,"station_id":"KMO","time":5,"station_name":"Kemayoran","distance":1901,"i_long":106.839204},{"transit":false,"i_long":106.84368,"i_lat":-6.174784,"station_id":"PSE","distance":1436,"line":11,"time":4,"is_transit":false,"station_name":"Pasar Senen"},{"time":8,"station_id":"GST","i_lat":-6.185975,"line":11,"distance":1567,"i_long":106.850107,"station_name":"Gang Sentiong","is_transit":false,"transit":false},{"transit":false,"line":11,"distance":973,"station_name":"Kramat","i_lat":-6.193792,"i_long":106.855437,"station_id":"KMT","is_transit":false,"time":1},{"line":11,"distance":1829,"is_transit":false,"i_long":106.861737,"station_name":"Pondok Jati","station_id":"POK","transit":false,"time":2,"i_lat":-6.209188},{"station_id":"JNG","line":1,"i_long":106.86807400000001,"distance":1236,"i_lat":-6.215091,"time":9,"station_name":"Jatinegara","transit":true,"is_transit":true},{"time":2,"i_long":106.858896,"station_id":"MTR","station_name":"Matraman","distance":1377,"line":1,"transit":false,"is_transit":false,"i_lat":-6.212485},{"time":2,"is_transit":true,"transit":true,"station_id":"MRI","line":2,"i_long":106.84912,"station_name":"Manggarai","distance":1275,"i_lat":-6.209883},{"distance":2610,"station_name":"Tebet","is_transit":false,"station_id":"TEB","line":2,"i_long":106.857948,"i_lat":-6.226659,"time":4,"transit":false},{"line":2,"station_id":"CW","time":2,"station_name":"Cawang","transit":false,"distance":1230,"is_transit":false,"i_lat":-6.242512,"i_long":106.856607},{"is_transit":false,"line":2,"station_id":"DRN","i_lat":-6.255332,"i_long":106.85449,"station_name":"Duren Kalibata","time":3,"transit":false,"distance":1546},{"is_transit":false,"transit":false,"i_lat":-6.263214,"distance":824,"line":2,"station_id":"PSMB","time":2,"i_long":106.851577,"station_name":"Pasar Minggu Baru"},{"transit":false,"station_name":"Pasar Minggu","line":2,"time":2,"is_transit":false,"station_id":"PSM","distance":2380,"i_lat":-6.2842400000000005,"i_long":106.843999},{"transit":false,"is_transit":false,"time":4,"distance":2820,"i_long":106.838896,"station_id":"TNT","station_name":"Tanjung Barat","i_lat":-6.3080680000000005,"line":2},{"is_transit":false,"i_long":106.832616,"line":2,"i_lat":-6.330363,"distance":2671,"station_name":"Lenteng Agung","transit":false,"station_id":"LNA","time":3},{"distance":1029,"time":2,"transit":false,"station_name":"Univ. Pancasila","i_long":106.834175,"station_id":"UP","line":2,"i_lat":-6.339291,"is_transit":false},{"transit":false,"i_lat":-6.360749,"line":2,"distance":2264,"station_id":"UI","is_transit":false,"station_name":"Univ. Indonesia","time":3,"i_long":106.831474},{"distance":1109,"is_transit":false,"i_lat":-6.369073,"i_long":106.831114,"station_name":"Pondok Cina","time":2,"line":2,"station_id":"POC","transit":false},{"transit":false,"distance":2727,"is_transit":false,"station_id":"DPB","station_name":"Depokbaru","time":4,"line":2,"i_lat":-6.391065,"i_long":106.819451},{"distance":1584,"i_lat":-6.405256,"station_name":"Depok","station_id":"DP","line":2,"is_transit":false,"transit":false,"time":3,"i_long":106.816926},{"i_long":106.800298,"station_name":"Citayam","time":6,"i_lat":-6.448811,"station_id":"CTA","line":2,"transit":true,"distance":5084,"is_transit":true},{"transit":false,"station_id":"PDRG","distance":0,"is_transit":false,"i_long":106.824374,"i_lat":-6.460735,"line":21,"time":0,"station_name":"Pondok Rajeg"},{"line":21,"i_long":106.851978,"is_transit":false,"station_name":"Cibinong","time":0,"distance":0,"station_id":"CBN","transit":false,"i_lat":-6.46424},{"i_lat":-6.466285,"transit":false,"station_name":"Nambo","distance":6527,"line":21,"is_transit":false,"station_id":"NMO","time":10,"i_long":106.905196}]]}