{"data":[[{"time":0,"i_long":106.756522,"i_lat":-6.1587309999999995,"transit":false,"station_name":"Taman Kota","distance":0,"station_id":"TKO","is_transit":false,"line":5},{"station_id":"PSG","is_transit":false,"i_lat":-6.161433,"line":5,"station_name":"Pesing","distance":1614,"i_long":106.771379,"time":2,"transit":false},{"time":2,"line":5,"transit":false,"station_name":"Grogol","is_transit":false,"distance":2036,"station_id":"GGL","i_lat":-6.162021,"i_long":106.788277},{"station_name":"Duri","i_long":106.800832,"distance":1700,"is_transit":true,"transit":true,"time":3,"station_id":"DU","line":1,"i_lat":-6.155215},{"time":8,"transit":false,"i_long":106.811091,"station_name":"Tanah Abang","i_lat":-6.185545,"station_id":"THB","distance":3632,"line":1,"is_transit":false},{"station_name":"Karet","distance":2029,"i_long":106.816351,"station_id":"KAT","line":1,"i_lat":-6.20132,"is_transit":false,"time":5,"transit":false},{"transit":false,"station_name":"Sudirman Baru","station_id":"SUDB","distance":471,"i_lat":-6.201433,"is_transit":false,"time":1,"line":1,"i_long":106.819881},{"distance":280,"i_long":106.822649,"transit":false,"station_id":"SUD","is_transit":false,"time":1,"line":1,"i_lat":-6.202263,"station_name":"Sudirman"},{"distance":3186,"transit":false,"i_lat":-6.209883,"station_name":"Manggarai","is_transit":false,"i_long":106.84912,"line":2,"time":4,"station_id":"MRI"},{"i_lat":-6.212485,"station_id":"MTR","is_transit":false,"station_name":"Matraman","line":1,"distance":1275,"i_long":106.858896,"transit":false,"time":2},{"is_transit":false,"transit":false,"line":1,"i_lat":-6.215091,"time":8,"i_long":106.86807400000001,"distance":1377,"station_id":"JNG","station_name":"Jatinegara"},{"time":3,"transit":false,"distance":3395,"station_id":"KLD","station_name":"Klender","is_transit":false,"i_lat":-6.2135,"i_long":106.899548,"line":1},{"transit":false,"station_name":"Buaran","time":2,"i_long":106.922662,"station_id":"BUA","is_transit":false,"i_lat":-6.215568,"line":1,"distance":3100},{"transit":false,"i_lat":-6.217455,"station_name":"Klenderbaru","station_id":"KLDB","distance":1305,"line":1,"time":1,"is_transit":false,"i_long":106.939679}],[{"transit":false,"station_id":"TKO","line":5,"station_name":"Taman Kota","time":0,"is_transit":false,"distance":0,"i_lat":-6.1587309999999995,"i_long":106.756522},{"i_lat":-6.161433,"station_id":"PSG","distance":1614,"i_long":106.771379,"line":5,"time":2,"transit":false,"station_name":"Pesing","is_transit":false},{"time":2,"distance":2036,"station_id":"GGL","i_long":106.788277,"line":5,"i_lat":-6.162021,"is_transit":false,"transit":false,"station_name":"Grogol"},{"time":3,"i_long":106.800832,"line":1,"i_lat":-6.155215,"is_transit":true,"station_id":"DU","transit":true,"distance":1700,"station_name":"Duri"},{"i_long":106.79867,"distance":1230,"station_name":"Angke","is_transit":false,"transit":false,"station_id":"AK","i_lat":-6.144674,"line":1,"time":4},{"station_name":"Kampung Bandan","station_id":"KPB","i_lat":-6.132549,"transit":true,"is_transit":true,"i_long":106.826365,"time":9,"distance":4102,"line":4},{"transit":false,"station_id":"RJW","is_transit":false,"line":11,"i_lat":-6.14505,"time":3,"i_long":106.836569,"distance":1444,"station_name":"Rajawali"},{"station_name":"Kemayoran","distance":1901,"is_transit":false,"transit":false,"i_long":106.839204,"time":5,"line":11,"i_lat":-6.161728,"station_id":"KMO"},{"time":4,"station_name":"Pasar Senen","i_lat":-6.174784,"station_id":"PSE","line":11,"i_long":106.84368,"transit":false,"is_transit":false,"distance":1436},{"station_name":"Gang Sentiong","i_lat":-6.185975,"time":8,"line":11,"transit":false,"i_long":106.850107,"is_transit":false,"station_id":"GST","distance":1567},{"transit":false,"station_name":"Kramat","is_transit":false,"station_id":"KMT","i_lat":-6.193792,"time":1,"i_long":106.855437,"line":11,"distance":973},{"line":11,"station_id":"POK","i_long":106.861737,"transit":false,"i_lat":-6.209188,"time":2,"station_name":"Pondok Jati","distance":1829,"is_transit":false},{"i_lat":-6.215091,"is_transit":true,"distance":1236,"i_long":106.86807400000001,"line":1,"transit":true,"station_name":"Jatinegara","time":9,"station_id":"JNG"},{"time":3,"i_lat":-6.2135,"station_id":"KLD","i_long":106.899548,"transit":false,"station_name":"Klender","distance":3395,"line":1,"is_transit":false},{"is_transit":false,"time":2,"transit":false,"i_long":106.922662,"station_name":"Buaran","line":1,"i_lat":-6.215568,"station_id":"BUA","distance":3100},{"station_name":"Klenderbaru","is_transit":false,"line":1,"transit":false,"station_id":"KLDB","distance":1305,"time":1,"i_lat":-6.217455,"i_long":106.939679}],[{"station_id":"TKO","is_transit":false,"i_long":106.756522,"station_name":"Taman Kota","transit":false,"line":5,"distance":0,"i_lat":-6.1587309999999995,"time":0},{"i_long":106.771379,"station_id":"PSG","is_transit":false,"line":5,"i_lat":-6.161433,"time":2,"station_name":"Pesing","distance":1614,"transit":false},{"i_lat":-6.162021,"transit":false,"time":2,"line":5,"distance":2036,"is_transit":false,"station_name":"Grogol","station_id":"GGL","i_long":106.788277},{"station_id":"DU","transit":true,"station_name":"Duri","distance":1700,"line":1,"i_long":106.800832,"is_transit":true,"time":3,"i_lat":-6.155215},{"station_name":"Angke","distance":1230,"line":1,"station_id":"AK","i_lat":-6.144674,"time":4,"is_transit":false,"i_long":106.79867,"transit":false},{"distance":4102,"i_lat":-6.132549,"i_long":106.826365,"station_id":"KPB","is_transit":true,"line":4,"station_name":"Kampung Bandan","time":9,"transit":true},{"station_name":"Jakarta Kota","i_lat":-6.137569,"time":3,"transit":true,"is_transit":true,"i_long":106.812439,"line":2,"station_id":"JAKK","distance":1364},{"station_name":"Jayakarta","distance":1264,"station_id":"JAY","i_long":106.820901,"line":2,"is_transit":false,"i_lat":-6.141205,"transit":false,"time":4},{"is_transit":false,"time":2,"station_name":"Manggabesar","i_long":106.82482,"distance":1080,"transit":false,"station_id":"MGB","i_lat":-6.149769,"line":2},{"station_name":"Sawah Besar","transit":false,"i_lat":-6.160725,"time":2,"line":2,"distance":906,"station_id":"SW","i_long":106.827103,"is_transit":false},{"transit":false,"distance":1149,"i_lat":-6.166716,"time":2,"i_long":106.828284,"line":2,"station_name":"Juanda","station_id":"JUA","is_transit":false},{"is_transit":false,"i_lat":-6.186295,"distance":2015,"transit":false,"station_id":"GDD","line":2,"i_long":106.832183,"time":4,"station_name":"Gondangdia"},{"i_lat":-6.198556,"transit":false,"line":2,"distance":1750,"time":3,"station_name":"Cikini","station_id":"CKI","is_transit":false,"i_long":106.840169},{"i_long":106.84912,"line":2,"station_id":"MRI","is_transit":true,"transit":true,"time":4,"distance":1590,"station_name":"Manggarai","i_lat":-6.209883},{"distance":1275,"i_long":106.858896,"i_lat":-6.212485,"is_transit":false,"station_id":"MTR","line":1,"station_name":"Matraman","transit":false,"time":2},{"line":1,"station_id":"JNG","station_name":"Jatinegara","distance":1377,"i_lat":-6.215091,"transit":false,"is_transit":false,"time":8,"i_long":106.86807400000001},{"i_long":106.899548,"time":3,"line":1,"is_transit":false,"distance":3395,"transit":false,"station_name":"Klender","station_id":"KLD","i_lat":-6.2135},{"station_name":"Buaran","time":2,"transit":false,"is_transit":false,"i_long":106.922662,"station_id":"BUA","distance":3100,"i_lat":-6.215568,"line":1},{"station_name":"Klenderbaru","is_transit":false,"station_id":"KLDB","distance":1305,"i_long":106.939679,"transit":false,"time":1,"i_lat":-6.217455,"line":1}],[{"distance":0,"transit":false,"is_transit":false,"i_lat":-6.1587309999999995,"time":0,"station_name":"Taman Kota","line":5,"station_id":"TKO","i_long":106.756522},{"station_id":"PSG","is_transit":false,"time":2,"distance":1614,"i_long":106.771379,"transit":false,"line":5,"i_lat":-6.161433,"station_name":"Pesing"},{"station_name":"Grogol","is_transit":false,"line":5,"station_id":"GGL","time":2,"i_long":106.788277,"i_lat":-6.162021,"distance":2036,"transit":false},{"transit":true,"distance":1700,"time":3,"i_lat":-6.155215,"i_long":106.800832,"station_name":"Duri","station_id":"DU","is_transit":true,"line":1},{"is_transit":false,"distance":3632,"i_lat":-6.185545,"i_long":106.811091,"line":1,"station_name":"Tanah Abang","station_id":"THB","time":8,"transit":false},{"line":1,"station_name":"Karet","station_id":"KAT","time":5,"i_lat":-6.20132,"transit":false,"is_transit":false,"i_long":106.816351,"distance":2029},{"station_id":"SUDB","i_lat":-6.201433,"time":1,"transit":false,"i_long":106.819881,"station_name":"Sudirman Baru","is_transit":false,"distance":471,"line":1},{"is_transit":false,"transit":false,"time":1,"station_name":"Sudirman","i_lat":-6.202263,"i_long":106.822649,"station_id":"SUD","line":1,"distance":280},{"station_id":"MRI","line":2,"time":4,"i_lat":-6.209883,"station_name":"Manggarai","i_long":106.84912,"distance":3186,"is_transit":true,"transit":true},{"is_transit":false,"station_name":"Cikini","station_id":"CKI","i_lat":-6.198556,"distance":1590,"transit":false,"time":4,"line":2,"i_long":106.840169},{"station_id":"GDD","transit":false,"is_transit":false,"time":3,"i_long":106.832183,"station_name":"Gondangdia","line":2,"distance":1750,"i_lat":-6.186295},{"i_long":106.828284,"is_transit":false,"station_id":"JUA","transit":false,"station_name":"Juanda","distance":2015,"time":4,"i_lat":-6.166716,"line":2},{"line":2,"transit":false,"time":2,"i_lat":-6.160725,"is_transit":false,"station_id":"SW","distance":1149,"station_name":"Sawah Besar","i_long":106.827103},{"transit":false,"time":2,"station_name":"Manggabesar","is_transit":false,"station_id":"MGB","distance":906,"i_long":106.82482,"line":2,"i_lat":-6.149769},{"transit":false,"station_name":"Jayakarta","station_id":"JAY","line":2,"distance":1080,"time":2,"is_transit":false,"i_long":106.820901,"i_lat":-6.141205},{"transit":true,"station_name":"Jakarta Kota","is_transit":true,"distance":1264,"i_long":106.812439,"time":4,"station_id":"JAKK","i_lat":-6.137569,"line":2},{"station_id":"KPB","station_name":"Kampung Bandan","is_transit":true,"distance":1364,"i_lat":-6.132549,"i_long":106.826365,"line":4,"transit":true,"time":3},{"i_long":106.836569,"is_transit":false,"distance":1444,"time":3,"station_name":"Rajawali","i_lat":-6.14505,"line":11,"transit":false,"station_id":"RJW"},{"i_lat":-6.161728,"i_long":106.839204,"transit":false,"is_transit":false,"distance":1901,"line":11,"station_name":"Kemayoran","time":5,"station_id":"KMO"},{"is_transit":false,"time":4,"i_long":106.84368,"station_id":"PSE","i_lat":-6.174784,"transit":false,"station_name":"Pasar Senen","distance":1436,"line":11},{"line":11,"transit":false,"station_name":"Gang Sentiong","station_id":"GST","is_transit":false,"distance":1567,"i_lat":-6.185975,"i_long":106.850107,"time":8},{"station_name":"Kramat","i_lat":-6.193792,"i_long":106.855437,"distance":973,"transit":false,"time":1,"line":11,"station_id":"KMT","is_transit":false},{"transit":false,"line":11,"is_transit":false,"time":2,"i_lat":-6.209188,"distance":1829,"station_name":"Pondok Jati","station_id":"POK","i_long":106.861737},{"line":1,"i_lat":-6.215091,"i_long":106.86807400000001,"station_name":"Jatinegara","time":9,"is_transit":true,"station_id":"JNG","transit":true,"distance":1236},{"station_name":"Klender","distance":3395,"line":1,"is_transit":false,"station_id":"KLD","time":3,"transit":false,"i_lat":-6.2135,"i_long":106.899548},{"distance":3100,"i_long":106.922662,"station_name":"Buaran","line":1,"i_lat":-6.215568,"time":2,"transit":false,"station_id":"BUA","is_transit":false},{"distance":1305,"transit":false,"i_long":106.939679,"station_id":"KLDB","is_transit":false,"station_name":"Klenderbaru","time":1,"i_lat":-6.217455,"line":1}]]}