{"data":[[{"line":5,"is_transit":false,"transit":false,"station_name":"Taman Kota","station_id":"TKO","time":0,"distance":0,"i_lat":-6.1587309999999995,"i_long":106.756522},{"i_lat":-6.161433,"station_name":"Pesing","is_transit":false,"time":2,"distance":1614,"transit":false,"i_long":106.771379,"station_id":"PSG","line":5},{"time":2,"station_name":"Grogol","line":5,"i_long":106.788277,"distance":2036,"station_id":"GGL","i_lat":-6.162021,"transit":false,"is_transit":false},{"station_name":"Duri","is_transit":true,"time":3,"distance":1700,"i_lat":-6.155215,"i_long":106.800832,"transit":true,"line":1,"station_id":"DU"},{"is_transit":true,"station_name":"Tanah Abang","i_lat":-6.185545,"line":1,"station_id":"THB","transit":false,"time":8,"distance":3632,"i_long":106.811091},{"time":5,"station_name":"Karet","i_long":106.816351,"transit":false,"station_id":"KAT","distance":2029,"i_lat":-6.20132,"line":1,"is_transit":false},{"transit":false,"station_name":"Sudirman Baru","i_lat":-6.201433,"line":1,"time":1,"is_transit":false,"station_id":"SUDB","distance":471,"i_long":106.819881},{"is_transit":false,"time":1,"distance":280,"line":1,"transit":false,"station_id":"SUD","station_name":"Sudirman","i_lat":-6.202263,"i_long":106.822649},{"station_id":"MRI","is_transit":true,"time":4,"station_name":"Manggarai","line":0,"i_long":106.84912,"transit":true,"i_lat":-6.209883,"distance":3186},{"i_long":106.857948,"is_transit":false,"time":4,"i_lat":-6.226659,"transit":false,"line":2,"distance":2610,"station_id":"TEB","station_name":"Tebet"},{"station_id":"CW","is_transit":false,"i_lat":-6.242512,"time":2,"i_long":106.856607,"line":0,"station_name":"Cawang","distance":1230,"transit":false},{"i_lat":-6.255332,"time":3,"transit":false,"line":0,"distance":1546,"is_transit":false,"station_id":"DRN","station_name":"Duren Kalibata","i_long":106.85449},{"station_id":"PSMB","station_name":"Pasar Minggu Baru","time":2,"i_lat":-6.263214,"i_long":106.851577,"is_transit":false,"transit":false,"line":2,"distance":824},{"i_long":106.843999,"station_id":"PSM","line":2,"station_name":"Pasar Minggu","i_lat":-6.2842400000000005,"transit":false,"distance":2380,"time":2,"is_transit":false},{"is_transit":false,"time":4,"transit":false,"distance":2820,"i_lat":-6.3080680000000005,"station_id":"TNT","line":2,"station_name":"Tanjung Barat","i_long":106.838896},{"i_lat":-6.330363,"line":2,"station_id":"LNA","is_transit":false,"time":3,"distance":2671,"station_name":"Lenteng Agung","transit":false,"i_long":106.832616},{"station_id":"UP","time":2,"station_name":"Univ. Pancasila","transit":false,"i_lat":-6.339291,"i_long":106.834175,"is_transit":false,"line":2,"distance":1029},{"transit":false,"i_long":106.831474,"distance":2264,"station_name":"Univ. Indonesia","i_lat":-6.360749,"line":2,"station_id":"UI","time":3,"is_transit":false},{"i_lat":-6.369073,"i_long":106.831114,"station_id":"POC","time":2,"distance":1109,"is_transit":false,"transit":false,"line":2,"station_name":"Pondok Cina"},{"station_id":"DPB","line":0,"transit":false,"i_lat":-6.391065,"station_name":"Depokbaru","distance":2727,"is_transit":false,"i_long":106.819451,"time":4},{"i_long":106.816926,"station_id":"DP","i_lat":-6.405256,"transit":false,"is_transit":false,"station_name":"Depok","distance":1584,"line":0,"time":3},{"distance":5084,"station_name":"Citayam","i_long":106.800298,"line":1,"is_transit":true,"transit":false,"station_id":"CTA","time":6,"i_lat":-6.448811},{"station_name":"Bojonggede","i_lat":-6.493243,"i_long":106.792719,"line":0,"station_id":"BJD","transit":false,"time":5,"distance":5197,"is_transit":false}],[{"time":0,"transit":false,"station_name":"Taman Kota","station_id":"TKO","is_transit":false,"i_lat":-6.1587309999999995,"i_long":106.756522,"line":5,"distance":0},{"i_long":106.771379,"line":5,"distance":1614,"station_id":"PSG","time":2,"station_name":"Pesing","is_transit":false,"transit":false,"i_lat":-6.161433},{"is_transit":false,"i_lat":-6.162021,"station_id":"GGL","line":5,"transit":false,"distance":2036,"i_long":106.788277,"time":2,"station_name":"Grogol"},{"time":3,"station_id":"DU","is_transit":true,"distance":1700,"transit":true,"station_name":"Duri","i_lat":-6.155215,"i_long":106.800832,"line":1},{"i_long":106.79867,"station_id":"AK","line":0,"time":4,"distance":1230,"transit":false,"is_transit":false,"i_lat":-6.144674,"station_name":"Angke"},{"is_transit":true,"station_name":"Kampung Bandan","line":0,"time":9,"i_lat":-6.132549,"distance":4102,"transit":false,"station_id":"KPB","i_long":106.826365},{"transit":true,"distance":1364,"i_long":106.812439,"line":0,"station_name":"Jakarta Kota","is_transit":true,"i_lat":-6.137569,"time":3,"station_id":"JAKK"},{"station_name":"Jayakarta","time":4,"distance":1264,"line":7,"station_id":"JAY","i_long":106.820901,"is_transit":false,"i_lat":-6.141205,"transit":false},{"station_name":"Manggabesar","is_transit":false,"station_id":"MGB","distance":1080,"line":2,"i_long":106.82482,"transit":false,"i_lat":-6.149769,"time":2},{"i_lat":-6.160725,"transit":false,"time":2,"station_id":"SW","is_transit":false,"line":2,"distance":906,"station_name":"Sawah Besar","i_long":106.827103},{"line":2,"time":2,"distance":1149,"transit":false,"station_id":"JUA","i_long":106.828284,"is_transit":false,"i_lat":-6.166716,"station_name":"Juanda"},{"station_id":"GDD","distance":2015,"transit":false,"station_name":"Gondangdia","i_long":106.832183,"line":2,"is_transit":false,"i_lat":-6.186295,"time":4},{"is_transit":false,"line":0,"time":3,"i_lat":-6.198556,"distance":1750,"i_long":106.840169,"station_name":"Cikini","station_id":"CKI","transit":false},{"time":4,"line":0,"is_transit":true,"distance":1590,"i_lat":-6.209883,"station_id":"MRI","station_name":"Manggarai","transit":true,"i_long":106.84912},{"i_lat":-6.226659,"is_transit":false,"i_long":106.857948,"line":2,"station_id":"TEB","transit":false,"station_name":"Tebet","distance":2610,"time":4},{"station_name":"Cawang","station_id":"CW","time":2,"is_transit":false,"transit":false,"distance":1230,"line":0,"i_lat":-6.242512,"i_long":106.856607},{"station_name":"Duren Kalibata","station_id":"DRN","i_long":106.85449,"is_transit":false,"time":3,"transit":false,"distance":1546,"i_lat":-6.255332,"line":0},{"time":2,"station_id":"PSMB","i_long":106.851577,"is_transit":false,"distance":824,"station_name":"Pasar Minggu Baru","transit":false,"i_lat":-6.263214,"line":2},{"station_id":"PSM","station_name":"Pasar Minggu","line":2,"i_lat":-6.2842400000000005,"distance":2380,"is_transit":false,"time":2,"transit":false,"i_long":106.843999},{"time":4,"is_transit":false,"i_lat":-6.3080680000000005,"transit":false,"station_id":"TNT","i_long":106.838896,"distance":2820,"line":2,"station_name":"Tanjung Barat"},{"station_name":"Lenteng Agung","time":3,"distance":2671,"station_id":"LNA","i_lat":-6.330363,"i_long":106.832616,"line":2,"transit":false,"is_transit":false},{"station_name":"Univ. Pancasila","is_transit":false,"transit":false,"i_lat":-6.339291,"line":2,"station_id":"UP","distance":1029,"time":2,"i_long":106.834175},{"line":2,"time":3,"is_transit":false,"station_name":"Univ. Indonesia","i_long":106.831474,"distance":2264,"i_lat":-6.360749,"transit":false,"station_id":"UI"},{"i_long":106.831114,"line":2,"station_id":"POC","time":2,"distance":1109,"station_name":"Pondok Cina","transit":false,"is_transit":false,"i_lat":-6.369073},{"is_transit":false,"line":0,"i_lat":-6.391065,"time":4,"station_id":"DPB","transit":false,"i_long":106.819451,"distance":2727,"station_name":"Depokbaru"},{"i_long":106.816926,"time":3,"distance":1584,"line":0,"station_name":"Depok","transit":false,"is_transit":false,"station_id":"DP","i_lat":-6.405256},{"distance":5084,"line":1,"station_name":"Citayam","transit":false,"is_transit":true,"time":6,"i_lat":-6.448811,"i_long":106.800298,"station_id":"CTA"},{"transit":false,"line":0,"station_id":"BJD","time":5,"station_name":"Bojonggede","is_transit":false,"distance":5197,"i_lat":-6.493243,"i_long":106.792719}],[{"transit":false,"time":0,"distance":0,"i_lat":-6.1587309999999995,"station_id":"TKO","line":5,"i_long":106.756522,"is_transit":false,"station_name":"Taman Kota"},{"time":2,"station_name":"Pesing","i_lat":-6.161433,"station_id":"PSG","distance":1614,"i_long":106.771379,"transit":false,"line":5,"is_transit":false},{"time":2,"is_transit":false,"transit":false,"station_name":"Grogol","i_lat":-6.162021,"i_long":106.788277,"line":5,"distance":2036,"station_id":"GGL"},{"distance":1700,"i_long":106.800832,"time":3,"line":1,"is_transit":true,"i_lat":-6.155215,"transit":true,"station_id":"DU","station_name":"Duri"},{"line":0,"station_name":"Angke","is_transit":false,"time":4,"station_id":"AK","distance":1230,"i_long":106.79867,"i_lat":-6.144674,"transit":false},{"station_id":"KPB","i_lat":-6.132549,"i_long":106.826365,"line":0,"station_name":"Kampung Bandan","transit":true,"distance":4102,"is_transit":true,"time":9},{"line":11,"distance":1444,"time":3,"station_id":"RJW","transit":false,"station_name":"Rajawali","i_long":106.836569,"i_lat":-6.14505,"is_transit":false},{"line":11,"transit":false,"i_lat":-6.161728,"i_long":106.839204,"time":5,"station_id":"KMO","distance":1901,"is_transit":false,"station_name":"Kemayoran"},{"transit":false,"distance":1436,"time":4,"station_id":"PSE","i_long":106.84368,"is_transit":false,"station_name":"Pasar Senen","line":11,"i_lat":-6.174784},{"distance":1567,"line":11,"transit":false,"station_id":"GST","time":8,"is_transit":false,"i_lat":-6.185975,"i_long":106.850107,"station_name":"Gang Sentiong"},{"station_name":"Kramat","is_transit":false,"time":1,"station_id":"KMT","transit":false,"distance":973,"i_lat":-6.193792,"line":11,"i_long":106.855437},{"transit":false,"is_transit":false,"time":2,"station_id":"POK","i_lat":-6.209188,"station_name":"Pondok Jati","line":11,"distance":1829,"i_long":106.861737},{"transit":true,"station_name":"Jatinegara","i_long":106.86807400000001,"time":9,"station_id":"JNG","is_transit":true,"line":0,"distance":1236,"i_lat":-6.215091},{"is_transit":false,"distance":1377,"i_lat":-6.212485,"time":2,"i_long":106.858896,"station_id":"MTR","transit":false,"station_name":"Matraman","line":1},{"station_id":"MRI","i_lat":-6.209883,"transit":true,"distance":1275,"i_long":106.84912,"is_transit":true,"station_name":"Manggarai","line":0,"time":2},{"is_transit":false,"i_long":106.857948,"line":2,"i_lat":-6.226659,"transit":false,"station_id":"TEB","time":4,"distance":2610,"station_name":"Tebet"},{"station_name":"Cawang","is_transit":false,"time":2,"station_id":"CW","distance":1230,"transit":false,"line":0,"i_lat":-6.242512,"i_long":106.856607},{"line":0,"is_transit":false,"time":3,"i_long":106.85449,"i_lat":-6.255332,"station_id":"DRN","distance":1546,"station_name":"Duren Kalibata","transit":false},{"distance":824,"station_name":"Pasar Minggu Baru","transit":false,"is_transit":false,"i_lat":-6.263214,"line":2,"i_long":106.851577,"station_id":"PSMB","time":2},{"distance":2380,"is_transit":false,"time":2,"station_name":"Pasar Minggu","station_id":"PSM","i_lat":-6.2842400000000005,"transit":false,"line":2,"i_long":106.843999},{"i_long":106.838896,"transit":false,"station_name":"Tanjung Barat","line":2,"is_transit":false,"distance":2820,"time":4,"station_id":"TNT","i_lat":-6.3080680000000005},{"line":2,"i_lat":-6.330363,"distance":2671,"i_long":106.832616,"time":3,"is_transit":false,"station_id":"LNA","transit":false,"station_name":"Lenteng Agung"},{"distance":1029,"i_lat":-6.339291,"i_long":106.834175,"line":2,"time":2,"transit":false,"station_id":"UP","is_transit":false,"station_name":"Univ. Pancasila"},{"i_lat":-6.360749,"is_transit":false,"time":3,"i_long":106.831474,"station_id":"UI","distance":2264,"station_name":"Univ. Indonesia","line":2,"transit":false},{"line":2,"station_id":"POC","i_lat":-6.369073,"time":2,"i_long":106.831114,"transit":false,"station_name":"Pondok Cina","is_transit":false,"distance":1109},{"i_long":106.819451,"transit":false,"station_name":"Depokbaru","station_id":"DPB","line":0,"is_transit":false,"i_lat":-6.391065,"distance":2727,"time":4},{"line":0,"is_transit":false,"distance":1584,"time":3,"station_name":"Depok","station_id":"DP","i_long":106.816926,"transit":false,"i_lat":-6.405256},{"i_long":106.800298,"i_lat":-6.448811,"line":1,"time":6,"transit":false,"is_transit":true,"distance":5084,"station_id":"CTA","station_name":"Citayam"},{"i_long":106.792719,"time":5,"line":0,"transit":false,"station_id":"BJD","is_transit":false,"distance":5197,"station_name":"Bojonggede","i_lat":-6.493243}]]}