{"data":[[{"station_id":"TKO","i_long":106.756522,"line":5,"station_name":"Taman Kota","transit":false,"time":0,"i_lat":-6.1587309999999995,"distance":0,"is_transit":false},{"i_long":106.771379,"is_transit":false,"i_lat":-6.161433,"distance":1614,"station_id":"PSG","station_name":"Pesing","line":5,"time":2,"transit":false},{"is_transit":false,"line":5,"transit":false,"i_long":106.788277,"station_id":"GGL","station_name":"Grogol","time":2,"distance":2036,"i_lat":-6.162021},{"i_lat":-6.155215,"station_id":"DU","i_long":106.800832,"line":1,"time":3,"transit":true,"station_name":"Duri","is_transit":true,"distance":1700},{"i_lat":-6.185545,"is_transit":true,"station_name":"Tanah Abang","i_long":106.811091,"line":1,"station_id":"THB","transit":false,"time":8,"distance":3632},{"is_transit":false,"time":5,"i_lat":-6.20132,"distance":2029,"station_name":"Karet","i_long":106.816351,"transit":false,"station_id":"KAT","line":1},{"transit":false,"station_name":"Sudirman Baru","i_lat":-6.201433,"i_long":106.819881,"line":1,"distance":471,"time":1,"is_transit":false,"station_id":"SUDB"},{"line":1,"is_transit":false,"station_id":"SUD","time":1,"transit":false,"i_long":106.822649,"distance":280,"station_name":"Sudirman","i_lat":-6.202263},{"transit":true,"time":4,"i_lat":-6.209883,"i_long":106.84912,"station_id":"MRI","is_transit":true,"line":0,"distance":3186,"station_name":"Manggarai"},{"time":4,"i_lat":-6.226659,"station_id":"TEB","transit":false,"station_name":"Tebet","distance":2610,"i_long":106.857948,"line":2,"is_transit":false},{"i_long":106.856607,"distance":1230,"line":0,"station_name":"Cawang","i_lat":-6.242512,"is_transit":false,"transit":false,"station_id":"CW","time":2},{"distance":1546,"station_id":"DRN","is_transit":false,"time":3,"i_lat":-6.255332,"line":0,"station_name":"Duren Kalibata","transit":false,"i_long":106.85449},{"line":2,"distance":824,"station_name":"Pasar Minggu Baru","i_lat":-6.263214,"time":2,"i_long":106.851577,"transit":false,"is_transit":false,"station_id":"PSMB"},{"line":2,"i_long":106.843999,"distance":2380,"is_transit":false,"station_id":"PSM","station_name":"Pasar Minggu","i_lat":-6.2842400000000005,"transit":false,"time":2},{"is_transit":false,"station_name":"Tanjung Barat","transit":false,"line":2,"i_long":106.838896,"station_id":"TNT","distance":2820,"i_lat":-6.3080680000000005,"time":4},{"line":2,"i_long":106.832616,"is_transit":false,"distance":2671,"station_id":"LNA","transit":false,"i_lat":-6.330363,"station_name":"Lenteng Agung","time":3}],[{"time":0,"line":5,"i_lat":-6.1587309999999995,"distance":0,"station_name":"Taman Kota","station_id":"TKO","is_transit":false,"transit":false,"i_long":106.756522},{"line":5,"i_lat":-6.161433,"time":2,"station_id":"PSG","transit":false,"station_name":"Pesing","distance":1614,"is_transit":false,"i_long":106.771379},{"line":5,"i_lat":-6.162021,"i_long":106.788277,"transit":false,"distance":2036,"time":2,"station_id":"GGL","is_transit":false,"station_name":"Grogol"},{"transit":true,"time":3,"line":1,"is_transit":true,"station_name":"Duri","i_long":106.800832,"distance":1700,"i_lat":-6.155215,"station_id":"DU"},{"distance":1230,"is_transit":false,"station_name":"Angke","transit":false,"time":4,"i_long":106.79867,"i_lat":-6.144674,"line":0,"station_id":"AK"},{"i_lat":-6.132549,"transit":false,"distance":4102,"station_name":"Kampung Bandan","time":9,"line":0,"is_transit":true,"station_id":"KPB","i_long":106.826365},{"i_lat":-6.137569,"station_name":"Jakarta Kota","distance":1364,"is_transit":true,"station_id":"JAKK","transit":true,"time":3,"i_long":106.812439,"line":0},{"station_name":"Jayakarta","transit":false,"i_lat":-6.141205,"station_id":"JAY","i_long":106.820901,"time":4,"line":7,"distance":1264,"is_transit":false},{"is_transit":false,"transit":false,"time":2,"i_lat":-6.149769,"line":2,"distance":1080,"station_name":"Manggabesar","station_id":"MGB","i_long":106.82482},{"station_id":"SW","is_transit":false,"transit":false,"distance":906,"station_name":"Sawah Besar","time":2,"i_lat":-6.160725,"i_long":106.827103,"line":2},{"is_transit":false,"station_id":"JUA","station_name":"Juanda","time":2,"transit":false,"i_lat":-6.166716,"i_long":106.828284,"distance":1149,"line":2},{"time":4,"station_name":"Gondangdia","i_long":106.832183,"distance":2015,"is_transit":false,"transit":false,"i_lat":-6.186295,"line":2,"station_id":"GDD"},{"i_long":106.840169,"is_transit":false,"line":0,"distance":1750,"i_lat":-6.198556,"transit":false,"station_id":"CKI","station_name":"Cikini","time":3},{"is_transit":true,"distance":1590,"i_long":106.84912,"time":4,"station_id":"MRI","transit":true,"station_name":"Manggarai","i_lat":-6.209883,"line":0},{"time":4,"station_name":"Tebet","i_long":106.857948,"transit":false,"distance":2610,"line":2,"station_id":"TEB","is_transit":false,"i_lat":-6.226659},{"is_transit":false,"transit":false,"distance":1230,"station_id":"CW","i_long":106.856607,"time":2,"station_name":"Cawang","i_lat":-6.242512,"line":0},{"is_transit":false,"line":0,"station_name":"Duren Kalibata","transit":false,"i_lat":-6.255332,"distance":1546,"i_long":106.85449,"station_id":"DRN","time":3},{"time":2,"i_long":106.851577,"distance":824,"line":2,"station_name":"Pasar Minggu Baru","transit":false,"is_transit":false,"i_lat":-6.263214,"station_id":"PSMB"},{"line":2,"transit":false,"station_id":"PSM","station_name":"Pasar Minggu","is_transit":false,"time":2,"i_long":106.843999,"i_lat":-6.2842400000000005,"distance":2380},{"distance":2820,"station_id":"TNT","station_name":"Tanjung Barat","i_long":106.838896,"line":2,"is_transit":false,"time":4,"transit":false,"i_lat":-6.3080680000000005},{"station_name":"Lenteng Agung","distance":2671,"transit":false,"i_long":106.832616,"station_id":"LNA","i_lat":-6.330363,"time":3,"line":2,"is_transit":false}],[{"is_transit":false,"time":0,"distance":0,"i_long":106.756522,"station_name":"Taman Kota","transit":false,"line":5,"station_id":"TKO","i_lat":-6.1587309999999995},{"i_lat":-6.161433,"station_id":"PSG","transit":false,"i_long":106.771379,"line":5,"time":2,"station_name":"Pesing","distance":1614,"is_transit":false},{"i_lat":-6.162021,"is_transit":false,"distance":2036,"station_id":"GGL","i_long":106.788277,"line":5,"station_name":"Grogol","transit":false,"time":2},{"is_transit":true,"line":1,"transit":true,"distance":1700,"station_name":"Duri","time":3,"i_lat":-6.155215,"i_long":106.800832,"station_id":"DU"},{"distance":1230,"i_long":106.79867,"station_id":"AK","is_transit":false,"time":4,"station_name":"Angke","line":0,"i_lat":-6.144674,"transit":false},{"time":9,"is_transit":true,"line":0,"station_name":"Kampung Bandan","i_long":106.826365,"station_id":"KPB","i_lat":-6.132549,"distance":4102,"transit":true},{"distance":1444,"is_transit":false,"station_id":"RJW","time":3,"transit":false,"i_lat":-6.14505,"i_long":106.836569,"line":11,"station_name":"Rajawali"},{"i_lat":-6.161728,"is_transit":false,"i_long":106.839204,"line":11,"station_id":"KMO","distance":1901,"station_name":"Kemayoran","transit":false,"time":5},{"station_id":"PSE","distance":1436,"is_transit":false,"line":11,"i_long":106.84368,"i_lat":-6.174784,"time":4,"transit":false,"station_name":"Pasar Senen"},{"line":11,"time":8,"is_transit":false,"station_name":"Gang Sentiong","station_id":"GST","distance":1567,"transit":false,"i_lat":-6.185975,"i_long":106.850107},{"is_transit":false,"transit":false,"i_long":106.855437,"station_name":"Kramat","i_lat":-6.193792,"line":11,"station_id":"KMT","distance":973,"time":1},{"station_id":"POK","is_transit":false,"station_name":"Pondok Jati","transit":false,"i_lat":-6.209188,"i_long":106.861737,"line":11,"time":2,"distance":1829},{"station_id":"JNG","transit":true,"time":9,"i_lat":-6.215091,"i_long":106.86807400000001,"line":0,"distance":1236,"station_name":"Jatinegara","is_transit":true},{"station_id":"MTR","station_name":"Matraman","transit":false,"i_long":106.858896,"time":2,"distance":1377,"i_lat":-6.212485,"is_transit":false,"line":1},{"is_transit":true,"station_id":"MRI","transit":true,"i_lat":-6.209883,"i_long":106.84912,"distance":1275,"line":0,"station_name":"Manggarai","time":2},{"i_lat":-6.226659,"station_id":"TEB","time":4,"is_transit":false,"transit":false,"station_name":"Tebet","line":2,"i_long":106.857948,"distance":2610},{"is_transit":false,"station_id":"CW","station_name":"Cawang","time":2,"transit":false,"i_lat":-6.242512,"distance":1230,"i_long":106.856607,"line":0},{"i_long":106.85449,"station_id":"DRN","i_lat":-6.255332,"line":0,"station_name":"Duren Kalibata","transit":false,"time":3,"is_transit":false,"distance":1546},{"i_lat":-6.263214,"is_transit":false,"time":2,"i_long":106.851577,"line":2,"station_id":"PSMB","station_name":"Pasar Minggu Baru","transit":false,"distance":824},{"station_id":"PSM","distance":2380,"i_long":106.843999,"station_name":"Pasar Minggu","i_lat":-6.2842400000000005,"time":2,"transit":false,"line":2,"is_transit":false},{"distance":2820,"is_transit":false,"station_name":"Tanjung Barat","station_id":"TNT","transit":false,"i_long":106.838896,"time":4,"i_lat":-6.3080680000000005,"line":2},{"i_long":106.832616,"station_id":"LNA","distance":2671,"station_name":"Lenteng Agung","time":3,"transit":false,"i_lat":-6.330363,"is_transit":false,"line":2}]]}