{"data":[[{"line":5,"i_lat":-6.1587309999999995,"station_name":"Taman Kota","station_id":"TKO","is_transit":false,"distance":0,"time":0,"transit":false,"i_long":106.756522},{"line":5,"station_id":"PSG","i_lat":-6.161433,"distance":1614,"i_long":106.771379,"station_name":"Pesing","transit":false,"is_transit":false,"time":2},{"i_long":106.788277,"i_lat":-6.162021,"station_name":"Grogol","transit":false,"line":5,"distance":2036,"time":2,"station_id":"GGL","is_transit":false},{"i_long":106.800832,"distance":1700,"line":1,"transit":true,"time":3,"station_id":"DU","is_transit":true,"station_name":"Duri","i_lat":-6.155215},{"time":4,"distance":1230,"i_long":106.79867,"is_transit":false,"station_name":"Angke","station_id":"AK","line":1,"transit":false,"i_lat":-6.144674},{"distance":4102,"line":4,"i_lat":-6.132549,"station_name":"Kampung Bandan","station_id":"KPB","is_transit":true,"i_long":106.826365,"time":9,"transit":true},{"station_name":"Rajawali","transit":false,"line":11,"time":3,"is_transit":false,"distance":1444,"station_id":"RJW","i_lat":-6.14505,"i_long":106.836569}],[{"i_long":106.756522,"is_transit":false,"time":0,"station_id":"TKO","transit":false,"station_name":"Taman Kota","i_lat":-6.1587309999999995,"line":5,"distance":0},{"station_name":"Pesing","distance":1614,"is_transit":false,"station_id":"PSG","i_lat":-6.161433,"time":2,"i_long":106.771379,"line":5,"transit":false},{"is_transit":false,"time":2,"station_name":"Grogol","line":5,"transit":false,"distance":2036,"station_id":"GGL","i_lat":-6.162021,"i_long":106.788277},{"station_name":"Duri","transit":true,"i_lat":-6.155215,"time":3,"i_long":106.800832,"line":1,"station_id":"DU","distance":1700,"is_transit":true},{"transit":false,"i_long":106.811091,"station_id":"THB","is_transit":false,"station_name":"Tanah Abang","time":8,"line":1,"i_lat":-6.185545,"distance":3632},{"time":5,"transit":false,"distance":2029,"is_transit":false,"station_name":"Karet","station_id":"KAT","i_lat":-6.20132,"line":1,"i_long":106.816351},{"station_name":"Sudirman Baru","line":1,"station_id":"SUDB","i_lat":-6.201433,"is_transit":false,"distance":471,"transit":false,"i_long":106.819881,"time":1},{"i_lat":-6.202263,"is_transit":false,"station_name":"Sudirman","transit":false,"station_id":"SUD","i_long":106.822649,"time":1,"distance":280,"line":1},{"i_long":106.84912,"transit":false,"distance":3186,"time":4,"station_name":"Manggarai","i_lat":-6.209883,"is_transit":false,"line":2,"station_id":"MRI"},{"is_transit":false,"i_long":106.858896,"station_name":"Matraman","time":2,"line":1,"distance":1275,"i_lat":-6.212485,"station_id":"MTR","transit":false},{"station_name":"Jatinegara","distance":1377,"is_transit":true,"line":1,"i_long":106.86807400000001,"i_lat":-6.215091,"station_id":"JNG","transit":true,"time":8},{"is_transit":false,"i_long":106.861737,"station_id":"POK","station_name":"Pondok Jati","distance":1236,"time":2,"transit":false,"i_lat":-6.209188,"line":11},{"distance":1829,"i_lat":-6.193792,"is_transit":false,"time":2,"transit":false,"station_name":"Kramat","station_id":"KMT","i_long":106.855437,"line":11},{"time":1,"station_id":"GST","transit":false,"is_transit":false,"station_name":"Gang Sentiong","i_lat":-6.185975,"line":11,"distance":973,"i_long":106.850107},{"station_id":"PSE","transit":false,"station_name":"Pasar Senen","line":11,"i_long":106.84368,"distance":1567,"is_transit":false,"i_lat":-6.174784,"time":8},{"time":4,"station_name":"Kemayoran","is_transit":false,"i_lat":-6.161728,"transit":false,"i_long":106.839204,"line":11,"station_id":"KMO","distance":1436},{"distance":1901,"transit":false,"time":5,"is_transit":false,"station_id":"RJW","station_name":"Rajawali","i_long":106.836569,"line":11,"i_lat":-6.14505}],[{"i_long":106.756522,"station_id":"TKO","time":0,"i_lat":-6.1587309999999995,"distance":0,"line":5,"transit":false,"is_transit":false,"station_name":"Taman Kota"},{"i_lat":-6.161433,"transit":false,"i_long":106.771379,"line":5,"time":2,"station_name":"Pesing","is_transit":false,"station_id":"PSG","distance":1614},{"transit":false,"station_id":"GGL","station_name":"Grogol","time":2,"i_long":106.788277,"line":5,"i_lat":-6.162021,"is_transit":false,"distance":2036},{"is_transit":true,"distance":1700,"station_name":"Duri","time":3,"line":1,"i_long":106.800832,"station_id":"DU","i_lat":-6.155215,"transit":true},{"line":1,"station_name":"Tanah Abang","station_id":"THB","transit":false,"time":8,"is_transit":false,"distance":3632,"i_lat":-6.185545,"i_long":106.811091},{"i_lat":-6.20132,"line":1,"transit":false,"time":5,"is_transit":false,"i_long":106.816351,"station_id":"KAT","station_name":"Karet","distance":2029},{"station_id":"SUDB","i_lat":-6.201433,"is_transit":false,"distance":471,"i_long":106.819881,"transit":false,"line":1,"station_name":"Sudirman Baru","time":1},{"station_name":"Sudirman","station_id":"SUD","transit":false,"i_lat":-6.202263,"is_transit":false,"time":1,"distance":280,"line":1,"i_long":106.822649},{"is_transit":true,"i_lat":-6.209883,"distance":3186,"line":2,"time":4,"transit":true,"station_id":"MRI","station_name":"Manggarai","i_long":106.84912},{"line":2,"i_long":106.840169,"station_name":"Cikini","is_transit":false,"distance":1590,"station_id":"CKI","transit":false,"i_lat":-6.198556,"time":4},{"station_id":"GDD","transit":false,"distance":1750,"i_lat":-6.186295,"station_name":"Gondangdia","line":2,"is_transit":false,"i_long":106.832183,"time":3},{"i_long":106.828284,"line":2,"is_transit":false,"time":4,"transit":false,"station_name":"Juanda","i_lat":-6.166716,"distance":2015,"station_id":"JUA"},{"station_name":"Sawah Besar","line":2,"i_long":106.827103,"time":2,"i_lat":-6.160725,"is_transit":false,"distance":1149,"transit":false,"station_id":"SW"},{"transit":false,"line":2,"station_name":"Manggabesar","time":2,"i_long":106.82482,"distance":906,"is_transit":false,"station_id":"MGB","i_lat":-6.149769},{"distance":1080,"transit":false,"station_id":"JAY","is_transit":false,"i_lat":-6.141205,"line":2,"station_name":"Jayakarta","time":2,"i_long":106.820901},{"is_transit":true,"i_lat":-6.137569,"station_name":"Jakarta Kota","transit":true,"distance":1264,"i_long":106.812439,"line":2,"time":4,"station_id":"JAKK"},{"i_long":106.826365,"station_id":"KPB","is_transit":true,"time":3,"i_lat":-6.132549,"line":4,"transit":true,"distance":1364,"station_name":"Kampung Bandan"},{"i_long":106.836569,"distance":1444,"is_transit":false,"station_name":"Rajawali","time":3,"i_lat":-6.14505,"line":11,"transit":false,"station_id":"RJW"}],[{"station_name":"Taman Kota","distance":0,"i_long":106.756522,"station_id":"TKO","time":0,"transit":false,"is_transit":false,"i_lat":-6.1587309999999995,"line":5},{"station_id":"PSG","transit":false,"distance":1614,"i_lat":-6.161433,"is_transit":false,"station_name":"Pesing","i_long":106.771379,"line":5,"time":2},{"line":5,"station_name":"Grogol","transit":false,"i_lat":-6.162021,"i_long":106.788277,"distance":2036,"station_id":"GGL","is_transit":false,"time":2},{"line":1,"distance":1700,"station_id":"DU","station_name":"Duri","i_long":106.800832,"time":3,"transit":true,"is_transit":true,"i_lat":-6.155215},{"transit":false,"i_lat":-6.144674,"line":1,"time":4,"station_name":"Angke","distance":1230,"i_long":106.79867,"is_transit":false,"station_id":"AK"},{"i_long":106.826365,"station_id":"KPB","station_name":"Kampung Bandan","is_transit":true,"transit":true,"i_lat":-6.132549,"line":4,"distance":4102,"time":9},{"station_name":"Jakarta Kota","transit":true,"station_id":"JAKK","is_transit":true,"distance":1364,"time":3,"i_long":106.812439,"i_lat":-6.137569,"line":2},{"station_id":"JAY","station_name":"Jayakarta","is_transit":false,"i_long":106.820901,"transit":false,"distance":1264,"time":4,"line":2,"i_lat":-6.141205},{"transit":false,"i_long":106.82482,"line":2,"is_transit":false,"i_lat":-6.149769,"time":2,"station_name":"Manggabesar","distance":1080,"station_id":"MGB"},{"transit":false,"i_long":106.827103,"time":2,"distance":906,"station_name":"Sawah Besar","is_transit":false,"station_id":"SW","line":2,"i_lat":-6.160725},{"station_name":"Juanda","distance":1149,"i_long":106.828284,"i_lat":-6.166716,"transit":false,"time":2,"station_id":"JUA","line":2,"is_transit":false},{"i_long":106.832183,"station_name":"Gondangdia","distance":2015,"line":2,"transit":false,"is_transit":false,"time":4,"station_id":"GDD","i_lat":-6.186295},{"station_id":"CKI","i_lat":-6.198556,"time":3,"i_long":106.840169,"transit":false,"distance":1750,"station_name":"Cikini","is_transit":false,"line":2},{"i_long":106.84912,"station_name":"Manggarai","transit":true,"time":4,"i_lat":-6.209883,"is_transit":true,"station_id":"MRI","distance":1590,"line":2},{"is_transit":false,"time":2,"i_lat":-6.212485,"i_long":106.858896,"transit":false,"line":1,"distance":1275,"station_id":"MTR","station_name":"Matraman"},{"is_transit":true,"line":1,"transit":true,"time":8,"distance":1377,"i_lat":-6.215091,"station_name":"Jatinegara","i_long":106.86807400000001,"station_id":"JNG"},{"station_name":"Pondok Jati","distance":1236,"is_transit":false,"time":2,"i_lat":-6.209188,"station_id":"POK","i_long":106.861737,"transit":false,"line":11},{"i_lat":-6.193792,"station_id":"KMT","line":11,"distance":1829,"i_long":106.855437,"station_name":"Kramat","time":2,"transit":false,"is_transit":false},{"station_name":"Gang Sentiong","i_long":106.850107,"i_lat":-6.185975,"is_transit":false,"transit":false,"distance":973,"station_id":"GST","line":11,"time":1},{"line":11,"station_name":"Pasar Senen","time":8,"i_lat":-6.174784,"distance":1567,"station_id":"PSE","transit":false,"i_long":106.84368,"is_transit":false},{"i_lat":-6.161728,"is_transit":false,"time":4,"station_name":"Kemayoran","i_long":106.839204,"transit":false,"station_id":"KMO","line":11,"distance":1436},{"station_name":"Rajawali","i_lat":-6.14505,"time":5,"station_id":"RJW","line":11,"is_transit":false,"transit":false,"distance":1901,"i_long":106.836569}]]}