{"data":[[{"line":5,"is_transit":false,"station_name":"Taman Kota","station_id":"TKO","i_long":106.756522,"i_lat":-6.1587309999999995,"time":0,"transit":false,"distance":0},{"station_id":"PSG","time":2,"i_long":106.771379,"transit":false,"i_lat":-6.161433,"line":5,"is_transit":false,"distance":1614,"station_name":"Pesing"},{"distance":2036,"time":2,"station_name":"Grogol","station_id":"GGL","is_transit":false,"transit":false,"i_long":106.788277,"i_lat":-6.162021,"line":5},{"is_transit":true,"distance":1700,"i_lat":-6.155215,"line":1,"transit":true,"station_id":"DU","i_long":106.800832,"time":3,"station_name":"Duri"},{"is_transit":false,"station_name":"Angke","i_long":106.79867,"time":4,"transit":false,"distance":1230,"i_lat":-6.144674,"line":1,"station_id":"AK"},{"is_transit":true,"distance":4102,"i_lat":-6.132549,"station_name":"Kampung Bandan","time":9,"line":4,"station_id":"KPB","i_long":106.826365,"transit":true},{"station_id":"JAKK","transit":false,"line":2,"i_lat":-6.137569,"is_transit":false,"time":3,"i_long":106.812439,"station_name":"Jakarta Kota","distance":1364}],[{"i_lat":-6.1587309999999995,"distance":0,"transit":false,"station_name":"Taman Kota","station_id":"TKO","is_transit":false,"line":5,"time":0,"i_long":106.756522},{"station_name":"Pesing","time":2,"i_lat":-6.161433,"transit":false,"is_transit":false,"distance":1614,"i_long":106.771379,"line":5,"station_id":"PSG"},{"transit":false,"station_id":"GGL","station_name":"Grogol","is_transit":false,"time":2,"distance":2036,"i_long":106.788277,"line":5,"i_lat":-6.162021},{"distance":1700,"station_name":"Duri","line":1,"transit":true,"station_id":"DU","i_lat":-6.155215,"time":3,"i_long":106.800832,"is_transit":true},{"time":8,"line":1,"is_transit":false,"distance":3632,"transit":false,"i_lat":-6.185545,"station_id":"THB","station_name":"Tanah Abang","i_long":106.811091},{"i_long":106.816351,"i_lat":-6.20132,"line":1,"transit":false,"station_name":"Karet","distance":2029,"is_transit":false,"time":5,"station_id":"KAT"},{"time":1,"transit":false,"station_id":"SUDB","is_transit":false,"station_name":"Sudirman Baru","i_lat":-6.201433,"i_long":106.819881,"distance":471,"line":1},{"i_long":106.822649,"station_id":"SUD","time":1,"station_name":"Sudirman","transit":false,"i_lat":-6.202263,"distance":280,"is_transit":false,"line":1},{"station_id":"MRI","i_long":106.84912,"time":4,"i_lat":-6.209883,"distance":3186,"transit":true,"station_name":"Manggarai","is_transit":true,"line":2},{"distance":1590,"i_lat":-6.198556,"station_id":"CKI","time":4,"i_long":106.840169,"transit":false,"is_transit":false,"station_name":"Cikini","line":2},{"station_id":"GDD","time":3,"i_long":106.832183,"line":2,"is_transit":false,"distance":1750,"transit":false,"i_lat":-6.186295,"station_name":"Gondangdia"},{"time":4,"transit":false,"distance":2015,"station_name":"Juanda","i_long":106.828284,"station_id":"JUA","is_transit":false,"line":2,"i_lat":-6.166716},{"is_transit":false,"i_long":106.827103,"time":2,"i_lat":-6.160725,"distance":1149,"transit":false,"line":2,"station_name":"Sawah Besar","station_id":"SW"},{"line":2,"station_id":"MGB","distance":906,"i_lat":-6.149769,"time":2,"is_transit":false,"station_name":"Manggabesar","i_long":106.82482,"transit":false},{"is_transit":false,"station_id":"JAY","i_lat":-6.141205,"i_long":106.820901,"distance":1080,"line":2,"time":2,"transit":false,"station_name":"Jayakarta"},{"time":4,"is_transit":false,"i_lat":-6.137569,"line":2,"station_id":"JAKK","distance":1264,"transit":false,"station_name":"Jakarta Kota","i_long":106.812439}],[{"station_id":"TKO","transit":false,"station_name":"Taman Kota","distance":0,"i_lat":-6.1587309999999995,"i_long":106.756522,"is_transit":false,"time":0,"line":5},{"i_lat":-6.161433,"line":5,"transit":false,"time":2,"station_id":"PSG","is_transit":false,"distance":1614,"station_name":"Pesing","i_long":106.771379},{"is_transit":false,"i_lat":-6.162021,"line":5,"station_name":"Grogol","transit":false,"distance":2036,"station_id":"GGL","time":2,"i_long":106.788277},{"i_long":106.800832,"station_id":"DU","i_lat":-6.155215,"station_name":"Duri","distance":1700,"line":1,"time":3,"transit":true,"is_transit":true},{"station_id":"THB","is_transit":false,"line":1,"transit":false,"distance":3632,"time":8,"station_name":"Tanah Abang","i_lat":-6.185545,"i_long":106.811091},{"line":1,"i_lat":-6.20132,"time":5,"distance":2029,"i_long":106.816351,"is_transit":false,"transit":false,"station_id":"KAT","station_name":"Karet"},{"distance":471,"i_long":106.819881,"transit":false,"time":1,"line":1,"station_name":"Sudirman Baru","is_transit":false,"i_lat":-6.201433,"station_id":"SUDB"},{"is_transit":false,"i_long":106.822649,"i_lat":-6.202263,"distance":280,"transit":false,"line":1,"station_name":"Sudirman","time":1,"station_id":"SUD"},{"time":4,"transit":false,"station_name":"Manggarai","i_lat":-6.209883,"distance":3186,"is_transit":false,"line":2,"station_id":"MRI","i_long":106.84912},{"station_id":"MTR","time":2,"i_long":106.858896,"station_name":"Matraman","is_transit":false,"line":1,"distance":1275,"transit":false,"i_lat":-6.212485},{"distance":1377,"i_lat":-6.215091,"i_long":106.86807400000001,"station_name":"Jatinegara","time":8,"transit":true,"station_id":"JNG","is_transit":true,"line":1},{"time":2,"i_lat":-6.209188,"i_long":106.861737,"distance":1236,"is_transit":false,"line":11,"station_id":"POK","transit":false,"station_name":"Pondok Jati"},{"transit":false,"station_id":"KMT","is_transit":false,"time":2,"distance":1829,"i_lat":-6.193792,"i_long":106.855437,"line":11,"station_name":"Kramat"},{"time":1,"station_id":"GST","i_lat":-6.185975,"distance":973,"transit":false,"i_long":106.850107,"station_name":"Gang Sentiong","is_transit":false,"line":11},{"station_name":"Pasar Senen","is_transit":false,"i_lat":-6.174784,"station_id":"PSE","time":8,"distance":1567,"i_long":106.84368,"transit":false,"line":11},{"distance":1436,"i_long":106.839204,"line":11,"transit":false,"station_name":"Kemayoran","time":4,"station_id":"KMO","i_lat":-6.161728,"is_transit":false},{"is_transit":false,"station_name":"Rajawali","time":5,"station_id":"RJW","distance":1901,"i_lat":-6.14505,"i_long":106.836569,"line":11,"transit":false},{"is_transit":true,"transit":true,"station_id":"KPB","i_long":106.826365,"station_name":"Kampung Bandan","distance":1444,"i_lat":-6.132549,"time":3,"line":4},{"is_transit":false,"distance":1364,"transit":false,"i_long":106.812439,"time":3,"i_lat":-6.137569,"station_id":"JAKK","station_name":"Jakarta Kota","line":2}],[{"line":5,"time":0,"transit":false,"station_id":"TKO","i_long":106.756522,"station_name":"Taman Kota","is_transit":false,"distance":0,"i_lat":-6.1587309999999995},{"time":2,"distance":1614,"i_lat":-6.161433,"line":5,"is_transit":false,"i_long":106.771379,"transit":false,"station_name":"Pesing","station_id":"PSG"},{"is_transit":false,"distance":2036,"line":5,"i_lat":-6.162021,"time":2,"i_long":106.788277,"station_name":"Grogol","transit":false,"station_id":"GGL"},{"i_long":106.800832,"station_name":"Duri","time":3,"transit":true,"line":1,"is_transit":true,"station_id":"DU","distance":1700,"i_lat":-6.155215},{"distance":1230,"i_long":106.79867,"line":1,"station_id":"AK","time":4,"is_transit":false,"transit":false,"station_name":"Angke","i_lat":-6.144674},{"transit":true,"time":9,"distance":4102,"station_name":"Kampung Bandan","is_transit":true,"station_id":"KPB","i_lat":-6.132549,"line":4,"i_long":106.826365},{"station_id":"RJW","station_name":"Rajawali","transit":false,"i_long":106.836569,"i_lat":-6.14505,"distance":1444,"line":11,"is_transit":false,"time":3},{"station_name":"Kemayoran","line":11,"station_id":"KMO","transit":false,"is_transit":false,"time":5,"distance":1901,"i_lat":-6.161728,"i_long":106.839204},{"i_long":106.84368,"transit":false,"i_lat":-6.174784,"line":11,"station_id":"PSE","distance":1436,"station_name":"Pasar Senen","is_transit":false,"time":4},{"station_id":"GST","distance":1567,"is_transit":false,"time":8,"station_name":"Gang Sentiong","line":11,"i_long":106.850107,"transit":false,"i_lat":-6.185975},{"is_transit":false,"time":1,"station_id":"KMT","station_name":"Kramat","line":11,"transit":false,"distance":973,"i_lat":-6.193792,"i_long":106.855437},{"is_transit":false,"station_name":"Pondok Jati","distance":1829,"transit":false,"i_lat":-6.209188,"i_long":106.861737,"line":11,"station_id":"POK","time":2},{"station_name":"Jatinegara","time":9,"i_lat":-6.215091,"is_transit":true,"i_long":106.86807400000001,"line":1,"station_id":"JNG","distance":1236,"transit":true},{"i_long":106.858896,"station_id":"MTR","is_transit":false,"i_lat":-6.212485,"station_name":"Matraman","transit":false,"time":2,"line":1,"distance":1377},{"is_transit":true,"distance":1275,"line":2,"station_id":"MRI","i_lat":-6.209883,"i_long":106.84912,"time":2,"transit":true,"station_name":"Manggarai"},{"station_name":"Cikini","transit":false,"time":4,"distance":1590,"is_transit":false,"i_long":106.840169,"line":2,"i_lat":-6.198556,"station_id":"CKI"},{"time":3,"i_lat":-6.186295,"is_transit":false,"transit":false,"distance":1750,"i_long":106.832183,"line":2,"station_id":"GDD","station_name":"Gondangdia"},{"time":4,"is_transit":false,"station_id":"JUA","transit":false,"line":2,"i_lat":-6.166716,"distance":2015,"station_name":"Juanda","i_long":106.828284},{"i_lat":-6.160725,"time":2,"is_transit":false,"i_long":106.827103,"station_id":"SW","distance":1149,"transit":false,"line":2,"station_name":"Sawah Besar"},{"time":2,"line":2,"i_lat":-6.149769,"distance":906,"is_transit":false,"station_name":"Manggabesar","station_id":"MGB","i_long":106.82482,"transit":false},{"station_name":"Jayakarta","transit":false,"station_id":"JAY","is_transit":false,"line":2,"i_long":106.820901,"time":2,"i_lat":-6.141205,"distance":1080},{"station_name":"Jakarta Kota","distance":1264,"time":4,"station_id":"JAKK","i_lat":-6.137569,"is_transit":false,"i_long":106.812439,"transit":false,"line":2}]]}