{"data":[[{"transit":false,"i_lat":-6.1587309999999995,"station_id":"TKO","line":5,"distance":0,"i_long":106.756522,"time":0,"station_name":"Taman Kota","is_transit":false},{"distance":1614,"transit":false,"i_lat":-6.161433,"is_transit":false,"line":5,"time":2,"i_long":106.771379,"station_id":"PSG","station_name":"Pesing"},{"station_id":"GGL","transit":false,"i_lat":-6.162021,"i_long":106.788277,"is_transit":false,"station_name":"Grogol","distance":2036,"line":5,"time":2},{"station_name":"Duri","i_lat":-6.155215,"transit":true,"line":1,"station_id":"DU","time":3,"is_transit":true,"i_long":106.800832,"distance":1700},{"time":8,"i_lat":-6.185545,"station_name":"Tanah Abang","transit":false,"distance":3632,"station_id":"THB","i_long":106.811091,"line":1,"is_transit":false},{"i_lat":-6.20132,"i_long":106.816351,"distance":2029,"station_name":"Karet","is_transit":false,"transit":false,"line":1,"time":5,"station_id":"KAT"},{"i_long":106.819881,"i_lat":-6.201433,"distance":471,"station_id":"SUDB","line":1,"time":1,"station_name":"Sudirman Baru","transit":false,"is_transit":false},{"transit":false,"is_transit":false,"i_lat":-6.202263,"line":1,"station_name":"Sudirman","i_long":106.822649,"distance":280,"station_id":"SUD","time":1},{"is_transit":true,"transit":true,"distance":3186,"station_id":"MRI","station_name":"Manggarai","i_long":106.84912,"line":2,"time":4,"i_lat":-6.209883},{"transit":false,"i_long":106.857948,"time":4,"distance":2610,"line":2,"station_name":"Tebet","is_transit":false,"station_id":"TEB","i_lat":-6.226659},{"i_long":106.856607,"is_transit":false,"i_lat":-6.242512,"line":2,"station_name":"Cawang","distance":1230,"time":2,"transit":false,"station_id":"CW"},{"station_id":"DRN","line":2,"distance":1546,"time":3,"station_name":"Duren Kalibata","is_transit":false,"transit":false,"i_long":106.85449,"i_lat":-6.255332},{"i_lat":-6.263214,"station_name":"Pasar Minggu Baru","station_id":"PSMB","time":2,"transit":false,"distance":824,"i_long":106.851577,"is_transit":false,"line":2},{"distance":2380,"i_long":106.843999,"transit":false,"line":2,"station_id":"PSM","time":2,"station_name":"Pasar Minggu","is_transit":false,"i_lat":-6.2842400000000005},{"station_id":"TNT","i_lat":-6.3080680000000005,"station_name":"Tanjung Barat","line":2,"distance":2820,"transit":false,"time":4,"is_transit":false,"i_long":106.838896},{"station_name":"Lenteng Agung","i_long":106.832616,"i_lat":-6.330363,"transit":false,"time":3,"station_id":"LNA","is_transit":false,"line":2,"distance":2671},{"distance":1029,"transit":false,"i_long":106.834175,"line":2,"time":2,"is_transit":false,"i_lat":-6.339291,"station_name":"Univ. Pancasila","station_id":"UP"},{"is_transit":false,"transit":false,"i_lat":-6.360749,"station_name":"Univ. Indonesia","line":2,"station_id":"UI","time":3,"i_long":106.831474,"distance":2264},{"is_transit":false,"station_name":"Pondok Cina","station_id":"POC","transit":false,"line":2,"i_long":106.831114,"i_lat":-6.369073,"time":2,"distance":1109},{"distance":2727,"is_transit":false,"i_lat":-6.391065,"station_id":"DPB","line":2,"transit":false,"time":4,"i_long":106.819451,"station_name":"Depokbaru"},{"is_transit":false,"line":2,"station_id":"DP","station_name":"Depok","distance":1584,"time":3,"transit":false,"i_lat":-6.405256,"i_long":106.816926},{"station_name":"Citayam","i_long":106.800298,"i_lat":-6.448811,"time":6,"station_id":"CTA","line":2,"distance":5084,"transit":false,"is_transit":false},{"station_name":"Bojonggede","distance":5197,"station_id":"BJD","transit":false,"is_transit":false,"time":5,"line":2,"i_lat":-6.493243,"i_long":106.792719}],[{"i_long":106.756522,"station_name":"Taman Kota","line":5,"time":0,"station_id":"TKO","is_transit":false,"transit":false,"distance":0,"i_lat":-6.1587309999999995},{"i_lat":-6.161433,"i_long":106.771379,"distance":1614,"station_id":"PSG","station_name":"Pesing","time":2,"transit":false,"is_transit":false,"line":5},{"time":2,"transit":false,"line":5,"station_id":"GGL","is_transit":false,"i_long":106.788277,"i_lat":-6.162021,"station_name":"Grogol","distance":2036},{"station_name":"Duri","i_lat":-6.155215,"i_long":106.800832,"line":1,"distance":1700,"transit":true,"time":3,"is_transit":true,"station_id":"DU"},{"is_transit":false,"station_id":"AK","line":1,"station_name":"Angke","transit":false,"time":4,"i_lat":-6.144674,"distance":1230,"i_long":106.79867},{"i_lat":-6.132549,"station_id":"KPB","time":9,"station_name":"Kampung Bandan","line":4,"is_transit":true,"distance":4102,"transit":true,"i_long":106.826365},{"i_long":106.812439,"distance":1364,"transit":true,"line":2,"station_name":"Jakarta Kota","is_transit":true,"station_id":"JAKK","i_lat":-6.137569,"time":3},{"time":4,"line":2,"distance":1264,"station_name":"Jayakarta","transit":false,"is_transit":false,"station_id":"JAY","i_lat":-6.141205,"i_long":106.820901},{"i_long":106.82482,"station_name":"Manggabesar","distance":1080,"is_transit":false,"station_id":"MGB","time":2,"i_lat":-6.149769,"line":2,"transit":false},{"line":2,"transit":false,"is_transit":false,"i_long":106.827103,"station_id":"SW","distance":906,"station_name":"Sawah Besar","time":2,"i_lat":-6.160725},{"i_long":106.828284,"transit":false,"line":2,"distance":1149,"station_name":"Juanda","station_id":"JUA","i_lat":-6.166716,"is_transit":false,"time":2},{"is_transit":false,"transit":false,"i_long":106.832183,"time":4,"station_name":"Gondangdia","i_lat":-6.186295,"distance":2015,"station_id":"GDD","line":2},{"i_long":106.840169,"line":2,"i_lat":-6.198556,"station_id":"CKI","station_name":"Cikini","distance":1750,"transit":false,"is_transit":false,"time":3},{"station_id":"MRI","is_transit":false,"transit":false,"distance":1590,"i_lat":-6.209883,"i_long":106.84912,"time":4,"line":2,"station_name":"Manggarai"},{"station_id":"TEB","station_name":"Tebet","distance":2610,"line":2,"transit":false,"is_transit":false,"time":4,"i_lat":-6.226659,"i_long":106.857948},{"transit":false,"station_id":"CW","distance":1230,"line":2,"time":2,"station_name":"Cawang","i_long":106.856607,"i_lat":-6.242512,"is_transit":false},{"i_long":106.85449,"is_transit":false,"transit":false,"time":3,"station_id":"DRN","line":2,"distance":1546,"i_lat":-6.255332,"station_name":"Duren Kalibata"},{"i_long":106.851577,"distance":824,"is_transit":false,"station_name":"Pasar Minggu Baru","line":2,"transit":false,"time":2,"station_id":"PSMB","i_lat":-6.263214},{"is_transit":false,"i_long":106.843999,"transit":false,"distance":2380,"station_id":"PSM","line":2,"i_lat":-6.2842400000000005,"time":2,"station_name":"Pasar Minggu"},{"time":4,"station_id":"TNT","distance":2820,"transit":false,"station_name":"Tanjung Barat","i_long":106.838896,"i_lat":-6.3080680000000005,"is_transit":false,"line":2},{"station_name":"Lenteng Agung","time":3,"i_long":106.832616,"i_lat":-6.330363,"distance":2671,"station_id":"LNA","line":2,"is_transit":false,"transit":false},{"distance":1029,"transit":false,"is_transit":false,"station_id":"UP","i_lat":-6.339291,"time":2,"station_name":"Univ. Pancasila","line":2,"i_long":106.834175},{"i_long":106.831474,"is_transit":false,"transit":false,"time":3,"station_name":"Univ. Indonesia","distance":2264,"line":2,"station_id":"UI","i_lat":-6.360749},{"distance":1109,"line":2,"i_long":106.831114,"transit":false,"station_name":"Pondok Cina","time":2,"is_transit":false,"station_id":"POC","i_lat":-6.369073},{"i_long":106.819451,"station_name":"Depokbaru","distance":2727,"is_transit":false,"station_id":"DPB","transit":false,"time":4,"i_lat":-6.391065,"line":2},{"station_name":"Depok","station_id":"DP","time":3,"i_lat":-6.405256,"is_transit":false,"transit":false,"i_long":106.816926,"line":2,"distance":1584},{"transit":false,"station_id":"CTA","distance":5084,"is_transit":false,"station_name":"Citayam","i_long":106.800298,"line":2,"time":6,"i_lat":-6.448811},{"transit":false,"time":5,"i_lat":-6.493243,"i_long":106.792719,"station_name":"Bojonggede","is_transit":false,"station_id":"BJD","line":2,"distance":5197}],[{"line":5,"i_lat":-6.1587309999999995,"transit":false,"station_name":"Taman Kota","station_id":"TKO","i_long":106.756522,"time":0,"distance":0,"is_transit":false},{"transit":false,"i_long":106.771379,"is_transit":false,"time":2,"station_id":"PSG","station_name":"Pesing","i_lat":-6.161433,"line":5,"distance":1614},{"distance":2036,"line":5,"station_name":"Grogol","time":2,"is_transit":false,"station_id":"GGL","i_lat":-6.162021,"i_long":106.788277,"transit":false},{"i_lat":-6.155215,"is_transit":true,"time":3,"station_id":"DU","transit":true,"line":1,"i_long":106.800832,"station_name":"Duri","distance":1700},{"station_id":"AK","i_lat":-6.144674,"distance":1230,"transit":false,"station_name":"Angke","i_long":106.79867,"line":1,"time":4,"is_transit":false},{"time":9,"i_lat":-6.132549,"station_id":"KPB","is_transit":true,"i_long":106.826365,"transit":true,"distance":4102,"station_name":"Kampung Bandan","line":4},{"transit":false,"i_lat":-6.14505,"is_transit":false,"i_long":106.836569,"station_id":"RJW","line":11,"station_name":"Rajawali","distance":1444,"time":3},{"distance":1901,"line":11,"is_transit":false,"i_long":106.839204,"station_id":"KMO","transit":false,"station_name":"Kemayoran","i_lat":-6.161728,"time":5},{"station_name":"Pasar Senen","i_lat":-6.174784,"line":11,"station_id":"PSE","is_transit":false,"i_long":106.84368,"distance":1436,"time":4,"transit":false},{"station_id":"GST","line":11,"i_long":106.850107,"is_transit":false,"i_lat":-6.185975,"distance":1567,"time":8,"station_name":"Gang Sentiong","transit":false},{"station_name":"Kramat","time":1,"is_transit":false,"i_lat":-6.193792,"i_long":106.855437,"line":11,"distance":973,"transit":false,"station_id":"KMT"},{"i_long":106.861737,"time":2,"station_name":"Pondok Jati","transit":false,"station_id":"POK","i_lat":-6.209188,"distance":1829,"is_transit":false,"line":11},{"transit":true,"i_lat":-6.215091,"station_name":"Jatinegara","distance":1236,"is_transit":true,"station_id":"JNG","i_long":106.86807400000001,"time":9,"line":1},{"is_transit":false,"time":2,"transit":false,"distance":1377,"station_name":"Matraman","station_id":"MTR","i_lat":-6.212485,"line":1,"i_long":106.858896},{"station_id":"MRI","distance":1275,"is_transit":true,"transit":true,"time":2,"i_lat":-6.209883,"line":2,"station_name":"Manggarai","i_long":106.84912},{"is_transit":false,"time":4,"transit":false,"line":2,"station_name":"Tebet","i_lat":-6.226659,"i_long":106.857948,"distance":2610,"station_id":"TEB"},{"transit":false,"is_transit":false,"i_lat":-6.242512,"time":2,"distance":1230,"station_name":"Cawang","line":2,"i_long":106.856607,"station_id":"CW"},{"time":3,"transit":false,"station_id":"DRN","is_transit":false,"distance":1546,"i_lat":-6.255332,"i_long":106.85449,"line":2,"station_name":"Duren Kalibata"},{"distance":824,"is_transit":false,"line":2,"transit":false,"station_name":"Pasar Minggu Baru","time":2,"station_id":"PSMB","i_lat":-6.263214,"i_long":106.851577},{"station_name":"Pasar Minggu","i_long":106.843999,"transit":false,"station_id":"PSM","distance":2380,"time":2,"line":2,"i_lat":-6.2842400000000005,"is_transit":false},{"i_long":106.838896,"station_name":"Tanjung Barat","distance":2820,"transit":false,"is_transit":false,"i_lat":-6.3080680000000005,"station_id":"TNT","line":2,"time":4},{"is_transit":false,"distance":2671,"i_lat":-6.330363,"transit":false,"line":2,"i_long":106.832616,"time":3,"station_id":"LNA","station_name":"Lenteng Agung"},{"i_long":106.834175,"line":2,"station_name":"Univ. Pancasila","station_id":"UP","time":2,"distance":1029,"transit":false,"is_transit":false,"i_lat":-6.339291},{"i_lat":-6.360749,"is_transit":false,"time":3,"i_long":106.831474,"transit":false,"station_id":"UI","distance":2264,"station_name":"Univ. Indonesia","line":2},{"i_lat":-6.369073,"time":2,"station_name":"Pondok Cina","is_transit":false,"i_long":106.831114,"station_id":"POC","line":2,"distance":1109,"transit":false},{"transit":false,"time":4,"distance":2727,"is_transit":false,"i_lat":-6.391065,"station_id":"DPB","i_long":106.819451,"station_name":"Depokbaru","line":2},{"station_id":"DP","station_name":"Depok","line":2,"i_lat":-6.405256,"transit":false,"is_transit":false,"distance":1584,"time":3,"i_long":106.816926},{"time":6,"station_id":"CTA","i_long":106.800298,"distance":5084,"i_lat":-6.448811,"transit":false,"line":2,"station_name":"Citayam","is_transit":false},{"time":5,"distance":5197,"transit":false,"i_lat":-6.493243,"i_long":106.792719,"line":2,"station_name":"Bojonggede","is_transit":false,"station_id":"BJD"}]]}