{"data":[[{"time":0,"i_lat":-6.1587309999999995,"transit":false,"i_long":106.756522,"station_name":"Taman Kota","distance":0,"station_id":"TKO","is_transit":false,"line":5},{"station_id":"PSG","line":5,"distance":1614,"i_lat":-6.161433,"transit":false,"i_long":106.771379,"time":2,"is_transit":false,"station_name":"Pesing"},{"time":2,"transit":false,"station_id":"GGL","station_name":"Grogol","i_lat":-6.162021,"is_transit":false,"line":5,"distance":2036,"i_long":106.788277},{"i_lat":-6.155215,"transit":true,"i_long":106.800832,"line":1,"is_transit":true,"time":3,"station_name":"Duri","station_id":"DU","distance":1700},{"i_long":106.79867,"is_transit":false,"distance":1230,"i_lat":-6.144674,"station_id":"AK","line":0,"station_name":"Angke","transit":false,"time":4},{"distance":4102,"station_id":"KPB","transit":true,"line":0,"is_transit":true,"time":9,"i_lat":-6.132549,"station_name":"Kampung Bandan","i_long":106.826365},{"i_lat":-6.14505,"station_name":"Rajawali","distance":1444,"i_long":106.836569,"line":11,"station_id":"RJW","is_transit":false,"transit":false,"time":3}],[{"transit":false,"station_id":"TKO","station_name":"Taman Kota","i_lat":-6.1587309999999995,"i_long":106.756522,"distance":0,"is_transit":false,"line":5,"time":0},{"time":2,"station_id":"PSG","station_name":"Pesing","distance":1614,"is_transit":false,"i_lat":-6.161433,"transit":false,"line":5,"i_long":106.771379},{"line":5,"distance":2036,"i_long":106.788277,"station_name":"Grogol","time":2,"station_id":"GGL","i_lat":-6.162021,"transit":false,"is_transit":false},{"time":3,"station_name":"Duri","i_lat":-6.155215,"i_long":106.800832,"line":1,"station_id":"DU","distance":1700,"is_transit":true,"transit":true},{"station_id":"THB","transit":false,"i_lat":-6.185545,"i_long":106.811091,"line":1,"time":8,"station_name":"Tanah Abang","distance":3632,"is_transit":true},{"i_long":106.816351,"transit":false,"time":5,"station_name":"Karet","i_lat":-6.20132,"line":1,"distance":2029,"station_id":"KAT","is_transit":false},{"distance":471,"is_transit":false,"station_name":"Sudirman Baru","time":1,"i_lat":-6.201433,"i_long":106.819881,"line":1,"station_id":"SUDB","transit":false},{"station_name":"Sudirman","station_id":"SUD","is_transit":false,"distance":280,"i_long":106.822649,"transit":false,"line":1,"i_lat":-6.202263,"time":1},{"station_id":"MRI","transit":false,"i_long":106.84912,"i_lat":-6.209883,"distance":3186,"is_transit":true,"time":4,"station_name":"Manggarai","line":0},{"distance":1275,"is_transit":false,"i_long":106.858896,"line":1,"station_id":"MTR","station_name":"Matraman","transit":false,"time":2,"i_lat":-6.212485},{"distance":1377,"station_id":"JNG","transit":true,"is_transit":true,"i_lat":-6.215091,"i_long":106.86807400000001,"line":0,"time":8,"station_name":"Jatinegara"},{"transit":false,"station_name":"Pondok Jati","is_transit":false,"time":2,"distance":1236,"i_lat":-6.209188,"station_id":"POK","i_long":106.861737,"line":11},{"distance":1829,"transit":false,"station_name":"Kramat","i_long":106.855437,"is_transit":false,"station_id":"KMT","time":2,"i_lat":-6.193792,"line":11},{"is_transit":false,"station_name":"Gang Sentiong","time":1,"station_id":"GST","i_long":106.850107,"transit":false,"i_lat":-6.185975,"line":11,"distance":973},{"station_id":"PSE","i_lat":-6.174784,"station_name":"Pasar Senen","i_long":106.84368,"transit":false,"is_transit":false,"time":8,"line":11,"distance":1567},{"time":4,"transit":false,"station_id":"KMO","i_long":106.839204,"is_transit":false,"line":11,"station_name":"Kemayoran","distance":1436,"i_lat":-6.161728},{"station_name":"Rajawali","is_transit":false,"time":5,"i_long":106.836569,"transit":false,"i_lat":-6.14505,"station_id":"RJW","distance":1901,"line":11}],[{"transit":false,"is_transit":false,"station_id":"TKO","time":0,"i_long":106.756522,"i_lat":-6.1587309999999995,"distance":0,"station_name":"Taman Kota","line":5},{"time":2,"i_lat":-6.161433,"transit":false,"station_name":"Pesing","distance":1614,"is_transit":false,"station_id":"PSG","line":5,"i_long":106.771379},{"line":5,"station_id":"GGL","i_long":106.788277,"station_name":"Grogol","transit":false,"time":2,"distance":2036,"i_lat":-6.162021,"is_transit":false},{"line":1,"distance":1700,"transit":true,"i_lat":-6.155215,"i_long":106.800832,"station_name":"Duri","is_transit":true,"time":3,"station_id":"DU"},{"time":8,"station_name":"Tanah Abang","line":1,"i_lat":-6.185545,"distance":3632,"station_id":"THB","i_long":106.811091,"transit":false,"is_transit":true},{"transit":false,"is_transit":false,"distance":2029,"time":5,"station_name":"Karet","i_long":106.816351,"line":1,"station_id":"KAT","i_lat":-6.20132},{"line":1,"is_transit":false,"time":1,"transit":false,"i_lat":-6.201433,"station_id":"SUDB","distance":471,"i_long":106.819881,"station_name":"Sudirman Baru"},{"distance":280,"line":1,"is_transit":false,"station_name":"Sudirman","i_long":106.822649,"i_lat":-6.202263,"station_id":"SUD","transit":false,"time":1},{"distance":3186,"time":4,"line":0,"i_lat":-6.209883,"is_transit":true,"transit":true,"station_id":"MRI","i_long":106.84912,"station_name":"Manggarai"},{"distance":1590,"i_lat":-6.198556,"i_long":106.840169,"station_id":"CKI","transit":false,"line":0,"station_name":"Cikini","time":4,"is_transit":false},{"i_long":106.832183,"time":3,"line":2,"transit":false,"is_transit":false,"station_id":"GDD","distance":1750,"station_name":"Gondangdia","i_lat":-6.186295},{"time":4,"line":2,"distance":2015,"station_id":"JUA","is_transit":false,"station_name":"Juanda","i_lat":-6.166716,"transit":false,"i_long":106.828284},{"transit":false,"time":2,"line":2,"is_transit":false,"i_lat":-6.160725,"station_name":"Sawah Besar","distance":1149,"station_id":"SW","i_long":106.827103},{"is_transit":false,"transit":false,"distance":906,"i_lat":-6.149769,"time":2,"line":2,"station_id":"MGB","station_name":"Manggabesar","i_long":106.82482},{"line":7,"transit":false,"station_name":"Jayakarta","distance":1080,"i_lat":-6.141205,"time":2,"i_long":106.820901,"station_id":"JAY","is_transit":false},{"i_lat":-6.137569,"station_id":"JAKK","transit":true,"line":0,"is_transit":true,"station_name":"Jakarta Kota","time":4,"i_long":106.812439,"distance":1264},{"i_lat":-6.132549,"station_id":"KPB","is_transit":true,"time":3,"line":0,"i_long":106.826365,"distance":1364,"station_name":"Kampung Bandan","transit":true},{"station_name":"Rajawali","transit":false,"distance":1444,"i_long":106.836569,"line":11,"i_lat":-6.14505,"is_transit":false,"time":3,"station_id":"RJW"}],[{"station_id":"TKO","transit":false,"distance":0,"i_lat":-6.1587309999999995,"line":5,"is_transit":false,"i_long":106.756522,"time":0,"station_name":"Taman Kota"},{"distance":1614,"transit":false,"station_id":"PSG","time":2,"i_long":106.771379,"is_transit":false,"i_lat":-6.161433,"line":5,"station_name":"Pesing"},{"line":5,"i_long":106.788277,"station_id":"GGL","station_name":"Grogol","transit":false,"time":2,"distance":2036,"is_transit":false,"i_lat":-6.162021},{"station_name":"Duri","is_transit":true,"transit":true,"time":3,"i_lat":-6.155215,"line":1,"i_long":106.800832,"station_id":"DU","distance":1700},{"i_lat":-6.144674,"distance":1230,"is_transit":false,"time":4,"i_long":106.79867,"station_id":"AK","station_name":"Angke","transit":false,"line":0},{"station_id":"KPB","line":0,"distance":4102,"i_lat":-6.132549,"i_long":106.826365,"time":9,"is_transit":true,"transit":false,"station_name":"Kampung Bandan"},{"time":3,"is_transit":true,"station_id":"JAKK","line":0,"transit":true,"station_name":"Jakarta Kota","i_lat":-6.137569,"i_long":106.812439,"distance":1364},{"i_lat":-6.141205,"transit":false,"distance":1264,"station_id":"JAY","station_name":"Jayakarta","i_long":106.820901,"is_transit":false,"time":4,"line":7},{"i_lat":-6.149769,"station_id":"MGB","transit":false,"distance":1080,"is_transit":false,"time":2,"i_long":106.82482,"station_name":"Manggabesar","line":2},{"time":2,"transit":false,"is_transit":false,"station_name":"Sawah Besar","station_id":"SW","i_lat":-6.160725,"line":2,"i_long":106.827103,"distance":906},{"time":2,"station_name":"Juanda","transit":false,"line":2,"distance":1149,"i_long":106.828284,"station_id":"JUA","i_lat":-6.166716,"is_transit":false},{"distance":2015,"is_transit":false,"station_name":"Gondangdia","transit":false,"i_lat":-6.186295,"i_long":106.832183,"time":4,"line":2,"station_id":"GDD"},{"station_name":"Cikini","transit":false,"distance":1750,"is_transit":false,"station_id":"CKI","i_long":106.840169,"line":0,"time":3,"i_lat":-6.198556},{"line":0,"i_long":106.84912,"is_transit":true,"distance":1590,"station_id":"MRI","transit":true,"station_name":"Manggarai","time":4,"i_lat":-6.209883},{"time":2,"station_id":"MTR","station_name":"Matraman","transit":false,"i_lat":-6.212485,"line":1,"i_long":106.858896,"distance":1275,"is_transit":false},{"line":0,"distance":1377,"is_transit":true,"transit":true,"i_lat":-6.215091,"i_long":106.86807400000001,"station_id":"JNG","time":8,"station_name":"Jatinegara"},{"time":2,"line":11,"i_lat":-6.209188,"i_long":106.861737,"is_transit":false,"station_name":"Pondok Jati","distance":1236,"transit":false,"station_id":"POK"},{"distance":1829,"station_id":"KMT","i_long":106.855437,"line":11,"station_name":"Kramat","i_lat":-6.193792,"time":2,"transit":false,"is_transit":false},{"time":1,"station_id":"GST","line":11,"station_name":"Gang Sentiong","i_lat":-6.185975,"is_transit":false,"distance":973,"transit":false,"i_long":106.850107},{"line":11,"transit":false,"time":8,"i_long":106.84368,"station_id":"PSE","is_transit":false,"station_name":"Pasar Senen","distance":1567,"i_lat":-6.174784},{"is_transit":false,"distance":1436,"time":4,"line":11,"transit":false,"station_id":"KMO","i_long":106.839204,"i_lat":-6.161728,"station_name":"Kemayoran"},{"distance":1901,"i_long":106.836569,"station_id":"RJW","line":11,"is_transit":false,"i_lat":-6.14505,"station_name":"Rajawali","time":5,"transit":false}]]}