{"data":[[{"is_transit":false,"transit":false,"i_lat":-6.1587309999999995,"station_id":"TKO","distance":0,"station_name":"Taman Kota","line":5,"time":0,"i_long":106.756522},{"distance":1614,"transit":false,"time":2,"station_name":"Pesing","station_id":"PSG","i_lat":-6.161433,"is_transit":false,"i_long":106.771379,"line":5},{"distance":2036,"is_transit":false,"i_lat":-6.162021,"station_id":"GRG","line":5,"time":2,"transit":false,"i_long":106.788277,"station_name":"Grogol"},{"is_transit":true,"line":1,"station_id":"DU","time":3,"distance":1700,"station_name":"Duri","transit":true,"i_lat":-6.155215,"i_long":106.800832},{"station_name":"Tanah Abang","i_long":106.811091,"i_lat":-6.185545,"time":8,"station_id":"THB","line":1,"distance":3632,"is_transit":false,"transit":false},{"station_name":"Karet","distance":2029,"station_id":"KAT","transit":false,"time":5,"is_transit":false,"line":1,"i_lat":-6.20132,"i_long":106.816351},{"i_long":106.819881,"station_name":"Sudirman Baru","line":1,"time":1,"station_id":"SUDB","is_transit":false,"transit":false,"distance":471,"i_lat":-6.201433},{"i_lat":-6.202263,"i_long":106.822649,"distance":280,"time":1,"station_id":"SUD","station_name":"Sudirman","transit":false,"is_transit":false,"line":1},{"station_name":"Manggarai","transit":true,"line":2,"station_id":"MRI","is_transit":true,"i_long":106.84912,"i_lat":-6.209883,"time":4,"distance":3186},{"station_name":"Cikini","i_lat":-6.198556,"i_long":106.840169,"line":2,"distance":1590,"transit":false,"time":4,"is_transit":false,"station_id":"CKI"}],[{"is_transit":false,"station_id":"TKO","line":5,"station_name":"Taman Kota","transit":false,"time":0,"i_lat":-6.1587309999999995,"distance":0,"i_long":106.756522},{"i_lat":-6.161433,"station_id":"PSG","time":2,"station_name":"Pesing","line":5,"is_transit":false,"distance":1614,"transit":false,"i_long":106.771379},{"i_long":106.788277,"distance":2036,"transit":false,"line":5,"station_name":"Grogol","is_transit":false,"station_id":"GRG","i_lat":-6.162021,"time":2},{"time":3,"line":1,"distance":1700,"station_name":"Duri","is_transit":true,"transit":true,"station_id":"DU","i_lat":-6.155215,"i_long":106.800832},{"i_long":106.79867,"distance":1230,"station_name":"Angke","is_transit":false,"time":4,"station_id":"AK","i_lat":-6.144674,"line":1,"transit":false},{"line":4,"is_transit":true,"transit":true,"i_long":106.826365,"distance":4102,"station_id":"KPB","station_name":"Kampung Bandan","time":9,"i_lat":-6.132549},{"i_long":106.812439,"transit":true,"line":2,"distance":1364,"station_name":"Jakarta Kota","station_id":"JAKK","i_lat":-6.137569,"time":3,"is_transit":true},{"is_transit":false,"transit":false,"i_long":106.820901,"time":4,"station_name":"Jayakarta","i_lat":-6.141205,"distance":1264,"station_id":"JAY","line":2},{"i_long":106.82482,"line":2,"i_lat":-6.149769,"station_id":"MGB","distance":1080,"station_name":"Manggabesar","is_transit":false,"transit":false,"time":2},{"station_id":"SW","is_transit":false,"transit":false,"distance":906,"i_lat":-6.160725,"i_long":106.827103,"time":2,"line":2,"station_name":"Sawah Besar"},{"station_id":"JUA","station_name":"Juanda","distance":1149,"line":2,"is_transit":false,"transit":false,"time":2,"i_lat":-6.166716,"i_long":106.828284},{"transit":false,"station_id":"GDD","distance":2015,"line":2,"time":4,"station_name":"Gondangdia","i_long":106.832183,"i_lat":-6.186295,"is_transit":false},{"i_long":106.840169,"is_transit":false,"time":3,"transit":false,"station_id":"CKI","line":2,"distance":1750,"i_lat":-6.198556,"station_name":"Cikini"}],[{"i_long":106.756522,"distance":0,"is_transit":false,"station_name":"Taman Kota","line":5,"station_id":"TKO","time":0,"transit":false,"i_lat":-6.1587309999999995},{"is_transit":false,"i_long":106.771379,"transit":false,"distance":1614,"station_id":"PSG","line":5,"i_lat":-6.161433,"time":2,"station_name":"Pesing"},{"time":2,"station_id":"GRG","distance":2036,"station_name":"Grogol","transit":false,"i_long":106.788277,"i_lat":-6.162021,"is_transit":false,"line":5},{"station_name":"Duri","time":3,"i_long":106.800832,"i_lat":-6.155215,"distance":1700,"station_id":"DU","line":1,"is_transit":true,"transit":true},{"distance":1230,"transit":false,"is_transit":false,"station_id":"AK","i_lat":-6.144674,"time":4,"station_name":"Angke","line":1,"i_long":106.79867},{"i_long":106.826365,"is_transit":true,"transit":true,"time":9,"station_name":"Kampung Bandan","distance":4102,"line":4,"station_id":"KPB","i_lat":-6.132549},{"distance":1444,"line":11,"i_long":106.836569,"transit":false,"station_name":"Rajawali","time":3,"station_id":"RJW","is_transit":false,"i_lat":-6.14505},{"i_long":106.839204,"station_name":"Kemayoran","distance":1901,"is_transit":false,"station_id":"KMO","transit":false,"time":5,"i_lat":-6.161728,"line":11},{"station_id":"PSE","station_name":"Pasar Senen","time":4,"i_lat":-6.174784,"is_transit":false,"transit":false,"i_long":106.84368,"line":11,"distance":1436},{"station_id":"GST","transit":false,"distance":1567,"is_transit":false,"station_name":"Gang Sentiong","i_long":106.850107,"line":11,"time":8,"i_lat":-6.185975},{"transit":false,"time":1,"i_lat":-6.193792,"i_long":106.855437,"station_id":"KMT","station_name":"Kramat","is_transit":false,"line":11,"distance":973},{"line":11,"i_lat":-6.209188,"transit":false,"station_id":"POK","station_name":"Pondok Jati","i_long":106.861737,"time":2,"distance":1829,"is_transit":false},{"transit":true,"i_long":106.86807400000001,"is_transit":true,"time":9,"station_id":"JNG","station_name":"Jatinegara","i_lat":-6.215091,"line":1,"distance":1236},{"distance":1377,"line":1,"station_id":"MTR","time":2,"station_name":"Matraman","is_transit":false,"i_lat":-6.212485,"i_long":106.858896,"transit":false},{"i_lat":-6.209883,"is_transit":true,"time":2,"station_id":"MRI","transit":true,"line":2,"i_long":106.84912,"station_name":"Manggarai","distance":1275},{"is_transit":false,"i_lat":-6.198556,"distance":1590,"transit":false,"station_name":"Cikini","i_long":106.840169,"line":2,"time":4,"station_id":"CKI"}],[{"time":0,"i_lat":-6.1587309999999995,"station_id":"TKO","is_transit":false,"i_long":106.756522,"station_name":"Taman Kota","distance":0,"transit":false,"line":5},{"transit":false,"i_lat":-6.161433,"is_transit":false,"i_long":106.771379,"station_id":"PSG","line":5,"station_name":"Pesing","distance":1614,"time":2},{"distance":2036,"line":5,"is_transit":false,"i_long":106.788277,"station_id":"GRG","transit":false,"station_name":"Grogol","i_lat":-6.162021,"time":2},{"station_name":"Duri","i_lat":-6.155215,"line":1,"station_id":"DU","is_transit":true,"i_long":106.800832,"distance":1700,"time":3,"transit":true},{"station_id":"THB","line":1,"i_long":106.811091,"is_transit":false,"i_lat":-6.185545,"distance":3632,"time":8,"station_name":"Tanah Abang","transit":false},{"station_name":"Karet","time":5,"is_transit":false,"i_lat":-6.20132,"i_long":106.816351,"line":1,"distance":2029,"station_id":"KAT","transit":false},{"i_long":106.819881,"time":1,"station_name":"Sudirman Baru","station_id":"SUDB","transit":false,"i_lat":-6.201433,"distance":471,"is_transit":false,"line":1},{"transit":false,"i_lat":-6.202263,"station_name":"Sudirman","distance":280,"station_id":"SUD","is_transit":false,"i_long":106.822649,"time":1,"line":1},{"is_transit":false,"time":4,"station_id":"MRI","distance":3186,"station_name":"Manggarai","transit":false,"i_lat":-6.209883,"line":2,"i_long":106.84912},{"i_long":106.858896,"is_transit":false,"i_lat":-6.212485,"line":1,"station_id":"MTR","time":2,"transit":false,"station_name":"Matraman","distance":1275},{"time":8,"station_name":"Jatinegara","transit":true,"i_lat":-6.215091,"is_transit":true,"i_long":106.86807400000001,"station_id":"JNG","distance":1377,"line":1},{"time":2,"i_lat":-6.209188,"distance":1236,"is_transit":false,"line":11,"transit":false,"station_name":"Pondok Jati","i_long":106.861737,"station_id":"POK"},{"transit":false,"line":11,"station_name":"Kramat","i_lat":-6.193792,"i_long":106.855437,"distance":1829,"station_id":"KMT","time":2,"is_transit":false},{"i_lat":-6.185975,"distance":973,"i_long":106.850107,"time":1,"line":11,"station_name":"Gang Sentiong","is_transit":false,"transit":false,"station_id":"GST"},{"i_long":106.84368,"line":11,"i_lat":-6.174784,"station_id":"PSE","distance":1567,"transit":false,"station_name":"Pasar Senen","is_transit":false,"time":8},{"time":4,"distance":1436,"station_name":"Kemayoran","station_id":"KMO","is_transit":false,"line":11,"i_long":106.839204,"transit":false,"i_lat":-6.161728},{"is_transit":false,"time":5,"station_id":"RJW","transit":false,"i_lat":-6.14505,"station_name":"Rajawali","i_long":106.836569,"distance":1901,"line":11},{"station_name":"Kampung Bandan","transit":true,"is_transit":true,"i_lat":-6.132549,"time":3,"station_id":"KPB","distance":1444,"i_long":106.826365,"line":4},{"is_transit":true,"distance":1364,"transit":true,"i_long":106.812439,"line":2,"time":3,"station_name":"Jakarta Kota","station_id":"JAKK","i_lat":-6.137569},{"station_id":"JAY","i_lat":-6.141205,"line":2,"transit":false,"i_long":106.820901,"is_transit":false,"station_name":"Jayakarta","time":4,"distance":1264},{"transit":false,"i_long":106.82482,"i_lat":-6.149769,"line":2,"is_transit":false,"time":2,"station_id":"MGB","distance":1080,"station_name":"Manggabesar"},{"i_long":106.827103,"line":2,"is_transit":false,"distance":906,"transit":false,"time":2,"station_name":"Sawah Besar","i_lat":-6.160725,"station_id":"SW"},{"transit":false,"distance":1149,"time":2,"i_long":106.828284,"station_id":"JUA","line":2,"is_transit":false,"i_lat":-6.166716,"station_name":"Juanda"},{"distance":2015,"line":2,"station_id":"GDD","transit":false,"time":4,"is_transit":false,"i_lat":-6.186295,"station_name":"Gondangdia","i_long":106.832183},{"transit":false,"is_transit":false,"distance":1750,"station_id":"CKI","i_lat":-6.198556,"station_name":"Cikini","line":2,"time":3,"i_long":106.840169}]]}