{"data":[[{"time":0,"station_name":"Taman Kota","i_long":106.756522,"distance":0,"line":5,"station_id":"TKO","is_transit":false,"transit":false,"i_lat":-6.1587309999999995},{"distance":1614,"station_name":"Pesing","time":2,"transit":false,"i_long":106.771379,"i_lat":-6.161433,"line":5,"is_transit":false,"station_id":"PSG"},{"distance":2036,"is_transit":false,"station_id":"GGL","line":5,"i_lat":-6.162021,"transit":false,"time":2,"station_name":"Grogol","i_long":106.788277},{"i_long":106.800832,"line":1,"is_transit":true,"station_id":"DU","station_name":"Duri","distance":1700,"time":3,"transit":true,"i_lat":-6.155215},{"station_name":"Tanah Abang","station_id":"THB","is_transit":true,"transit":true,"distance":3632,"i_long":106.811091,"time":8,"i_lat":-6.185545,"line":1},{"transit":false,"i_long":106.79689,"time":6,"station_id":"PLM","distance":3191,"i_lat":-6.207404,"station_name":"Palmerah","line":6,"is_transit":false},{"line":6,"station_id":"KBY","i_long":106.780334,"time":7,"transit":false,"station_name":"Kebayoran","is_transit":false,"i_lat":-6.237242,"distance":3737},{"station_name":"Pondokranji","line":6,"time":8,"i_lat":-6.276362,"i_long":106.74273,"station_id":"PDJ","transit":false,"distance":6218,"is_transit":false},{"is_transit":false,"time":3,"transit":false,"station_name":"Jurangmangu","i_lat":-6.288927,"i_long":106.728916,"distance":2179,"line":6,"station_id":"JMU"},{"distance":1994,"i_long":106.712277,"station_id":"SDM","transit":false,"i_lat":-6.296963,"line":6,"is_transit":false,"time":4,"station_name":"Sudimara"},{"is_transit":false,"distance":4566,"time":6,"transit":false,"station_name":"Rawa Buntu","i_long":106.675475,"line":6,"i_lat":-6.314823,"station_id":"RU"},{"station_id":"SRP","line":6,"i_lat":-6.319871,"distance":2413,"station_name":"Serpong","is_transit":false,"i_long":106.66566,"transit":false,"time":4}],[{"is_transit":false,"station_id":"TKO","transit":false,"line":5,"distance":0,"station_name":"Taman Kota","time":0,"i_lat":-6.1587309999999995,"i_long":106.756522},{"time":2,"station_name":"Pesing","i_long":106.771379,"line":5,"station_id":"PSG","i_lat":-6.161433,"is_transit":false,"transit":false,"distance":1614},{"distance":2036,"station_name":"Grogol","station_id":"GGL","time":2,"is_transit":false,"i_long":106.788277,"line":5,"transit":false,"i_lat":-6.162021},{"time":3,"i_long":106.800832,"distance":1700,"is_transit":true,"i_lat":-6.155215,"station_name":"Duri","station_id":"DU","transit":true,"line":1},{"station_name":"Angke","is_transit":false,"line":1,"time":4,"distance":1230,"transit":false,"i_lat":-6.144674,"station_id":"AK","i_long":106.79867},{"transit":true,"distance":4102,"station_id":"KPB","i_lat":-6.132549,"line":4,"i_long":106.826365,"station_name":"Kampung Bandan","time":9,"is_transit":true},{"station_name":"Jakarta Kota","i_long":106.812439,"transit":true,"station_id":"JAKK","is_transit":true,"distance":1364,"time":3,"i_lat":-6.137569,"line":2},{"transit":false,"time":4,"station_id":"JAY","is_transit":false,"distance":1264,"station_name":"Jayakarta","line":2,"i_lat":-6.141205,"i_long":106.820901},{"is_transit":false,"line":2,"i_lat":-6.149769,"transit":false,"time":2,"i_long":106.82482,"station_id":"MGB","distance":1080,"station_name":"Manggabesar"},{"distance":906,"i_lat":-6.160725,"time":2,"i_long":106.827103,"station_id":"SW","is_transit":false,"transit":false,"line":2,"station_name":"Sawah Besar"},{"is_transit":false,"i_long":106.828284,"station_name":"Juanda","distance":1149,"transit":false,"i_lat":-6.166716,"station_id":"JUA","time":2,"line":2},{"time":4,"distance":2015,"station_name":"Gondangdia","transit":false,"is_transit":false,"line":2,"i_lat":-6.186295,"i_long":106.832183,"station_id":"GDD"},{"i_long":106.840169,"distance":1750,"station_name":"Cikini","is_transit":false,"transit":false,"time":3,"line":2,"i_lat":-6.198556,"station_id":"CKI"},{"line":2,"i_long":106.84912,"time":4,"station_id":"MRI","is_transit":true,"station_name":"Manggarai","i_lat":-6.209883,"distance":1590,"transit":true},{"station_name":"Sudirman","time":4,"is_transit":false,"transit":false,"distance":3186,"line":1,"station_id":"SUD","i_lat":-6.202263,"i_long":106.822649},{"time":1,"station_id":"SUDB","station_name":"Sudirman Baru","i_lat":-6.201433,"i_long":106.819881,"is_transit":false,"line":1,"distance":280,"transit":false},{"is_transit":false,"transit":false,"station_name":"Karet","i_lat":-6.20132,"i_long":106.816351,"distance":471,"line":1,"station_id":"KAT","time":1},{"station_name":"Tanah Abang","time":5,"line":1,"distance":2029,"transit":true,"i_long":106.811091,"is_transit":true,"i_lat":-6.185545,"station_id":"THB"},{"transit":false,"time":6,"station_id":"PLM","i_lat":-6.207404,"is_transit":false,"i_long":106.79689,"station_name":"Palmerah","line":6,"distance":3191},{"station_name":"Kebayoran","station_id":"KBY","line":6,"is_transit":false,"time":7,"i_long":106.780334,"i_lat":-6.237242,"transit":false,"distance":3737},{"line":6,"station_id":"PDJ","transit":false,"station_name":"Pondokranji","i_lat":-6.276362,"is_transit":false,"i_long":106.74273,"time":8,"distance":6218},{"i_lat":-6.288927,"station_id":"JMU","transit":false,"distance":2179,"time":3,"line":6,"is_transit":false,"i_long":106.728916,"station_name":"Jurangmangu"},{"i_lat":-6.296963,"time":4,"station_id":"SDM","is_transit":false,"i_long":106.712277,"distance":1994,"transit":false,"line":6,"station_name":"Sudimara"},{"i_long":106.675475,"station_name":"Rawa Buntu","transit":false,"i_lat":-6.314823,"distance":4566,"time":6,"line":6,"is_transit":false,"station_id":"RU"},{"is_transit":false,"time":4,"distance":2413,"transit":false,"i_long":106.66566,"station_name":"Serpong","line":6,"i_lat":-6.319871,"station_id":"SRP"}],[{"line":5,"station_id":"TKO","distance":0,"is_transit":false,"transit":false,"station_name":"Taman Kota","i_lat":-6.1587309999999995,"i_long":106.756522,"time":0},{"distance":1614,"transit":false,"is_transit":false,"station_id":"PSG","station_name":"Pesing","i_lat":-6.161433,"i_long":106.771379,"time":2,"line":5},{"station_id":"GGL","i_lat":-6.162021,"line":5,"time":2,"i_long":106.788277,"transit":false,"station_name":"Grogol","is_transit":false,"distance":2036},{"station_name":"Duri","is_transit":true,"i_long":106.800832,"time":3,"line":1,"distance":1700,"transit":true,"station_id":"DU","i_lat":-6.155215},{"i_long":106.79867,"distance":1230,"transit":false,"station_name":"Angke","i_lat":-6.144674,"line":1,"time":4,"is_transit":false,"station_id":"AK"},{"is_transit":true,"line":4,"time":9,"i_lat":-6.132549,"station_id":"KPB","distance":4102,"transit":true,"station_name":"Kampung Bandan","i_long":106.826365},{"i_lat":-6.14505,"station_id":"RJW","time":3,"distance":1444,"station_name":"Rajawali","line":11,"is_transit":false,"transit":false,"i_long":106.836569},{"time":5,"station_id":"KMO","is_transit":false,"transit":false,"distance":1901,"station_name":"Kemayoran","i_lat":-6.161728,"line":11,"i_long":106.839204},{"time":4,"distance":1436,"is_transit":false,"station_id":"PSE","transit":false,"station_name":"Pasar Senen","i_long":106.84368,"i_lat":-6.174784,"line":11},{"transit":false,"distance":1567,"is_transit":false,"station_id":"GST","station_name":"Gang Sentiong","i_lat":-6.185975,"i_long":106.850107,"time":8,"line":11},{"station_id":"KMT","distance":973,"is_transit":false,"transit":false,"time":1,"i_long":106.855437,"i_lat":-6.193792,"line":11,"station_name":"Kramat"},{"is_transit":false,"station_id":"POK","time":2,"i_lat":-6.209188,"distance":1829,"line":11,"station_name":"Pondok Jati","transit":false,"i_long":106.861737},{"i_long":106.86807400000001,"transit":true,"line":1,"station_id":"JNG","distance":1236,"station_name":"Jatinegara","i_lat":-6.215091,"time":9,"is_transit":true},{"time":2,"station_name":"Matraman","transit":false,"is_transit":false,"station_id":"MTR","line":1,"i_lat":-6.212485,"distance":1377,"i_long":106.858896},{"time":2,"line":2,"distance":1275,"station_id":"MRI","transit":false,"station_name":"Manggarai","i_lat":-6.209883,"i_long":106.84912,"is_transit":false},{"i_long":106.822649,"station_id":"SUD","distance":3186,"is_transit":false,"i_lat":-6.202263,"transit":false,"line":1,"time":4,"station_name":"Sudirman"},{"i_long":106.819881,"transit":false,"is_transit":false,"station_id":"SUDB","i_lat":-6.201433,"line":1,"station_name":"Sudirman Baru","distance":280,"time":1},{"is_transit":false,"station_name":"Karet","i_long":106.816351,"time":1,"station_id":"KAT","transit":false,"line":1,"i_lat":-6.20132,"distance":471},{"line":1,"time":5,"is_transit":true,"station_id":"THB","i_lat":-6.185545,"i_long":106.811091,"distance":2029,"transit":true,"station_name":"Tanah Abang"},{"station_name":"Palmerah","transit":false,"station_id":"PLM","time":6,"line":6,"i_long":106.79689,"distance":3191,"i_lat":-6.207404,"is_transit":false},{"station_id":"KBY","transit":false,"i_long":106.780334,"is_transit":false,"time":7,"line":6,"station_name":"Kebayoran","i_lat":-6.237242,"distance":3737},{"transit":false,"i_lat":-6.276362,"line":6,"distance":6218,"station_id":"PDJ","i_long":106.74273,"is_transit":false,"station_name":"Pondokranji","time":8},{"is_transit":false,"distance":2179,"station_id":"JMU","transit":false,"i_long":106.728916,"line":6,"i_lat":-6.288927,"station_name":"Jurangmangu","time":3},{"line":6,"i_lat":-6.296963,"transit":false,"distance":1994,"i_long":106.712277,"station_id":"SDM","is_transit":false,"time":4,"station_name":"Sudimara"},{"station_id":"RU","i_long":106.675475,"is_transit":false,"i_lat":-6.314823,"distance":4566,"transit":false,"line":6,"station_name":"Rawa Buntu","time":6},{"is_transit":false,"station_id":"SRP","i_long":106.66566,"station_name":"Serpong","time":4,"distance":2413,"transit":false,"i_lat":-6.319871,"line":6}]]}