{"data":[[{"line":5,"is_transit":false,"i_long":106.756522,"transit":false,"time":0,"i_lat":-6.1587309999999995,"station_id":"TKO","distance":0,"station_name":"Taman Kota"},{"i_long":106.771379,"station_name":"Pesing","transit":false,"line":5,"station_id":"PSG","i_lat":-6.161433,"distance":1614,"time":2,"is_transit":false},{"time":2,"line":5,"transit":false,"distance":2036,"is_transit":false,"station_name":"Grogol","i_lat":-6.162021,"station_id":"GGL","i_long":106.788277},{"i_lat":-6.155215,"station_name":"Duri","is_transit":true,"distance":1700,"transit":true,"station_id":"DU","time":3,"i_long":106.800832,"line":1},{"transit":false,"time":8,"i_lat":-6.185545,"i_long":106.811091,"line":1,"distance":3632,"station_name":"Tanah Abang","is_transit":true,"station_id":"THB"},{"distance":2029,"i_long":106.816351,"station_id":"KAT","line":1,"is_transit":false,"station_name":"Karet","time":5,"transit":false,"i_lat":-6.20132},{"time":1,"transit":false,"distance":471,"station_id":"SUDB","station_name":"Sudirman Baru","i_lat":-6.201433,"i_long":106.819881,"is_transit":false,"line":1},{"distance":280,"line":1,"transit":false,"i_long":106.822649,"station_id":"SUD","is_transit":false,"station_name":"Sudirman","time":1,"i_lat":-6.202263},{"i_lat":-6.209883,"distance":3186,"station_id":"MRI","time":4,"transit":true,"is_transit":true,"station_name":"Manggarai","line":0,"i_long":106.84912},{"i_lat":-6.198556,"transit":false,"line":0,"i_long":106.840169,"is_transit":false,"time":4,"distance":1590,"station_id":"CKI","station_name":"Cikini"},{"distance":1750,"transit":false,"is_transit":false,"time":3,"i_lat":-6.186295,"station_name":"Gondangdia","i_long":106.832183,"line":2,"station_id":"GDD"}],[{"time":0,"line":5,"station_name":"Taman Kota","transit":false,"distance":0,"i_lat":-6.1587309999999995,"is_transit":false,"i_long":106.756522,"station_id":"TKO"},{"i_lat":-6.161433,"time":2,"station_name":"Pesing","i_long":106.771379,"is_transit":false,"station_id":"PSG","transit":false,"line":5,"distance":1614},{"distance":2036,"transit":false,"i_lat":-6.162021,"line":5,"time":2,"is_transit":false,"station_id":"GGL","station_name":"Grogol","i_long":106.788277},{"station_id":"DU","i_lat":-6.155215,"i_long":106.800832,"is_transit":true,"time":3,"station_name":"Duri","line":1,"distance":1700,"transit":true},{"station_name":"Angke","transit":false,"is_transit":false,"i_lat":-6.144674,"station_id":"AK","time":4,"i_long":106.79867,"line":0,"distance":1230},{"time":9,"line":0,"station_id":"KPB","transit":false,"i_long":106.826365,"is_transit":true,"i_lat":-6.132549,"station_name":"Kampung Bandan","distance":4102},{"station_name":"Jakarta Kota","transit":true,"station_id":"JAKK","distance":1364,"is_transit":true,"time":3,"i_lat":-6.137569,"i_long":106.812439,"line":0},{"distance":1264,"station_name":"Jayakarta","transit":false,"i_long":106.820901,"i_lat":-6.141205,"station_id":"JAY","line":7,"is_transit":false,"time":4},{"station_id":"MGB","station_name":"Manggabesar","is_transit":false,"time":2,"i_long":106.82482,"i_lat":-6.149769,"transit":false,"line":2,"distance":1080},{"station_name":"Sawah Besar","is_transit":false,"distance":906,"transit":false,"time":2,"station_id":"SW","i_long":106.827103,"i_lat":-6.160725,"line":2},{"i_long":106.828284,"distance":1149,"station_name":"Juanda","station_id":"JUA","transit":false,"time":2,"i_lat":-6.166716,"line":2,"is_transit":false},{"time":4,"station_name":"Gondangdia","distance":2015,"line":2,"i_long":106.832183,"is_transit":false,"station_id":"GDD","transit":false,"i_lat":-6.186295}],[{"station_id":"TKO","time":0,"line":5,"i_long":106.756522,"is_transit":false,"station_name":"Taman Kota","i_lat":-6.1587309999999995,"distance":0,"transit":false},{"station_name":"Pesing","i_lat":-6.161433,"distance":1614,"line":5,"station_id":"PSG","is_transit":false,"time":2,"i_long":106.771379,"transit":false},{"distance":2036,"station_name":"Grogol","station_id":"GGL","is_transit":false,"transit":false,"i_lat":-6.162021,"line":5,"time":2,"i_long":106.788277},{"time":3,"line":1,"transit":true,"i_long":106.800832,"station_name":"Duri","station_id":"DU","i_lat":-6.155215,"is_transit":true,"distance":1700},{"is_transit":false,"distance":1230,"i_lat":-6.144674,"station_name":"Angke","time":4,"i_long":106.79867,"station_id":"AK","line":0,"transit":false},{"i_lat":-6.132549,"line":0,"distance":4102,"station_name":"Kampung Bandan","transit":true,"time":9,"station_id":"KPB","i_long":106.826365,"is_transit":true},{"i_lat":-6.14505,"i_long":106.836569,"station_id":"RJW","distance":1444,"transit":false,"station_name":"Rajawali","time":3,"is_transit":false,"line":11},{"station_id":"KMO","station_name":"Kemayoran","is_transit":false,"time":5,"i_lat":-6.161728,"transit":false,"i_long":106.839204,"line":11,"distance":1901},{"time":4,"station_id":"PSE","i_lat":-6.174784,"distance":1436,"is_transit":false,"station_name":"Pasar Senen","i_long":106.84368,"line":11,"transit":false},{"i_long":106.850107,"transit":false,"i_lat":-6.185975,"station_id":"GST","time":8,"line":11,"distance":1567,"is_transit":false,"station_name":"Gang Sentiong"},{"station_id":"KMT","distance":973,"time":1,"i_lat":-6.193792,"station_name":"Kramat","transit":false,"line":11,"i_long":106.855437,"is_transit":false},{"i_long":106.861737,"is_transit":false,"station_id":"POK","line":11,"time":2,"distance":1829,"station_name":"Pondok Jati","transit":false,"i_lat":-6.209188},{"i_lat":-6.215091,"is_transit":true,"station_name":"Jatinegara","time":9,"station_id":"JNG","transit":true,"i_long":106.86807400000001,"line":0,"distance":1236},{"i_long":106.858896,"is_transit":false,"station_id":"MTR","transit":false,"i_lat":-6.212485,"distance":1377,"station_name":"Matraman","line":1,"time":2},{"station_name":"Manggarai","transit":true,"distance":1275,"station_id":"MRI","i_long":106.84912,"line":0,"i_lat":-6.209883,"time":2,"is_transit":true},{"time":4,"i_long":106.840169,"station_name":"Cikini","distance":1590,"transit":false,"is_transit":false,"station_id":"CKI","i_lat":-6.198556,"line":0},{"transit":false,"i_lat":-6.186295,"i_long":106.832183,"station_id":"GDD","time":3,"line":2,"is_transit":false,"distance":1750,"station_name":"Gondangdia"}],[{"station_name":"Taman Kota","distance":0,"i_long":106.756522,"line":5,"time":0,"is_transit":false,"station_id":"TKO","transit":false,"i_lat":-6.1587309999999995},{"line":5,"time":2,"transit":false,"i_lat":-6.161433,"distance":1614,"is_transit":false,"station_id":"PSG","i_long":106.771379,"station_name":"Pesing"},{"station_name":"Grogol","i_long":106.788277,"is_transit":false,"station_id":"GGL","distance":2036,"transit":false,"line":5,"i_lat":-6.162021,"time":2},{"time":3,"distance":1700,"i_long":106.800832,"station_id":"DU","transit":true,"i_lat":-6.155215,"line":1,"station_name":"Duri","is_transit":true},{"transit":false,"station_name":"Tanah Abang","i_long":106.811091,"line":1,"distance":3632,"is_transit":true,"time":8,"i_lat":-6.185545,"station_id":"THB"},{"i_lat":-6.20132,"line":1,"transit":false,"distance":2029,"station_name":"Karet","station_id":"KAT","is_transit":false,"i_long":106.816351,"time":5},{"time":1,"distance":471,"is_transit":false,"station_id":"SUDB","transit":false,"i_lat":-6.201433,"i_long":106.819881,"line":1,"station_name":"Sudirman Baru"},{"i_lat":-6.202263,"is_transit":false,"station_id":"SUD","time":1,"line":1,"i_long":106.822649,"station_name":"Sudirman","transit":false,"distance":280},{"station_name":"Manggarai","distance":3186,"i_lat":-6.209883,"transit":false,"time":4,"line":0,"is_transit":true,"i_long":106.84912,"station_id":"MRI"},{"is_transit":false,"station_id":"MTR","transit":false,"i_long":106.858896,"station_name":"Matraman","time":2,"i_lat":-6.212485,"line":1,"distance":1275},{"time":8,"is_transit":true,"station_name":"Jatinegara","i_lat":-6.215091,"distance":1377,"station_id":"JNG","transit":true,"line":0,"i_long":106.86807400000001},{"transit":false,"station_id":"POK","i_lat":-6.209188,"time":2,"i_long":106.861737,"distance":1236,"station_name":"Pondok Jati","line":11,"is_transit":false},{"is_transit":false,"station_name":"Kramat","station_id":"KMT","line":11,"i_lat":-6.193792,"distance":1829,"transit":false,"i_long":106.855437,"time":2},{"i_lat":-6.185975,"station_name":"Gang Sentiong","station_id":"GST","is_transit":false,"transit":false,"time":1,"i_long":106.850107,"line":11,"distance":973},{"i_lat":-6.174784,"is_transit":false,"i_long":106.84368,"line":11,"distance":1567,"station_id":"PSE","station_name":"Pasar Senen","transit":false,"time":8},{"distance":1436,"time":4,"is_transit":false,"i_long":106.839204,"station_id":"KMO","i_lat":-6.161728,"station_name":"Kemayoran","transit":false,"line":11},{"time":5,"i_long":106.836569,"distance":1901,"station_name":"Rajawali","line":11,"i_lat":-6.14505,"station_id":"RJW","transit":false,"is_transit":false},{"transit":true,"line":0,"station_id":"KPB","is_transit":true,"station_name":"Kampung Bandan","i_lat":-6.132549,"time":3,"i_long":106.826365,"distance":1444},{"station_name":"Jakarta Kota","is_transit":true,"line":0,"i_long":106.812439,"time":3,"i_lat":-6.137569,"transit":true,"station_id":"JAKK","distance":1364},{"station_id":"JAY","transit":false,"time":4,"is_transit":false,"distance":1264,"i_long":106.820901,"station_name":"Jayakarta","i_lat":-6.141205,"line":7},{"transit":false,"time":2,"station_name":"Manggabesar","i_lat":-6.149769,"distance":1080,"is_transit":false,"station_id":"MGB","i_long":106.82482,"line":2},{"station_name":"Sawah Besar","i_long":106.827103,"transit":false,"distance":906,"line":2,"station_id":"SW","time":2,"is_transit":false,"i_lat":-6.160725},{"i_lat":-6.166716,"is_transit":false,"station_name":"Juanda","i_long":106.828284,"line":2,"time":2,"transit":false,"station_id":"JUA","distance":1149},{"is_transit":false,"transit":false,"i_long":106.832183,"time":4,"station_id":"GDD","line":2,"station_name":"Gondangdia","distance":2015,"i_lat":-6.186295}]]}