{"data":[[{"transit":false,"i_long":106.756522,"station_name":"Taman Kota","i_lat":-6.1587309999999995,"is_transit":false,"line":5,"distance":0,"station_id":"TKO","time":0},{"i_lat":-6.159876,"is_transit":false,"distance":2334,"transit":false,"i_long":106.737035,"line":0,"time":2,"station_id":"BOI","station_name":"Bojongindah"},{"transit":false,"i_lat":-6.162758,"i_long":106.723064,"line":5,"time":4,"station_name":"Rawa Buaya","station_id":"RW","is_transit":false,"distance":1152},{"is_transit":false,"i_lat":-6.166068,"station_name":"Kalideres","transit":false,"station_id":"KDS","distance":2504,"line":5,"i_long":106.701612,"time":3},{"i_long":106.679458,"line":5,"i_lat":-6.169933,"is_transit":false,"station_name":"Poris","transit":false,"station_id":"PI","time":3,"distance":2548},{"distance":1834,"i_lat":-6.171811,"is_transit":false,"station_id":"BPR","transit":false,"time":3,"station_name":"Batuceper","i_long":106.665036,"line":0}]]}