{"data":[[{"station_id":"TKO","distance":0,"i_lat":-6.1587309999999995,"i_long":106.756522,"line":5,"is_transit":false,"station_name":"Taman Kota","transit":false,"time":0},{"time":2,"distance":1614,"transit":false,"is_transit":false,"station_name":"Pesing","station_id":"PSG","i_lat":-6.161433,"line":5,"i_long":106.771379},{"i_lat":-6.162021,"distance":2036,"is_transit":false,"time":2,"station_name":"Grogol","i_long":106.788277,"station_id":"GGL","transit":false,"line":5},{"i_long":106.800832,"station_name":"Duri","transit":true,"is_transit":true,"i_lat":-6.155215,"time":3,"station_id":"DU","line":1,"distance":1700},{"distance":3632,"transit":false,"is_transit":true,"line":1,"time":8,"station_id":"THB","i_long":106.811091,"i_lat":-6.185545,"station_name":"Tanah Abang"},{"is_transit":false,"station_id":"KAT","distance":2029,"i_lat":-6.20132,"station_name":"Karet","transit":false,"i_long":106.816351,"line":1,"time":5},{"time":1,"transit":false,"i_long":106.819881,"line":1,"station_name":"Sudirman Baru","station_id":"SUDB","distance":471,"is_transit":false,"i_lat":-6.201433},{"transit":false,"time":1,"station_id":"SUD","is_transit":false,"station_name":"Sudirman","distance":280,"i_long":106.822649,"i_lat":-6.202263,"line":1},{"station_id":"MRI","transit":true,"i_lat":-6.209883,"line":0,"station_name":"Manggarai","i_long":106.84912,"is_transit":true,"time":4,"distance":3186},{"distance":2610,"line":2,"transit":false,"station_name":"Tebet","time":4,"station_id":"TEB","is_transit":false,"i_lat":-6.226659,"i_long":106.857948},{"distance":1230,"time":2,"line":0,"transit":false,"i_lat":-6.242512,"station_id":"CW","station_name":"Cawang","i_long":106.856607,"is_transit":false},{"line":0,"is_transit":false,"i_long":106.85449,"distance":1546,"transit":false,"station_name":"Duren Kalibata","i_lat":-6.255332,"time":3,"station_id":"DRN"},{"time":2,"is_transit":false,"i_long":106.851577,"distance":824,"line":2,"transit":false,"station_name":"Pasar Minggu Baru","i_lat":-6.263214,"station_id":"PSMB"},{"time":2,"i_lat":-6.2842400000000005,"distance":2380,"transit":false,"station_name":"Pasar Minggu","i_long":106.843999,"station_id":"PSM","line":2,"is_transit":false},{"station_name":"Tanjung Barat","i_long":106.838896,"is_transit":false,"station_id":"TNT","time":4,"transit":false,"line":2,"distance":2820,"i_lat":-6.3080680000000005},{"time":3,"station_name":"Lenteng Agung","transit":false,"is_transit":false,"i_lat":-6.330363,"station_id":"LNA","line":2,"i_long":106.832616,"distance":2671},{"station_id":"UP","station_name":"Univ. Pancasila","distance":1029,"i_lat":-6.339291,"i_long":106.834175,"time":2,"is_transit":false,"line":2,"transit":false},{"station_id":"UI","distance":2264,"station_name":"Univ. Indonesia","time":3,"transit":false,"i_lat":-6.360749,"i_long":106.831474,"is_transit":false,"line":2},{"distance":1109,"is_transit":false,"i_lat":-6.369073,"i_long":106.831114,"transit":false,"line":2,"station_name":"Pondok Cina","station_id":"POC","time":2},{"i_lat":-6.391065,"transit":false,"station_name":"Depokbaru","is_transit":false,"time":4,"distance":2727,"line":0,"station_id":"DPB","i_long":106.819451},{"station_id":"DP","i_long":106.816926,"line":0,"distance":1584,"transit":false,"time":3,"station_name":"Depok","is_transit":false,"i_lat":-6.405256},{"i_lat":-6.448811,"line":1,"i_long":106.800298,"station_name":"Citayam","is_transit":true,"station_id":"CTA","time":6,"distance":5084,"transit":false},{"station_name":"Bojonggede","is_transit":false,"distance":5197,"line":0,"time":5,"station_id":"BJD","i_lat":-6.493243,"transit":false,"i_long":106.792719},{"i_lat":-6.530544,"time":5,"line":0,"station_id":"CLT","distance":4331,"is_transit":false,"station_name":"Cilebut","i_long":106.800016,"transit":false}],[{"time":0,"station_id":"TKO","station_name":"Taman Kota","distance":0,"is_transit":false,"i_lat":-6.1587309999999995,"i_long":106.756522,"line":5,"transit":false},{"line":5,"distance":1614,"transit":false,"station_name":"Pesing","station_id":"PSG","i_long":106.771379,"is_transit":false,"time":2,"i_lat":-6.161433},{"station_id":"GGL","is_transit":false,"i_lat":-6.162021,"i_long":106.788277,"line":5,"station_name":"Grogol","time":2,"distance":2036,"transit":false},{"i_lat":-6.155215,"i_long":106.800832,"distance":1700,"time":3,"is_transit":true,"station_name":"Duri","station_id":"DU","line":1,"transit":true},{"is_transit":false,"i_long":106.79867,"time":4,"station_id":"AK","transit":false,"line":0,"station_name":"Angke","i_lat":-6.144674,"distance":1230},{"line":0,"is_transit":true,"station_id":"KPB","station_name":"Kampung Bandan","transit":false,"i_lat":-6.132549,"i_long":106.826365,"distance":4102,"time":9},{"station_id":"JAKK","i_long":106.812439,"line":0,"time":3,"distance":1364,"transit":true,"is_transit":true,"i_lat":-6.137569,"station_name":"Jakarta Kota"},{"transit":false,"station_id":"JAY","distance":1264,"line":7,"is_transit":false,"i_lat":-6.141205,"station_name":"Jayakarta","time":4,"i_long":106.820901},{"is_transit":false,"i_long":106.82482,"line":2,"station_name":"Manggabesar","time":2,"i_lat":-6.149769,"distance":1080,"station_id":"MGB","transit":false},{"i_long":106.827103,"station_name":"Sawah Besar","is_transit":false,"i_lat":-6.160725,"time":2,"distance":906,"station_id":"SW","transit":false,"line":2},{"line":2,"time":2,"is_transit":false,"distance":1149,"i_long":106.828284,"station_id":"JUA","station_name":"Juanda","transit":false,"i_lat":-6.166716},{"station_id":"GDD","station_name":"Gondangdia","time":4,"transit":false,"is_transit":false,"line":2,"distance":2015,"i_long":106.832183,"i_lat":-6.186295},{"time":3,"i_lat":-6.198556,"is_transit":false,"line":0,"station_name":"Cikini","i_long":106.840169,"distance":1750,"transit":false,"station_id":"CKI"},{"station_id":"MRI","station_name":"Manggarai","is_transit":true,"transit":true,"time":4,"line":0,"distance":1590,"i_lat":-6.209883,"i_long":106.84912},{"distance":2610,"i_long":106.857948,"is_transit":false,"time":4,"transit":false,"station_id":"TEB","i_lat":-6.226659,"line":2,"station_name":"Tebet"},{"i_lat":-6.242512,"station_id":"CW","i_long":106.856607,"line":0,"transit":false,"time":2,"station_name":"Cawang","is_transit":false,"distance":1230},{"i_long":106.85449,"station_id":"DRN","transit":false,"time":3,"i_lat":-6.255332,"line":0,"distance":1546,"is_transit":false,"station_name":"Duren Kalibata"},{"i_long":106.851577,"transit":false,"station_name":"Pasar Minggu Baru","time":2,"station_id":"PSMB","i_lat":-6.263214,"is_transit":false,"distance":824,"line":2},{"distance":2380,"station_name":"Pasar Minggu","time":2,"is_transit":false,"transit":false,"station_id":"PSM","i_long":106.843999,"line":2,"i_lat":-6.2842400000000005},{"line":2,"i_long":106.838896,"station_id":"TNT","distance":2820,"transit":false,"is_transit":false,"station_name":"Tanjung Barat","time":4,"i_lat":-6.3080680000000005},{"distance":2671,"station_name":"Lenteng Agung","line":2,"i_long":106.832616,"transit":false,"is_transit":false,"i_lat":-6.330363,"time":3,"station_id":"LNA"},{"i_long":106.834175,"station_id":"UP","time":2,"station_name":"Univ. Pancasila","line":2,"i_lat":-6.339291,"is_transit":false,"distance":1029,"transit":false},{"time":3,"line":2,"i_lat":-6.360749,"distance":2264,"i_long":106.831474,"is_transit":false,"station_id":"UI","transit":false,"station_name":"Univ. Indonesia"},{"station_name":"Pondok Cina","line":2,"time":2,"i_lat":-6.369073,"transit":false,"i_long":106.831114,"station_id":"POC","distance":1109,"is_transit":false},{"is_transit":false,"line":0,"station_id":"DPB","station_name":"Depokbaru","i_long":106.819451,"time":4,"distance":2727,"transit":false,"i_lat":-6.391065},{"time":3,"station_name":"Depok","distance":1584,"line":0,"station_id":"DP","i_lat":-6.405256,"transit":false,"is_transit":false,"i_long":106.816926},{"line":1,"is_transit":true,"i_lat":-6.448811,"i_long":106.800298,"station_name":"Citayam","distance":5084,"station_id":"CTA","time":6,"transit":false},{"i_long":106.792719,"station_id":"BJD","transit":false,"i_lat":-6.493243,"is_transit":false,"line":0,"distance":5197,"station_name":"Bojonggede","time":5},{"i_long":106.800016,"station_id":"CLT","time":5,"transit":false,"is_transit":false,"i_lat":-6.530544,"line":0,"station_name":"Cilebut","distance":4331}],[{"transit":false,"station_id":"TKO","i_lat":-6.1587309999999995,"station_name":"Taman Kota","is_transit":false,"i_long":106.756522,"line":5,"distance":0,"time":0},{"is_transit":false,"i_lat":-6.161433,"station_id":"PSG","i_long":106.771379,"time":2,"station_name":"Pesing","line":5,"transit":false,"distance":1614},{"time":2,"line":5,"station_name":"Grogol","distance":2036,"is_transit":false,"i_lat":-6.162021,"station_id":"GGL","i_long":106.788277,"transit":false},{"station_id":"DU","station_name":"Duri","i_long":106.800832,"time":3,"distance":1700,"transit":true,"line":1,"is_transit":true,"i_lat":-6.155215},{"distance":1230,"is_transit":false,"time":4,"station_name":"Angke","station_id":"AK","i_lat":-6.144674,"i_long":106.79867,"line":0,"transit":false},{"line":0,"station_name":"Kampung Bandan","transit":true,"i_long":106.826365,"is_transit":true,"i_lat":-6.132549,"distance":4102,"time":9,"station_id":"KPB"},{"line":11,"distance":1444,"station_name":"Rajawali","transit":false,"station_id":"RJW","is_transit":false,"time":3,"i_lat":-6.14505,"i_long":106.836569},{"i_lat":-6.161728,"station_id":"KMO","i_long":106.839204,"time":5,"station_name":"Kemayoran","distance":1901,"transit":false,"is_transit":false,"line":11},{"is_transit":false,"transit":false,"line":11,"station_name":"Pasar Senen","distance":1436,"station_id":"PSE","i_lat":-6.174784,"i_long":106.84368,"time":4},{"transit":false,"line":11,"station_id":"GST","i_long":106.850107,"time":8,"station_name":"Gang Sentiong","is_transit":false,"i_lat":-6.185975,"distance":1567},{"station_id":"KMT","station_name":"Kramat","i_long":106.855437,"is_transit":false,"transit":false,"i_lat":-6.193792,"time":1,"distance":973,"line":11},{"is_transit":false,"transit":false,"line":11,"i_long":106.861737,"station_id":"POK","i_lat":-6.209188,"distance":1829,"time":2,"station_name":"Pondok Jati"},{"is_transit":true,"transit":true,"time":9,"distance":1236,"station_name":"Jatinegara","i_long":106.86807400000001,"line":0,"station_id":"JNG","i_lat":-6.215091},{"line":1,"i_long":106.858896,"station_name":"Matraman","distance":1377,"time":2,"transit":false,"station_id":"MTR","i_lat":-6.212485,"is_transit":false},{"i_lat":-6.209883,"i_long":106.84912,"line":0,"distance":1275,"is_transit":true,"station_id":"MRI","time":2,"station_name":"Manggarai","transit":true},{"time":4,"distance":2610,"station_id":"TEB","transit":false,"is_transit":false,"station_name":"Tebet","line":2,"i_lat":-6.226659,"i_long":106.857948},{"time":2,"distance":1230,"is_transit":false,"i_lat":-6.242512,"i_long":106.856607,"station_id":"CW","transit":false,"line":0,"station_name":"Cawang"},{"transit":false,"i_lat":-6.255332,"time":3,"station_id":"DRN","station_name":"Duren Kalibata","i_long":106.85449,"is_transit":false,"distance":1546,"line":0},{"station_id":"PSMB","transit":false,"i_lat":-6.263214,"station_name":"Pasar Minggu Baru","is_transit":false,"distance":824,"line":2,"time":2,"i_long":106.851577},{"time":2,"i_lat":-6.2842400000000005,"is_transit":false,"transit":false,"i_long":106.843999,"station_name":"Pasar Minggu","line":2,"distance":2380,"station_id":"PSM"},{"is_transit":false,"time":4,"station_id":"TNT","station_name":"Tanjung Barat","i_long":106.838896,"distance":2820,"line":2,"i_lat":-6.3080680000000005,"transit":false},{"is_transit":false,"time":3,"i_long":106.832616,"transit":false,"station_id":"LNA","station_name":"Lenteng Agung","distance":2671,"line":2,"i_lat":-6.330363},{"station_name":"Univ. Pancasila","i_long":106.834175,"time":2,"distance":1029,"station_id":"UP","is_transit":false,"i_lat":-6.339291,"transit":false,"line":2},{"line":2,"transit":false,"i_long":106.831474,"time":3,"station_name":"Univ. Indonesia","distance":2264,"i_lat":-6.360749,"station_id":"UI","is_transit":false},{"i_lat":-6.369073,"station_name":"Pondok Cina","i_long":106.831114,"distance":1109,"transit":false,"line":2,"time":2,"station_id":"POC","is_transit":false},{"station_name":"Depokbaru","transit":false,"is_transit":false,"line":0,"i_long":106.819451,"station_id":"DPB","distance":2727,"i_lat":-6.391065,"time":4},{"station_name":"Depok","transit":false,"is_transit":false,"line":0,"distance":1584,"station_id":"DP","time":3,"i_long":106.816926,"i_lat":-6.405256},{"distance":5084,"line":1,"station_name":"Citayam","i_long":106.800298,"is_transit":true,"time":6,"station_id":"CTA","transit":false,"i_lat":-6.448811},{"station_name":"Bojonggede","distance":5197,"i_long":106.792719,"transit":false,"line":0,"i_lat":-6.493243,"is_transit":false,"station_id":"BJD","time":5},{"distance":4331,"i_long":106.800016,"is_transit":false,"i_lat":-6.530544,"station_id":"CLT","transit":false,"line":0,"station_name":"Cilebut","time":5}]]}