{"data":[[{"time":0,"line":5,"is_transit":false,"transit":false,"station_id":"TKO","distance":0,"station_name":"Taman Kota","i_lat":-6.1587309999999995,"i_long":106.756522},{"time":2,"transit":false,"is_transit":false,"i_long":106.737035,"i_lat":-6.159876,"line":5,"station_name":"Bojongindah","station_id":"BOI","distance":2334},{"time":4,"i_long":106.723064,"station_name":"Rawa Buaya","is_transit":false,"distance":1152,"station_id":"RW","i_lat":-6.162758,"line":5,"transit":false},{"station_id":"KDS","is_transit":false,"time":3,"i_lat":-6.166068,"station_name":"Kalideres","i_long":106.701612,"distance":2504,"line":5,"transit":false},{"distance":2548,"station_name":"Poris","station_id":"PI","i_long":106.679458,"transit":false,"line":5,"time":3,"i_lat":-6.169933,"is_transit":false},{"i_long":106.665036,"transit":false,"station_name":"Batuceper","line":5,"distance":1834,"station_id":"BPR","i_lat":-6.171811,"is_transit":false,"time":3}]]}