{"data":[[{"station_id":"TKO","transit":false,"i_long":106.756522,"station_name":"Taman Kota","distance":0,"is_transit":false,"time":0,"line":5,"i_lat":-6.1587309999999995},{"is_transit":false,"time":2,"station_id":"PSG","distance":1614,"i_long":106.771379,"i_lat":-6.161433,"station_name":"Pesing","line":5,"transit":false},{"line":5,"i_lat":-6.162021,"i_long":106.788277,"station_name":"Grogol","distance":2036,"is_transit":false,"transit":false,"station_id":"GGL","time":2},{"distance":1700,"is_transit":true,"transit":true,"station_name":"Duri","station_id":"DU","time":3,"i_lat":-6.155215,"i_long":106.800832,"line":1},{"distance":3632,"station_name":"Tanah Abang","transit":false,"time":8,"station_id":"THB","i_lat":-6.185545,"line":1,"is_transit":false,"i_long":106.811091},{"transit":false,"is_transit":false,"i_lat":-6.20132,"i_long":106.816351,"station_id":"KAT","station_name":"Karet","time":5,"distance":2029,"line":1},{"i_lat":-6.201433,"transit":false,"line":1,"i_long":106.819881,"station_name":"Sudirman Baru","distance":471,"station_id":"SUDB","is_transit":false,"time":1},{"transit":false,"line":1,"i_long":106.822649,"station_id":"SUD","i_lat":-6.202263,"time":1,"distance":280,"is_transit":false,"station_name":"Sudirman"},{"transit":true,"station_name":"Manggarai","is_transit":true,"time":4,"distance":3186,"i_long":106.84912,"i_lat":-6.209883,"station_id":"MRI","line":2},{"transit":false,"i_lat":-6.226659,"i_long":106.857948,"line":2,"station_name":"Tebet","is_transit":false,"time":4,"distance":2610,"station_id":"TEB"},{"station_id":"CW","transit":false,"i_lat":-6.242512,"line":2,"i_long":106.856607,"is_transit":false,"time":2,"distance":1230,"station_name":"Cawang"}],[{"station_id":"TKO","is_transit":false,"i_lat":-6.1587309999999995,"i_long":106.756522,"station_name":"Taman Kota","time":0,"line":5,"distance":0,"transit":false},{"is_transit":false,"station_name":"Pesing","i_lat":-6.161433,"distance":1614,"line":5,"transit":false,"station_id":"PSG","i_long":106.771379,"time":2},{"is_transit":false,"transit":false,"time":2,"station_name":"Grogol","station_id":"GGL","i_lat":-6.162021,"i_long":106.788277,"distance":2036,"line":5},{"i_long":106.800832,"transit":true,"line":1,"is_transit":true,"time":3,"station_name":"Duri","station_id":"DU","i_lat":-6.155215,"distance":1700},{"station_id":"AK","transit":false,"is_transit":false,"distance":1230,"i_long":106.79867,"station_name":"Angke","i_lat":-6.144674,"line":1,"time":4},{"station_id":"KPB","transit":true,"distance":4102,"i_lat":-6.132549,"station_name":"Kampung Bandan","i_long":106.826365,"is_transit":true,"time":9,"line":4},{"line":2,"i_long":106.812439,"station_id":"JAKK","transit":true,"station_name":"Jakarta Kota","is_transit":true,"i_lat":-6.137569,"time":3,"distance":1364},{"is_transit":false,"time":4,"distance":1264,"i_lat":-6.141205,"i_long":106.820901,"transit":false,"station_name":"Jayakarta","line":2,"station_id":"JAY"},{"station_id":"MGB","time":2,"transit":false,"station_name":"Manggabesar","i_long":106.82482,"line":2,"i_lat":-6.149769,"is_transit":false,"distance":1080},{"is_transit":false,"i_lat":-6.160725,"transit":false,"station_id":"SW","i_long":106.827103,"line":2,"time":2,"distance":906,"station_name":"Sawah Besar"},{"distance":1149,"is_transit":false,"i_lat":-6.166716,"transit":false,"time":2,"line":2,"station_id":"JUA","i_long":106.828284,"station_name":"Juanda"},{"station_name":"Gondangdia","transit":false,"is_transit":false,"time":4,"station_id":"GDD","i_lat":-6.186295,"i_long":106.832183,"line":2,"distance":2015},{"i_long":106.840169,"station_id":"CKI","time":3,"distance":1750,"i_lat":-6.198556,"line":2,"is_transit":false,"transit":false,"station_name":"Cikini"},{"time":4,"i_long":106.84912,"station_id":"MRI","transit":false,"is_transit":false,"line":2,"station_name":"Manggarai","distance":1590,"i_lat":-6.209883},{"line":2,"station_id":"TEB","i_lat":-6.226659,"transit":false,"station_name":"Tebet","time":4,"distance":2610,"is_transit":false,"i_long":106.857948},{"is_transit":false,"station_name":"Cawang","transit":false,"distance":1230,"station_id":"CW","i_lat":-6.242512,"line":2,"time":2,"i_long":106.856607}],[{"station_id":"TKO","line":5,"station_name":"Taman Kota","transit":false,"time":0,"i_long":106.756522,"distance":0,"is_transit":false,"i_lat":-6.1587309999999995},{"transit":false,"time":2,"distance":1614,"station_name":"Pesing","station_id":"PSG","is_transit":false,"i_lat":-6.161433,"i_long":106.771379,"line":5},{"time":2,"transit":false,"distance":2036,"is_transit":false,"line":5,"station_name":"Grogol","i_lat":-6.162021,"station_id":"GGL","i_long":106.788277},{"time":3,"i_lat":-6.155215,"i_long":106.800832,"distance":1700,"line":1,"transit":true,"station_id":"DU","station_name":"Duri","is_transit":true},{"is_transit":false,"i_lat":-6.144674,"transit":false,"i_long":106.79867,"line":1,"distance":1230,"station_name":"Angke","station_id":"AK","time":4},{"transit":true,"line":4,"time":9,"station_name":"Kampung Bandan","i_long":106.826365,"is_transit":true,"i_lat":-6.132549,"distance":4102,"station_id":"KPB"},{"i_lat":-6.14505,"station_id":"RJW","is_transit":false,"i_long":106.836569,"time":3,"station_name":"Rajawali","distance":1444,"line":11,"transit":false},{"is_transit":false,"transit":false,"station_name":"Kemayoran","distance":1901,"i_lat":-6.161728,"i_long":106.839204,"time":5,"station_id":"KMO","line":11},{"time":4,"station_name":"Pasar Senen","line":11,"i_long":106.84368,"distance":1436,"i_lat":-6.174784,"transit":false,"station_id":"PSE","is_transit":false},{"line":11,"time":8,"distance":1567,"is_transit":false,"i_long":106.850107,"i_lat":-6.185975,"station_id":"GST","transit":false,"station_name":"Gang Sentiong"},{"transit":false,"i_long":106.855437,"station_id":"KMT","station_name":"Kramat","distance":973,"is_transit":false,"i_lat":-6.193792,"time":1,"line":11},{"i_long":106.861737,"i_lat":-6.209188,"time":2,"transit":false,"distance":1829,"line":11,"station_name":"Pondok Jati","is_transit":false,"station_id":"POK"},{"station_id":"JNG","transit":true,"distance":1236,"i_lat":-6.215091,"i_long":106.86807400000001,"station_name":"Jatinegara","time":9,"line":1,"is_transit":true},{"distance":1377,"i_long":106.858896,"transit":false,"station_name":"Matraman","line":1,"is_transit":false,"i_lat":-6.212485,"time":2,"station_id":"MTR"},{"station_name":"Manggarai","time":2,"i_lat":-6.209883,"is_transit":true,"line":2,"distance":1275,"transit":true,"station_id":"MRI","i_long":106.84912},{"transit":false,"station_id":"TEB","time":4,"station_name":"Tebet","i_long":106.857948,"is_transit":false,"line":2,"i_lat":-6.226659,"distance":2610},{"i_long":106.856607,"time":2,"line":2,"distance":1230,"transit":false,"i_lat":-6.242512,"station_name":"Cawang","station_id":"CW","is_transit":false}]]}