{"data":[[{"line":5,"distance":0,"station_id":"TKO","i_long":106.756522,"transit":false,"i_lat":-6.1587309999999995,"station_name":"Taman Kota","is_transit":false,"time":0},{"time":2,"i_lat":-6.161433,"line":5,"transit":false,"i_long":106.771379,"station_name":"Pesing","distance":1614,"station_id":"PSG","is_transit":false},{"line":5,"transit":false,"station_name":"Grogol","i_lat":-6.162021,"distance":2036,"is_transit":false,"time":2,"i_long":106.788277,"station_id":"GGL"},{"time":3,"line":1,"i_long":106.800832,"i_lat":-6.155215,"distance":1700,"is_transit":true,"station_id":"DU","transit":true,"station_name":"Duri"},{"station_id":"THB","line":1,"distance":3632,"i_long":106.811091,"station_name":"Tanah Abang","transit":true,"is_transit":true,"i_lat":-6.185545,"time":8},{"is_transit":false,"i_lat":-6.207404,"station_id":"PLM","line":6,"distance":3191,"i_long":106.79689,"time":6,"transit":false,"station_name":"Palmerah"},{"transit":false,"station_id":"KBY","i_long":106.780334,"line":6,"i_lat":-6.237242,"time":7,"station_name":"Kebayoran","is_transit":false,"distance":3737},{"is_transit":false,"i_lat":-6.276362,"transit":false,"time":8,"station_name":"Pondokranji","station_id":"PDJ","line":6,"distance":6218,"i_long":106.74273},{"transit":false,"is_transit":false,"station_name":"Jurangmangu","i_long":106.728916,"i_lat":-6.288927,"line":6,"time":3,"distance":2179,"station_id":"JMU"},{"distance":1994,"i_long":106.712277,"station_id":"SDM","is_transit":false,"line":6,"time":4,"station_name":"Sudimara","i_lat":-6.296963,"transit":false},{"station_name":"Rawa Buntu","i_lat":-6.314823,"i_long":106.675475,"distance":4566,"station_id":"RU","transit":false,"line":6,"time":6,"is_transit":false},{"line":6,"is_transit":false,"i_long":106.66566,"station_name":"Serpong","distance":2413,"time":4,"station_id":"SRP","i_lat":-6.319871,"transit":false}],[{"station_name":"Taman Kota","station_id":"TKO","transit":false,"line":5,"time":0,"i_lat":-6.1587309999999995,"i_long":106.756522,"distance":0,"is_transit":false},{"line":5,"station_name":"Pesing","transit":false,"time":2,"distance":1614,"station_id":"PSG","is_transit":false,"i_long":106.771379,"i_lat":-6.161433},{"time":2,"transit":false,"is_transit":false,"distance":2036,"station_name":"Grogol","line":5,"station_id":"GGL","i_long":106.788277,"i_lat":-6.162021},{"distance":1700,"i_lat":-6.155215,"i_long":106.800832,"is_transit":true,"station_id":"DU","line":1,"station_name":"Duri","transit":true,"time":3},{"line":1,"time":4,"i_long":106.79867,"distance":1230,"station_name":"Angke","is_transit":false,"i_lat":-6.144674,"transit":false,"station_id":"AK"},{"distance":4102,"station_id":"KPB","line":4,"time":9,"transit":true,"i_long":106.826365,"is_transit":true,"i_lat":-6.132549,"station_name":"Kampung Bandan"},{"distance":1364,"transit":true,"is_transit":true,"time":3,"station_name":"Jakarta Kota","station_id":"JAKK","i_lat":-6.137569,"line":2,"i_long":106.812439},{"distance":1264,"transit":false,"i_lat":-6.141205,"station_id":"JAY","station_name":"Jayakarta","i_long":106.820901,"time":4,"is_transit":false,"line":2},{"time":2,"station_id":"MGB","station_name":"Manggabesar","i_long":106.82482,"distance":1080,"i_lat":-6.149769,"is_transit":false,"transit":false,"line":2},{"time":2,"i_long":106.827103,"line":2,"station_id":"SW","station_name":"Sawah Besar","is_transit":false,"transit":false,"distance":906,"i_lat":-6.160725},{"time":2,"is_transit":false,"station_name":"Juanda","station_id":"JUA","line":2,"distance":1149,"transit":false,"i_lat":-6.166716,"i_long":106.828284},{"is_transit":false,"i_lat":-6.186295,"i_long":106.832183,"line":2,"transit":false,"station_name":"Gondangdia","station_id":"GDD","time":4,"distance":2015},{"line":2,"transit":false,"time":3,"is_transit":false,"station_id":"CKI","station_name":"Cikini","i_lat":-6.198556,"distance":1750,"i_long":106.840169},{"i_long":106.84912,"transit":true,"station_id":"MRI","line":2,"time":4,"distance":1590,"i_lat":-6.209883,"is_transit":true,"station_name":"Manggarai"},{"station_name":"Sudirman","station_id":"SUD","is_transit":false,"i_lat":-6.202263,"line":1,"i_long":106.822649,"transit":false,"distance":3186,"time":4},{"line":1,"transit":false,"time":1,"distance":280,"station_name":"Sudirman Baru","is_transit":false,"i_lat":-6.201433,"i_long":106.819881,"station_id":"SUDB"},{"station_name":"Karet","transit":false,"station_id":"KAT","i_lat":-6.20132,"line":1,"is_transit":false,"distance":471,"time":1,"i_long":106.816351},{"transit":true,"distance":2029,"line":1,"time":5,"station_name":"Tanah Abang","is_transit":true,"i_lat":-6.185545,"i_long":106.811091,"station_id":"THB"},{"station_id":"PLM","time":6,"i_lat":-6.207404,"station_name":"Palmerah","transit":false,"is_transit":false,"line":6,"i_long":106.79689,"distance":3191},{"station_name":"Kebayoran","i_lat":-6.237242,"distance":3737,"i_long":106.780334,"station_id":"KBY","time":7,"is_transit":false,"transit":false,"line":6},{"i_lat":-6.276362,"transit":false,"i_long":106.74273,"distance":6218,"is_transit":false,"line":6,"station_name":"Pondokranji","time":8,"station_id":"PDJ"},{"station_name":"Jurangmangu","transit":false,"is_transit":false,"i_long":106.728916,"i_lat":-6.288927,"distance":2179,"time":3,"station_id":"JMU","line":6},{"time":4,"is_transit":false,"i_long":106.712277,"line":6,"transit":false,"i_lat":-6.296963,"station_name":"Sudimara","station_id":"SDM","distance":1994},{"distance":4566,"time":6,"i_lat":-6.314823,"station_id":"RU","line":6,"transit":false,"is_transit":false,"i_long":106.675475,"station_name":"Rawa Buntu"},{"distance":2413,"transit":false,"time":4,"i_lat":-6.319871,"i_long":106.66566,"station_name":"Serpong","station_id":"SRP","is_transit":false,"line":6}],[{"transit":false,"i_lat":-6.1587309999999995,"station_id":"TKO","station_name":"Taman Kota","distance":0,"time":0,"is_transit":false,"i_long":106.756522,"line":5},{"station_name":"Pesing","station_id":"PSG","i_long":106.771379,"transit":false,"line":5,"time":2,"is_transit":false,"i_lat":-6.161433,"distance":1614},{"station_name":"Grogol","distance":2036,"time":2,"i_long":106.788277,"line":5,"station_id":"GGL","i_lat":-6.162021,"transit":false,"is_transit":false},{"distance":1700,"is_transit":true,"i_lat":-6.155215,"line":1,"station_name":"Duri","station_id":"DU","i_long":106.800832,"transit":true,"time":3},{"i_long":106.79867,"i_lat":-6.144674,"line":1,"distance":1230,"is_transit":false,"station_name":"Angke","station_id":"AK","time":4,"transit":false},{"time":9,"transit":true,"distance":4102,"i_lat":-6.132549,"i_long":106.826365,"station_id":"KPB","line":4,"is_transit":true,"station_name":"Kampung Bandan"},{"transit":false,"distance":1444,"station_name":"Rajawali","station_id":"RJW","i_long":106.836569,"line":11,"is_transit":false,"time":3,"i_lat":-6.14505},{"transit":false,"distance":1901,"station_name":"Kemayoran","time":5,"station_id":"KMO","i_lat":-6.161728,"i_long":106.839204,"line":11,"is_transit":false},{"distance":1436,"is_transit":false,"i_lat":-6.174784,"transit":false,"time":4,"i_long":106.84368,"line":11,"station_id":"PSE","station_name":"Pasar Senen"},{"station_id":"GST","time":8,"i_long":106.850107,"station_name":"Gang Sentiong","line":11,"distance":1567,"is_transit":false,"transit":false,"i_lat":-6.185975},{"i_long":106.855437,"station_id":"KMT","line":11,"time":1,"is_transit":false,"i_lat":-6.193792,"transit":false,"station_name":"Kramat","distance":973},{"transit":false,"i_long":106.861737,"line":11,"is_transit":false,"distance":1829,"station_name":"Pondok Jati","i_lat":-6.209188,"time":2,"station_id":"POK"},{"station_name":"Jatinegara","i_lat":-6.215091,"i_long":106.86807400000001,"station_id":"JNG","is_transit":true,"line":1,"distance":1236,"transit":true,"time":9},{"i_lat":-6.212485,"line":1,"i_long":106.858896,"time":2,"station_name":"Matraman","is_transit":false,"station_id":"MTR","distance":1377,"transit":false},{"time":2,"station_id":"MRI","i_long":106.84912,"transit":false,"i_lat":-6.209883,"is_transit":false,"station_name":"Manggarai","distance":1275,"line":2},{"distance":3186,"transit":false,"station_name":"Sudirman","line":1,"station_id":"SUD","i_long":106.822649,"time":4,"is_transit":false,"i_lat":-6.202263},{"line":1,"i_lat":-6.201433,"distance":280,"is_transit":false,"station_id":"SUDB","time":1,"transit":false,"station_name":"Sudirman Baru","i_long":106.819881},{"line":1,"distance":471,"station_id":"KAT","transit":false,"is_transit":false,"station_name":"Karet","i_lat":-6.20132,"time":1,"i_long":106.816351},{"distance":2029,"station_id":"THB","transit":true,"i_lat":-6.185545,"i_long":106.811091,"line":1,"is_transit":true,"station_name":"Tanah Abang","time":5},{"station_id":"PLM","line":6,"transit":false,"distance":3191,"i_lat":-6.207404,"i_long":106.79689,"station_name":"Palmerah","is_transit":false,"time":6},{"time":7,"transit":false,"i_long":106.780334,"distance":3737,"station_name":"Kebayoran","line":6,"i_lat":-6.237242,"is_transit":false,"station_id":"KBY"},{"station_id":"PDJ","time":8,"line":6,"station_name":"Pondokranji","distance":6218,"transit":false,"is_transit":false,"i_lat":-6.276362,"i_long":106.74273},{"station_name":"Jurangmangu","time":3,"distance":2179,"is_transit":false,"transit":false,"station_id":"JMU","line":6,"i_lat":-6.288927,"i_long":106.728916},{"line":6,"distance":1994,"i_long":106.712277,"i_lat":-6.296963,"station_id":"SDM","transit":false,"is_transit":false,"time":4,"station_name":"Sudimara"},{"distance":4566,"transit":false,"line":6,"station_id":"RU","i_lat":-6.314823,"i_long":106.675475,"station_name":"Rawa Buntu","time":6,"is_transit":false},{"line":6,"transit":false,"is_transit":false,"distance":2413,"station_name":"Serpong","time":4,"i_long":106.66566,"i_lat":-6.319871,"station_id":"SRP"}]]}