{"data":[[{"i_lat":-6.1587309999999995,"i_long":106.756522,"station_id":"TKO","is_transit":false,"station_name":"Taman Kota","transit":false,"line":5,"distance":0,"time":0},{"i_lat":-6.161433,"i_long":106.771379,"station_name":"Pesing","station_id":"PSG","transit":false,"time":2,"is_transit":false,"distance":1614,"line":5},{"station_name":"Grogol","line":5,"is_transit":false,"distance":2036,"station_id":"GGL","time":2,"transit":false,"i_long":106.788277,"i_lat":-6.162021},{"time":3,"i_long":106.800832,"station_id":"DU","transit":true,"distance":1700,"station_name":"Duri","line":1,"is_transit":true,"i_lat":-6.155215},{"transit":false,"i_long":106.811091,"station_name":"Tanah Abang","is_transit":true,"time":8,"i_lat":-6.185545,"distance":3632,"line":1,"station_id":"THB"},{"i_lat":-6.20132,"i_long":106.816351,"distance":2029,"station_id":"KAT","line":1,"station_name":"Karet","time":5,"is_transit":false,"transit":false},{"distance":471,"is_transit":false,"line":1,"time":1,"station_name":"Sudirman Baru","station_id":"SUDB","i_lat":-6.201433,"i_long":106.819881,"transit":false},{"is_transit":false,"i_long":106.822649,"line":1,"i_lat":-6.202263,"time":1,"station_name":"Sudirman","transit":false,"distance":280,"station_id":"SUD"},{"transit":true,"time":4,"station_id":"MRI","i_long":106.84912,"distance":3186,"i_lat":-6.209883,"is_transit":true,"station_name":"Manggarai","line":0},{"is_transit":false,"time":4,"station_id":"CKI","station_name":"Cikini","distance":1590,"i_lat":-6.198556,"i_long":106.840169,"line":0,"transit":false}],[{"time":0,"transit":false,"is_transit":false,"i_long":106.756522,"station_name":"Taman Kota","station_id":"TKO","line":5,"i_lat":-6.1587309999999995,"distance":0},{"is_transit":false,"transit":false,"i_lat":-6.161433,"line":5,"time":2,"station_name":"Pesing","i_long":106.771379,"distance":1614,"station_id":"PSG"},{"line":5,"time":2,"is_transit":false,"station_id":"GGL","station_name":"Grogol","transit":false,"distance":2036,"i_lat":-6.162021,"i_long":106.788277},{"is_transit":true,"time":3,"station_id":"DU","i_lat":-6.155215,"distance":1700,"i_long":106.800832,"transit":true,"station_name":"Duri","line":1},{"transit":false,"i_lat":-6.144674,"time":4,"is_transit":false,"distance":1230,"line":0,"i_long":106.79867,"station_name":"Angke","station_id":"AK"},{"station_name":"Kampung Bandan","i_long":106.826365,"transit":false,"station_id":"KPB","i_lat":-6.132549,"distance":4102,"is_transit":true,"time":9,"line":0},{"station_id":"JAKK","i_long":106.812439,"distance":1364,"station_name":"Jakarta Kota","is_transit":true,"line":0,"i_lat":-6.137569,"time":3,"transit":true},{"station_id":"JAY","i_long":106.820901,"time":4,"line":7,"transit":false,"distance":1264,"is_transit":false,"station_name":"Jayakarta","i_lat":-6.141205},{"station_name":"Manggabesar","transit":false,"line":2,"is_transit":false,"station_id":"MGB","i_long":106.82482,"time":2,"i_lat":-6.149769,"distance":1080},{"distance":906,"line":2,"time":2,"transit":false,"is_transit":false,"i_long":106.827103,"i_lat":-6.160725,"station_name":"Sawah Besar","station_id":"SW"},{"i_lat":-6.166716,"station_name":"Juanda","i_long":106.828284,"distance":1149,"transit":false,"line":2,"is_transit":false,"time":2,"station_id":"JUA"},{"station_id":"GDD","is_transit":false,"station_name":"Gondangdia","distance":2015,"time":4,"i_long":106.832183,"line":2,"transit":false,"i_lat":-6.186295},{"line":0,"distance":1750,"is_transit":false,"station_id":"CKI","i_lat":-6.198556,"i_long":106.840169,"time":3,"station_name":"Cikini","transit":false}],[{"station_name":"Taman Kota","station_id":"TKO","distance":0,"transit":false,"time":0,"i_long":106.756522,"line":5,"i_lat":-6.1587309999999995,"is_transit":false},{"i_long":106.771379,"is_transit":false,"transit":false,"station_id":"PSG","distance":1614,"i_lat":-6.161433,"station_name":"Pesing","line":5,"time":2},{"station_id":"GGL","line":5,"transit":false,"time":2,"is_transit":false,"station_name":"Grogol","i_lat":-6.162021,"distance":2036,"i_long":106.788277},{"distance":1700,"station_id":"DU","station_name":"Duri","i_lat":-6.155215,"transit":true,"i_long":106.800832,"time":3,"line":1,"is_transit":true},{"is_transit":false,"distance":1230,"i_lat":-6.144674,"station_id":"AK","transit":false,"time":4,"i_long":106.79867,"station_name":"Angke","line":0},{"time":9,"distance":4102,"line":0,"is_transit":true,"station_name":"Kampung Bandan","i_lat":-6.132549,"i_long":106.826365,"station_id":"KPB","transit":true},{"line":11,"distance":1444,"i_long":106.836569,"is_transit":false,"station_name":"Rajawali","station_id":"RJW","i_lat":-6.14505,"time":3,"transit":false},{"i_long":106.839204,"station_name":"Kemayoran","time":5,"line":11,"distance":1901,"is_transit":false,"transit":false,"station_id":"KMO","i_lat":-6.161728},{"line":11,"distance":1436,"station_name":"Pasar Senen","i_lat":-6.174784,"transit":false,"is_transit":false,"station_id":"PSE","i_long":106.84368,"time":4},{"transit":false,"i_long":106.850107,"station_id":"GST","line":11,"station_name":"Gang Sentiong","time":8,"is_transit":false,"distance":1567,"i_lat":-6.185975},{"transit":false,"station_name":"Kramat","time":1,"line":11,"is_transit":false,"i_lat":-6.193792,"station_id":"KMT","distance":973,"i_long":106.855437},{"is_transit":false,"transit":false,"line":11,"distance":1829,"station_id":"POK","time":2,"i_long":106.861737,"station_name":"Pondok Jati","i_lat":-6.209188},{"distance":1236,"transit":true,"is_transit":true,"station_id":"JNG","station_name":"Jatinegara","time":9,"line":0,"i_lat":-6.215091,"i_long":106.86807400000001},{"station_name":"Matraman","line":1,"distance":1377,"is_transit":false,"transit":false,"i_lat":-6.212485,"station_id":"MTR","i_long":106.858896,"time":2},{"is_transit":true,"transit":true,"distance":1275,"i_lat":-6.209883,"i_long":106.84912,"line":0,"station_name":"Manggarai","time":2,"station_id":"MRI"},{"distance":1590,"station_id":"CKI","is_transit":false,"time":4,"i_long":106.840169,"transit":false,"i_lat":-6.198556,"line":0,"station_name":"Cikini"}],[{"distance":0,"i_long":106.756522,"is_transit":false,"time":0,"transit":false,"station_name":"Taman Kota","i_lat":-6.1587309999999995,"line":5,"station_id":"TKO"},{"distance":1614,"is_transit":false,"line":5,"i_lat":-6.161433,"time":2,"station_name":"Pesing","transit":false,"station_id":"PSG","i_long":106.771379},{"station_name":"Grogol","station_id":"GGL","transit":false,"is_transit":false,"time":2,"distance":2036,"line":5,"i_lat":-6.162021,"i_long":106.788277},{"is_transit":true,"station_name":"Duri","station_id":"DU","time":3,"line":1,"transit":true,"distance":1700,"i_lat":-6.155215,"i_long":106.800832},{"is_transit":true,"station_id":"THB","i_lat":-6.185545,"line":1,"transit":false,"distance":3632,"time":8,"station_name":"Tanah Abang","i_long":106.811091},{"station_name":"Karet","time":5,"distance":2029,"is_transit":false,"station_id":"KAT","transit":false,"i_lat":-6.20132,"line":1,"i_long":106.816351},{"i_long":106.819881,"transit":false,"station_name":"Sudirman Baru","time":1,"is_transit":false,"distance":471,"station_id":"SUDB","line":1,"i_lat":-6.201433},{"station_name":"Sudirman","distance":280,"i_long":106.822649,"line":1,"time":1,"is_transit":false,"station_id":"SUD","transit":false,"i_lat":-6.202263},{"line":0,"time":4,"transit":false,"i_lat":-6.209883,"distance":3186,"is_transit":true,"station_id":"MRI","i_long":106.84912,"station_name":"Manggarai"},{"station_name":"Matraman","i_long":106.858896,"is_transit":false,"station_id":"MTR","distance":1275,"transit":false,"line":1,"i_lat":-6.212485,"time":2},{"time":8,"distance":1377,"i_long":106.86807400000001,"station_id":"JNG","transit":true,"i_lat":-6.215091,"line":0,"station_name":"Jatinegara","is_transit":true},{"transit":false,"station_name":"Pondok Jati","i_long":106.861737,"line":11,"distance":1236,"is_transit":false,"time":2,"i_lat":-6.209188,"station_id":"POK"},{"i_lat":-6.193792,"line":11,"transit":false,"distance":1829,"station_name":"Kramat","station_id":"KMT","is_transit":false,"i_long":106.855437,"time":2},{"time":1,"distance":973,"is_transit":false,"station_id":"GST","transit":false,"i_lat":-6.185975,"i_long":106.850107,"line":11,"station_name":"Gang Sentiong"},{"i_lat":-6.174784,"is_transit":false,"station_id":"PSE","time":8,"line":11,"i_long":106.84368,"station_name":"Pasar Senen","transit":false,"distance":1567},{"station_name":"Kemayoran","distance":1436,"i_lat":-6.161728,"transit":false,"time":4,"line":11,"is_transit":false,"i_long":106.839204,"station_id":"KMO"},{"is_transit":false,"station_id":"RJW","transit":false,"i_long":106.836569,"station_name":"Rajawali","time":5,"i_lat":-6.14505,"line":11,"distance":1901},{"transit":true,"i_lat":-6.132549,"distance":1444,"time":3,"station_id":"KPB","is_transit":true,"i_long":106.826365,"line":0,"station_name":"Kampung Bandan"},{"distance":1364,"transit":true,"station_id":"JAKK","is_transit":true,"time":3,"i_long":106.812439,"i_lat":-6.137569,"station_name":"Jakarta Kota","line":0},{"is_transit":false,"time":4,"i_long":106.820901,"station_name":"Jayakarta","transit":false,"i_lat":-6.141205,"station_id":"JAY","line":7,"distance":1264},{"i_lat":-6.149769,"i_long":106.82482,"station_id":"MGB","line":2,"is_transit":false,"distance":1080,"transit":false,"time":2,"station_name":"Manggabesar"},{"station_name":"Sawah Besar","distance":906,"station_id":"SW","i_lat":-6.160725,"transit":false,"line":2,"i_long":106.827103,"time":2,"is_transit":false},{"is_transit":false,"distance":1149,"time":2,"line":2,"station_name":"Juanda","i_long":106.828284,"transit":false,"station_id":"JUA","i_lat":-6.166716},{"i_long":106.832183,"station_name":"Gondangdia","distance":2015,"station_id":"GDD","i_lat":-6.186295,"time":4,"line":2,"is_transit":false,"transit":false},{"transit":false,"line":0,"station_id":"CKI","is_transit":false,"station_name":"Cikini","i_lat":-6.198556,"time":3,"i_long":106.840169,"distance":1750}]]}