{"data":[[{"station_id":"TKO","i_lat":-6.1587309999999995,"transit":false,"i_long":106.756522,"line":5,"station_name":"Taman Kota","is_transit":false,"time":0,"distance":0},{"station_id":"PSG","i_long":106.771379,"time":2,"is_transit":false,"station_name":"Pesing","transit":false,"line":5,"distance":1614,"i_lat":-6.161433},{"transit":false,"is_transit":false,"station_id":"GGL","i_long":106.788277,"i_lat":-6.162021,"station_name":"Grogol","distance":2036,"time":2,"line":5},{"station_name":"Duri","i_lat":-6.155215,"time":3,"station_id":"DU","i_long":106.800832,"is_transit":true,"transit":true,"distance":1700,"line":1},{"i_long":106.811091,"is_transit":false,"station_name":"Tanah Abang","i_lat":-6.185545,"transit":false,"line":1,"distance":3632,"time":8,"station_id":"THB"},{"line":1,"distance":2029,"time":5,"transit":false,"is_transit":false,"station_id":"KAT","station_name":"Karet","i_long":106.816351,"i_lat":-6.20132},{"distance":471,"transit":false,"i_long":106.819881,"line":1,"time":1,"i_lat":-6.201433,"station_id":"SUDB","station_name":"Sudirman Baru","is_transit":false},{"station_name":"Sudirman","time":1,"station_id":"SUD","transit":false,"line":1,"is_transit":false,"distance":280,"i_lat":-6.202263,"i_long":106.822649},{"line":2,"time":4,"station_name":"Manggarai","station_id":"MRI","transit":true,"i_lat":-6.209883,"distance":3186,"is_transit":true,"i_long":106.84912},{"is_transit":false,"station_id":"TEB","station_name":"Tebet","transit":false,"i_long":106.857948,"i_lat":-6.226659,"time":4,"distance":2610,"line":2},{"line":2,"distance":1230,"station_name":"Cawang","is_transit":false,"time":2,"transit":false,"station_id":"CW","i_lat":-6.242512,"i_long":106.856607},{"line":2,"is_transit":false,"distance":1546,"station_name":"Duren Kalibata","time":3,"station_id":"DRN","transit":false,"i_long":106.85449,"i_lat":-6.255332},{"distance":824,"line":2,"i_lat":-6.263214,"is_transit":false,"transit":false,"i_long":106.851577,"time":2,"station_id":"PSMB","station_name":"Pasar Minggu Baru"},{"distance":2380,"transit":false,"line":2,"i_lat":-6.2842400000000005,"station_id":"PSM","station_name":"Pasar Minggu","is_transit":false,"time":2,"i_long":106.843999},{"i_long":106.838896,"is_transit":false,"time":4,"line":2,"station_name":"Tanjung Barat","station_id":"TNT","transit":false,"i_lat":-6.3080680000000005,"distance":2820},{"time":3,"line":2,"station_id":"LNA","i_lat":-6.330363,"i_long":106.832616,"station_name":"Lenteng Agung","transit":false,"distance":2671,"is_transit":false},{"transit":false,"time":2,"i_long":106.834175,"line":2,"station_name":"Univ. Pancasila","i_lat":-6.339291,"distance":1029,"is_transit":false,"station_id":"UP"},{"i_lat":-6.360749,"station_name":"Univ. Indonesia","transit":false,"is_transit":false,"distance":2264,"line":2,"time":3,"station_id":"UI","i_long":106.831474},{"line":2,"station_id":"POC","transit":false,"station_name":"Pondok Cina","is_transit":false,"time":2,"i_lat":-6.369073,"i_long":106.831114,"distance":1109},{"time":4,"i_lat":-6.391065,"transit":false,"distance":2727,"line":2,"i_long":106.819451,"station_name":"Depokbaru","is_transit":false,"station_id":"DPB"},{"i_long":106.816926,"line":2,"time":3,"is_transit":false,"distance":1584,"station_name":"Depok","i_lat":-6.405256,"transit":false,"station_id":"DP"},{"is_transit":false,"line":2,"station_name":"Citayam","distance":5084,"transit":false,"time":6,"station_id":"CTA","i_long":106.800298,"i_lat":-6.448811},{"time":5,"distance":5197,"is_transit":false,"transit":false,"station_id":"BJD","i_lat":-6.493243,"line":2,"station_name":"Bojonggede","i_long":106.792719},{"i_lat":-6.530544,"station_name":"Cilebut","i_long":106.800016,"station_id":"CLT","is_transit":false,"line":2,"time":5,"transit":false,"distance":4331}],[{"transit":false,"station_id":"TKO","station_name":"Taman Kota","is_transit":false,"i_lat":-6.1587309999999995,"distance":0,"i_long":106.756522,"time":0,"line":5},{"station_id":"PSG","i_long":106.771379,"is_transit":false,"transit":false,"distance":1614,"station_name":"Pesing","i_lat":-6.161433,"time":2,"line":5},{"transit":false,"is_transit":false,"station_name":"Grogol","time":2,"distance":2036,"station_id":"GGL","i_long":106.788277,"i_lat":-6.162021,"line":5},{"line":1,"station_id":"DU","i_lat":-6.155215,"time":3,"station_name":"Duri","i_long":106.800832,"is_transit":true,"distance":1700,"transit":true},{"line":1,"station_name":"Angke","transit":false,"is_transit":false,"station_id":"AK","i_long":106.79867,"time":4,"i_lat":-6.144674,"distance":1230},{"station_name":"Kampung Bandan","i_long":106.826365,"is_transit":true,"distance":4102,"time":9,"i_lat":-6.132549,"station_id":"KPB","line":4,"transit":true},{"is_transit":true,"station_id":"JAKK","i_lat":-6.137569,"line":2,"time":3,"transit":true,"distance":1364,"i_long":106.812439,"station_name":"Jakarta Kota"},{"transit":false,"i_lat":-6.141205,"station_id":"JAY","is_transit":false,"line":2,"distance":1264,"station_name":"Jayakarta","i_long":106.820901,"time":4},{"i_lat":-6.149769,"i_long":106.82482,"distance":1080,"station_name":"Manggabesar","station_id":"MGB","line":2,"is_transit":false,"time":2,"transit":false},{"is_transit":false,"time":2,"station_name":"Sawah Besar","transit":false,"distance":906,"line":2,"i_lat":-6.160725,"i_long":106.827103,"station_id":"SW"},{"station_name":"Juanda","time":2,"station_id":"JUA","is_transit":false,"i_lat":-6.166716,"line":2,"i_long":106.828284,"distance":1149,"transit":false},{"i_long":106.832183,"line":2,"is_transit":false,"station_id":"GDD","station_name":"Gondangdia","distance":2015,"time":4,"i_lat":-6.186295,"transit":false},{"i_lat":-6.198556,"time":3,"line":2,"i_long":106.840169,"transit":false,"is_transit":false,"station_name":"Cikini","distance":1750,"station_id":"CKI"},{"is_transit":false,"i_long":106.84912,"station_name":"Manggarai","time":4,"distance":1590,"station_id":"MRI","i_lat":-6.209883,"transit":false,"line":2},{"station_id":"TEB","time":4,"distance":2610,"i_lat":-6.226659,"i_long":106.857948,"line":2,"is_transit":false,"transit":false,"station_name":"Tebet"},{"station_id":"CW","time":2,"i_lat":-6.242512,"transit":false,"i_long":106.856607,"is_transit":false,"line":2,"distance":1230,"station_name":"Cawang"},{"is_transit":false,"time":3,"transit":false,"i_lat":-6.255332,"i_long":106.85449,"station_name":"Duren Kalibata","line":2,"distance":1546,"station_id":"DRN"},{"transit":false,"i_lat":-6.263214,"station_name":"Pasar Minggu Baru","distance":824,"is_transit":false,"station_id":"PSMB","i_long":106.851577,"time":2,"line":2},{"is_transit":false,"time":2,"station_id":"PSM","station_name":"Pasar Minggu","distance":2380,"transit":false,"i_lat":-6.2842400000000005,"line":2,"i_long":106.843999},{"i_long":106.838896,"is_transit":false,"i_lat":-6.3080680000000005,"line":2,"station_id":"TNT","time":4,"transit":false,"station_name":"Tanjung Barat","distance":2820},{"time":3,"station_name":"Lenteng Agung","transit":false,"i_lat":-6.330363,"is_transit":false,"i_long":106.832616,"station_id":"LNA","distance":2671,"line":2},{"time":2,"i_lat":-6.339291,"distance":1029,"is_transit":false,"line":2,"transit":false,"station_name":"Univ. Pancasila","i_long":106.834175,"station_id":"UP"},{"transit":false,"line":2,"station_name":"Univ. Indonesia","i_lat":-6.360749,"i_long":106.831474,"distance":2264,"is_transit":false,"time":3,"station_id":"UI"},{"i_lat":-6.369073,"distance":1109,"i_long":106.831114,"time":2,"line":2,"is_transit":false,"station_name":"Pondok Cina","transit":false,"station_id":"POC"},{"i_long":106.819451,"line":2,"i_lat":-6.391065,"station_id":"DPB","distance":2727,"transit":false,"station_name":"Depokbaru","is_transit":false,"time":4},{"station_name":"Depok","time":3,"distance":1584,"station_id":"DP","is_transit":false,"line":2,"i_long":106.816926,"transit":false,"i_lat":-6.405256},{"is_transit":false,"time":6,"station_id":"CTA","transit":false,"i_lat":-6.448811,"station_name":"Citayam","i_long":106.800298,"distance":5084,"line":2},{"station_name":"Bojonggede","transit":false,"is_transit":false,"i_lat":-6.493243,"time":5,"station_id":"BJD","distance":5197,"i_long":106.792719,"line":2},{"is_transit":false,"distance":4331,"transit":false,"i_long":106.800016,"line":2,"station_name":"Cilebut","time":5,"station_id":"CLT","i_lat":-6.530544}],[{"station_id":"TKO","i_lat":-6.1587309999999995,"line":5,"transit":false,"i_long":106.756522,"is_transit":false,"station_name":"Taman Kota","time":0,"distance":0},{"transit":false,"i_long":106.771379,"i_lat":-6.161433,"line":5,"is_transit":false,"time":2,"station_id":"PSG","station_name":"Pesing","distance":1614},{"i_long":106.788277,"line":5,"is_transit":false,"distance":2036,"transit":false,"time":2,"station_name":"Grogol","i_lat":-6.162021,"station_id":"GGL"},{"transit":true,"distance":1700,"time":3,"i_long":106.800832,"station_id":"DU","line":1,"is_transit":true,"i_lat":-6.155215,"station_name":"Duri"},{"distance":1230,"line":1,"station_id":"AK","transit":false,"is_transit":false,"time":4,"i_lat":-6.144674,"station_name":"Angke","i_long":106.79867},{"transit":true,"is_transit":true,"distance":4102,"station_id":"KPB","i_lat":-6.132549,"station_name":"Kampung Bandan","line":4,"time":9,"i_long":106.826365},{"is_transit":false,"i_long":106.836569,"line":11,"station_id":"RJW","distance":1444,"time":3,"transit":false,"station_name":"Rajawali","i_lat":-6.14505},{"station_id":"KMO","i_lat":-6.161728,"i_long":106.839204,"station_name":"Kemayoran","line":11,"transit":false,"is_transit":false,"time":5,"distance":1901},{"is_transit":false,"station_id":"PSE","i_lat":-6.174784,"time":4,"i_long":106.84368,"station_name":"Pasar Senen","distance":1436,"line":11,"transit":false},{"transit":false,"time":8,"station_id":"GST","i_lat":-6.185975,"station_name":"Gang Sentiong","line":11,"i_long":106.850107,"is_transit":false,"distance":1567},{"transit":false,"i_long":106.855437,"i_lat":-6.193792,"is_transit":false,"station_name":"Kramat","time":1,"station_id":"KMT","line":11,"distance":973},{"i_lat":-6.209188,"line":11,"transit":false,"i_long":106.861737,"distance":1829,"station_id":"POK","station_name":"Pondok Jati","is_transit":false,"time":2},{"i_lat":-6.215091,"distance":1236,"station_id":"JNG","line":1,"is_transit":true,"station_name":"Jatinegara","time":9,"transit":true,"i_long":106.86807400000001},{"station_id":"MTR","line":1,"time":2,"is_transit":false,"transit":false,"i_long":106.858896,"station_name":"Matraman","distance":1377,"i_lat":-6.212485},{"line":2,"is_transit":true,"i_long":106.84912,"station_id":"MRI","transit":true,"station_name":"Manggarai","i_lat":-6.209883,"distance":1275,"time":2},{"time":4,"distance":2610,"is_transit":false,"transit":false,"i_lat":-6.226659,"i_long":106.857948,"line":2,"station_name":"Tebet","station_id":"TEB"},{"distance":1230,"station_id":"CW","station_name":"Cawang","time":2,"transit":false,"i_lat":-6.242512,"is_transit":false,"line":2,"i_long":106.856607},{"is_transit":false,"i_long":106.85449,"i_lat":-6.255332,"distance":1546,"line":2,"time":3,"station_name":"Duren Kalibata","transit":false,"station_id":"DRN"},{"distance":824,"is_transit":false,"transit":false,"time":2,"i_lat":-6.263214,"line":2,"station_id":"PSMB","station_name":"Pasar Minggu Baru","i_long":106.851577},{"line":2,"i_long":106.843999,"distance":2380,"time":2,"station_id":"PSM","i_lat":-6.2842400000000005,"transit":false,"station_name":"Pasar Minggu","is_transit":false},{"station_id":"TNT","i_lat":-6.3080680000000005,"station_name":"Tanjung Barat","time":4,"transit":false,"i_long":106.838896,"line":2,"distance":2820,"is_transit":false},{"time":3,"i_lat":-6.330363,"is_transit":false,"station_id":"LNA","transit":false,"line":2,"station_name":"Lenteng Agung","distance":2671,"i_long":106.832616},{"is_transit":false,"time":2,"station_name":"Univ. Pancasila","distance":1029,"line":2,"transit":false,"i_lat":-6.339291,"station_id":"UP","i_long":106.834175},{"time":3,"is_transit":false,"line":2,"transit":false,"station_id":"UI","distance":2264,"i_lat":-6.360749,"i_long":106.831474,"station_name":"Univ. Indonesia"},{"is_transit":false,"transit":false,"distance":1109,"i_long":106.831114,"time":2,"station_name":"Pondok Cina","station_id":"POC","i_lat":-6.369073,"line":2},{"line":2,"distance":2727,"transit":false,"time":4,"station_name":"Depokbaru","is_transit":false,"station_id":"DPB","i_lat":-6.391065,"i_long":106.819451},{"station_id":"DP","is_transit":false,"time":3,"i_long":106.816926,"transit":false,"station_name":"Depok","distance":1584,"i_lat":-6.405256,"line":2},{"station_name":"Citayam","station_id":"CTA","distance":5084,"time":6,"i_long":106.800298,"line":2,"transit":false,"i_lat":-6.448811,"is_transit":false},{"station_name":"Bojonggede","line":2,"distance":5197,"is_transit":false,"transit":false,"i_lat":-6.493243,"i_long":106.792719,"time":5,"station_id":"BJD"},{"i_long":106.800016,"station_name":"Cilebut","distance":4331,"transit":false,"station_id":"CLT","is_transit":false,"i_lat":-6.530544,"line":2,"time":5}]]}