{"data":[[{"is_transit":false,"distance":0,"transit":false,"station_id":"TKO","station_name":"Taman Kota","time":0,"i_lat":-6.1587309999999995,"i_long":106.756522,"line":5},{"time":2,"station_name":"Pesing","station_id":"PSG","is_transit":false,"transit":false,"i_lat":-6.161433,"distance":1614,"line":5,"i_long":106.771379},{"time":2,"is_transit":false,"i_lat":-6.162021,"transit":false,"distance":2036,"station_name":"Grogol","i_long":106.788277,"line":5,"station_id":"GGL"},{"is_transit":true,"distance":1700,"i_lat":-6.155215,"station_id":"DU","time":3,"line":1,"i_long":106.800832,"station_name":"Duri","transit":true},{"distance":3632,"time":8,"is_transit":false,"station_id":"THB","i_long":106.811091,"line":1,"i_lat":-6.185545,"station_name":"Tanah Abang","transit":false},{"i_lat":-6.20132,"i_long":106.816351,"station_id":"KAT","distance":2029,"transit":false,"is_transit":false,"station_name":"Karet","line":1,"time":5},{"line":1,"distance":471,"station_name":"Sudirman Baru","transit":false,"station_id":"SUDB","i_lat":-6.201433,"i_long":106.819881,"time":1,"is_transit":false},{"transit":false,"i_long":106.822649,"time":1,"is_transit":false,"distance":280,"station_name":"Sudirman","i_lat":-6.202263,"line":1,"station_id":"SUD"},{"time":4,"transit":true,"i_lat":-6.209883,"i_long":106.84912,"line":2,"distance":3186,"station_id":"MRI","station_name":"Manggarai","is_transit":true},{"station_id":"CKI","i_long":106.840169,"transit":false,"time":4,"is_transit":false,"i_lat":-6.198556,"line":2,"distance":1590,"station_name":"Cikini"}],[{"station_id":"TKO","i_long":106.756522,"station_name":"Taman Kota","i_lat":-6.1587309999999995,"transit":false,"is_transit":false,"line":5,"time":0,"distance":0},{"distance":1614,"i_lat":-6.161433,"station_name":"Pesing","line":5,"transit":false,"time":2,"i_long":106.771379,"is_transit":false,"station_id":"PSG"},{"i_long":106.788277,"station_id":"GGL","transit":false,"is_transit":false,"distance":2036,"i_lat":-6.162021,"line":5,"station_name":"Grogol","time":2},{"i_lat":-6.155215,"station_id":"DU","line":1,"is_transit":true,"transit":true,"station_name":"Duri","i_long":106.800832,"distance":1700,"time":3},{"distance":1230,"time":4,"transit":false,"station_name":"Angke","station_id":"AK","i_long":106.79867,"line":1,"is_transit":false,"i_lat":-6.144674},{"transit":true,"i_lat":-6.132549,"line":4,"is_transit":true,"station_name":"Kampung Bandan","distance":4102,"time":9,"station_id":"KPB","i_long":106.826365},{"station_name":"Jakarta Kota","line":2,"i_lat":-6.137569,"distance":1364,"time":3,"is_transit":true,"transit":true,"station_id":"JAKK","i_long":106.812439},{"transit":false,"i_long":106.820901,"distance":1264,"line":2,"is_transit":false,"time":4,"station_id":"JAY","station_name":"Jayakarta","i_lat":-6.141205},{"station_name":"Manggabesar","i_long":106.82482,"transit":false,"i_lat":-6.149769,"distance":1080,"time":2,"station_id":"MGB","line":2,"is_transit":false},{"distance":906,"station_id":"SW","transit":false,"i_lat":-6.160725,"is_transit":false,"i_long":106.827103,"line":2,"time":2,"station_name":"Sawah Besar"},{"distance":1149,"station_id":"JUA","station_name":"Juanda","time":2,"is_transit":false,"transit":false,"i_lat":-6.166716,"i_long":106.828284,"line":2},{"is_transit":false,"station_id":"GDD","distance":2015,"i_lat":-6.186295,"time":4,"line":2,"station_name":"Gondangdia","transit":false,"i_long":106.832183},{"is_transit":false,"station_id":"CKI","i_lat":-6.198556,"distance":1750,"time":3,"line":2,"transit":false,"station_name":"Cikini","i_long":106.840169}],[{"time":0,"station_name":"Taman Kota","i_lat":-6.1587309999999995,"line":5,"transit":false,"station_id":"TKO","i_long":106.756522,"is_transit":false,"distance":0},{"line":5,"i_long":106.771379,"is_transit":false,"station_name":"Pesing","time":2,"station_id":"PSG","distance":1614,"i_lat":-6.161433,"transit":false},{"distance":2036,"time":2,"i_lat":-6.162021,"station_id":"GGL","is_transit":false,"i_long":106.788277,"line":5,"transit":false,"station_name":"Grogol"},{"is_transit":true,"time":3,"transit":true,"i_lat":-6.155215,"station_id":"DU","distance":1700,"station_name":"Duri","i_long":106.800832,"line":1},{"station_id":"AK","i_long":106.79867,"time":4,"station_name":"Angke","line":1,"transit":false,"i_lat":-6.144674,"is_transit":false,"distance":1230},{"i_lat":-6.132549,"is_transit":true,"station_id":"KPB","station_name":"Kampung Bandan","i_long":106.826365,"line":4,"time":9,"transit":true,"distance":4102},{"i_long":106.836569,"time":3,"line":11,"station_name":"Rajawali","i_lat":-6.14505,"transit":false,"is_transit":false,"distance":1444,"station_id":"RJW"},{"transit":false,"station_name":"Kemayoran","time":5,"i_long":106.839204,"line":11,"is_transit":false,"station_id":"KMO","i_lat":-6.161728,"distance":1901},{"transit":false,"station_name":"Pasar Senen","station_id":"PSE","is_transit":false,"distance":1436,"i_lat":-6.174784,"i_long":106.84368,"time":4,"line":11},{"transit":false,"station_name":"Gang Sentiong","i_lat":-6.185975,"i_long":106.850107,"station_id":"GST","distance":1567,"time":8,"line":11,"is_transit":false},{"i_lat":-6.193792,"is_transit":false,"time":1,"distance":973,"line":11,"transit":false,"i_long":106.855437,"station_name":"Kramat","station_id":"KMT"},{"is_transit":false,"i_long":106.861737,"i_lat":-6.209188,"station_id":"POK","line":11,"time":2,"distance":1829,"transit":false,"station_name":"Pondok Jati"},{"station_name":"Jatinegara","distance":1236,"station_id":"JNG","i_lat":-6.215091,"i_long":106.86807400000001,"line":1,"is_transit":true,"time":9,"transit":true},{"line":1,"i_lat":-6.212485,"is_transit":false,"transit":false,"time":2,"station_name":"Matraman","station_id":"MTR","i_long":106.858896,"distance":1377},{"i_long":106.84912,"time":2,"line":2,"station_id":"MRI","station_name":"Manggarai","transit":true,"is_transit":true,"distance":1275,"i_lat":-6.209883},{"distance":1590,"line":2,"i_long":106.840169,"is_transit":false,"station_id":"CKI","time":4,"station_name":"Cikini","i_lat":-6.198556,"transit":false}],[{"time":0,"is_transit":false,"distance":0,"station_name":"Taman Kota","i_long":106.756522,"i_lat":-6.1587309999999995,"transit":false,"line":5,"station_id":"TKO"},{"station_name":"Pesing","i_lat":-6.161433,"is_transit":false,"station_id":"PSG","line":5,"time":2,"i_long":106.771379,"distance":1614,"transit":false},{"station_name":"Grogol","time":2,"i_lat":-6.162021,"i_long":106.788277,"line":5,"station_id":"GGL","transit":false,"is_transit":false,"distance":2036},{"time":3,"distance":1700,"station_id":"DU","transit":true,"line":1,"is_transit":true,"i_lat":-6.155215,"station_name":"Duri","i_long":106.800832},{"time":8,"line":1,"i_lat":-6.185545,"is_transit":false,"station_name":"Tanah Abang","station_id":"THB","transit":false,"distance":3632,"i_long":106.811091},{"i_lat":-6.20132,"time":5,"station_id":"KAT","distance":2029,"line":1,"i_long":106.816351,"transit":false,"station_name":"Karet","is_transit":false},{"distance":471,"i_lat":-6.201433,"is_transit":false,"time":1,"station_name":"Sudirman Baru","i_long":106.819881,"transit":false,"line":1,"station_id":"SUDB"},{"i_long":106.822649,"distance":280,"transit":false,"i_lat":-6.202263,"station_name":"Sudirman","line":1,"time":1,"is_transit":false,"station_id":"SUD"},{"transit":false,"station_id":"MRI","station_name":"Manggarai","line":2,"i_long":106.84912,"distance":3186,"time":4,"i_lat":-6.209883,"is_transit":false},{"is_transit":false,"station_id":"MTR","line":1,"time":2,"distance":1275,"i_lat":-6.212485,"station_name":"Matraman","i_long":106.858896,"transit":false},{"i_long":106.86807400000001,"line":1,"station_name":"Jatinegara","transit":true,"distance":1377,"i_lat":-6.215091,"time":8,"is_transit":true,"station_id":"JNG"},{"line":11,"time":2,"i_lat":-6.209188,"i_long":106.861737,"distance":1236,"transit":false,"station_id":"POK","is_transit":false,"station_name":"Pondok Jati"},{"transit":false,"i_lat":-6.193792,"i_long":106.855437,"station_name":"Kramat","time":2,"is_transit":false,"distance":1829,"line":11,"station_id":"KMT"},{"i_long":106.850107,"i_lat":-6.185975,"station_id":"GST","time":1,"is_transit":false,"transit":false,"line":11,"distance":973,"station_name":"Gang Sentiong"},{"station_name":"Pasar Senen","transit":false,"is_transit":false,"line":11,"i_long":106.84368,"distance":1567,"station_id":"PSE","time":8,"i_lat":-6.174784},{"is_transit":false,"station_id":"KMO","i_long":106.839204,"line":11,"distance":1436,"station_name":"Kemayoran","time":4,"transit":false,"i_lat":-6.161728},{"station_name":"Rajawali","station_id":"RJW","i_lat":-6.14505,"line":11,"time":5,"distance":1901,"i_long":106.836569,"is_transit":false,"transit":false},{"i_long":106.826365,"is_transit":true,"distance":1444,"transit":true,"station_name":"Kampung Bandan","station_id":"KPB","i_lat":-6.132549,"time":3,"line":4},{"station_id":"JAKK","line":2,"is_transit":true,"i_lat":-6.137569,"i_long":106.812439,"distance":1364,"station_name":"Jakarta Kota","transit":true,"time":3},{"time":4,"distance":1264,"is_transit":false,"station_name":"Jayakarta","line":2,"i_lat":-6.141205,"transit":false,"station_id":"JAY","i_long":106.820901},{"station_id":"MGB","is_transit":false,"i_long":106.82482,"i_lat":-6.149769,"line":2,"transit":false,"distance":1080,"station_name":"Manggabesar","time":2},{"time":2,"i_long":106.827103,"transit":false,"i_lat":-6.160725,"line":2,"station_name":"Sawah Besar","station_id":"SW","is_transit":false,"distance":906},{"is_transit":false,"distance":1149,"station_id":"JUA","i_long":106.828284,"transit":false,"i_lat":-6.166716,"station_name":"Juanda","line":2,"time":2},{"station_id":"GDD","i_long":106.832183,"line":2,"is_transit":false,"time":4,"transit":false,"i_lat":-6.186295,"distance":2015,"station_name":"Gondangdia"},{"station_id":"CKI","station_name":"Cikini","i_long":106.840169,"i_lat":-6.198556,"line":2,"transit":false,"time":3,"distance":1750,"is_transit":false}]]}