{"data":[[{"i_lat":-6.1587309999999995,"transit":false,"station_name":"Taman Kota","i_long":106.756522,"time":0,"distance":0,"line":5,"station_id":"TKO","is_transit":false},{"station_id":"PSG","is_transit":false,"line":5,"time":2,"distance":1614,"station_name":"Pesing","i_lat":-6.161433,"i_long":106.771379,"transit":false},{"station_name":"Grogol","i_long":106.788277,"is_transit":false,"transit":false,"distance":2036,"station_id":"GGL","i_lat":-6.162021,"time":2,"line":5},{"station_name":"Duri","transit":true,"distance":1700,"station_id":"DU","i_long":106.800832,"line":1,"is_transit":true,"time":3,"i_lat":-6.155215},{"time":8,"i_lat":-6.185545,"line":1,"distance":3632,"station_name":"Tanah Abang","station_id":"THB","i_long":106.811091,"transit":false,"is_transit":false},{"i_long":106.816351,"time":5,"line":1,"transit":false,"distance":2029,"station_id":"KAT","is_transit":false,"i_lat":-6.20132,"station_name":"Karet"},{"transit":false,"station_name":"Sudirman Baru","i_lat":-6.201433,"line":1,"distance":471,"is_transit":false,"i_long":106.819881,"time":1,"station_id":"SUDB"},{"station_id":"SUD","i_long":106.822649,"time":1,"distance":280,"i_lat":-6.202263,"transit":false,"station_name":"Sudirman","is_transit":false,"line":1},{"is_transit":true,"distance":3186,"line":2,"i_long":106.84912,"transit":true,"time":4,"station_id":"MRI","i_lat":-6.209883,"station_name":"Manggarai"},{"is_transit":false,"distance":2610,"i_lat":-6.226659,"transit":false,"time":4,"i_long":106.857948,"station_id":"TEB","line":2,"station_name":"Tebet"},{"is_transit":false,"time":2,"distance":1230,"i_long":106.856607,"line":2,"transit":false,"station_name":"Cawang","station_id":"CW","i_lat":-6.242512},{"line":2,"i_lat":-6.255332,"transit":false,"station_name":"Duren Kalibata","i_long":106.85449,"station_id":"DRN","distance":1546,"is_transit":false,"time":3},{"i_lat":-6.263214,"is_transit":false,"time":2,"station_name":"Pasar Minggu Baru","i_long":106.851577,"line":2,"transit":false,"station_id":"PSMB","distance":824},{"i_long":106.843999,"station_id":"PSM","is_transit":false,"i_lat":-6.2842400000000005,"distance":2380,"transit":false,"station_name":"Pasar Minggu","time":2,"line":2},{"time":4,"transit":false,"distance":2820,"station_id":"TNT","i_lat":-6.3080680000000005,"is_transit":false,"line":2,"i_long":106.838896,"station_name":"Tanjung Barat"},{"i_lat":-6.330363,"line":2,"transit":false,"station_name":"Lenteng Agung","time":3,"i_long":106.832616,"is_transit":false,"distance":2671,"station_id":"LNA"}],[{"distance":0,"line":5,"station_id":"TKO","time":0,"is_transit":false,"i_lat":-6.1587309999999995,"i_long":106.756522,"transit":false,"station_name":"Taman Kota"},{"transit":false,"distance":1614,"station_id":"PSG","station_name":"Pesing","i_lat":-6.161433,"is_transit":false,"i_long":106.771379,"line":5,"time":2},{"distance":2036,"i_long":106.788277,"station_id":"GGL","is_transit":false,"i_lat":-6.162021,"time":2,"station_name":"Grogol","transit":false,"line":5},{"station_name":"Duri","i_long":106.800832,"time":3,"distance":1700,"transit":true,"station_id":"DU","is_transit":true,"i_lat":-6.155215,"line":1},{"i_long":106.79867,"station_id":"AK","transit":false,"time":4,"line":1,"is_transit":false,"station_name":"Angke","i_lat":-6.144674,"distance":1230},{"transit":true,"station_id":"KPB","distance":4102,"station_name":"Kampung Bandan","i_long":106.826365,"i_lat":-6.132549,"is_transit":true,"time":9,"line":4},{"is_transit":true,"distance":1364,"station_name":"Jakarta Kota","time":3,"i_long":106.812439,"station_id":"JAKK","transit":true,"i_lat":-6.137569,"line":2},{"distance":1264,"i_lat":-6.141205,"station_name":"Jayakarta","is_transit":false,"station_id":"JAY","time":4,"i_long":106.820901,"line":2,"transit":false},{"distance":1080,"i_lat":-6.149769,"station_name":"Manggabesar","station_id":"MGB","line":2,"is_transit":false,"transit":false,"i_long":106.82482,"time":2},{"station_id":"SW","i_lat":-6.160725,"time":2,"distance":906,"i_long":106.827103,"line":2,"station_name":"Sawah Besar","is_transit":false,"transit":false},{"station_name":"Juanda","distance":1149,"transit":false,"i_lat":-6.166716,"line":2,"i_long":106.828284,"time":2,"station_id":"JUA","is_transit":false},{"is_transit":false,"time":4,"i_lat":-6.186295,"station_name":"Gondangdia","station_id":"GDD","distance":2015,"i_long":106.832183,"transit":false,"line":2},{"station_name":"Cikini","station_id":"CKI","i_long":106.840169,"distance":1750,"time":3,"transit":false,"i_lat":-6.198556,"is_transit":false,"line":2},{"is_transit":false,"distance":1590,"transit":false,"station_name":"Manggarai","i_lat":-6.209883,"i_long":106.84912,"time":4,"line":2,"station_id":"MRI"},{"distance":2610,"i_lat":-6.226659,"transit":false,"is_transit":false,"i_long":106.857948,"station_id":"TEB","station_name":"Tebet","time":4,"line":2},{"station_name":"Cawang","transit":false,"time":2,"distance":1230,"line":2,"is_transit":false,"i_lat":-6.242512,"i_long":106.856607,"station_id":"CW"},{"i_long":106.85449,"line":2,"station_name":"Duren Kalibata","station_id":"DRN","time":3,"is_transit":false,"transit":false,"distance":1546,"i_lat":-6.255332},{"i_long":106.851577,"station_id":"PSMB","station_name":"Pasar Minggu Baru","distance":824,"line":2,"transit":false,"i_lat":-6.263214,"is_transit":false,"time":2},{"time":2,"line":2,"transit":false,"station_name":"Pasar Minggu","i_lat":-6.2842400000000005,"is_transit":false,"station_id":"PSM","distance":2380,"i_long":106.843999},{"is_transit":false,"line":2,"time":4,"station_id":"TNT","distance":2820,"transit":false,"i_lat":-6.3080680000000005,"station_name":"Tanjung Barat","i_long":106.838896},{"time":3,"distance":2671,"station_name":"Lenteng Agung","station_id":"LNA","transit":false,"is_transit":false,"i_lat":-6.330363,"i_long":106.832616,"line":2}],[{"i_long":106.756522,"station_name":"Taman Kota","station_id":"TKO","is_transit":false,"distance":0,"i_lat":-6.1587309999999995,"transit":false,"time":0,"line":5},{"i_lat":-6.161433,"i_long":106.771379,"distance":1614,"transit":false,"station_id":"PSG","time":2,"station_name":"Pesing","is_transit":false,"line":5},{"time":2,"station_id":"GGL","i_long":106.788277,"station_name":"Grogol","is_transit":false,"transit":false,"distance":2036,"line":5,"i_lat":-6.162021},{"distance":1700,"line":1,"station_name":"Duri","transit":true,"i_lat":-6.155215,"i_long":106.800832,"station_id":"DU","is_transit":true,"time":3},{"i_lat":-6.144674,"station_name":"Angke","station_id":"AK","is_transit":false,"i_long":106.79867,"transit":false,"distance":1230,"time":4,"line":1},{"is_transit":true,"station_id":"KPB","distance":4102,"i_long":106.826365,"time":9,"line":4,"transit":true,"station_name":"Kampung Bandan","i_lat":-6.132549},{"station_name":"Rajawali","is_transit":false,"distance":1444,"i_lat":-6.14505,"transit":false,"line":11,"station_id":"RJW","time":3,"i_long":106.836569},{"transit":false,"line":11,"station_id":"KMO","i_long":106.839204,"distance":1901,"is_transit":false,"station_name":"Kemayoran","time":5,"i_lat":-6.161728},{"i_long":106.84368,"i_lat":-6.174784,"station_name":"Pasar Senen","station_id":"PSE","time":4,"transit":false,"is_transit":false,"line":11,"distance":1436},{"i_lat":-6.185975,"line":11,"station_name":"Gang Sentiong","i_long":106.850107,"distance":1567,"station_id":"GST","transit":false,"is_transit":false,"time":8},{"line":11,"station_id":"KMT","time":1,"i_long":106.855437,"distance":973,"transit":false,"station_name":"Kramat","is_transit":false,"i_lat":-6.193792},{"is_transit":false,"i_long":106.861737,"line":11,"distance":1829,"station_name":"Pondok Jati","time":2,"i_lat":-6.209188,"station_id":"POK","transit":false},{"station_name":"Jatinegara","is_transit":true,"time":9,"station_id":"JNG","i_long":106.86807400000001,"line":1,"transit":true,"distance":1236,"i_lat":-6.215091},{"station_name":"Matraman","line":1,"time":2,"i_long":106.858896,"station_id":"MTR","distance":1377,"transit":false,"i_lat":-6.212485,"is_transit":false},{"time":2,"i_long":106.84912,"station_name":"Manggarai","transit":true,"station_id":"MRI","is_transit":true,"distance":1275,"i_lat":-6.209883,"line":2},{"line":2,"distance":2610,"i_lat":-6.226659,"i_long":106.857948,"is_transit":false,"transit":false,"station_name":"Tebet","time":4,"station_id":"TEB"},{"i_long":106.856607,"line":2,"station_id":"CW","i_lat":-6.242512,"station_name":"Cawang","distance":1230,"transit":false,"is_transit":false,"time":2},{"station_id":"DRN","i_lat":-6.255332,"line":2,"i_long":106.85449,"time":3,"station_name":"Duren Kalibata","transit":false,"is_transit":false,"distance":1546},{"line":2,"i_long":106.851577,"distance":824,"is_transit":false,"transit":false,"time":2,"station_name":"Pasar Minggu Baru","station_id":"PSMB","i_lat":-6.263214},{"transit":false,"i_lat":-6.2842400000000005,"i_long":106.843999,"is_transit":false,"line":2,"distance":2380,"station_id":"PSM","station_name":"Pasar Minggu","time":2},{"is_transit":false,"i_long":106.838896,"transit":false,"i_lat":-6.3080680000000005,"station_name":"Tanjung Barat","line":2,"distance":2820,"station_id":"TNT","time":4},{"time":3,"station_id":"LNA","transit":false,"i_lat":-6.330363,"station_name":"Lenteng Agung","is_transit":false,"i_long":106.832616,"line":2,"distance":2671}]]}