{"data":[[{"time":0,"station_name":"Taman Kota","line":5,"distance":0,"station_id":"TKO","is_transit":false,"i_lat":-6.1587309999999995,"i_long":106.756522,"transit":false},{"i_lat":-6.159876,"is_transit":false,"distance":2334,"time":2,"transit":false,"i_long":106.737035,"station_name":"Bojongindah","line":5,"station_id":"BOI"},{"transit":false,"i_lat":-6.162758,"distance":1152,"station_id":"RW","is_transit":false,"time":4,"i_long":106.723064,"line":5,"station_name":"Rawa Buaya"},{"i_long":106.701612,"line":5,"is_transit":false,"i_lat":-6.166068,"station_id":"KDS","time":3,"transit":false,"station_name":"Kalideres","distance":2504},{"i_long":106.679458,"transit":false,"is_transit":false,"station_name":"Poris","time":3,"distance":2548,"station_id":"PI","i_lat":-6.169933,"line":5},{"station_name":"Batuceper","station_id":"BPR","transit":false,"time":3,"distance":1834,"is_transit":false,"i_lat":-6.171811,"i_long":106.665036,"line":5}]]}