{"data":[[{"i_long":106.756522,"i_lat":-6.1587309999999995,"line":5,"station_name":"Taman Kota","distance":0,"station_id":"TKO","is_transit":false,"time":0,"transit":false},{"i_lat":-6.161433,"transit":false,"station_name":"Pesing","is_transit":false,"line":5,"distance":1614,"i_long":106.771379,"station_id":"PSG","time":2},{"time":2,"station_id":"GGL","is_transit":false,"i_lat":-6.162021,"i_long":106.788277,"station_name":"Grogol","line":5,"distance":2036,"transit":false},{"line":1,"time":3,"is_transit":true,"distance":1700,"station_id":"DU","i_lat":-6.155215,"station_name":"Duri","transit":true,"i_long":106.800832},{"is_transit":true,"line":1,"transit":false,"i_lat":-6.185545,"station_id":"THB","distance":3632,"time":8,"station_name":"Tanah Abang","i_long":106.811091},{"station_name":"Karet","time":5,"distance":2029,"transit":false,"i_long":106.816351,"is_transit":false,"line":1,"station_id":"KAT","i_lat":-6.20132},{"i_long":106.819881,"station_name":"Sudirman Baru","time":1,"line":1,"distance":471,"is_transit":false,"station_id":"SUDB","transit":false,"i_lat":-6.201433},{"line":1,"distance":280,"station_name":"Sudirman","is_transit":false,"time":1,"i_lat":-6.202263,"i_long":106.822649,"station_id":"SUD","transit":false},{"is_transit":true,"transit":true,"time":4,"i_long":106.84912,"station_id":"MRI","station_name":"Manggarai","line":0,"i_lat":-6.209883,"distance":3186},{"transit":false,"line":2,"is_transit":false,"time":4,"station_name":"Tebet","station_id":"TEB","distance":2610,"i_lat":-6.226659,"i_long":106.857948},{"distance":1230,"i_lat":-6.242512,"transit":false,"i_long":106.856607,"station_name":"Cawang","line":0,"time":2,"station_id":"CW","is_transit":false}],[{"time":0,"i_long":106.756522,"is_transit":false,"i_lat":-6.1587309999999995,"station_id":"TKO","station_name":"Taman Kota","distance":0,"transit":false,"line":5},{"i_lat":-6.161433,"is_transit":false,"transit":false,"time":2,"station_id":"PSG","distance":1614,"i_long":106.771379,"line":5,"station_name":"Pesing"},{"i_long":106.788277,"i_lat":-6.162021,"time":2,"distance":2036,"line":5,"station_id":"GGL","transit":false,"station_name":"Grogol","is_transit":false},{"time":3,"transit":true,"is_transit":true,"station_id":"DU","station_name":"Duri","distance":1700,"line":1,"i_lat":-6.155215,"i_long":106.800832},{"transit":false,"distance":1230,"station_id":"AK","line":0,"i_lat":-6.144674,"is_transit":false,"station_name":"Angke","time":4,"i_long":106.79867},{"transit":false,"line":0,"time":9,"station_id":"KPB","station_name":"Kampung Bandan","is_transit":true,"distance":4102,"i_lat":-6.132549,"i_long":106.826365},{"i_lat":-6.137569,"station_name":"Jakarta Kota","is_transit":true,"distance":1364,"time":3,"line":0,"station_id":"JAKK","transit":true,"i_long":106.812439},{"time":4,"line":7,"distance":1264,"station_name":"Jayakarta","is_transit":false,"transit":false,"i_lat":-6.141205,"i_long":106.820901,"station_id":"JAY"},{"is_transit":false,"time":2,"station_id":"MGB","transit":false,"i_long":106.82482,"station_name":"Manggabesar","line":2,"distance":1080,"i_lat":-6.149769},{"distance":906,"transit":false,"line":2,"station_id":"SW","i_lat":-6.160725,"i_long":106.827103,"is_transit":false,"time":2,"station_name":"Sawah Besar"},{"station_id":"JUA","station_name":"Juanda","time":2,"distance":1149,"i_long":106.828284,"line":2,"transit":false,"i_lat":-6.166716,"is_transit":false},{"i_lat":-6.186295,"station_id":"GDD","distance":2015,"transit":false,"i_long":106.832183,"station_name":"Gondangdia","is_transit":false,"line":2,"time":4},{"station_name":"Cikini","transit":false,"station_id":"CKI","i_lat":-6.198556,"i_long":106.840169,"line":0,"is_transit":false,"time":3,"distance":1750},{"distance":1590,"station_name":"Manggarai","is_transit":true,"transit":true,"i_lat":-6.209883,"i_long":106.84912,"station_id":"MRI","time":4,"line":0},{"time":4,"is_transit":false,"distance":2610,"i_long":106.857948,"line":2,"station_name":"Tebet","transit":false,"i_lat":-6.226659,"station_id":"TEB"},{"station_name":"Cawang","i_lat":-6.242512,"line":0,"i_long":106.856607,"time":2,"is_transit":false,"distance":1230,"transit":false,"station_id":"CW"}],[{"station_id":"TKO","station_name":"Taman Kota","i_lat":-6.1587309999999995,"line":5,"distance":0,"is_transit":false,"transit":false,"i_long":106.756522,"time":0},{"transit":false,"i_lat":-6.161433,"time":2,"line":5,"is_transit":false,"i_long":106.771379,"station_id":"PSG","station_name":"Pesing","distance":1614},{"distance":2036,"i_lat":-6.162021,"i_long":106.788277,"transit":false,"station_id":"GGL","is_transit":false,"time":2,"line":5,"station_name":"Grogol"},{"transit":true,"line":1,"is_transit":true,"station_name":"Duri","station_id":"DU","i_long":106.800832,"time":3,"distance":1700,"i_lat":-6.155215},{"station_name":"Angke","distance":1230,"is_transit":false,"line":0,"transit":false,"station_id":"AK","time":4,"i_lat":-6.144674,"i_long":106.79867},{"distance":4102,"station_id":"KPB","time":9,"transit":true,"i_lat":-6.132549,"station_name":"Kampung Bandan","i_long":106.826365,"line":0,"is_transit":true},{"i_long":106.836569,"distance":1444,"time":3,"line":11,"transit":false,"station_id":"RJW","is_transit":false,"i_lat":-6.14505,"station_name":"Rajawali"},{"station_name":"Kemayoran","time":5,"station_id":"KMO","is_transit":false,"distance":1901,"i_lat":-6.161728,"i_long":106.839204,"transit":false,"line":11},{"line":11,"station_name":"Pasar Senen","is_transit":false,"i_lat":-6.174784,"transit":false,"station_id":"PSE","time":4,"i_long":106.84368,"distance":1436},{"transit":false,"i_lat":-6.185975,"is_transit":false,"station_id":"GST","i_long":106.850107,"line":11,"station_name":"Gang Sentiong","time":8,"distance":1567},{"i_lat":-6.193792,"i_long":106.855437,"time":1,"station_id":"KMT","station_name":"Kramat","is_transit":false,"distance":973,"transit":false,"line":11},{"i_long":106.861737,"is_transit":false,"station_id":"POK","line":11,"time":2,"transit":false,"station_name":"Pondok Jati","distance":1829,"i_lat":-6.209188},{"time":9,"line":0,"station_id":"JNG","transit":true,"is_transit":true,"distance":1236,"i_lat":-6.215091,"i_long":106.86807400000001,"station_name":"Jatinegara"},{"time":2,"i_lat":-6.212485,"line":1,"distance":1377,"station_id":"MTR","i_long":106.858896,"station_name":"Matraman","is_transit":false,"transit":false},{"station_id":"MRI","line":0,"time":2,"is_transit":true,"station_name":"Manggarai","distance":1275,"i_long":106.84912,"i_lat":-6.209883,"transit":true},{"distance":2610,"is_transit":false,"transit":false,"i_lat":-6.226659,"i_long":106.857948,"line":2,"station_name":"Tebet","station_id":"TEB","time":4},{"time":2,"is_transit":false,"station_id":"CW","i_lat":-6.242512,"line":0,"transit":false,"station_name":"Cawang","i_long":106.856607,"distance":1230}]]}