{"data":[[{"distance":0,"i_lat":-6.1587309999999995,"is_transit":false,"i_long":106.756522,"transit":false,"time":0,"line":5,"station_id":"TKO","station_name":"Taman Kota"},{"i_lat":-6.161433,"line":5,"distance":1614,"station_name":"Pesing","transit":false,"i_long":106.771379,"time":2,"is_transit":false,"station_id":"PSG"},{"time":2,"is_transit":false,"station_id":"GGL","transit":false,"station_name":"Grogol","distance":2036,"i_long":106.788277,"i_lat":-6.162021,"line":5},{"is_transit":true,"distance":1700,"station_id":"DU","i_long":106.800832,"line":1,"i_lat":-6.155215,"time":3,"transit":true,"station_name":"Duri"},{"time":8,"distance":3632,"i_lat":-6.185545,"station_id":"THB","is_transit":false,"line":1,"transit":false,"i_long":106.811091,"station_name":"Tanah Abang"},{"transit":false,"distance":2029,"station_id":"KAT","time":5,"i_lat":-6.20132,"station_name":"Karet","line":1,"is_transit":false,"i_long":106.816351},{"station_name":"Sudirman Baru","station_id":"SUDB","time":1,"i_lat":-6.201433,"distance":471,"i_long":106.819881,"line":1,"is_transit":false,"transit":false},{"station_id":"SUD","distance":280,"time":1,"transit":false,"station_name":"Sudirman","line":1,"is_transit":false,"i_lat":-6.202263,"i_long":106.822649},{"station_id":"MRI","station_name":"Manggarai","i_long":106.84912,"i_lat":-6.209883,"time":4,"distance":3186,"transit":true,"is_transit":true,"line":2},{"line":2,"i_lat":-6.226659,"station_id":"TEB","time":4,"transit":false,"station_name":"Tebet","is_transit":false,"distance":2610,"i_long":106.857948},{"station_id":"CW","i_long":106.856607,"i_lat":-6.242512,"line":2,"distance":1230,"station_name":"Cawang","time":2,"is_transit":false,"transit":false}],[{"i_lat":-6.1587309999999995,"i_long":106.756522,"station_id":"TKO","is_transit":false,"line":5,"distance":0,"station_name":"Taman Kota","time":0,"transit":false},{"distance":1614,"time":2,"station_id":"PSG","i_lat":-6.161433,"line":5,"transit":false,"i_long":106.771379,"is_transit":false,"station_name":"Pesing"},{"station_id":"GGL","time":2,"station_name":"Grogol","i_lat":-6.162021,"line":5,"is_transit":false,"transit":false,"distance":2036,"i_long":106.788277},{"station_id":"DU","station_name":"Duri","transit":true,"i_long":106.800832,"distance":1700,"time":3,"i_lat":-6.155215,"line":1,"is_transit":true},{"line":1,"distance":1230,"i_lat":-6.144674,"i_long":106.79867,"is_transit":false,"station_name":"Angke","station_id":"AK","transit":false,"time":4},{"is_transit":true,"distance":4102,"i_lat":-6.132549,"i_long":106.826365,"line":4,"station_id":"KPB","time":9,"station_name":"Kampung Bandan","transit":true},{"time":3,"station_id":"JAKK","is_transit":true,"distance":1364,"transit":true,"i_lat":-6.137569,"station_name":"Jakarta Kota","line":2,"i_long":106.812439},{"is_transit":false,"transit":false,"time":4,"i_lat":-6.141205,"distance":1264,"station_name":"Jayakarta","i_long":106.820901,"line":2,"station_id":"JAY"},{"i_long":106.82482,"transit":false,"distance":1080,"is_transit":false,"station_id":"MGB","station_name":"Manggabesar","i_lat":-6.149769,"line":2,"time":2},{"i_long":106.827103,"line":2,"distance":906,"time":2,"transit":false,"is_transit":false,"station_id":"SW","station_name":"Sawah Besar","i_lat":-6.160725},{"line":2,"time":2,"transit":false,"station_name":"Juanda","distance":1149,"i_lat":-6.166716,"station_id":"JUA","is_transit":false,"i_long":106.828284},{"is_transit":false,"i_lat":-6.186295,"line":2,"station_id":"GDD","distance":2015,"transit":false,"station_name":"Gondangdia","i_long":106.832183,"time":4},{"time":3,"i_lat":-6.198556,"station_id":"CKI","transit":false,"i_long":106.840169,"line":2,"station_name":"Cikini","distance":1750,"is_transit":false},{"is_transit":false,"i_lat":-6.209883,"line":2,"station_id":"MRI","time":4,"distance":1590,"transit":false,"station_name":"Manggarai","i_long":106.84912},{"is_transit":false,"i_lat":-6.226659,"station_id":"TEB","station_name":"Tebet","distance":2610,"transit":false,"i_long":106.857948,"line":2,"time":4},{"station_id":"CW","transit":false,"time":2,"station_name":"Cawang","line":2,"distance":1230,"i_long":106.856607,"is_transit":false,"i_lat":-6.242512}],[{"time":0,"transit":false,"distance":0,"is_transit":false,"station_id":"TKO","station_name":"Taman Kota","i_lat":-6.1587309999999995,"line":5,"i_long":106.756522},{"station_id":"PSG","line":5,"i_long":106.771379,"i_lat":-6.161433,"time":2,"distance":1614,"transit":false,"station_name":"Pesing","is_transit":false},{"station_id":"GGL","i_long":106.788277,"distance":2036,"transit":false,"i_lat":-6.162021,"station_name":"Grogol","is_transit":false,"time":2,"line":5},{"time":3,"station_id":"DU","line":1,"distance":1700,"i_lat":-6.155215,"i_long":106.800832,"is_transit":true,"transit":true,"station_name":"Duri"},{"transit":false,"station_name":"Angke","i_long":106.79867,"is_transit":false,"station_id":"AK","i_lat":-6.144674,"line":1,"distance":1230,"time":4},{"i_long":106.826365,"station_id":"KPB","transit":true,"time":9,"distance":4102,"station_name":"Kampung Bandan","line":4,"is_transit":true,"i_lat":-6.132549},{"transit":false,"i_lat":-6.14505,"i_long":106.836569,"station_id":"RJW","is_transit":false,"station_name":"Rajawali","distance":1444,"time":3,"line":11},{"i_lat":-6.161728,"i_long":106.839204,"transit":false,"line":11,"distance":1901,"time":5,"station_id":"KMO","is_transit":false,"station_name":"Kemayoran"},{"station_id":"PSE","station_name":"Pasar Senen","line":11,"transit":false,"i_long":106.84368,"distance":1436,"i_lat":-6.174784,"time":4,"is_transit":false},{"i_lat":-6.185975,"time":8,"i_long":106.850107,"distance":1567,"station_name":"Gang Sentiong","transit":false,"line":11,"is_transit":false,"station_id":"GST"},{"i_lat":-6.193792,"distance":973,"station_name":"Kramat","i_long":106.855437,"is_transit":false,"line":11,"transit":false,"time":1,"station_id":"KMT"},{"i_lat":-6.209188,"line":11,"station_id":"POK","is_transit":false,"transit":false,"station_name":"Pondok Jati","i_long":106.861737,"distance":1829,"time":2},{"station_id":"JNG","transit":true,"distance":1236,"i_lat":-6.215091,"time":9,"i_long":106.86807400000001,"line":1,"station_name":"Jatinegara","is_transit":true},{"i_lat":-6.212485,"i_long":106.858896,"line":1,"station_name":"Matraman","time":2,"transit":false,"is_transit":false,"station_id":"MTR","distance":1377},{"i_long":106.84912,"line":2,"station_id":"MRI","time":2,"transit":true,"station_name":"Manggarai","is_transit":true,"i_lat":-6.209883,"distance":1275},{"i_long":106.857948,"station_id":"TEB","time":4,"station_name":"Tebet","i_lat":-6.226659,"is_transit":false,"line":2,"distance":2610,"transit":false},{"i_lat":-6.242512,"distance":1230,"time":2,"station_id":"CW","i_long":106.856607,"station_name":"Cawang","transit":false,"line":2,"is_transit":false}]]}