{"data":[[{"is_transit":false,"station_id":"TKO","i_long":106.756522,"i_lat":-6.1587309999999995,"line":5,"distance":0,"station_name":"Taman Kota","time":0,"transit":false},{"distance":1614,"line":5,"is_transit":false,"station_id":"PSG","transit":false,"time":2,"station_name":"Pesing","i_long":106.771379,"i_lat":-6.161433},{"station_name":"Grogol","time":2,"station_id":"GGL","is_transit":false,"i_lat":-6.162021,"transit":false,"i_long":106.788277,"distance":2036,"line":5},{"is_transit":true,"i_lat":-6.155215,"station_id":"DU","line":1,"i_long":106.800832,"transit":true,"distance":1700,"station_name":"Duri","time":3},{"station_name":"Tanah Abang","i_lat":-6.185545,"i_long":106.811091,"line":1,"distance":3632,"time":8,"is_transit":true,"station_id":"THB","transit":false},{"is_transit":false,"time":5,"line":1,"station_id":"KAT","station_name":"Karet","transit":false,"i_lat":-6.20132,"i_long":106.816351,"distance":2029},{"time":1,"i_long":106.819881,"station_id":"SUDB","line":1,"is_transit":false,"transit":false,"i_lat":-6.201433,"distance":471,"station_name":"Sudirman Baru"},{"transit":false,"station_name":"Sudirman","distance":280,"station_id":"SUD","time":1,"line":1,"is_transit":false,"i_lat":-6.202263,"i_long":106.822649},{"time":4,"i_lat":-6.209883,"station_name":"Manggarai","station_id":"MRI","is_transit":true,"i_long":106.84912,"distance":3186,"line":0,"transit":true},{"station_name":"Tebet","distance":2610,"is_transit":false,"station_id":"TEB","time":4,"i_lat":-6.226659,"transit":false,"i_long":106.857948,"line":2},{"distance":1230,"i_lat":-6.242512,"is_transit":false,"station_name":"Cawang","transit":false,"line":0,"station_id":"CW","i_long":106.856607,"time":2},{"distance":1546,"line":0,"transit":false,"is_transit":false,"i_long":106.85449,"station_name":"Duren Kalibata","time":3,"station_id":"DRN","i_lat":-6.255332},{"station_id":"PSMB","distance":824,"i_long":106.851577,"is_transit":false,"station_name":"Pasar Minggu Baru","transit":false,"line":2,"time":2,"i_lat":-6.263214},{"distance":2380,"line":2,"station_name":"Pasar Minggu","is_transit":false,"i_long":106.843999,"station_id":"PSM","time":2,"i_lat":-6.2842400000000005,"transit":false},{"station_name":"Tanjung Barat","station_id":"TNT","i_long":106.838896,"time":4,"i_lat":-6.3080680000000005,"is_transit":false,"transit":false,"line":2,"distance":2820},{"is_transit":false,"station_name":"Lenteng Agung","i_lat":-6.330363,"transit":false,"distance":2671,"i_long":106.832616,"time":3,"line":2,"station_id":"LNA"},{"station_id":"UP","transit":false,"time":2,"line":2,"distance":1029,"is_transit":false,"station_name":"Univ. Pancasila","i_lat":-6.339291,"i_long":106.834175},{"line":2,"transit":false,"station_id":"UI","i_lat":-6.360749,"distance":2264,"i_long":106.831474,"station_name":"Univ. Indonesia","is_transit":false,"time":3},{"station_name":"Pondok Cina","transit":false,"station_id":"POC","line":2,"i_long":106.831114,"time":2,"distance":1109,"is_transit":false,"i_lat":-6.369073},{"i_lat":-6.391065,"line":0,"station_name":"Depokbaru","is_transit":false,"time":4,"transit":false,"distance":2727,"i_long":106.819451,"station_id":"DPB"},{"transit":false,"station_id":"DP","time":3,"i_long":106.816926,"station_name":"Depok","i_lat":-6.405256,"distance":1584,"line":0,"is_transit":false},{"station_id":"CTA","time":6,"transit":false,"station_name":"Citayam","i_lat":-6.448811,"i_long":106.800298,"line":1,"is_transit":true,"distance":5084},{"is_transit":false,"station_name":"Cibinong","transit":false,"line":0,"distance":6740,"station_id":"CBN","i_lat":-6.46424,"time":10,"i_long":106.851978},{"transit":false,"i_lat":-6.466285,"i_long":106.905196,"time":10,"distance":6527,"is_transit":false,"station_name":"Nambo","line":21,"station_id":"NMO"}],[{"is_transit":false,"i_long":106.756522,"station_id":"TKO","time":0,"line":5,"station_name":"Taman Kota","transit":false,"i_lat":-6.1587309999999995,"distance":0},{"is_transit":false,"distance":1614,"transit":false,"time":2,"station_name":"Pesing","i_lat":-6.161433,"i_long":106.771379,"station_id":"PSG","line":5},{"i_long":106.788277,"time":2,"station_name":"Grogol","station_id":"GGL","line":5,"is_transit":false,"transit":false,"i_lat":-6.162021,"distance":2036},{"distance":1700,"is_transit":true,"station_name":"Duri","line":1,"transit":true,"time":3,"station_id":"DU","i_lat":-6.155215,"i_long":106.800832},{"station_name":"Angke","transit":false,"distance":1230,"line":0,"i_long":106.79867,"i_lat":-6.144674,"is_transit":false,"time":4,"station_id":"AK"},{"i_lat":-6.132549,"time":9,"station_name":"Kampung Bandan","transit":false,"i_long":106.826365,"station_id":"KPB","line":0,"distance":4102,"is_transit":true},{"line":0,"i_lat":-6.137569,"i_long":106.812439,"station_name":"Jakarta Kota","time":3,"distance":1364,"station_id":"JAKK","is_transit":true,"transit":true},{"transit":false,"distance":1264,"i_long":106.820901,"i_lat":-6.141205,"is_transit":false,"line":7,"station_id":"JAY","station_name":"Jayakarta","time":4},{"transit":false,"station_id":"MGB","i_lat":-6.149769,"distance":1080,"station_name":"Manggabesar","is_transit":false,"time":2,"line":2,"i_long":106.82482},{"i_lat":-6.160725,"i_long":106.827103,"is_transit":false,"transit":false,"station_name":"Sawah Besar","distance":906,"line":2,"time":2,"station_id":"SW"},{"station_name":"Juanda","time":2,"transit":false,"i_lat":-6.166716,"i_long":106.828284,"distance":1149,"is_transit":false,"line":2,"station_id":"JUA"},{"transit":false,"station_id":"GDD","distance":2015,"i_lat":-6.186295,"line":2,"is_transit":false,"time":4,"station_name":"Gondangdia","i_long":106.832183},{"time":3,"i_lat":-6.198556,"transit":false,"i_long":106.840169,"station_id":"CKI","station_name":"Cikini","line":0,"is_transit":false,"distance":1750},{"transit":true,"i_lat":-6.209883,"station_id":"MRI","time":4,"station_name":"Manggarai","i_long":106.84912,"line":0,"is_transit":true,"distance":1590},{"is_transit":false,"station_name":"Tebet","transit":false,"line":2,"distance":2610,"time":4,"station_id":"TEB","i_long":106.857948,"i_lat":-6.226659},{"line":0,"distance":1230,"i_lat":-6.242512,"i_long":106.856607,"station_name":"Cawang","station_id":"CW","transit":false,"is_transit":false,"time":2},{"i_long":106.85449,"line":0,"distance":1546,"time":3,"station_id":"DRN","transit":false,"i_lat":-6.255332,"is_transit":false,"station_name":"Duren Kalibata"},{"is_transit":false,"transit":false,"station_id":"PSMB","distance":824,"station_name":"Pasar Minggu Baru","time":2,"i_lat":-6.263214,"line":2,"i_long":106.851577},{"time":2,"i_lat":-6.2842400000000005,"i_long":106.843999,"station_name":"Pasar Minggu","distance":2380,"station_id":"PSM","transit":false,"is_transit":false,"line":2},{"is_transit":false,"station_name":"Tanjung Barat","distance":2820,"i_lat":-6.3080680000000005,"transit":false,"station_id":"TNT","time":4,"i_long":106.838896,"line":2},{"is_transit":false,"i_long":106.832616,"station_name":"Lenteng Agung","time":3,"i_lat":-6.330363,"line":2,"distance":2671,"transit":false,"station_id":"LNA"},{"station_id":"UP","i_lat":-6.339291,"station_name":"Univ. Pancasila","is_transit":false,"distance":1029,"i_long":106.834175,"line":2,"time":2,"transit":false},{"line":2,"distance":2264,"transit":false,"i_lat":-6.360749,"station_name":"Univ. Indonesia","station_id":"UI","is_transit":false,"time":3,"i_long":106.831474},{"i_lat":-6.369073,"line":2,"is_transit":false,"station_id":"POC","station_name":"Pondok Cina","distance":1109,"i_long":106.831114,"transit":false,"time":2},{"distance":2727,"i_lat":-6.391065,"is_transit":false,"time":4,"i_long":106.819451,"station_name":"Depokbaru","line":0,"transit":false,"station_id":"DPB"},{"transit":false,"time":3,"i_long":106.816926,"is_transit":false,"station_name":"Depok","distance":1584,"station_id":"DP","i_lat":-6.405256,"line":0},{"transit":false,"i_long":106.800298,"station_id":"CTA","time":6,"is_transit":true,"distance":5084,"i_lat":-6.448811,"station_name":"Citayam","line":1},{"distance":6740,"i_long":106.851978,"is_transit":false,"station_id":"CBN","station_name":"Cibinong","time":10,"line":0,"transit":false,"i_lat":-6.46424},{"time":10,"station_name":"Nambo","i_lat":-6.466285,"i_long":106.905196,"is_transit":false,"distance":6527,"transit":false,"line":21,"station_id":"NMO"}],[{"is_transit":false,"station_id":"TKO","transit":false,"i_lat":-6.1587309999999995,"i_long":106.756522,"line":5,"distance":0,"time":0,"station_name":"Taman Kota"},{"line":5,"i_lat":-6.161433,"station_id":"PSG","station_name":"Pesing","time":2,"distance":1614,"is_transit":false,"transit":false,"i_long":106.771379},{"distance":2036,"station_id":"GGL","time":2,"i_lat":-6.162021,"line":5,"station_name":"Grogol","is_transit":false,"transit":false,"i_long":106.788277},{"station_name":"Duri","time":3,"i_lat":-6.155215,"transit":true,"distance":1700,"is_transit":true,"station_id":"DU","i_long":106.800832,"line":1},{"transit":false,"line":0,"station_name":"Angke","time":4,"i_lat":-6.144674,"distance":1230,"is_transit":false,"station_id":"AK","i_long":106.79867},{"line":0,"time":9,"transit":true,"station_id":"KPB","i_long":106.826365,"is_transit":true,"station_name":"Kampung Bandan","distance":4102,"i_lat":-6.132549},{"i_lat":-6.14505,"station_name":"Rajawali","line":11,"is_transit":false,"station_id":"RJW","distance":1444,"transit":false,"time":3,"i_long":106.836569},{"station_id":"KMO","station_name":"Kemayoran","is_transit":false,"time":5,"i_lat":-6.161728,"i_long":106.839204,"transit":false,"line":11,"distance":1901},{"station_id":"PSE","line":11,"distance":1436,"is_transit":false,"transit":false,"time":4,"i_lat":-6.174784,"station_name":"Pasar Senen","i_long":106.84368},{"time":8,"station_name":"Gang Sentiong","is_transit":false,"station_id":"GST","i_long":106.850107,"i_lat":-6.185975,"line":11,"distance":1567,"transit":false},{"station_id":"KMT","distance":973,"i_lat":-6.193792,"transit":false,"i_long":106.855437,"is_transit":false,"station_name":"Kramat","line":11,"time":1},{"i_lat":-6.209188,"time":2,"line":11,"station_name":"Pondok Jati","transit":false,"i_long":106.861737,"distance":1829,"is_transit":false,"station_id":"POK"},{"transit":true,"time":9,"is_transit":true,"station_name":"Jatinegara","station_id":"JNG","i_lat":-6.215091,"i_long":106.86807400000001,"distance":1236,"line":0},{"station_id":"MTR","i_long":106.858896,"is_transit":false,"distance":1377,"transit":false,"time":2,"line":1,"station_name":"Matraman","i_lat":-6.212485},{"time":2,"distance":1275,"station_id":"MRI","station_name":"Manggarai","i_lat":-6.209883,"line":0,"is_transit":true,"transit":true,"i_long":106.84912},{"station_name":"Tebet","is_transit":false,"i_long":106.857948,"station_id":"TEB","transit":false,"time":4,"line":2,"distance":2610,"i_lat":-6.226659},{"transit":false,"is_transit":false,"station_id":"CW","station_name":"Cawang","distance":1230,"time":2,"line":0,"i_lat":-6.242512,"i_long":106.856607},{"line":0,"transit":false,"i_lat":-6.255332,"i_long":106.85449,"station_name":"Duren Kalibata","is_transit":false,"station_id":"DRN","distance":1546,"time":3},{"station_id":"PSMB","transit":false,"i_long":106.851577,"line":2,"station_name":"Pasar Minggu Baru","distance":824,"i_lat":-6.263214,"time":2,"is_transit":false},{"is_transit":false,"station_name":"Pasar Minggu","transit":false,"station_id":"PSM","i_long":106.843999,"i_lat":-6.2842400000000005,"distance":2380,"time":2,"line":2},{"transit":false,"time":4,"station_name":"Tanjung Barat","line":2,"i_lat":-6.3080680000000005,"i_long":106.838896,"is_transit":false,"station_id":"TNT","distance":2820},{"i_lat":-6.330363,"station_id":"LNA","station_name":"Lenteng Agung","transit":false,"is_transit":false,"time":3,"distance":2671,"line":2,"i_long":106.832616},{"station_id":"UP","line":2,"i_lat":-6.339291,"station_name":"Univ. Pancasila","i_long":106.834175,"transit":false,"time":2,"distance":1029,"is_transit":false},{"distance":2264,"transit":false,"i_lat":-6.360749,"i_long":106.831474,"is_transit":false,"station_id":"UI","time":3,"line":2,"station_name":"Univ. Indonesia"},{"is_transit":false,"station_name":"Pondok Cina","station_id":"POC","time":2,"i_long":106.831114,"line":2,"i_lat":-6.369073,"distance":1109,"transit":false},{"station_id":"DPB","time":4,"transit":false,"i_long":106.819451,"is_transit":false,"distance":2727,"station_name":"Depokbaru","i_lat":-6.391065,"line":0},{"i_long":106.816926,"transit":false,"line":0,"i_lat":-6.405256,"station_id":"DP","station_name":"Depok","is_transit":false,"distance":1584,"time":3},{"i_long":106.800298,"i_lat":-6.448811,"transit":false,"station_name":"Citayam","distance":5084,"station_id":"CTA","line":1,"is_transit":true,"time":6},{"time":10,"line":0,"is_transit":false,"station_name":"Cibinong","station_id":"CBN","i_long":106.851978,"transit":false,"i_lat":-6.46424,"distance":6740},{"station_id":"NMO","distance":6527,"i_long":106.905196,"is_transit":false,"station_name":"Nambo","transit":false,"time":10,"line":21,"i_lat":-6.466285}]]}