{"data":[[{"transit":false,"station_id":"TKO","station_name":"Taman Kota","i_lat":-6.1587309999999995,"line":5,"distance":0,"time":0,"i_long":106.756522,"is_transit":false},{"station_id":"PSG","transit":false,"line":5,"time":2,"i_long":106.771379,"distance":1614,"station_name":"Pesing","is_transit":false,"i_lat":-6.161433},{"distance":2036,"station_name":"Grogol","i_lat":-6.162021,"i_long":106.788277,"transit":false,"is_transit":false,"station_id":"GGL","time":2,"line":5},{"distance":1700,"is_transit":true,"i_lat":-6.155215,"transit":true,"station_name":"Duri","station_id":"DU","time":3,"i_long":106.800832,"line":1},{"distance":3632,"transit":false,"line":1,"station_id":"THB","time":8,"i_long":106.811091,"station_name":"Tanah Abang","i_lat":-6.185545,"is_transit":true},{"distance":2029,"time":5,"station_name":"Karet","i_lat":-6.20132,"i_long":106.816351,"line":1,"is_transit":false,"transit":false,"station_id":"KAT"},{"station_name":"Sudirman Baru","i_long":106.819881,"transit":false,"is_transit":false,"distance":471,"line":1,"i_lat":-6.201433,"time":1,"station_id":"SUDB"},{"transit":false,"i_lat":-6.202263,"time":1,"station_name":"Sudirman","station_id":"SUD","i_long":106.822649,"line":1,"is_transit":false,"distance":280},{"distance":3186,"time":4,"station_id":"MRI","i_long":106.84912,"station_name":"Manggarai","i_lat":-6.209883,"transit":false,"line":0,"is_transit":true},{"is_transit":false,"time":2,"station_id":"MTR","distance":1275,"transit":false,"station_name":"Matraman","i_long":106.858896,"line":1,"i_lat":-6.212485},{"i_long":106.86807400000001,"is_transit":true,"transit":false,"i_lat":-6.215091,"line":0,"distance":1377,"time":8,"station_name":"Jatinegara","station_id":"JNG"},{"i_lat":-6.2135,"is_transit":false,"station_id":"KLD","transit":false,"distance":3395,"station_name":"Klender","line":1,"time":3,"i_long":106.899548},{"line":0,"station_id":"BUA","station_name":"Buaran","is_transit":false,"distance":3100,"time":2,"i_lat":-6.215568,"transit":false,"i_long":106.922662},{"time":1,"i_lat":-6.217455,"line":1,"station_name":"Klenderbaru","transit":false,"distance":1305,"i_long":106.939679,"is_transit":false,"station_id":"KLDB"}],[{"station_id":"TKO","i_lat":-6.1587309999999995,"line":5,"transit":false,"is_transit":false,"time":0,"distance":0,"station_name":"Taman Kota","i_long":106.756522},{"i_long":106.771379,"is_transit":false,"time":2,"transit":false,"i_lat":-6.161433,"station_name":"Pesing","line":5,"distance":1614,"station_id":"PSG"},{"station_id":"GGL","transit":false,"is_transit":false,"distance":2036,"station_name":"Grogol","time":2,"line":5,"i_lat":-6.162021,"i_long":106.788277},{"i_long":106.800832,"station_id":"DU","time":3,"station_name":"Duri","distance":1700,"line":1,"i_lat":-6.155215,"transit":true,"is_transit":true},{"is_transit":false,"time":4,"i_long":106.79867,"transit":false,"i_lat":-6.144674,"distance":1230,"station_name":"Angke","line":0,"station_id":"AK"},{"i_lat":-6.132549,"distance":4102,"i_long":106.826365,"transit":true,"time":9,"line":0,"is_transit":true,"station_name":"Kampung Bandan","station_id":"KPB"},{"station_id":"RJW","i_lat":-6.14505,"time":3,"line":11,"is_transit":false,"station_name":"Rajawali","transit":false,"i_long":106.836569,"distance":1444},{"line":11,"distance":1901,"transit":false,"station_id":"KMO","is_transit":false,"station_name":"Kemayoran","time":5,"i_long":106.839204,"i_lat":-6.161728},{"i_lat":-6.174784,"is_transit":false,"distance":1436,"i_long":106.84368,"station_name":"Pasar Senen","station_id":"PSE","transit":false,"time":4,"line":11},{"distance":1567,"station_id":"GST","time":8,"transit":false,"is_transit":false,"line":11,"station_name":"Gang Sentiong","i_lat":-6.185975,"i_long":106.850107},{"i_long":106.855437,"distance":973,"i_lat":-6.193792,"station_id":"KMT","is_transit":false,"time":1,"line":11,"transit":false,"station_name":"Kramat"},{"line":11,"i_lat":-6.209188,"time":2,"distance":1829,"station_name":"Pondok Jati","station_id":"POK","transit":false,"is_transit":false,"i_long":106.861737},{"i_long":106.86807400000001,"station_id":"JNG","transit":true,"i_lat":-6.215091,"distance":1236,"station_name":"Jatinegara","is_transit":true,"time":9,"line":0},{"line":1,"transit":false,"time":3,"distance":3395,"i_lat":-6.2135,"station_name":"Klender","station_id":"KLD","is_transit":false,"i_long":106.899548},{"line":0,"is_transit":false,"transit":false,"station_name":"Buaran","time":2,"i_lat":-6.215568,"station_id":"BUA","distance":3100,"i_long":106.922662},{"station_id":"KLDB","distance":1305,"time":1,"transit":false,"is_transit":false,"line":1,"station_name":"Klenderbaru","i_lat":-6.217455,"i_long":106.939679}],[{"i_lat":-6.1587309999999995,"i_long":106.756522,"distance":0,"time":0,"line":5,"station_name":"Taman Kota","station_id":"TKO","transit":false,"is_transit":false},{"line":5,"time":2,"distance":1614,"transit":false,"i_lat":-6.161433,"station_name":"Pesing","station_id":"PSG","is_transit":false,"i_long":106.771379},{"is_transit":false,"distance":2036,"i_long":106.788277,"line":5,"station_id":"GGL","station_name":"Grogol","transit":false,"time":2,"i_lat":-6.162021},{"station_id":"DU","transit":true,"line":1,"time":3,"i_lat":-6.155215,"station_name":"Duri","distance":1700,"i_long":106.800832,"is_transit":true},{"station_name":"Angke","transit":false,"line":0,"time":4,"distance":1230,"i_lat":-6.144674,"is_transit":false,"station_id":"AK","i_long":106.79867},{"i_lat":-6.132549,"time":9,"line":0,"distance":4102,"transit":false,"is_transit":true,"station_id":"KPB","i_long":106.826365,"station_name":"Kampung Bandan"},{"distance":1364,"station_name":"Jakarta Kota","station_id":"JAKK","transit":true,"is_transit":true,"i_lat":-6.137569,"i_long":106.812439,"line":0,"time":3},{"is_transit":false,"i_lat":-6.141205,"time":4,"distance":1264,"i_long":106.820901,"station_id":"JAY","station_name":"Jayakarta","line":7,"transit":false},{"distance":1080,"station_name":"Manggabesar","line":2,"transit":false,"i_long":106.82482,"time":2,"i_lat":-6.149769,"is_transit":false,"station_id":"MGB"},{"line":2,"transit":false,"time":2,"distance":906,"i_long":106.827103,"station_name":"Sawah Besar","i_lat":-6.160725,"station_id":"SW","is_transit":false},{"line":2,"transit":false,"station_name":"Juanda","i_lat":-6.166716,"distance":1149,"station_id":"JUA","time":2,"i_long":106.828284,"is_transit":false},{"i_long":106.832183,"transit":false,"station_id":"GDD","i_lat":-6.186295,"distance":2015,"time":4,"station_name":"Gondangdia","line":2,"is_transit":false},{"time":3,"is_transit":false,"i_lat":-6.198556,"i_long":106.840169,"station_name":"Cikini","transit":false,"line":0,"station_id":"CKI","distance":1750},{"line":0,"distance":1590,"station_name":"Manggarai","is_transit":true,"transit":true,"i_long":106.84912,"time":4,"i_lat":-6.209883,"station_id":"MRI"},{"i_long":106.858896,"i_lat":-6.212485,"time":2,"transit":false,"is_transit":false,"distance":1275,"line":1,"station_id":"MTR","station_name":"Matraman"},{"i_lat":-6.215091,"distance":1377,"station_name":"Jatinegara","station_id":"JNG","time":8,"line":0,"is_transit":true,"i_long":106.86807400000001,"transit":false},{"station_name":"Klender","i_long":106.899548,"transit":false,"is_transit":false,"station_id":"KLD","line":1,"time":3,"i_lat":-6.2135,"distance":3395},{"station_id":"BUA","distance":3100,"station_name":"Buaran","transit":false,"i_lat":-6.215568,"i_long":106.922662,"is_transit":false,"line":0,"time":2},{"time":1,"i_long":106.939679,"station_id":"KLDB","distance":1305,"i_lat":-6.217455,"station_name":"Klenderbaru","transit":false,"line":1,"is_transit":false}],[{"is_transit":false,"time":0,"transit":false,"i_lat":-6.1587309999999995,"i_long":106.756522,"line":5,"distance":0,"station_name":"Taman Kota","station_id":"TKO"},{"line":5,"station_id":"PSG","time":2,"station_name":"Pesing","distance":1614,"i_lat":-6.161433,"transit":false,"is_transit":false,"i_long":106.771379},{"distance":2036,"station_id":"GGL","is_transit":false,"station_name":"Grogol","time":2,"i_long":106.788277,"line":5,"transit":false,"i_lat":-6.162021},{"i_lat":-6.155215,"time":3,"transit":true,"station_name":"Duri","i_long":106.800832,"line":1,"station_id":"DU","distance":1700,"is_transit":true},{"time":8,"i_lat":-6.185545,"distance":3632,"station_id":"THB","line":1,"station_name":"Tanah Abang","i_long":106.811091,"transit":false,"is_transit":true},{"i_long":106.816351,"station_id":"KAT","station_name":"Karet","time":5,"i_lat":-6.20132,"transit":false,"distance":2029,"line":1,"is_transit":false},{"i_long":106.819881,"distance":471,"station_id":"SUDB","transit":false,"time":1,"line":1,"i_lat":-6.201433,"is_transit":false,"station_name":"Sudirman Baru"},{"station_name":"Sudirman","is_transit":false,"line":1,"distance":280,"i_lat":-6.202263,"time":1,"i_long":106.822649,"station_id":"SUD","transit":false},{"is_transit":true,"time":4,"distance":3186,"station_name":"Manggarai","station_id":"MRI","i_lat":-6.209883,"line":0,"transit":true,"i_long":106.84912},{"station_name":"Cikini","i_lat":-6.198556,"i_long":106.840169,"time":4,"transit":false,"is_transit":false,"line":0,"distance":1590,"station_id":"CKI"},{"i_lat":-6.186295,"station_name":"Gondangdia","line":2,"distance":1750,"i_long":106.832183,"transit":false,"station_id":"GDD","time":3,"is_transit":false},{"i_lat":-6.166716,"i_long":106.828284,"time":4,"station_name":"Juanda","transit":false,"is_transit":false,"distance":2015,"line":2,"station_id":"JUA"},{"transit":false,"station_id":"SW","station_name":"Sawah Besar","is_transit":false,"line":2,"time":2,"distance":1149,"i_long":106.827103,"i_lat":-6.160725},{"line":2,"time":2,"i_lat":-6.149769,"station_name":"Manggabesar","transit":false,"i_long":106.82482,"distance":906,"is_transit":false,"station_id":"MGB"},{"is_transit":false,"distance":1080,"line":7,"transit":false,"i_long":106.820901,"station_id":"JAY","time":2,"station_name":"Jayakarta","i_lat":-6.141205},{"transit":true,"line":0,"i_long":106.812439,"distance":1264,"station_name":"Jakarta Kota","time":4,"station_id":"JAKK","is_transit":true,"i_lat":-6.137569},{"station_name":"Kampung Bandan","station_id":"KPB","time":3,"transit":true,"line":0,"distance":1364,"is_transit":true,"i_long":106.826365,"i_lat":-6.132549},{"line":11,"station_id":"RJW","is_transit":false,"transit":false,"time":3,"station_name":"Rajawali","i_lat":-6.14505,"i_long":106.836569,"distance":1444},{"station_name":"Kemayoran","time":5,"distance":1901,"i_long":106.839204,"station_id":"KMO","transit":false,"is_transit":false,"i_lat":-6.161728,"line":11},{"distance":1436,"time":4,"line":11,"transit":false,"station_name":"Pasar Senen","i_long":106.84368,"i_lat":-6.174784,"station_id":"PSE","is_transit":false},{"i_long":106.850107,"distance":1567,"is_transit":false,"transit":false,"time":8,"line":11,"i_lat":-6.185975,"station_id":"GST","station_name":"Gang Sentiong"},{"i_lat":-6.193792,"distance":973,"line":11,"station_id":"KMT","transit":false,"i_long":106.855437,"is_transit":false,"time":1,"station_name":"Kramat"},{"station_name":"Pondok Jati","line":11,"transit":false,"distance":1829,"time":2,"i_lat":-6.209188,"is_transit":false,"station_id":"POK","i_long":106.861737},{"distance":1236,"transit":true,"station_name":"Jatinegara","is_transit":true,"i_lat":-6.215091,"i_long":106.86807400000001,"station_id":"JNG","time":9,"line":0},{"is_transit":false,"transit":false,"i_long":106.899548,"time":3,"station_id":"KLD","station_name":"Klender","line":1,"distance":3395,"i_lat":-6.2135},{"line":0,"i_long":106.922662,"time":2,"station_id":"BUA","is_transit":false,"station_name":"Buaran","i_lat":-6.215568,"transit":false,"distance":3100},{"station_id":"KLDB","time":1,"i_long":106.939679,"is_transit":false,"i_lat":-6.217455,"distance":1305,"station_name":"Klenderbaru","transit":false,"line":1}]]}