{"data":[[{"station_name":"Metland Telaga Murni","is_transit":false,"line":1,"transit":false,"i_lat":-6.262938,"station_id":"TLM","i_long":107.093313,"distance":0,"time":0},{"i_long":107.083084,"transit":false,"station_name":"Cibitung","is_transit":false,"line":0,"time":2,"i_lat":-6.261877,"distance":2800,"station_id":"CIT"},{"is_transit":false,"i_lat":-6.258864,"line":1,"station_id":"TB","time":3,"transit":false,"distance":3420,"i_long":107.055722,"station_name":"Tambun"},{"station_id":"BKST","station_name":"Bekasi Timur","i_long":107.016735,"i_lat":-6.248029,"line":0,"transit":false,"is_transit":false,"time":7,"distance":4460},{"i_long":106.997013,"time":2,"line":0,"station_id":"BKS","station_name":"Bekasi","distance":2368,"is_transit":false,"transit":false,"i_lat":-6.236616},{"distance":2520,"station_name":"Kranji","i_lat":-6.224515,"i_long":106.977657,"time":4,"station_id":"KRI","is_transit":false,"transit":false,"line":1},{"station_name":"Cakung","transit":false,"is_transit":false,"time":3,"i_lat":-6.219053,"line":0,"station_id":"CUK","distance":3097,"i_long":106.951283},{"is_transit":false,"station_id":"KLDB","distance":1385,"i_long":106.939679,"i_lat":-6.217455,"line":1,"time":8,"transit":false,"station_name":"Klenderbaru"},{"i_long":106.922662,"station_name":"Buaran","distance":1305,"transit":false,"station_id":"BUA","is_transit":false,"time":1,"line":0,"i_lat":-6.215568},{"transit":false,"i_lat":-6.2135,"station_id":"KLD","line":1,"station_name":"Klender","is_transit":false,"i_long":106.899548,"distance":3100,"time":2},{"station_name":"Jatinegara","distance":3395,"line":0,"time":3,"i_lat":-6.215091,"is_transit":true,"station_id":"JNG","i_long":106.86807400000001,"transit":false},{"transit":false,"station_id":"MTR","is_transit":false,"time":2,"station_name":"Matraman","distance":1377,"i_lat":-6.212485,"i_long":106.858896,"line":1},{"station_name":"Manggarai","is_transit":true,"i_long":106.84912,"distance":1275,"station_id":"MRI","time":2,"i_lat":-6.209883,"line":0,"transit":true},{"transit":false,"i_long":106.840169,"station_id":"CKI","time":4,"i_lat":-6.198556,"line":0,"distance":1590,"is_transit":false,"station_name":"Cikini"}],[{"i_long":107.093313,"line":1,"distance":0,"i_lat":-6.262938,"transit":false,"station_name":"Metland Telaga Murni","is_transit":false,"time":0,"station_id":"TLM"},{"transit":false,"distance":2800,"is_transit":false,"i_lat":-6.261877,"station_id":"CIT","i_long":107.083084,"station_name":"Cibitung","line":0,"time":2},{"time":3,"is_transit":false,"distance":3420,"i_lat":-6.258864,"station_name":"Tambun","transit":false,"line":1,"i_long":107.055722,"station_id":"TB"},{"time":7,"station_id":"BKST","transit":false,"line":0,"station_name":"Bekasi Timur","distance":4460,"is_transit":false,"i_lat":-6.248029,"i_long":107.016735},{"is_transit":false,"station_name":"Bekasi","distance":2368,"line":0,"transit":false,"station_id":"BKS","time":2,"i_lat":-6.236616,"i_long":106.997013},{"station_name":"Kranji","time":4,"station_id":"KRI","line":1,"transit":false,"is_transit":false,"distance":2520,"i_lat":-6.224515,"i_long":106.977657},{"is_transit":false,"i_lat":-6.219053,"i_long":106.951283,"distance":3097,"station_id":"CUK","station_name":"Cakung","transit":false,"time":3,"line":0},{"i_long":106.939679,"line":1,"is_transit":false,"transit":false,"station_name":"Klenderbaru","time":8,"station_id":"KLDB","i_lat":-6.217455,"distance":1385},{"station_id":"BUA","station_name":"Buaran","is_transit":false,"i_lat":-6.215568,"line":0,"time":1,"distance":1305,"i_long":106.922662,"transit":false},{"time":2,"i_long":106.899548,"is_transit":false,"line":1,"station_id":"KLD","transit":false,"distance":3100,"station_name":"Klender","i_lat":-6.2135},{"station_id":"JNG","distance":3395,"line":0,"is_transit":true,"transit":true,"station_name":"Jatinegara","i_long":106.86807400000001,"time":3,"i_lat":-6.215091},{"line":11,"station_id":"POK","i_lat":-6.209188,"time":2,"i_long":106.861737,"station_name":"Pondok Jati","transit":false,"distance":1236,"is_transit":false},{"line":11,"is_transit":false,"i_lat":-6.193792,"station_name":"Kramat","transit":false,"distance":1829,"station_id":"KMT","i_long":106.855437,"time":2},{"station_name":"Gang Sentiong","i_long":106.850107,"station_id":"GST","distance":973,"transit":false,"time":1,"line":11,"i_lat":-6.185975,"is_transit":false},{"line":11,"station_id":"PSE","is_transit":false,"i_long":106.84368,"distance":1567,"time":8,"i_lat":-6.174784,"station_name":"Pasar Senen","transit":false},{"distance":1436,"transit":false,"i_long":106.839204,"station_id":"KMO","station_name":"Kemayoran","line":11,"i_lat":-6.161728,"time":4,"is_transit":false},{"transit":false,"is_transit":false,"time":5,"station_name":"Rajawali","station_id":"RJW","i_lat":-6.14505,"i_long":106.836569,"line":11,"distance":1901},{"is_transit":true,"time":3,"station_name":"Kampung Bandan","station_id":"KPB","distance":1444,"transit":true,"i_lat":-6.132549,"line":0,"i_long":106.826365},{"is_transit":true,"station_id":"JAKK","station_name":"Jakarta Kota","transit":true,"time":3,"distance":1364,"i_lat":-6.137569,"line":0,"i_long":106.812439},{"is_transit":false,"distance":1264,"transit":false,"i_long":106.820901,"time":4,"line":7,"station_id":"JAY","station_name":"Jayakarta","i_lat":-6.141205},{"transit":false,"line":2,"is_transit":false,"distance":1080,"station_name":"Manggabesar","station_id":"MGB","i_long":106.82482,"time":2,"i_lat":-6.149769},{"time":2,"station_name":"Sawah Besar","distance":906,"transit":false,"i_lat":-6.160725,"station_id":"SW","is_transit":false,"line":2,"i_long":106.827103},{"distance":1149,"line":2,"is_transit":false,"transit":false,"station_name":"Juanda","i_long":106.828284,"time":2,"i_lat":-6.166716,"station_id":"JUA"},{"distance":2015,"transit":false,"i_long":106.832183,"line":2,"i_lat":-6.186295,"station_name":"Gondangdia","station_id":"GDD","time":4,"is_transit":false},{"line":0,"distance":1750,"station_id":"CKI","transit":false,"i_lat":-6.198556,"station_name":"Cikini","is_transit":false,"i_long":106.840169,"time":3}],[{"transit":false,"i_lat":-6.262938,"line":1,"station_name":"Metland Telaga Murni","station_id":"TLM","time":0,"i_long":107.093313,"is_transit":false,"distance":0},{"distance":2800,"station_name":"Cibitung","transit":false,"station_id":"CIT","time":2,"is_transit":false,"i_lat":-6.261877,"i_long":107.083084,"line":0},{"is_transit":false,"station_id":"TB","distance":3420,"i_lat":-6.258864,"station_name":"Tambun","transit":false,"i_long":107.055722,"line":1,"time":3},{"line":0,"i_long":107.016735,"station_id":"BKST","station_name":"Bekasi Timur","i_lat":-6.248029,"distance":4460,"transit":false,"is_transit":false,"time":7},{"time":2,"i_long":106.997013,"i_lat":-6.236616,"is_transit":false,"station_name":"Bekasi","distance":2368,"transit":false,"station_id":"BKS","line":0},{"time":4,"distance":2520,"transit":false,"is_transit":false,"station_id":"KRI","i_long":106.977657,"line":1,"i_lat":-6.224515,"station_name":"Kranji"},{"i_long":106.951283,"station_id":"CUK","line":0,"transit":false,"station_name":"Cakung","time":3,"i_lat":-6.219053,"is_transit":false,"distance":3097},{"station_name":"Klenderbaru","is_transit":false,"time":8,"transit":false,"i_lat":-6.217455,"distance":1385,"line":1,"station_id":"KLDB","i_long":106.939679},{"station_id":"BUA","time":1,"line":0,"is_transit":false,"station_name":"Buaran","transit":false,"i_lat":-6.215568,"distance":1305,"i_long":106.922662},{"station_name":"Klender","transit":false,"is_transit":false,"i_long":106.899548,"time":2,"station_id":"KLD","distance":3100,"i_lat":-6.2135,"line":1},{"i_long":106.86807400000001,"station_id":"JNG","time":3,"distance":3395,"line":0,"station_name":"Jatinegara","is_transit":true,"i_lat":-6.215091,"transit":true},{"i_long":106.861737,"time":2,"station_name":"Pondok Jati","transit":false,"i_lat":-6.209188,"line":11,"station_id":"POK","distance":1236,"is_transit":false},{"line":11,"time":2,"i_lat":-6.193792,"station_id":"KMT","is_transit":false,"station_name":"Kramat","distance":1829,"transit":false,"i_long":106.855437},{"is_transit":false,"i_lat":-6.185975,"transit":false,"distance":973,"station_name":"Gang Sentiong","station_id":"GST","i_long":106.850107,"line":11,"time":1},{"distance":1567,"transit":false,"time":8,"station_id":"PSE","i_lat":-6.174784,"station_name":"Pasar Senen","i_long":106.84368,"line":11,"is_transit":false},{"line":11,"transit":false,"i_lat":-6.161728,"is_transit":false,"distance":1436,"station_id":"KMO","i_long":106.839204,"station_name":"Kemayoran","time":4},{"time":5,"is_transit":false,"station_name":"Rajawali","transit":false,"i_long":106.836569,"i_lat":-6.14505,"distance":1901,"line":11,"station_id":"RJW"},{"station_name":"Kampung Bandan","i_long":106.826365,"transit":true,"line":0,"station_id":"KPB","i_lat":-6.132549,"distance":1444,"time":3,"is_transit":true},{"line":0,"station_id":"AK","time":9,"station_name":"Angke","distance":4102,"transit":false,"i_long":106.79867,"i_lat":-6.144674,"is_transit":false},{"time":4,"transit":true,"distance":1230,"i_long":106.800832,"station_id":"DU","i_lat":-6.155215,"is_transit":true,"station_name":"Duri","line":1},{"station_id":"THB","is_transit":true,"station_name":"Tanah Abang","line":1,"time":8,"i_long":106.811091,"i_lat":-6.185545,"distance":3632,"transit":false},{"line":1,"distance":2029,"transit":false,"time":5,"i_long":106.816351,"station_id":"KAT","is_transit":false,"i_lat":-6.20132,"station_name":"Karet"},{"i_long":106.819881,"time":1,"line":1,"i_lat":-6.201433,"station_name":"Sudirman Baru","station_id":"SUDB","distance":471,"transit":false,"is_transit":false},{"station_name":"Sudirman","time":1,"i_lat":-6.202263,"distance":280,"transit":false,"i_long":106.822649,"line":1,"is_transit":false,"station_id":"SUD"},{"time":4,"i_long":106.84912,"is_transit":true,"station_name":"Manggarai","transit":true,"station_id":"MRI","distance":3186,"i_lat":-6.209883,"line":0},{"time":4,"i_lat":-6.198556,"station_id":"CKI","is_transit":false,"transit":false,"station_name":"Cikini","distance":1590,"i_long":106.840169,"line":0}],[{"transit":false,"line":1,"is_transit":false,"station_id":"TLM","i_lat":-6.262938,"i_long":107.093313,"station_name":"Metland Telaga Murni","time":0,"distance":0},{"is_transit":false,"station_id":"CIT","i_long":107.083084,"line":0,"time":2,"transit":false,"station_name":"Cibitung","i_lat":-6.261877,"distance":2800},{"i_long":107.055722,"transit":false,"station_id":"TB","station_name":"Tambun","line":1,"time":3,"is_transit":false,"distance":3420,"i_lat":-6.258864},{"is_transit":false,"station_name":"Bekasi Timur","transit":false,"i_lat":-6.248029,"time":7,"line":0,"station_id":"BKST","distance":4460,"i_long":107.016735},{"station_id":"BKS","is_transit":false,"distance":2368,"line":0,"station_name":"Bekasi","transit":false,"time":2,"i_lat":-6.236616,"i_long":106.997013},{"station_name":"Kranji","i_long":106.977657,"distance":2520,"line":1,"time":4,"station_id":"KRI","transit":false,"is_transit":false,"i_lat":-6.224515},{"station_name":"Cakung","i_lat":-6.219053,"station_id":"CUK","distance":3097,"transit":false,"time":3,"line":0,"i_long":106.951283,"is_transit":false},{"i_lat":-6.217455,"transit":false,"time":8,"is_transit":false,"i_long":106.939679,"station_id":"KLDB","distance":1385,"station_name":"Klenderbaru","line":1},{"transit":false,"i_long":106.922662,"line":0,"station_name":"Buaran","station_id":"BUA","distance":1305,"i_lat":-6.215568,"time":1,"is_transit":false},{"station_name":"Klender","distance":3100,"is_transit":false,"station_id":"KLD","transit":false,"i_lat":-6.2135,"time":2,"i_long":106.899548,"line":1},{"transit":false,"i_lat":-6.215091,"line":0,"time":3,"station_id":"JNG","station_name":"Jatinegara","distance":3395,"is_transit":true,"i_long":106.86807400000001},{"station_id":"MTR","i_lat":-6.212485,"i_long":106.858896,"is_transit":false,"transit":false,"station_name":"Matraman","distance":1377,"line":1,"time":2},{"is_transit":true,"distance":1275,"station_id":"MRI","transit":false,"station_name":"Manggarai","time":2,"i_lat":-6.209883,"i_long":106.84912,"line":0},{"station_id":"SUD","is_transit":false,"time":4,"transit":false,"line":1,"station_name":"Sudirman","distance":3186,"i_lat":-6.202263,"i_long":106.822649},{"is_transit":false,"time":1,"station_id":"SUDB","transit":false,"station_name":"Sudirman Baru","distance":280,"line":1,"i_lat":-6.201433,"i_long":106.819881},{"is_transit":false,"time":1,"i_long":106.816351,"i_lat":-6.20132,"line":1,"transit":false,"distance":471,"station_name":"Karet","station_id":"KAT"},{"i_long":106.811091,"time":5,"distance":2029,"is_transit":true,"station_name":"Tanah Abang","i_lat":-6.185545,"line":1,"transit":false,"station_id":"THB"},{"time":8,"line":1,"i_lat":-6.155215,"distance":3632,"transit":true,"station_name":"Duri","is_transit":true,"i_long":106.800832,"station_id":"DU"},{"line":0,"distance":1230,"i_lat":-6.144674,"is_transit":false,"station_name":"Angke","station_id":"AK","i_long":106.79867,"time":4,"transit":false},{"station_name":"Kampung Bandan","time":9,"line":0,"is_transit":true,"i_lat":-6.132549,"transit":false,"i_long":106.826365,"station_id":"KPB","distance":4102},{"distance":1364,"transit":true,"i_lat":-6.137569,"line":0,"time":3,"is_transit":true,"i_long":106.812439,"station_id":"JAKK","station_name":"Jakarta Kota"},{"i_long":106.820901,"station_id":"JAY","station_name":"Jayakarta","time":4,"distance":1264,"line":7,"transit":false,"i_lat":-6.141205,"is_transit":false},{"transit":false,"station_name":"Manggabesar","line":2,"is_transit":false,"station_id":"MGB","i_lat":-6.149769,"time":2,"distance":1080,"i_long":106.82482},{"station_id":"SW","is_transit":false,"distance":906,"line":2,"station_name":"Sawah Besar","i_lat":-6.160725,"transit":false,"time":2,"i_long":106.827103},{"transit":false,"i_long":106.828284,"line":2,"i_lat":-6.166716,"time":2,"is_transit":false,"distance":1149,"station_name":"Juanda","station_id":"JUA"},{"line":2,"i_lat":-6.186295,"transit":false,"station_id":"GDD","time":4,"station_name":"Gondangdia","distance":2015,"i_long":106.832183,"is_transit":false},{"time":3,"station_id":"CKI","distance":1750,"i_lat":-6.198556,"i_long":106.840169,"line":0,"transit":false,"is_transit":false,"station_name":"Cikini"}]]}