{"data":[[{"station_id":"TLM","transit":false,"i_lat":-6.262938,"is_transit":false,"distance":0,"station_name":"Metland Telaga Murni","line":1,"i_long":107.093313,"time":0},{"transit":false,"i_long":107.083084,"i_lat":-6.261877,"distance":2800,"station_id":"CIT","is_transit":false,"line":1,"station_name":"Cibitung","time":2},{"transit":false,"i_long":107.055722,"line":1,"distance":3420,"i_lat":-6.258864,"station_name":"Tambun","time":3,"is_transit":false,"station_id":"TB"},{"station_name":"Bekasi Timur","i_lat":-6.248029,"is_transit":false,"time":7,"station_id":"BKST","distance":4460,"line":1,"i_long":107.016735,"transit":false},{"i_lat":-6.236616,"is_transit":false,"distance":2368,"time":2,"station_id":"BKS","station_name":"Bekasi","transit":false,"i_long":106.997013,"line":1},{"station_id":"KRI","is_transit":false,"time":4,"distance":2520,"i_long":106.977657,"transit":false,"station_name":"Kranji","line":1,"i_lat":-6.224515},{"station_id":"CUK","transit":false,"distance":3097,"station_name":"Cakung","is_transit":false,"time":3,"i_long":106.951283,"i_lat":-6.219053,"line":1},{"distance":1385,"i_long":106.939679,"line":1,"is_transit":false,"transit":false,"i_lat":-6.217455,"time":8,"station_id":"KLDB","station_name":"Klenderbaru"},{"distance":1305,"i_long":106.922662,"is_transit":false,"transit":false,"station_name":"Buaran","time":1,"line":1,"station_id":"BUA","i_lat":-6.215568},{"distance":3100,"i_long":106.899548,"station_name":"Klender","i_lat":-6.2135,"station_id":"KLD","transit":false,"time":2,"line":1,"is_transit":false},{"station_name":"Jatinegara","station_id":"JNG","line":1,"time":3,"distance":3395,"i_lat":-6.215091,"i_long":106.86807400000001,"is_transit":false,"transit":false},{"line":1,"station_name":"Matraman","station_id":"MTR","time":2,"distance":1377,"i_long":106.858896,"transit":false,"is_transit":false,"i_lat":-6.212485},{"line":2,"station_name":"Manggarai","time":2,"transit":false,"station_id":"MRI","i_lat":-6.209883,"i_long":106.84912,"is_transit":false,"distance":1275},{"line":1,"distance":3186,"transit":false,"i_long":106.822649,"is_transit":false,"station_id":"SUD","time":4,"station_name":"Sudirman","i_lat":-6.202263},{"station_id":"SUDB","transit":false,"distance":280,"i_lat":-6.201433,"i_long":106.819881,"line":1,"is_transit":false,"station_name":"Sudirman Baru","time":1},{"time":1,"station_id":"KAT","station_name":"Karet","distance":471,"i_lat":-6.20132,"transit":false,"is_transit":false,"i_long":106.816351,"line":1},{"station_id":"THB","distance":2029,"i_lat":-6.185545,"is_transit":true,"transit":true,"time":5,"i_long":106.811091,"line":1,"station_name":"Tanah Abang"},{"transit":false,"distance":3191,"station_name":"Palmerah","i_lat":-6.207404,"time":6,"line":6,"is_transit":false,"station_id":"PLM","i_long":106.79689},{"station_id":"KBY","station_name":"Kebayoran","distance":3737,"time":7,"line":6,"i_long":106.780334,"transit":false,"i_lat":-6.237242,"is_transit":false},{"line":6,"i_long":106.74273,"is_transit":false,"station_name":"Pondokranji","station_id":"PDJ","time":8,"transit":false,"distance":6218,"i_lat":-6.276362},{"station_id":"JMU","is_transit":false,"line":6,"station_name":"Jurangmangu","distance":2179,"i_long":106.728916,"time":3,"i_lat":-6.288927,"transit":false},{"is_transit":false,"transit":false,"station_id":"SDM","time":4,"distance":1994,"i_long":106.712277,"station_name":"Sudimara","line":6,"i_lat":-6.296963},{"time":6,"i_lat":-6.314823,"transit":false,"line":6,"distance":4566,"i_long":106.675475,"station_name":"Rawa Buntu","station_id":"RU","is_transit":false},{"distance":2413,"line":6,"is_transit":false,"transit":false,"i_long":106.66566,"i_lat":-6.319871,"time":4,"station_name":"Serpong","station_id":"SRP"},{"is_transit":false,"station_id":"CSK","time":4,"line":3,"distance":1784,"transit":false,"i_long":106.640411,"i_lat":-6.32484,"station_name":"Cisauk"}],[{"i_lat":-6.262938,"i_long":107.093313,"is_transit":false,"station_name":"Metland Telaga Murni","station_id":"TLM","time":0,"distance":0,"line":1,"transit":false},{"time":2,"station_name":"Cibitung","line":1,"station_id":"CIT","transit":false,"i_lat":-6.261877,"i_long":107.083084,"distance":2800,"is_transit":false},{"i_long":107.055722,"i_lat":-6.258864,"time":3,"transit":false,"station_id":"TB","is_transit":false,"distance":3420,"line":1,"station_name":"Tambun"},{"is_transit":false,"line":1,"station_id":"BKST","station_name":"Bekasi Timur","time":7,"i_lat":-6.248029,"distance":4460,"transit":false,"i_long":107.016735},{"is_transit":false,"distance":2368,"time":2,"line":1,"station_name":"Bekasi","i_long":106.997013,"station_id":"BKS","transit":false,"i_lat":-6.236616},{"is_transit":false,"station_id":"KRI","line":1,"i_lat":-6.224515,"transit":false,"time":4,"distance":2520,"station_name":"Kranji","i_long":106.977657},{"station_name":"Cakung","station_id":"CUK","i_lat":-6.219053,"is_transit":false,"line":1,"time":3,"distance":3097,"i_long":106.951283,"transit":false},{"station_name":"Klenderbaru","transit":false,"station_id":"KLDB","distance":1385,"is_transit":false,"i_lat":-6.217455,"i_long":106.939679,"time":8,"line":1},{"transit":false,"station_name":"Buaran","distance":1305,"i_long":106.922662,"station_id":"BUA","i_lat":-6.215568,"line":1,"time":1,"is_transit":false},{"i_lat":-6.2135,"station_name":"Klender","is_transit":false,"time":2,"distance":3100,"i_long":106.899548,"line":1,"transit":false,"station_id":"KLD"},{"distance":3395,"i_lat":-6.215091,"station_name":"Jatinegara","station_id":"JNG","is_transit":true,"transit":true,"i_long":106.86807400000001,"time":3,"line":1},{"transit":false,"i_long":106.861737,"i_lat":-6.209188,"is_transit":false,"distance":1236,"time":2,"station_name":"Pondok Jati","station_id":"POK","line":11},{"station_name":"Kramat","time":2,"distance":1829,"station_id":"KMT","i_lat":-6.193792,"line":11,"transit":false,"i_long":106.855437,"is_transit":false},{"station_id":"GST","i_long":106.850107,"station_name":"Gang Sentiong","time":1,"transit":false,"is_transit":false,"distance":973,"line":11,"i_lat":-6.185975},{"is_transit":false,"i_long":106.84368,"station_id":"PSE","transit":false,"distance":1567,"i_lat":-6.174784,"line":11,"time":8,"station_name":"Pasar Senen"},{"transit":false,"time":4,"i_lat":-6.161728,"i_long":106.839204,"station_name":"Kemayoran","station_id":"KMO","distance":1436,"line":11,"is_transit":false},{"line":11,"station_name":"Rajawali","transit":false,"is_transit":false,"time":5,"distance":1901,"i_lat":-6.14505,"station_id":"RJW","i_long":106.836569},{"line":4,"station_name":"Kampung Bandan","i_long":106.826365,"station_id":"KPB","is_transit":true,"time":3,"transit":true,"distance":1444,"i_lat":-6.132549},{"transit":false,"station_name":"Angke","time":9,"distance":4102,"is_transit":false,"i_lat":-6.144674,"line":1,"station_id":"AK","i_long":106.79867},{"station_id":"DU","i_lat":-6.155215,"i_long":106.800832,"transit":false,"time":4,"station_name":"Duri","line":1,"is_transit":false,"distance":1230},{"i_long":106.811091,"line":1,"time":8,"i_lat":-6.185545,"station_id":"THB","distance":3632,"is_transit":true,"station_name":"Tanah Abang","transit":true},{"station_name":"Palmerah","time":6,"transit":false,"is_transit":false,"i_lat":-6.207404,"station_id":"PLM","distance":3191,"i_long":106.79689,"line":6},{"line":6,"station_name":"Kebayoran","i_long":106.780334,"transit":false,"i_lat":-6.237242,"distance":3737,"time":7,"station_id":"KBY","is_transit":false},{"station_id":"PDJ","line":6,"transit":false,"station_name":"Pondokranji","is_transit":false,"i_long":106.74273,"time":8,"distance":6218,"i_lat":-6.276362},{"distance":2179,"i_lat":-6.288927,"i_long":106.728916,"is_transit":false,"time":3,"station_name":"Jurangmangu","line":6,"station_id":"JMU","transit":false},{"transit":false,"station_name":"Sudimara","is_transit":false,"station_id":"SDM","time":4,"i_long":106.712277,"distance":1994,"i_lat":-6.296963,"line":6},{"time":6,"i_long":106.675475,"i_lat":-6.314823,"station_id":"RU","is_transit":false,"station_name":"Rawa Buntu","line":6,"distance":4566,"transit":false},{"i_long":106.66566,"station_id":"SRP","distance":2413,"line":6,"station_name":"Serpong","time":4,"transit":false,"i_lat":-6.319871,"is_transit":false},{"i_lat":-6.32484,"transit":false,"is_transit":false,"i_long":106.640411,"distance":1784,"station_id":"CSK","station_name":"Cisauk","time":4,"line":3}],[{"time":0,"i_lat":-6.262938,"is_transit":false,"distance":0,"station_id":"TLM","station_name":"Metland Telaga Murni","transit":false,"i_long":107.093313,"line":1},{"station_id":"CIT","is_transit":false,"station_name":"Cibitung","transit":false,"distance":2800,"line":1,"i_long":107.083084,"time":2,"i_lat":-6.261877},{"i_long":107.055722,"distance":3420,"time":3,"line":1,"transit":false,"station_id":"TB","i_lat":-6.258864,"is_transit":false,"station_name":"Tambun"},{"station_name":"Bekasi Timur","transit":false,"station_id":"BKST","line":1,"time":7,"i_long":107.016735,"is_transit":false,"distance":4460,"i_lat":-6.248029},{"time":2,"distance":2368,"i_long":106.997013,"is_transit":false,"station_name":"Bekasi","station_id":"BKS","line":1,"transit":false,"i_lat":-6.236616},{"station_name":"Kranji","time":4,"i_long":106.977657,"line":1,"distance":2520,"i_lat":-6.224515,"transit":false,"is_transit":false,"station_id":"KRI"},{"is_transit":false,"transit":false,"i_lat":-6.219053,"station_name":"Cakung","distance":3097,"line":1,"station_id":"CUK","time":3,"i_long":106.951283},{"time":8,"station_id":"KLDB","i_long":106.939679,"line":1,"station_name":"Klenderbaru","transit":false,"is_transit":false,"i_lat":-6.217455,"distance":1385},{"i_lat":-6.215568,"is_transit":false,"i_long":106.922662,"distance":1305,"line":1,"station_name":"Buaran","station_id":"BUA","transit":false,"time":1},{"distance":3100,"i_long":106.899548,"transit":false,"station_id":"KLD","time":2,"line":1,"station_name":"Klender","i_lat":-6.2135,"is_transit":false},{"transit":false,"is_transit":false,"station_id":"JNG","time":3,"distance":3395,"i_lat":-6.215091,"station_name":"Jatinegara","i_long":106.86807400000001,"line":1},{"station_name":"Matraman","i_long":106.858896,"time":2,"i_lat":-6.212485,"transit":false,"distance":1377,"is_transit":false,"line":1,"station_id":"MTR"},{"i_lat":-6.209883,"i_long":106.84912,"distance":1275,"station_id":"MRI","time":2,"line":2,"station_name":"Manggarai","transit":true,"is_transit":true},{"transit":false,"is_transit":false,"distance":1590,"i_long":106.840169,"line":2,"station_name":"Cikini","i_lat":-6.198556,"station_id":"CKI","time":4},{"station_id":"GDD","line":2,"distance":1750,"i_long":106.832183,"is_transit":false,"station_name":"Gondangdia","i_lat":-6.186295,"transit":false,"time":3},{"time":4,"i_lat":-6.166716,"transit":false,"distance":2015,"line":2,"is_transit":false,"station_id":"JUA","i_long":106.828284,"station_name":"Juanda"},{"station_id":"SW","is_transit":false,"time":2,"i_long":106.827103,"i_lat":-6.160725,"station_name":"Sawah Besar","line":2,"distance":1149,"transit":false},{"transit":false,"time":2,"station_name":"Manggabesar","station_id":"MGB","is_transit":false,"i_long":106.82482,"i_lat":-6.149769,"distance":906,"line":2},{"transit":false,"distance":1080,"station_name":"Jayakarta","time":2,"line":2,"i_long":106.820901,"station_id":"JAY","is_transit":false,"i_lat":-6.141205},{"time":4,"station_id":"JAKK","is_transit":true,"station_name":"Jakarta Kota","transit":true,"distance":1264,"i_lat":-6.137569,"i_long":106.812439,"line":2},{"is_transit":true,"time":3,"distance":1364,"i_lat":-6.132549,"i_long":106.826365,"line":4,"station_name":"Kampung Bandan","station_id":"KPB","transit":true},{"i_lat":-6.144674,"station_name":"Angke","i_long":106.79867,"line":1,"transit":false,"is_transit":false,"station_id":"AK","distance":4102,"time":9},{"line":1,"transit":false,"time":4,"station_id":"DU","i_long":106.800832,"i_lat":-6.155215,"station_name":"Duri","is_transit":false,"distance":1230},{"transit":true,"i_lat":-6.185545,"station_id":"THB","is_transit":true,"time":8,"station_name":"Tanah Abang","line":1,"distance":3632,"i_long":106.811091},{"distance":3191,"line":6,"i_lat":-6.207404,"i_long":106.79689,"time":6,"station_id":"PLM","transit":false,"is_transit":false,"station_name":"Palmerah"},{"station_id":"KBY","time":7,"i_lat":-6.237242,"transit":false,"is_transit":false,"station_name":"Kebayoran","i_long":106.780334,"line":6,"distance":3737},{"station_id":"PDJ","is_transit":false,"time":8,"i_long":106.74273,"distance":6218,"i_lat":-6.276362,"transit":false,"line":6,"station_name":"Pondokranji"},{"station_id":"JMU","is_transit":false,"distance":2179,"i_lat":-6.288927,"station_name":"Jurangmangu","i_long":106.728916,"transit":false,"time":3,"line":6},{"station_name":"Sudimara","is_transit":false,"time":4,"transit":false,"i_long":106.712277,"line":6,"i_lat":-6.296963,"station_id":"SDM","distance":1994},{"is_transit":false,"distance":4566,"line":6,"i_lat":-6.314823,"station_name":"Rawa Buntu","transit":false,"i_long":106.675475,"time":6,"station_id":"RU"},{"line":6,"distance":2413,"transit":false,"station_id":"SRP","time":4,"i_lat":-6.319871,"i_long":106.66566,"is_transit":false,"station_name":"Serpong"},{"i_long":106.640411,"station_name":"Cisauk","is_transit":false,"station_id":"CSK","i_lat":-6.32484,"distance":1784,"line":3,"time":4,"transit":false}],[{"station_name":"Metland Telaga Murni","line":1,"transit":false,"station_id":"TLM","i_lat":-6.262938,"is_transit":false,"time":0,"distance":0,"i_long":107.093313},{"station_id":"CIT","is_transit":false,"transit":false,"time":2,"distance":2800,"i_lat":-6.261877,"station_name":"Cibitung","i_long":107.083084,"line":1},{"i_lat":-6.258864,"is_transit":false,"time":3,"transit":false,"i_long":107.055722,"station_id":"TB","line":1,"distance":3420,"station_name":"Tambun"},{"transit":false,"time":7,"station_id":"BKST","is_transit":false,"i_lat":-6.248029,"i_long":107.016735,"distance":4460,"line":1,"station_name":"Bekasi Timur"},{"line":1,"station_id":"BKS","station_name":"Bekasi","distance":2368,"i_lat":-6.236616,"time":2,"i_long":106.997013,"transit":false,"is_transit":false},{"i_long":106.977657,"transit":false,"line":1,"distance":2520,"is_transit":false,"i_lat":-6.224515,"station_name":"Kranji","station_id":"KRI","time":4},{"station_name":"Cakung","transit":false,"time":3,"i_long":106.951283,"is_transit":false,"line":1,"station_id":"CUK","distance":3097,"i_lat":-6.219053},{"distance":1385,"station_id":"KLDB","i_lat":-6.217455,"i_long":106.939679,"time":8,"line":1,"station_name":"Klenderbaru","transit":false,"is_transit":false},{"time":1,"station_name":"Buaran","line":1,"station_id":"BUA","is_transit":false,"i_long":106.922662,"distance":1305,"transit":false,"i_lat":-6.215568},{"station_name":"Klender","transit":false,"line":1,"distance":3100,"time":2,"i_long":106.899548,"station_id":"KLD","is_transit":false,"i_lat":-6.2135},{"time":3,"is_transit":true,"i_lat":-6.215091,"i_long":106.86807400000001,"line":1,"station_id":"JNG","distance":3395,"station_name":"Jatinegara","transit":true},{"transit":false,"station_id":"POK","station_name":"Pondok Jati","i_long":106.861737,"distance":1236,"line":11,"i_lat":-6.209188,"is_transit":false,"time":2},{"station_id":"KMT","time":2,"distance":1829,"i_lat":-6.193792,"station_name":"Kramat","transit":false,"i_long":106.855437,"is_transit":false,"line":11},{"station_name":"Gang Sentiong","line":11,"distance":973,"time":1,"transit":false,"station_id":"GST","i_lat":-6.185975,"i_long":106.850107,"is_transit":false},{"time":8,"is_transit":false,"station_id":"PSE","station_name":"Pasar Senen","i_long":106.84368,"line":11,"distance":1567,"i_lat":-6.174784,"transit":false},{"i_lat":-6.161728,"transit":false,"is_transit":false,"time":4,"station_name":"Kemayoran","station_id":"KMO","i_long":106.839204,"line":11,"distance":1436},{"distance":1901,"line":11,"station_id":"RJW","station_name":"Rajawali","transit":false,"i_lat":-6.14505,"time":5,"is_transit":false,"i_long":106.836569},{"distance":1444,"station_name":"Kampung Bandan","i_lat":-6.132549,"station_id":"KPB","i_long":106.826365,"is_transit":true,"transit":true,"line":4,"time":3},{"distance":1364,"transit":true,"line":2,"i_lat":-6.137569,"time":3,"station_name":"Jakarta Kota","station_id":"JAKK","i_long":106.812439,"is_transit":true},{"time":4,"station_name":"Jayakarta","distance":1264,"i_lat":-6.141205,"station_id":"JAY","i_long":106.820901,"line":2,"is_transit":false,"transit":false},{"i_lat":-6.149769,"transit":false,"station_id":"MGB","line":2,"is_transit":false,"distance":1080,"i_long":106.82482,"station_name":"Manggabesar","time":2},{"time":2,"line":2,"transit":false,"distance":906,"i_lat":-6.160725,"i_long":106.827103,"station_id":"SW","is_transit":false,"station_name":"Sawah Besar"},{"distance":1149,"transit":false,"station_id":"JUA","station_name":"Juanda","i_long":106.828284,"is_transit":false,"i_lat":-6.166716,"time":2,"line":2},{"i_long":106.832183,"station_id":"GDD","line":2,"i_lat":-6.186295,"transit":false,"is_transit":false,"time":4,"distance":2015,"station_name":"Gondangdia"},{"station_name":"Cikini","i_long":106.840169,"line":2,"distance":1750,"transit":false,"is_transit":false,"station_id":"CKI","time":3,"i_lat":-6.198556},{"i_long":106.84912,"station_id":"MRI","station_name":"Manggarai","i_lat":-6.209883,"line":2,"is_transit":true,"distance":1590,"time":4,"transit":true},{"distance":3186,"time":4,"i_lat":-6.202263,"station_id":"SUD","i_long":106.822649,"line":1,"is_transit":false,"transit":false,"station_name":"Sudirman"},{"is_transit":false,"station_id":"SUDB","i_lat":-6.201433,"line":1,"station_name":"Sudirman Baru","time":1,"i_long":106.819881,"transit":false,"distance":280},{"transit":false,"i_lat":-6.20132,"station_name":"Karet","is_transit":false,"station_id":"KAT","time":1,"i_long":106.816351,"line":1,"distance":471},{"line":1,"station_name":"Tanah Abang","distance":2029,"time":5,"transit":true,"i_lat":-6.185545,"is_transit":true,"i_long":106.811091,"station_id":"THB"},{"time":6,"station_id":"PLM","is_transit":false,"i_lat":-6.207404,"line":6,"transit":false,"station_name":"Palmerah","distance":3191,"i_long":106.79689},{"distance":3737,"time":7,"station_id":"KBY","station_name":"Kebayoran","i_long":106.780334,"i_lat":-6.237242,"line":6,"is_transit":false,"transit":false},{"i_long":106.74273,"line":6,"is_transit":false,"distance":6218,"station_name":"Pondokranji","i_lat":-6.276362,"station_id":"PDJ","transit":false,"time":8},{"line":6,"station_name":"Jurangmangu","transit":false,"i_long":106.728916,"time":3,"station_id":"JMU","i_lat":-6.288927,"is_transit":false,"distance":2179},{"time":4,"transit":false,"i_lat":-6.296963,"line":6,"i_long":106.712277,"station_name":"Sudimara","distance":1994,"is_transit":false,"station_id":"SDM"},{"station_name":"Rawa Buntu","i_lat":-6.314823,"station_id":"RU","transit":false,"i_long":106.675475,"is_transit":false,"distance":4566,"time":6,"line":6},{"transit":false,"distance":2413,"i_long":106.66566,"i_lat":-6.319871,"station_id":"SRP","time":4,"station_name":"Serpong","line":6,"is_transit":false},{"station_name":"Cisauk","distance":1784,"transit":false,"line":3,"time":4,"is_transit":false,"i_lat":-6.32484,"i_long":106.640411,"station_id":"CSK"}]]}