{"data":[[{"transit":false,"i_lat":-6.262938,"i_long":107.093313,"time":0,"line":1,"station_id":"TLM","distance":0,"station_name":"Metland Telaga Murni","is_transit":false},{"transit":false,"is_transit":false,"line":1,"station_name":"Cibitung","station_id":"CIT","distance":2800,"i_long":107.083084,"i_lat":-6.261877,"time":2},{"time":3,"station_name":"Tambun","distance":3420,"i_long":107.055722,"is_transit":false,"transit":false,"station_id":"TB","i_lat":-6.258864,"line":1},{"i_lat":-6.248029,"station_id":"BKST","line":1,"transit":false,"i_long":107.016735,"is_transit":false,"station_name":"Bekasi Timur","time":7,"distance":4460},{"is_transit":false,"station_name":"Bekasi","distance":2368,"transit":false,"line":1,"time":2,"i_lat":-6.236616,"i_long":106.997013,"station_id":"BKS"},{"transit":false,"distance":2520,"i_lat":-6.224515,"line":1,"i_long":106.977657,"station_id":"KRI","station_name":"Kranji","is_transit":false,"time":4},{"station_name":"Cakung","i_lat":-6.219053,"i_long":106.951283,"station_id":"CUK","transit":false,"line":1,"is_transit":false,"time":3,"distance":3097},{"distance":1385,"is_transit":false,"station_name":"Klenderbaru","transit":false,"time":8,"line":1,"station_id":"KLDB","i_lat":-6.217455,"i_long":106.939679},{"i_lat":-6.215568,"is_transit":false,"i_long":106.922662,"station_id":"BUA","transit":false,"line":1,"distance":1305,"station_name":"Buaran","time":1},{"transit":false,"is_transit":false,"line":1,"i_long":106.899548,"i_lat":-6.2135,"station_id":"KLD","time":2,"distance":3100,"station_name":"Klender"},{"i_lat":-6.215091,"i_long":106.86807400000001,"time":3,"is_transit":false,"line":1,"transit":false,"station_name":"Jatinegara","distance":3395,"station_id":"JNG"},{"line":1,"is_transit":false,"time":2,"distance":1377,"transit":false,"i_long":106.858896,"i_lat":-6.212485,"station_name":"Matraman","station_id":"MTR"},{"time":2,"line":2,"i_long":106.84912,"station_name":"Manggarai","i_lat":-6.209883,"is_transit":false,"station_id":"MRI","transit":false,"distance":1275},{"station_name":"Sudirman","transit":false,"distance":3186,"line":1,"station_id":"SUD","i_long":106.822649,"is_transit":false,"i_lat":-6.202263,"time":4},{"is_transit":false,"i_lat":-6.201433,"i_long":106.819881,"station_id":"SUDB","line":1,"transit":false,"time":1,"distance":280,"station_name":"Sudirman Baru"},{"i_lat":-6.20132,"station_id":"KAT","is_transit":false,"station_name":"Karet","line":1,"distance":471,"transit":false,"time":1,"i_long":106.816351},{"station_id":"THB","i_lat":-6.185545,"line":1,"transit":true,"time":5,"distance":2029,"i_long":106.811091,"station_name":"Tanah Abang","is_transit":true},{"line":6,"distance":3191,"i_long":106.79689,"i_lat":-6.207404,"station_id":"PLM","transit":false,"is_transit":false,"time":6,"station_name":"Palmerah"}],[{"station_name":"Metland Telaga Murni","distance":0,"station_id":"TLM","transit":false,"time":0,"is_transit":false,"i_long":107.093313,"i_lat":-6.262938,"line":1},{"i_lat":-6.261877,"line":1,"station_id":"CIT","is_transit":false,"distance":2800,"time":2,"transit":false,"station_name":"Cibitung","i_long":107.083084},{"time":3,"i_long":107.055722,"transit":false,"i_lat":-6.258864,"station_name":"Tambun","is_transit":false,"station_id":"TB","distance":3420,"line":1},{"i_lat":-6.248029,"distance":4460,"line":1,"station_id":"BKST","station_name":"Bekasi Timur","is_transit":false,"time":7,"i_long":107.016735,"transit":false},{"distance":2368,"station_id":"BKS","is_transit":false,"transit":false,"time":2,"i_lat":-6.236616,"station_name":"Bekasi","i_long":106.997013,"line":1},{"transit":false,"station_name":"Kranji","i_lat":-6.224515,"time":4,"line":1,"distance":2520,"station_id":"KRI","i_long":106.977657,"is_transit":false},{"station_name":"Cakung","time":3,"transit":false,"distance":3097,"line":1,"i_lat":-6.219053,"station_id":"CUK","i_long":106.951283,"is_transit":false},{"line":1,"i_lat":-6.217455,"i_long":106.939679,"distance":1385,"is_transit":false,"transit":false,"station_id":"KLDB","time":8,"station_name":"Klenderbaru"},{"line":1,"time":1,"i_long":106.922662,"station_id":"BUA","transit":false,"i_lat":-6.215568,"is_transit":false,"distance":1305,"station_name":"Buaran"},{"distance":3100,"i_long":106.899548,"station_name":"Klender","time":2,"i_lat":-6.2135,"line":1,"transit":false,"station_id":"KLD","is_transit":false},{"time":3,"i_lat":-6.215091,"line":1,"station_id":"JNG","i_long":106.86807400000001,"is_transit":true,"station_name":"Jatinegara","distance":3395,"transit":true},{"is_transit":false,"time":2,"distance":1236,"station_name":"Pondok Jati","i_lat":-6.209188,"i_long":106.861737,"line":11,"station_id":"POK","transit":false},{"station_name":"Kramat","station_id":"KMT","is_transit":false,"time":2,"i_lat":-6.193792,"transit":false,"i_long":106.855437,"distance":1829,"line":11},{"i_lat":-6.185975,"distance":973,"i_long":106.850107,"is_transit":false,"transit":false,"time":1,"station_name":"Gang Sentiong","station_id":"GST","line":11},{"i_lat":-6.174784,"time":8,"transit":false,"station_name":"Pasar Senen","is_transit":false,"distance":1567,"i_long":106.84368,"line":11,"station_id":"PSE"},{"i_long":106.839204,"station_name":"Kemayoran","distance":1436,"station_id":"KMO","time":4,"is_transit":false,"transit":false,"i_lat":-6.161728,"line":11},{"station_id":"RJW","station_name":"Rajawali","time":5,"i_lat":-6.14505,"transit":false,"i_long":106.836569,"line":11,"distance":1901,"is_transit":false},{"distance":1444,"i_long":106.826365,"i_lat":-6.132549,"transit":true,"is_transit":true,"station_name":"Kampung Bandan","time":3,"station_id":"KPB","line":4},{"transit":false,"time":9,"i_lat":-6.144674,"line":1,"i_long":106.79867,"is_transit":false,"distance":4102,"station_name":"Angke","station_id":"AK"},{"is_transit":false,"station_name":"Duri","station_id":"DU","i_long":106.800832,"transit":false,"time":4,"distance":1230,"line":1,"i_lat":-6.155215},{"station_id":"THB","is_transit":true,"transit":true,"station_name":"Tanah Abang","time":8,"distance":3632,"i_lat":-6.185545,"i_long":106.811091,"line":1},{"i_long":106.79689,"station_name":"Palmerah","is_transit":false,"time":6,"i_lat":-6.207404,"distance":3191,"line":6,"station_id":"PLM","transit":false}],[{"distance":0,"station_name":"Metland Telaga Murni","i_lat":-6.262938,"i_long":107.093313,"line":1,"time":0,"is_transit":false,"station_id":"TLM","transit":false},{"station_id":"CIT","line":1,"transit":false,"distance":2800,"station_name":"Cibitung","time":2,"is_transit":false,"i_lat":-6.261877,"i_long":107.083084},{"time":3,"station_name":"Tambun","i_long":107.055722,"is_transit":false,"transit":false,"station_id":"TB","i_lat":-6.258864,"distance":3420,"line":1},{"transit":false,"i_lat":-6.248029,"i_long":107.016735,"line":1,"is_transit":false,"station_name":"Bekasi Timur","station_id":"BKST","time":7,"distance":4460},{"transit":false,"station_name":"Bekasi","time":2,"distance":2368,"i_lat":-6.236616,"line":1,"is_transit":false,"i_long":106.997013,"station_id":"BKS"},{"station_name":"Kranji","station_id":"KRI","is_transit":false,"distance":2520,"transit":false,"i_lat":-6.224515,"i_long":106.977657,"line":1,"time":4},{"distance":3097,"transit":false,"i_lat":-6.219053,"station_name":"Cakung","station_id":"CUK","time":3,"line":1,"i_long":106.951283,"is_transit":false},{"line":1,"station_id":"KLDB","transit":false,"is_transit":false,"time":8,"distance":1385,"i_lat":-6.217455,"station_name":"Klenderbaru","i_long":106.939679},{"i_lat":-6.215568,"i_long":106.922662,"line":1,"transit":false,"station_name":"Buaran","station_id":"BUA","is_transit":false,"distance":1305,"time":1},{"station_name":"Klender","i_lat":-6.2135,"line":1,"station_id":"KLD","distance":3100,"time":2,"i_long":106.899548,"transit":false,"is_transit":false},{"station_name":"Jatinegara","transit":false,"station_id":"JNG","i_lat":-6.215091,"line":1,"is_transit":false,"time":3,"i_long":106.86807400000001,"distance":3395},{"i_long":106.858896,"transit":false,"line":1,"station_name":"Matraman","i_lat":-6.212485,"time":2,"distance":1377,"is_transit":false,"station_id":"MTR"},{"line":2,"station_name":"Manggarai","transit":true,"distance":1275,"is_transit":true,"i_long":106.84912,"time":2,"i_lat":-6.209883,"station_id":"MRI"},{"station_id":"CKI","is_transit":false,"i_lat":-6.198556,"distance":1590,"station_name":"Cikini","transit":false,"line":2,"i_long":106.840169,"time":4},{"station_name":"Gondangdia","transit":false,"i_long":106.832183,"distance":1750,"i_lat":-6.186295,"time":3,"line":2,"station_id":"GDD","is_transit":false},{"distance":2015,"is_transit":false,"line":2,"i_long":106.828284,"station_id":"JUA","station_name":"Juanda","time":4,"transit":false,"i_lat":-6.166716},{"i_lat":-6.160725,"is_transit":false,"distance":1149,"transit":false,"station_name":"Sawah Besar","time":2,"line":2,"station_id":"SW","i_long":106.827103},{"station_name":"Manggabesar","transit":false,"line":2,"distance":906,"i_lat":-6.149769,"i_long":106.82482,"is_transit":false,"time":2,"station_id":"MGB"},{"is_transit":false,"station_name":"Jayakarta","transit":false,"i_lat":-6.141205,"distance":1080,"time":2,"i_long":106.820901,"line":2,"station_id":"JAY"},{"time":4,"distance":1264,"transit":true,"is_transit":true,"line":2,"station_name":"Jakarta Kota","i_lat":-6.137569,"i_long":106.812439,"station_id":"JAKK"},{"transit":true,"i_lat":-6.132549,"line":4,"i_long":106.826365,"station_id":"KPB","is_transit":true,"time":3,"distance":1364,"station_name":"Kampung Bandan"},{"is_transit":false,"i_long":106.79867,"station_id":"AK","time":9,"i_lat":-6.144674,"transit":false,"station_name":"Angke","line":1,"distance":4102},{"i_lat":-6.155215,"distance":1230,"station_id":"DU","station_name":"Duri","time":4,"i_long":106.800832,"is_transit":false,"line":1,"transit":false},{"i_lat":-6.185545,"is_transit":true,"time":8,"i_long":106.811091,"station_name":"Tanah Abang","distance":3632,"station_id":"THB","line":1,"transit":true},{"station_name":"Palmerah","transit":false,"station_id":"PLM","i_lat":-6.207404,"time":6,"is_transit":false,"distance":3191,"i_long":106.79689,"line":6}],[{"station_name":"Metland Telaga Murni","station_id":"TLM","time":0,"i_lat":-6.262938,"line":1,"transit":false,"is_transit":false,"i_long":107.093313,"distance":0},{"time":2,"station_id":"CIT","distance":2800,"line":1,"station_name":"Cibitung","is_transit":false,"i_long":107.083084,"transit":false,"i_lat":-6.261877},{"i_long":107.055722,"time":3,"line":1,"station_name":"Tambun","transit":false,"is_transit":false,"distance":3420,"station_id":"TB","i_lat":-6.258864},{"i_lat":-6.248029,"time":7,"i_long":107.016735,"line":1,"distance":4460,"transit":false,"station_id":"BKST","station_name":"Bekasi Timur","is_transit":false},{"distance":2368,"line":1,"i_long":106.997013,"is_transit":false,"time":2,"transit":false,"i_lat":-6.236616,"station_name":"Bekasi","station_id":"BKS"},{"is_transit":false,"transit":false,"distance":2520,"i_lat":-6.224515,"i_long":106.977657,"station_id":"KRI","time":4,"station_name":"Kranji","line":1},{"station_name":"Cakung","station_id":"CUK","distance":3097,"line":1,"transit":false,"i_long":106.951283,"time":3,"i_lat":-6.219053,"is_transit":false},{"line":1,"transit":false,"station_id":"KLDB","is_transit":false,"distance":1385,"i_long":106.939679,"i_lat":-6.217455,"time":8,"station_name":"Klenderbaru"},{"i_lat":-6.215568,"line":1,"station_id":"BUA","station_name":"Buaran","transit":false,"is_transit":false,"time":1,"distance":1305,"i_long":106.922662},{"distance":3100,"is_transit":false,"i_long":106.899548,"transit":false,"i_lat":-6.2135,"line":1,"time":2,"station_name":"Klender","station_id":"KLD"},{"distance":3395,"station_id":"JNG","is_transit":true,"transit":true,"time":3,"i_lat":-6.215091,"i_long":106.86807400000001,"line":1,"station_name":"Jatinegara"},{"is_transit":false,"i_long":106.861737,"station_name":"Pondok Jati","time":2,"distance":1236,"station_id":"POK","i_lat":-6.209188,"transit":false,"line":11},{"i_long":106.855437,"line":11,"time":2,"distance":1829,"transit":false,"station_name":"Kramat","station_id":"KMT","is_transit":false,"i_lat":-6.193792},{"is_transit":false,"transit":false,"station_id":"GST","station_name":"Gang Sentiong","time":1,"distance":973,"i_long":106.850107,"i_lat":-6.185975,"line":11},{"transit":false,"is_transit":false,"distance":1567,"station_name":"Pasar Senen","i_lat":-6.174784,"line":11,"i_long":106.84368,"time":8,"station_id":"PSE"},{"time":4,"i_long":106.839204,"is_transit":false,"line":11,"station_id":"KMO","transit":false,"station_name":"Kemayoran","distance":1436,"i_lat":-6.161728},{"distance":1901,"transit":false,"i_long":106.836569,"station_name":"Rajawali","is_transit":false,"i_lat":-6.14505,"station_id":"RJW","time":5,"line":11},{"i_long":106.826365,"line":4,"is_transit":true,"time":3,"station_name":"Kampung Bandan","distance":1444,"transit":true,"i_lat":-6.132549,"station_id":"KPB"},{"line":2,"transit":true,"distance":1364,"station_id":"JAKK","station_name":"Jakarta Kota","is_transit":true,"time":3,"i_long":106.812439,"i_lat":-6.137569},{"i_long":106.820901,"transit":false,"is_transit":false,"line":2,"time":4,"station_name":"Jayakarta","i_lat":-6.141205,"distance":1264,"station_id":"JAY"},{"time":2,"i_long":106.82482,"i_lat":-6.149769,"distance":1080,"line":2,"station_name":"Manggabesar","transit":false,"station_id":"MGB","is_transit":false},{"station_id":"SW","station_name":"Sawah Besar","i_long":106.827103,"is_transit":false,"distance":906,"transit":false,"line":2,"i_lat":-6.160725,"time":2},{"is_transit":false,"station_id":"JUA","time":2,"transit":false,"station_name":"Juanda","i_long":106.828284,"i_lat":-6.166716,"distance":1149,"line":2},{"time":4,"i_long":106.832183,"transit":false,"line":2,"station_id":"GDD","i_lat":-6.186295,"station_name":"Gondangdia","is_transit":false,"distance":2015},{"station_name":"Cikini","distance":1750,"time":3,"line":2,"station_id":"CKI","transit":false,"i_lat":-6.198556,"is_transit":false,"i_long":106.840169},{"station_id":"MRI","i_lat":-6.209883,"transit":true,"station_name":"Manggarai","is_transit":true,"time":4,"i_long":106.84912,"line":2,"distance":1590},{"distance":3186,"i_long":106.822649,"station_id":"SUD","is_transit":false,"i_lat":-6.202263,"transit":false,"station_name":"Sudirman","time":4,"line":1},{"i_lat":-6.201433,"time":1,"transit":false,"station_name":"Sudirman Baru","distance":280,"station_id":"SUDB","i_long":106.819881,"line":1,"is_transit":false},{"i_lat":-6.20132,"station_id":"KAT","transit":false,"station_name":"Karet","is_transit":false,"i_long":106.816351,"time":1,"line":1,"distance":471},{"line":1,"time":5,"station_id":"THB","distance":2029,"i_lat":-6.185545,"i_long":106.811091,"station_name":"Tanah Abang","is_transit":true,"transit":true},{"station_name":"Palmerah","time":6,"transit":false,"distance":3191,"line":6,"i_long":106.79689,"is_transit":false,"station_id":"PLM","i_lat":-6.207404}]]}