{"data":[[{"station_name":"Metland Telaga Murni","i_long":107.093313,"transit":false,"is_transit":false,"time":0,"distance":0,"i_lat":-6.262938,"line":1,"station_id":"TLM"},{"is_transit":false,"time":2,"distance":2800,"station_name":"Cibitung","line":1,"i_long":107.083084,"station_id":"CIT","i_lat":-6.261877,"transit":false},{"line":1,"distance":3420,"transit":false,"station_id":"TB","is_transit":false,"time":3,"i_lat":-6.258864,"i_long":107.055722,"station_name":"Tambun"},{"transit":false,"station_name":"Bekasi Timur","i_long":107.016735,"line":1,"time":7,"i_lat":-6.248029,"distance":4460,"station_id":"BKST","is_transit":false},{"station_name":"Bekasi","time":2,"is_transit":false,"i_lat":-6.236616,"i_long":106.997013,"line":1,"distance":2368,"station_id":"BKS","transit":false},{"line":1,"distance":2520,"is_transit":false,"i_lat":-6.224515,"i_long":106.977657,"station_id":"KRI","time":4,"transit":false,"station_name":"Kranji"},{"transit":false,"distance":3097,"i_lat":-6.219053,"i_long":106.951283,"is_transit":false,"station_name":"Cakung","time":3,"line":1,"station_id":"CUK"},{"time":8,"distance":1385,"transit":false,"station_name":"Klenderbaru","is_transit":false,"line":1,"i_long":106.939679,"station_id":"KLDB","i_lat":-6.217455},{"i_long":106.922662,"line":1,"time":1,"i_lat":-6.215568,"transit":false,"station_name":"Buaran","is_transit":false,"station_id":"BUA","distance":1305},{"line":1,"station_name":"Klender","is_transit":false,"i_lat":-6.2135,"transit":false,"i_long":106.899548,"station_id":"KLD","distance":3100,"time":2},{"i_lat":-6.215091,"line":1,"transit":false,"is_transit":false,"i_long":106.86807400000001,"distance":3395,"time":3,"station_name":"Jatinegara","station_id":"JNG"},{"line":1,"station_id":"MTR","transit":false,"time":2,"i_lat":-6.212485,"station_name":"Matraman","is_transit":false,"i_long":106.858896,"distance":1377},{"i_long":106.84912,"line":2,"station_id":"MRI","is_transit":false,"transit":false,"time":2,"distance":1275,"i_lat":-6.209883,"station_name":"Manggarai"},{"is_transit":false,"time":4,"i_lat":-6.202263,"station_id":"SUD","distance":3186,"line":1,"transit":false,"station_name":"Sudirman","i_long":106.822649},{"transit":false,"station_name":"Sudirman Baru","time":1,"distance":280,"station_id":"SUDB","i_long":106.819881,"line":1,"is_transit":false,"i_lat":-6.201433},{"time":1,"i_long":106.816351,"transit":false,"is_transit":false,"distance":471,"i_lat":-6.20132,"line":1,"station_id":"KAT","station_name":"Karet"},{"i_long":106.811091,"is_transit":false,"distance":2029,"station_id":"THB","line":1,"transit":false,"station_name":"Tanah Abang","time":5,"i_lat":-6.185545}],[{"line":1,"station_id":"TLM","time":0,"is_transit":false,"i_long":107.093313,"i_lat":-6.262938,"distance":0,"transit":false,"station_name":"Metland Telaga Murni"},{"distance":2800,"station_id":"CIT","i_lat":-6.261877,"station_name":"Cibitung","is_transit":false,"time":2,"i_long":107.083084,"line":1,"transit":false},{"station_name":"Tambun","time":3,"i_long":107.055722,"transit":false,"is_transit":false,"i_lat":-6.258864,"station_id":"TB","line":1,"distance":3420},{"transit":false,"is_transit":false,"station_name":"Bekasi Timur","distance":4460,"i_lat":-6.248029,"line":1,"time":7,"station_id":"BKST","i_long":107.016735},{"distance":2368,"i_lat":-6.236616,"line":1,"i_long":106.997013,"station_name":"Bekasi","transit":false,"time":2,"is_transit":false,"station_id":"BKS"},{"is_transit":false,"distance":2520,"transit":false,"station_id":"KRI","station_name":"Kranji","i_long":106.977657,"i_lat":-6.224515,"time":4,"line":1},{"station_id":"CUK","is_transit":false,"station_name":"Cakung","distance":3097,"i_long":106.951283,"transit":false,"time":3,"line":1,"i_lat":-6.219053},{"distance":1385,"station_name":"Klenderbaru","i_lat":-6.217455,"station_id":"KLDB","transit":false,"time":8,"i_long":106.939679,"is_transit":false,"line":1},{"line":1,"i_lat":-6.215568,"is_transit":false,"transit":false,"time":1,"i_long":106.922662,"station_name":"Buaran","station_id":"BUA","distance":1305},{"i_lat":-6.2135,"distance":3100,"station_id":"KLD","i_long":106.899548,"station_name":"Klender","transit":false,"is_transit":false,"line":1,"time":2},{"i_lat":-6.215091,"distance":3395,"i_long":106.86807400000001,"transit":true,"station_name":"Jatinegara","station_id":"JNG","line":1,"time":3,"is_transit":true},{"i_long":106.861737,"time":2,"line":11,"station_name":"Pondok Jati","station_id":"POK","is_transit":false,"i_lat":-6.209188,"transit":false,"distance":1236},{"i_lat":-6.193792,"time":2,"station_id":"KMT","station_name":"Kramat","i_long":106.855437,"line":11,"is_transit":false,"transit":false,"distance":1829},{"line":11,"transit":false,"station_id":"GST","distance":973,"i_long":106.850107,"i_lat":-6.185975,"time":1,"station_name":"Gang Sentiong","is_transit":false},{"line":11,"i_long":106.84368,"station_id":"PSE","station_name":"Pasar Senen","is_transit":false,"i_lat":-6.174784,"time":8,"transit":false,"distance":1567},{"time":4,"station_name":"Kemayoran","station_id":"KMO","distance":1436,"transit":false,"line":11,"is_transit":false,"i_lat":-6.161728,"i_long":106.839204},{"line":11,"distance":1901,"transit":false,"station_name":"Rajawali","is_transit":false,"time":5,"i_lat":-6.14505,"i_long":106.836569,"station_id":"RJW"},{"station_id":"KPB","time":3,"i_lat":-6.132549,"station_name":"Kampung Bandan","is_transit":true,"transit":true,"i_long":106.826365,"distance":1444,"line":4},{"station_name":"Angke","i_long":106.79867,"station_id":"AK","i_lat":-6.144674,"time":9,"is_transit":false,"line":1,"transit":false,"distance":4102},{"is_transit":false,"distance":1230,"station_id":"DU","time":4,"i_lat":-6.155215,"i_long":106.800832,"station_name":"Duri","line":1,"transit":false},{"station_id":"THB","station_name":"Tanah Abang","is_transit":false,"line":1,"transit":false,"i_lat":-6.185545,"distance":3632,"time":8,"i_long":106.811091}],[{"i_lat":-6.262938,"station_id":"TLM","time":0,"station_name":"Metland Telaga Murni","distance":0,"transit":false,"i_long":107.093313,"line":1,"is_transit":false},{"i_lat":-6.261877,"station_id":"CIT","i_long":107.083084,"line":1,"transit":false,"station_name":"Cibitung","distance":2800,"is_transit":false,"time":2},{"i_long":107.055722,"line":1,"transit":false,"time":3,"i_lat":-6.258864,"station_name":"Tambun","distance":3420,"station_id":"TB","is_transit":false},{"time":7,"distance":4460,"is_transit":false,"i_lat":-6.248029,"transit":false,"i_long":107.016735,"line":1,"station_id":"BKST","station_name":"Bekasi Timur"},{"i_lat":-6.236616,"time":2,"station_name":"Bekasi","is_transit":false,"distance":2368,"station_id":"BKS","line":1,"transit":false,"i_long":106.997013},{"transit":false,"station_id":"KRI","time":4,"is_transit":false,"distance":2520,"line":1,"station_name":"Kranji","i_lat":-6.224515,"i_long":106.977657},{"station_id":"CUK","distance":3097,"transit":false,"i_lat":-6.219053,"line":1,"station_name":"Cakung","i_long":106.951283,"time":3,"is_transit":false},{"transit":false,"i_lat":-6.217455,"line":1,"station_name":"Klenderbaru","i_long":106.939679,"is_transit":false,"time":8,"distance":1385,"station_id":"KLDB"},{"line":1,"transit":false,"is_transit":false,"time":1,"station_id":"BUA","distance":1305,"i_long":106.922662,"station_name":"Buaran","i_lat":-6.215568},{"transit":false,"distance":3100,"line":1,"i_lat":-6.2135,"station_name":"Klender","i_long":106.899548,"station_id":"KLD","time":2,"is_transit":false},{"i_long":106.86807400000001,"station_id":"JNG","is_transit":false,"station_name":"Jatinegara","line":1,"time":3,"distance":3395,"i_lat":-6.215091,"transit":false},{"line":1,"time":2,"distance":1377,"station_name":"Matraman","is_transit":false,"station_id":"MTR","transit":false,"i_lat":-6.212485,"i_long":106.858896},{"transit":true,"line":2,"i_lat":-6.209883,"station_id":"MRI","time":2,"is_transit":true,"station_name":"Manggarai","distance":1275,"i_long":106.84912},{"line":2,"station_name":"Cikini","transit":false,"distance":1590,"i_long":106.840169,"station_id":"CKI","is_transit":false,"i_lat":-6.198556,"time":4},{"time":3,"i_long":106.832183,"distance":1750,"i_lat":-6.186295,"station_id":"GDD","transit":false,"station_name":"Gondangdia","is_transit":false,"line":2},{"station_id":"JUA","i_long":106.828284,"station_name":"Juanda","i_lat":-6.166716,"line":2,"time":4,"is_transit":false,"distance":2015,"transit":false},{"is_transit":false,"station_name":"Sawah Besar","distance":1149,"i_lat":-6.160725,"i_long":106.827103,"transit":false,"station_id":"SW","line":2,"time":2},{"distance":906,"i_long":106.82482,"i_lat":-6.149769,"line":2,"station_id":"MGB","time":2,"transit":false,"is_transit":false,"station_name":"Manggabesar"},{"distance":1080,"time":2,"i_long":106.820901,"transit":false,"is_transit":false,"line":2,"i_lat":-6.141205,"station_id":"JAY","station_name":"Jayakarta"},{"time":4,"i_lat":-6.137569,"i_long":106.812439,"station_id":"JAKK","is_transit":true,"distance":1264,"line":2,"station_name":"Jakarta Kota","transit":true},{"line":4,"i_long":106.826365,"time":3,"station_id":"KPB","distance":1364,"is_transit":true,"transit":true,"i_lat":-6.132549,"station_name":"Kampung Bandan"},{"line":1,"transit":false,"time":9,"is_transit":false,"station_name":"Angke","station_id":"AK","distance":4102,"i_long":106.79867,"i_lat":-6.144674},{"distance":1230,"transit":false,"i_lat":-6.155215,"i_long":106.800832,"line":1,"station_name":"Duri","station_id":"DU","is_transit":false,"time":4},{"station_id":"THB","i_lat":-6.185545,"time":8,"station_name":"Tanah Abang","i_long":106.811091,"is_transit":false,"transit":false,"distance":3632,"line":1}],[{"time":0,"line":1,"station_name":"Metland Telaga Murni","is_transit":false,"i_long":107.093313,"i_lat":-6.262938,"distance":0,"transit":false,"station_id":"TLM"},{"is_transit":false,"i_lat":-6.261877,"distance":2800,"transit":false,"station_name":"Cibitung","station_id":"CIT","line":1,"i_long":107.083084,"time":2},{"distance":3420,"transit":false,"i_long":107.055722,"is_transit":false,"i_lat":-6.258864,"line":1,"station_id":"TB","station_name":"Tambun","time":3},{"i_long":107.016735,"line":1,"transit":false,"i_lat":-6.248029,"station_id":"BKST","time":7,"station_name":"Bekasi Timur","is_transit":false,"distance":4460},{"i_long":106.997013,"distance":2368,"time":2,"is_transit":false,"i_lat":-6.236616,"line":1,"station_name":"Bekasi","transit":false,"station_id":"BKS"},{"station_name":"Kranji","is_transit":false,"transit":false,"distance":2520,"i_lat":-6.224515,"line":1,"time":4,"station_id":"KRI","i_long":106.977657},{"i_long":106.951283,"line":1,"i_lat":-6.219053,"station_name":"Cakung","station_id":"CUK","is_transit":false,"transit":false,"distance":3097,"time":3},{"is_transit":false,"station_name":"Klenderbaru","station_id":"KLDB","distance":1385,"transit":false,"i_long":106.939679,"i_lat":-6.217455,"line":1,"time":8},{"station_name":"Buaran","distance":1305,"i_long":106.922662,"transit":false,"line":1,"is_transit":false,"i_lat":-6.215568,"station_id":"BUA","time":1},{"distance":3100,"i_long":106.899548,"station_id":"KLD","time":2,"i_lat":-6.2135,"is_transit":false,"transit":false,"station_name":"Klender","line":1},{"line":1,"transit":true,"is_transit":true,"i_lat":-6.215091,"distance":3395,"time":3,"station_name":"Jatinegara","i_long":106.86807400000001,"station_id":"JNG"},{"transit":false,"is_transit":false,"time":2,"station_name":"Pondok Jati","i_lat":-6.209188,"i_long":106.861737,"station_id":"POK","line":11,"distance":1236},{"transit":false,"line":11,"is_transit":false,"station_name":"Kramat","time":2,"station_id":"KMT","i_long":106.855437,"distance":1829,"i_lat":-6.193792},{"station_id":"GST","distance":973,"time":1,"i_lat":-6.185975,"is_transit":false,"i_long":106.850107,"transit":false,"station_name":"Gang Sentiong","line":11},{"i_lat":-6.174784,"distance":1567,"transit":false,"i_long":106.84368,"is_transit":false,"time":8,"line":11,"station_name":"Pasar Senen","station_id":"PSE"},{"time":4,"line":11,"i_lat":-6.161728,"is_transit":false,"distance":1436,"station_name":"Kemayoran","i_long":106.839204,"transit":false,"station_id":"KMO"},{"transit":false,"time":5,"is_transit":false,"line":11,"station_id":"RJW","station_name":"Rajawali","distance":1901,"i_lat":-6.14505,"i_long":106.836569},{"transit":true,"i_long":106.826365,"station_id":"KPB","is_transit":true,"time":3,"i_lat":-6.132549,"station_name":"Kampung Bandan","distance":1444,"line":4},{"transit":true,"i_long":106.812439,"distance":1364,"line":2,"station_id":"JAKK","is_transit":true,"time":3,"i_lat":-6.137569,"station_name":"Jakarta Kota"},{"is_transit":false,"station_id":"JAY","distance":1264,"i_lat":-6.141205,"i_long":106.820901,"transit":false,"time":4,"station_name":"Jayakarta","line":2},{"i_lat":-6.149769,"line":2,"is_transit":false,"distance":1080,"transit":false,"station_name":"Manggabesar","time":2,"i_long":106.82482,"station_id":"MGB"},{"i_long":106.827103,"time":2,"line":2,"station_name":"Sawah Besar","distance":906,"i_lat":-6.160725,"station_id":"SW","is_transit":false,"transit":false},{"station_id":"JUA","distance":1149,"time":2,"i_lat":-6.166716,"is_transit":false,"transit":false,"line":2,"i_long":106.828284,"station_name":"Juanda"},{"distance":2015,"line":2,"is_transit":false,"station_name":"Gondangdia","station_id":"GDD","i_long":106.832183,"time":4,"i_lat":-6.186295,"transit":false},{"station_name":"Cikini","transit":false,"i_long":106.840169,"time":3,"i_lat":-6.198556,"line":2,"distance":1750,"station_id":"CKI","is_transit":false},{"i_lat":-6.209883,"distance":1590,"time":4,"i_long":106.84912,"transit":true,"station_id":"MRI","is_transit":true,"station_name":"Manggarai","line":2},{"station_id":"SUD","time":4,"i_long":106.822649,"transit":false,"i_lat":-6.202263,"line":1,"is_transit":false,"distance":3186,"station_name":"Sudirman"},{"line":1,"transit":false,"is_transit":false,"i_lat":-6.201433,"station_name":"Sudirman Baru","station_id":"SUDB","time":1,"distance":280,"i_long":106.819881},{"is_transit":false,"station_id":"KAT","time":1,"distance":471,"transit":false,"station_name":"Karet","line":1,"i_long":106.816351,"i_lat":-6.20132},{"station_name":"Tanah Abang","time":5,"line":1,"i_long":106.811091,"is_transit":false,"i_lat":-6.185545,"transit":false,"distance":2029,"station_id":"THB"}]]}