{"data":[[{"transit":false,"time":0,"i_lat":-6.262938,"line":1,"i_long":107.093313,"is_transit":false,"distance":0,"station_name":"Metland Telaga Murni","station_id":"TLM"},{"is_transit":false,"station_name":"Cibitung","station_id":"CIT","i_long":107.083084,"transit":false,"time":2,"distance":2800,"line":1,"i_lat":-6.261877},{"station_id":"TB","is_transit":false,"transit":false,"station_name":"Tambun","time":3,"distance":3420,"i_lat":-6.258864,"i_long":107.055722,"line":1},{"i_long":107.016735,"station_name":"Bekasi Timur","is_transit":false,"time":7,"i_lat":-6.248029,"distance":4460,"line":1,"station_id":"BKST","transit":false},{"distance":2368,"station_name":"Bekasi","i_lat":-6.236616,"i_long":106.997013,"line":1,"time":2,"is_transit":false,"station_id":"BKS","transit":false},{"station_id":"KRI","line":1,"transit":false,"distance":2520,"station_name":"Kranji","time":4,"is_transit":false,"i_lat":-6.224515,"i_long":106.977657},{"time":3,"station_name":"Cakung","i_long":106.951283,"is_transit":false,"transit":false,"station_id":"CUK","i_lat":-6.219053,"distance":3097,"line":1},{"transit":false,"i_lat":-6.217455,"i_long":106.939679,"line":1,"is_transit":false,"station_name":"Klenderbaru","station_id":"KLDB","time":8,"distance":1385},{"transit":false,"station_name":"Buaran","time":1,"distance":1305,"i_lat":-6.215568,"line":1,"is_transit":false,"i_long":106.922662,"station_id":"BUA"},{"station_name":"Klender","station_id":"KLD","is_transit":false,"distance":3100,"transit":false,"i_lat":-6.2135,"i_long":106.899548,"line":1,"time":2},{"distance":3395,"transit":false,"i_lat":-6.215091,"station_name":"Jatinegara","station_id":"JNG","time":3,"line":1,"i_long":106.86807400000001,"is_transit":false},{"line":1,"station_id":"MTR","transit":false,"is_transit":false,"time":2,"distance":1377,"i_lat":-6.212485,"station_name":"Matraman","i_long":106.858896},{"i_lat":-6.209883,"i_long":106.84912,"line":2,"transit":false,"station_name":"Manggarai","station_id":"MRI","is_transit":false,"distance":1275,"time":2},{"station_name":"Sudirman","i_lat":-6.202263,"line":1,"station_id":"SUD","distance":3186,"time":4,"i_long":106.822649,"transit":false,"is_transit":false},{"station_name":"Sudirman Baru","transit":false,"station_id":"SUDB","i_lat":-6.201433,"line":1,"is_transit":false,"time":1,"i_long":106.819881,"distance":280},{"i_long":106.816351,"transit":false,"line":1,"station_name":"Karet","i_lat":-6.20132,"time":1,"distance":471,"is_transit":false,"station_id":"KAT"},{"line":1,"station_name":"Tanah Abang","transit":false,"distance":2029,"is_transit":false,"i_long":106.811091,"time":5,"i_lat":-6.185545,"station_id":"THB"},{"time":8,"line":1,"is_transit":true,"distance":3632,"i_long":106.800832,"station_id":"DU","transit":true,"i_lat":-6.155215,"station_name":"Duri"},{"station_id":"GGL","line":5,"is_transit":false,"station_name":"Grogol","i_lat":-6.162021,"i_long":106.788277,"distance":1700,"transit":false,"time":3},{"line":5,"distance":2036,"time":2,"station_id":"PSG","transit":false,"station_name":"Pesing","is_transit":false,"i_lat":-6.161433,"i_long":106.771379},{"station_name":"Taman Kota","transit":false,"i_lat":-6.1587309999999995,"line":5,"distance":1614,"is_transit":false,"time":2,"station_id":"TKO","i_long":106.756522},{"station_name":"Bojongindah","transit":false,"line":5,"distance":2334,"i_lat":-6.159876,"i_long":106.737035,"is_transit":false,"time":2,"station_id":"BOI"},{"is_transit":false,"station_name":"Rawa Buaya","transit":false,"i_lat":-6.162758,"distance":1152,"time":4,"i_long":106.723064,"line":5,"station_id":"RW"},{"time":3,"distance":2504,"transit":false,"is_transit":false,"line":5,"station_name":"Kalideres","i_lat":-6.166068,"i_long":106.701612,"station_id":"KDS"},{"transit":false,"i_lat":-6.169933,"line":5,"i_long":106.679458,"station_id":"PI","is_transit":false,"time":3,"distance":2548,"station_name":"Poris"},{"is_transit":false,"i_long":106.665036,"station_id":"BPR","time":3,"i_lat":-6.171811,"transit":false,"station_name":"Batuceper","line":5,"distance":1834},{"i_lat":-6.17331,"distance":2028,"station_id":"TTI","station_name":"Tanah Tinggi","time":3,"i_long":106.64657,"is_transit":false,"line":5,"transit":false}],[{"i_lat":-6.262938,"is_transit":false,"time":0,"i_long":107.093313,"station_name":"Metland Telaga Murni","distance":0,"station_id":"TLM","line":1,"transit":false},{"station_name":"Cibitung","transit":false,"station_id":"CIT","i_lat":-6.261877,"time":2,"is_transit":false,"distance":2800,"i_long":107.083084,"line":1},{"station_name":"Tambun","station_id":"TB","time":3,"i_lat":-6.258864,"line":1,"transit":false,"is_transit":false,"i_long":107.055722,"distance":3420},{"time":7,"station_id":"BKST","distance":4460,"line":1,"station_name":"Bekasi Timur","is_transit":false,"i_long":107.016735,"transit":false,"i_lat":-6.248029},{"i_long":106.997013,"time":2,"line":1,"station_name":"Bekasi","transit":false,"is_transit":false,"distance":2368,"station_id":"BKS","i_lat":-6.236616},{"i_lat":-6.224515,"time":4,"i_long":106.977657,"line":1,"distance":2520,"transit":false,"station_id":"KRI","station_name":"Kranji","is_transit":false},{"distance":3097,"line":1,"i_long":106.951283,"is_transit":false,"time":3,"transit":false,"i_lat":-6.219053,"station_name":"Cakung","station_id":"CUK"},{"is_transit":false,"transit":false,"distance":1385,"i_lat":-6.217455,"i_long":106.939679,"station_id":"KLDB","time":8,"station_name":"Klenderbaru","line":1},{"station_name":"Buaran","station_id":"BUA","distance":1305,"line":1,"transit":false,"i_long":106.922662,"time":1,"i_lat":-6.215568,"is_transit":false},{"line":1,"transit":false,"station_id":"KLD","is_transit":false,"distance":3100,"i_long":106.899548,"i_lat":-6.2135,"time":2,"station_name":"Klender"},{"i_lat":-6.215091,"line":1,"station_id":"JNG","station_name":"Jatinegara","transit":true,"is_transit":true,"time":3,"distance":3395,"i_long":106.86807400000001},{"distance":1236,"is_transit":false,"i_long":106.861737,"transit":false,"i_lat":-6.209188,"line":11,"time":2,"station_name":"Pondok Jati","station_id":"POK"},{"distance":1829,"station_id":"KMT","is_transit":false,"transit":false,"time":2,"i_lat":-6.193792,"i_long":106.855437,"line":11,"station_name":"Kramat"},{"is_transit":false,"i_long":106.850107,"station_name":"Gang Sentiong","time":1,"distance":973,"station_id":"GST","i_lat":-6.185975,"transit":false,"line":11},{"i_long":106.84368,"line":11,"time":8,"distance":1567,"transit":false,"station_name":"Pasar Senen","station_id":"PSE","is_transit":false,"i_lat":-6.174784},{"is_transit":false,"transit":false,"station_id":"KMO","station_name":"Kemayoran","time":4,"distance":1436,"i_long":106.839204,"i_lat":-6.161728,"line":11},{"transit":false,"is_transit":false,"distance":1901,"station_name":"Rajawali","i_lat":-6.14505,"line":11,"i_long":106.836569,"time":5,"station_id":"RJW"},{"line":4,"transit":true,"is_transit":true,"distance":1444,"i_lat":-6.132549,"station_id":"KPB","i_long":106.826365,"station_name":"Kampung Bandan","time":3},{"time":9,"i_lat":-6.144674,"transit":false,"station_id":"AK","station_name":"Angke","i_long":106.79867,"line":1,"is_transit":false,"distance":4102},{"i_long":106.800832,"line":1,"is_transit":true,"time":4,"station_name":"Duri","distance":1230,"transit":true,"i_lat":-6.155215,"station_id":"DU"},{"line":5,"transit":false,"distance":1700,"station_id":"GGL","station_name":"Grogol","is_transit":false,"time":3,"i_long":106.788277,"i_lat":-6.162021},{"i_long":106.771379,"transit":false,"is_transit":false,"line":5,"time":2,"station_name":"Pesing","i_lat":-6.161433,"distance":2036,"station_id":"PSG"},{"time":2,"i_long":106.756522,"i_lat":-6.1587309999999995,"distance":1614,"line":5,"station_name":"Taman Kota","transit":false,"station_id":"TKO","is_transit":false},{"station_id":"BOI","station_name":"Bojongindah","i_long":106.737035,"is_transit":false,"distance":2334,"transit":false,"line":5,"i_lat":-6.159876,"time":2},{"is_transit":false,"station_id":"RW","time":4,"transit":false,"station_name":"Rawa Buaya","i_long":106.723064,"i_lat":-6.162758,"distance":1152,"line":5},{"time":3,"i_long":106.701612,"transit":false,"line":5,"station_id":"KDS","i_lat":-6.166068,"station_name":"Kalideres","is_transit":false,"distance":2504},{"station_name":"Poris","distance":2548,"time":3,"line":5,"station_id":"PI","transit":false,"i_lat":-6.169933,"is_transit":false,"i_long":106.679458},{"station_id":"BPR","i_lat":-6.171811,"transit":false,"station_name":"Batuceper","is_transit":false,"time":3,"i_long":106.665036,"line":5,"distance":1834},{"distance":2028,"i_long":106.64657,"station_id":"TTI","is_transit":false,"i_lat":-6.17331,"transit":false,"station_name":"Tanah Tinggi","time":3,"line":5}],[{"i_lat":-6.262938,"time":0,"transit":false,"station_name":"Metland Telaga Murni","distance":0,"station_id":"TLM","i_long":107.093313,"line":1,"is_transit":false},{"i_lat":-6.261877,"station_id":"CIT","transit":false,"station_name":"Cibitung","is_transit":false,"i_long":107.083084,"time":2,"line":1,"distance":2800},{"line":1,"time":3,"station_id":"TB","distance":3420,"i_lat":-6.258864,"i_long":107.055722,"station_name":"Tambun","is_transit":false,"transit":false},{"station_name":"Bekasi Timur","time":7,"transit":false,"distance":4460,"line":1,"i_long":107.016735,"is_transit":false,"station_id":"BKST","i_lat":-6.248029},{"is_transit":false,"line":1,"station_id":"BKS","distance":2368,"i_long":106.997013,"i_lat":-6.236616,"station_name":"Bekasi","transit":false,"time":2},{"distance":2520,"i_long":106.977657,"line":1,"time":4,"station_id":"KRI","station_name":"Kranji","transit":false,"is_transit":false,"i_lat":-6.224515},{"distance":3097,"is_transit":false,"station_id":"CUK","i_long":106.951283,"i_lat":-6.219053,"line":1,"transit":false,"station_name":"Cakung","time":3},{"i_lat":-6.217455,"line":1,"transit":false,"time":8,"station_id":"KLDB","station_name":"Klenderbaru","is_transit":false,"distance":1385,"i_long":106.939679},{"station_name":"Buaran","is_transit":false,"distance":1305,"transit":false,"line":1,"time":1,"station_id":"BUA","i_lat":-6.215568,"i_long":106.922662},{"i_lat":-6.2135,"line":1,"station_id":"KLD","transit":false,"distance":3100,"station_name":"Klender","i_long":106.899548,"is_transit":false,"time":2},{"i_long":106.86807400000001,"station_name":"Jatinegara","station_id":"JNG","time":3,"distance":3395,"transit":false,"is_transit":false,"i_lat":-6.215091,"line":1},{"transit":false,"time":2,"i_lat":-6.212485,"station_id":"MTR","is_transit":false,"i_long":106.858896,"line":1,"station_name":"Matraman","distance":1377},{"station_name":"Manggarai","distance":1275,"i_lat":-6.209883,"transit":true,"station_id":"MRI","time":2,"i_long":106.84912,"line":2,"is_transit":true},{"i_lat":-6.198556,"station_id":"CKI","i_long":106.840169,"station_name":"Cikini","transit":false,"is_transit":false,"distance":1590,"line":2,"time":4},{"is_transit":false,"i_lat":-6.186295,"transit":false,"line":2,"station_id":"GDD","i_long":106.832183,"station_name":"Gondangdia","time":3,"distance":1750},{"i_long":106.828284,"distance":2015,"is_transit":false,"station_name":"Juanda","station_id":"JUA","time":4,"i_lat":-6.166716,"transit":false,"line":2},{"distance":1149,"i_long":106.827103,"is_transit":false,"line":2,"transit":false,"station_name":"Sawah Besar","time":2,"i_lat":-6.160725,"station_id":"SW"},{"i_long":106.82482,"line":2,"is_transit":false,"i_lat":-6.149769,"transit":false,"time":2,"station_id":"MGB","station_name":"Manggabesar","distance":906},{"line":2,"station_id":"JAY","is_transit":false,"time":2,"transit":false,"distance":1080,"station_name":"Jayakarta","i_lat":-6.141205,"i_long":106.820901},{"transit":true,"distance":1264,"i_long":106.812439,"i_lat":-6.137569,"station_id":"JAKK","line":2,"station_name":"Jakarta Kota","is_transit":true,"time":4},{"is_transit":true,"i_lat":-6.132549,"station_id":"KPB","line":4,"station_name":"Kampung Bandan","time":3,"distance":1364,"i_long":106.826365,"transit":true},{"i_lat":-6.144674,"i_long":106.79867,"station_id":"AK","station_name":"Angke","transit":false,"time":9,"distance":4102,"is_transit":false,"line":1},{"distance":1230,"time":4,"i_lat":-6.155215,"station_name":"Duri","station_id":"DU","line":1,"transit":true,"is_transit":true,"i_long":106.800832},{"distance":1700,"time":3,"station_name":"Grogol","i_lat":-6.162021,"is_transit":false,"station_id":"GGL","transit":false,"i_long":106.788277,"line":5},{"is_transit":false,"station_id":"PSG","distance":2036,"time":2,"transit":false,"i_long":106.771379,"line":5,"i_lat":-6.161433,"station_name":"Pesing"},{"transit":false,"i_long":106.756522,"is_transit":false,"distance":1614,"station_name":"Taman Kota","i_lat":-6.1587309999999995,"line":5,"station_id":"TKO","time":2},{"time":2,"transit":false,"station_id":"BOI","station_name":"Bojongindah","i_lat":-6.159876,"i_long":106.737035,"is_transit":false,"line":5,"distance":2334},{"i_lat":-6.162758,"line":5,"distance":1152,"station_id":"RW","time":4,"i_long":106.723064,"station_name":"Rawa Buaya","transit":false,"is_transit":false},{"distance":2504,"transit":false,"station_name":"Kalideres","time":3,"line":5,"station_id":"KDS","i_long":106.701612,"i_lat":-6.166068,"is_transit":false},{"station_name":"Poris","time":3,"i_long":106.679458,"is_transit":false,"i_lat":-6.169933,"distance":2548,"transit":false,"line":5,"station_id":"PI"},{"is_transit":false,"distance":1834,"line":5,"station_name":"Batuceper","i_long":106.665036,"time":3,"i_lat":-6.171811,"station_id":"BPR","transit":false},{"is_transit":false,"station_id":"TTI","transit":false,"station_name":"Tanah Tinggi","distance":2028,"i_lat":-6.17331,"i_long":106.64657,"time":3,"line":5}],[{"transit":false,"distance":0,"time":0,"i_long":107.093313,"line":1,"is_transit":false,"station_id":"TLM","i_lat":-6.262938,"station_name":"Metland Telaga Murni"},{"station_name":"Cibitung","time":2,"distance":2800,"i_long":107.083084,"station_id":"CIT","line":1,"i_lat":-6.261877,"is_transit":false,"transit":false},{"is_transit":false,"distance":3420,"i_lat":-6.258864,"station_name":"Tambun","station_id":"TB","time":3,"transit":false,"i_long":107.055722,"line":1},{"i_long":107.016735,"i_lat":-6.248029,"distance":4460,"line":1,"transit":false,"station_id":"BKST","is_transit":false,"time":7,"station_name":"Bekasi Timur"},{"distance":2368,"i_lat":-6.236616,"line":1,"time":2,"station_id":"BKS","transit":false,"station_name":"Bekasi","is_transit":false,"i_long":106.997013},{"distance":2520,"i_long":106.977657,"station_id":"KRI","time":4,"is_transit":false,"station_name":"Kranji","line":1,"transit":false,"i_lat":-6.224515},{"is_transit":false,"station_name":"Cakung","transit":false,"i_long":106.951283,"distance":3097,"time":3,"station_id":"CUK","i_lat":-6.219053,"line":1},{"station_name":"Klenderbaru","line":1,"transit":false,"time":8,"station_id":"KLDB","i_lat":-6.217455,"is_transit":false,"distance":1385,"i_long":106.939679},{"line":1,"i_lat":-6.215568,"is_transit":false,"station_name":"Buaran","station_id":"BUA","distance":1305,"transit":false,"time":1,"i_long":106.922662},{"station_name":"Klender","is_transit":false,"line":1,"time":2,"distance":3100,"i_long":106.899548,"transit":false,"i_lat":-6.2135,"station_id":"KLD"},{"is_transit":true,"time":3,"station_name":"Jatinegara","i_lat":-6.215091,"transit":true,"station_id":"JNG","distance":3395,"i_long":106.86807400000001,"line":1},{"distance":1236,"transit":false,"station_name":"Pondok Jati","is_transit":false,"time":2,"i_lat":-6.209188,"station_id":"POK","line":11,"i_long":106.861737},{"is_transit":false,"station_name":"Kramat","distance":1829,"i_long":106.855437,"time":2,"i_lat":-6.193792,"station_id":"KMT","line":11,"transit":false},{"line":11,"i_long":106.850107,"is_transit":false,"distance":973,"i_lat":-6.185975,"station_id":"GST","time":1,"station_name":"Gang Sentiong","transit":false},{"line":11,"time":8,"station_id":"PSE","is_transit":false,"i_long":106.84368,"i_lat":-6.174784,"station_name":"Pasar Senen","distance":1567,"transit":false},{"transit":false,"is_transit":false,"i_long":106.839204,"station_name":"Kemayoran","i_lat":-6.161728,"line":11,"time":4,"station_id":"KMO","distance":1436},{"transit":false,"is_transit":false,"i_lat":-6.14505,"line":11,"i_long":106.836569,"distance":1901,"station_id":"RJW","station_name":"Rajawali","time":5},{"is_transit":true,"time":3,"station_name":"Kampung Bandan","line":4,"i_long":106.826365,"distance":1444,"station_id":"KPB","i_lat":-6.132549,"transit":true},{"time":3,"transit":true,"station_name":"Jakarta Kota","line":2,"i_lat":-6.137569,"distance":1364,"i_long":106.812439,"is_transit":true,"station_id":"JAKK"},{"is_transit":false,"time":4,"distance":1264,"transit":false,"i_lat":-6.141205,"i_long":106.820901,"line":2,"station_name":"Jayakarta","station_id":"JAY"},{"distance":1080,"time":2,"transit":false,"i_long":106.82482,"line":2,"station_name":"Manggabesar","station_id":"MGB","is_transit":false,"i_lat":-6.149769},{"station_name":"Sawah Besar","distance":906,"time":2,"transit":false,"i_lat":-6.160725,"i_long":106.827103,"line":2,"station_id":"SW","is_transit":false},{"line":2,"distance":1149,"transit":false,"station_id":"JUA","time":2,"station_name":"Juanda","i_long":106.828284,"i_lat":-6.166716,"is_transit":false},{"i_lat":-6.186295,"line":2,"is_transit":false,"station_name":"Gondangdia","distance":2015,"i_long":106.832183,"time":4,"transit":false,"station_id":"GDD"},{"transit":false,"distance":1750,"i_lat":-6.198556,"i_long":106.840169,"is_transit":false,"station_id":"CKI","time":3,"line":2,"station_name":"Cikini"},{"line":2,"time":4,"transit":true,"station_name":"Manggarai","is_transit":true,"i_lat":-6.209883,"i_long":106.84912,"distance":1590,"station_id":"MRI"},{"i_lat":-6.202263,"transit":false,"station_name":"Sudirman","is_transit":false,"distance":3186,"line":1,"station_id":"SUD","time":4,"i_long":106.822649},{"station_id":"SUDB","transit":false,"station_name":"Sudirman Baru","is_transit":false,"distance":280,"line":1,"i_long":106.819881,"time":1,"i_lat":-6.201433},{"i_lat":-6.20132,"transit":false,"line":1,"station_name":"Karet","i_long":106.816351,"is_transit":false,"distance":471,"station_id":"KAT","time":1},{"station_name":"Tanah Abang","line":1,"distance":2029,"transit":false,"station_id":"THB","i_long":106.811091,"time":5,"i_lat":-6.185545,"is_transit":false},{"i_lat":-6.155215,"i_long":106.800832,"line":1,"time":8,"transit":true,"station_id":"DU","distance":3632,"station_name":"Duri","is_transit":true},{"i_lat":-6.162021,"is_transit":false,"line":5,"time":3,"i_long":106.788277,"transit":false,"station_id":"GGL","station_name":"Grogol","distance":1700},{"time":2,"is_transit":false,"station_id":"PSG","i_long":106.771379,"line":5,"transit":false,"distance":2036,"station_name":"Pesing","i_lat":-6.161433},{"distance":1614,"is_transit":false,"time":2,"i_lat":-6.1587309999999995,"line":5,"transit":false,"station_name":"Taman Kota","i_long":106.756522,"station_id":"TKO"},{"is_transit":false,"transit":false,"i_long":106.737035,"time":2,"station_id":"BOI","distance":2334,"line":5,"station_name":"Bojongindah","i_lat":-6.159876},{"transit":false,"time":4,"is_transit":false,"station_id":"RW","distance":1152,"i_long":106.723064,"i_lat":-6.162758,"line":5,"station_name":"Rawa Buaya"},{"time":3,"i_lat":-6.166068,"transit":false,"station_id":"KDS","i_long":106.701612,"line":5,"distance":2504,"station_name":"Kalideres","is_transit":false},{"station_id":"PI","transit":false,"station_name":"Poris","is_transit":false,"time":3,"i_lat":-6.169933,"i_long":106.679458,"line":5,"distance":2548},{"station_id":"BPR","transit":false,"distance":1834,"station_name":"Batuceper","time":3,"i_long":106.665036,"line":5,"i_lat":-6.171811,"is_transit":false},{"line":5,"i_long":106.64657,"i_lat":-6.17331,"station_name":"Tanah Tinggi","transit":false,"station_id":"TTI","is_transit":false,"time":3,"distance":2028}]]}