{"data":[[{"is_transit":false,"station_id":"TLM","time":0,"distance":0,"transit":false,"station_name":"Metland Telaga Murni","i_long":107.093313,"line":1,"i_lat":-6.262938},{"is_transit":false,"i_lat":-6.261877,"line":0,"time":2,"station_name":"Cibitung","i_long":107.083084,"distance":2800,"transit":false,"station_id":"CIT"},{"time":3,"i_long":107.055722,"is_transit":false,"distance":3420,"transit":false,"station_name":"Tambun","station_id":"TB","line":1,"i_lat":-6.258864},{"station_name":"Bekasi Timur","transit":false,"i_lat":-6.248029,"is_transit":false,"time":7,"station_id":"BKST","i_long":107.016735,"line":0,"distance":4460},{"i_long":106.997013,"is_transit":false,"time":2,"station_name":"Bekasi","distance":2368,"station_id":"BKS","transit":false,"i_lat":-6.236616,"line":0},{"i_long":106.977657,"is_transit":false,"transit":false,"line":1,"distance":2520,"time":4,"station_id":"KRI","i_lat":-6.224515,"station_name":"Kranji"},{"line":0,"i_lat":-6.219053,"i_long":106.951283,"transit":false,"distance":3097,"station_id":"CUK","station_name":"Cakung","is_transit":false,"time":3},{"station_name":"Klenderbaru","distance":1385,"time":8,"is_transit":false,"station_id":"KLDB","i_lat":-6.217455,"i_long":106.939679,"line":1,"transit":false},{"line":0,"transit":false,"distance":1305,"station_name":"Buaran","station_id":"BUA","i_lat":-6.215568,"is_transit":false,"i_long":106.922662,"time":1},{"line":1,"station_name":"Klender","distance":3100,"station_id":"KLD","i_long":106.899548,"time":2,"is_transit":false,"i_lat":-6.2135,"transit":false},{"line":0,"time":3,"station_name":"Jatinegara","distance":3395,"transit":false,"is_transit":true,"station_id":"JNG","i_lat":-6.215091,"i_long":106.86807400000001},{"station_id":"MTR","i_long":106.858896,"line":1,"i_lat":-6.212485,"is_transit":false,"station_name":"Matraman","time":2,"distance":1377,"transit":false},{"distance":1275,"i_long":106.84912,"is_transit":true,"time":2,"station_name":"Manggarai","line":0,"station_id":"MRI","transit":true,"i_lat":-6.209883},{"i_long":106.857948,"is_transit":false,"distance":2610,"transit":false,"time":4,"station_id":"TEB","i_lat":-6.226659,"station_name":"Tebet","line":2}],[{"distance":0,"transit":false,"i_long":107.093313,"is_transit":false,"line":1,"station_name":"Metland Telaga Murni","station_id":"TLM","i_lat":-6.262938,"time":0},{"i_lat":-6.261877,"is_transit":false,"station_name":"Cibitung","transit":false,"time":2,"station_id":"CIT","i_long":107.083084,"distance":2800,"line":0},{"transit":false,"line":1,"is_transit":false,"distance":3420,"station_name":"Tambun","time":3,"station_id":"TB","i_lat":-6.258864,"i_long":107.055722},{"station_name":"Bekasi Timur","i_lat":-6.248029,"station_id":"BKST","i_long":107.016735,"is_transit":false,"distance":4460,"transit":false,"time":7,"line":0},{"line":0,"transit":false,"distance":2368,"time":2,"is_transit":false,"i_lat":-6.236616,"station_id":"BKS","i_long":106.997013,"station_name":"Bekasi"},{"i_long":106.977657,"i_lat":-6.224515,"distance":2520,"transit":false,"is_transit":false,"time":4,"line":1,"station_name":"Kranji","station_id":"KRI"},{"is_transit":false,"distance":3097,"i_lat":-6.219053,"station_name":"Cakung","time":3,"transit":false,"i_long":106.951283,"station_id":"CUK","line":0},{"i_long":106.939679,"line":1,"is_transit":false,"station_id":"KLDB","transit":false,"i_lat":-6.217455,"time":8,"distance":1385,"station_name":"Klenderbaru"},{"station_name":"Buaran","is_transit":false,"i_long":106.922662,"distance":1305,"time":1,"station_id":"BUA","transit":false,"i_lat":-6.215568,"line":0},{"distance":3100,"station_name":"Klender","station_id":"KLD","transit":false,"i_lat":-6.2135,"i_long":106.899548,"time":2,"is_transit":false,"line":1},{"station_id":"JNG","line":0,"i_long":106.86807400000001,"time":3,"station_name":"Jatinegara","transit":true,"i_lat":-6.215091,"is_transit":true,"distance":3395},{"time":2,"station_name":"Pondok Jati","line":11,"is_transit":false,"transit":false,"distance":1236,"station_id":"POK","i_lat":-6.209188,"i_long":106.861737},{"line":11,"is_transit":false,"distance":1829,"transit":false,"time":2,"station_name":"Kramat","i_long":106.855437,"i_lat":-6.193792,"station_id":"KMT"},{"transit":false,"is_transit":false,"station_name":"Gang Sentiong","line":11,"i_lat":-6.185975,"i_long":106.850107,"distance":973,"station_id":"GST","time":1},{"time":8,"i_long":106.84368,"line":11,"transit":false,"i_lat":-6.174784,"station_id":"PSE","distance":1567,"station_name":"Pasar Senen","is_transit":false},{"station_name":"Kemayoran","transit":false,"station_id":"KMO","distance":1436,"time":4,"i_long":106.839204,"line":11,"i_lat":-6.161728,"is_transit":false},{"station_id":"RJW","station_name":"Rajawali","line":11,"i_long":106.836569,"i_lat":-6.14505,"transit":false,"time":5,"is_transit":false,"distance":1901},{"distance":1444,"station_id":"KPB","i_long":106.826365,"line":0,"station_name":"Kampung Bandan","transit":true,"is_transit":true,"i_lat":-6.132549,"time":3},{"is_transit":false,"distance":4102,"station_id":"AK","station_name":"Angke","i_lat":-6.144674,"i_long":106.79867,"line":0,"transit":false,"time":9},{"is_transit":true,"time":4,"distance":1230,"transit":true,"i_lat":-6.155215,"station_id":"DU","station_name":"Duri","i_long":106.800832,"line":1},{"time":8,"station_name":"Tanah Abang","transit":false,"is_transit":true,"distance":3632,"i_lat":-6.185545,"line":1,"i_long":106.811091,"station_id":"THB"},{"line":1,"is_transit":false,"time":5,"distance":2029,"i_long":106.816351,"station_name":"Karet","station_id":"KAT","i_lat":-6.20132,"transit":false},{"station_name":"Sudirman Baru","is_transit":false,"distance":471,"i_lat":-6.201433,"time":1,"station_id":"SUDB","transit":false,"line":1,"i_long":106.819881},{"i_long":106.822649,"distance":280,"station_name":"Sudirman","i_lat":-6.202263,"line":1,"transit":false,"station_id":"SUD","is_transit":false,"time":1},{"distance":3186,"is_transit":true,"station_id":"MRI","transit":true,"i_long":106.84912,"line":0,"time":4,"station_name":"Manggarai","i_lat":-6.209883},{"station_id":"TEB","station_name":"Tebet","distance":2610,"i_long":106.857948,"line":2,"is_transit":false,"transit":false,"time":4,"i_lat":-6.226659}],[{"station_name":"Metland Telaga Murni","i_lat":-6.262938,"is_transit":false,"time":0,"i_long":107.093313,"transit":false,"station_id":"TLM","distance":0,"line":1},{"distance":2800,"transit":false,"i_long":107.083084,"i_lat":-6.261877,"station_id":"CIT","is_transit":false,"time":2,"station_name":"Cibitung","line":0},{"distance":3420,"transit":false,"line":1,"time":3,"i_lat":-6.258864,"station_name":"Tambun","i_long":107.055722,"is_transit":false,"station_id":"TB"},{"time":7,"is_transit":false,"distance":4460,"i_lat":-6.248029,"line":0,"i_long":107.016735,"station_name":"Bekasi Timur","station_id":"BKST","transit":false},{"i_long":106.997013,"distance":2368,"station_id":"BKS","line":0,"i_lat":-6.236616,"station_name":"Bekasi","transit":false,"time":2,"is_transit":false},{"time":4,"distance":2520,"is_transit":false,"transit":false,"i_lat":-6.224515,"i_long":106.977657,"line":1,"station_name":"Kranji","station_id":"KRI"},{"transit":false,"distance":3097,"line":0,"is_transit":false,"i_long":106.951283,"station_name":"Cakung","i_lat":-6.219053,"time":3,"station_id":"CUK"},{"is_transit":false,"i_long":106.939679,"station_name":"Klenderbaru","transit":false,"time":8,"distance":1385,"line":1,"i_lat":-6.217455,"station_id":"KLDB"},{"i_long":106.922662,"distance":1305,"station_name":"Buaran","line":0,"is_transit":false,"transit":false,"station_id":"BUA","i_lat":-6.215568,"time":1},{"time":2,"transit":false,"line":1,"distance":3100,"station_name":"Klender","station_id":"KLD","is_transit":false,"i_lat":-6.2135,"i_long":106.899548},{"i_long":106.86807400000001,"line":0,"transit":true,"station_id":"JNG","distance":3395,"station_name":"Jatinegara","is_transit":true,"time":3,"i_lat":-6.215091},{"line":11,"station_id":"POK","distance":1236,"station_name":"Pondok Jati","time":2,"transit":false,"i_lat":-6.209188,"i_long":106.861737,"is_transit":false},{"distance":1829,"station_id":"KMT","station_name":"Kramat","i_lat":-6.193792,"line":11,"is_transit":false,"time":2,"transit":false,"i_long":106.855437},{"station_id":"GST","distance":973,"transit":false,"i_long":106.850107,"station_name":"Gang Sentiong","i_lat":-6.185975,"time":1,"is_transit":false,"line":11},{"distance":1567,"i_lat":-6.174784,"time":8,"station_name":"Pasar Senen","i_long":106.84368,"transit":false,"station_id":"PSE","is_transit":false,"line":11},{"line":11,"distance":1436,"station_name":"Kemayoran","time":4,"i_lat":-6.161728,"station_id":"KMO","i_long":106.839204,"is_transit":false,"transit":false},{"distance":1901,"station_name":"Rajawali","i_lat":-6.14505,"i_long":106.836569,"transit":false,"station_id":"RJW","is_transit":false,"line":11,"time":5},{"is_transit":true,"time":3,"station_name":"Kampung Bandan","i_lat":-6.132549,"distance":1444,"i_long":106.826365,"line":0,"station_id":"KPB","transit":true},{"station_name":"Jakarta Kota","i_lat":-6.137569,"i_long":106.812439,"time":3,"station_id":"JAKK","distance":1364,"transit":true,"line":0,"is_transit":true},{"transit":false,"line":7,"time":4,"i_long":106.820901,"is_transit":false,"distance":1264,"station_name":"Jayakarta","station_id":"JAY","i_lat":-6.141205},{"time":2,"transit":false,"line":2,"station_id":"MGB","station_name":"Manggabesar","i_long":106.82482,"is_transit":false,"i_lat":-6.149769,"distance":1080},{"is_transit":false,"i_long":106.827103,"station_name":"Sawah Besar","distance":906,"line":2,"station_id":"SW","transit":false,"time":2,"i_lat":-6.160725},{"is_transit":false,"line":2,"station_id":"JUA","station_name":"Juanda","i_lat":-6.166716,"time":2,"transit":false,"distance":1149,"i_long":106.828284},{"distance":2015,"station_id":"GDD","time":4,"i_lat":-6.186295,"i_long":106.832183,"station_name":"Gondangdia","is_transit":false,"transit":false,"line":2},{"time":3,"i_long":106.840169,"line":0,"station_id":"CKI","is_transit":false,"transit":false,"station_name":"Cikini","distance":1750,"i_lat":-6.198556},{"time":4,"distance":1590,"station_name":"Manggarai","is_transit":true,"i_long":106.84912,"station_id":"MRI","line":0,"transit":true,"i_lat":-6.209883},{"distance":2610,"line":2,"transit":false,"station_name":"Tebet","is_transit":false,"station_id":"TEB","time":4,"i_lat":-6.226659,"i_long":106.857948}]]}