{"data":[[{"distance":0,"is_transit":false,"i_long":107.093313,"time":0,"station_id":"TLM","line":1,"station_name":"Metland Telaga Murni","transit":false,"i_lat":-6.262938},{"i_long":107.083084,"i_lat":-6.261877,"station_id":"CIT","time":2,"distance":2800,"transit":false,"station_name":"Cibitung","is_transit":false,"line":1},{"station_id":"TB","is_transit":false,"distance":3420,"time":3,"i_long":107.055722,"transit":false,"line":1,"i_lat":-6.258864,"station_name":"Tambun"},{"line":1,"is_transit":false,"station_id":"BKST","station_name":"Bekasi Timur","i_long":107.016735,"distance":4460,"time":7,"transit":false,"i_lat":-6.248029},{"line":1,"station_id":"BKS","station_name":"Bekasi","i_long":106.997013,"time":2,"transit":false,"i_lat":-6.236616,"distance":2368,"is_transit":false},{"is_transit":false,"i_lat":-6.224515,"station_name":"Kranji","time":4,"distance":2520,"transit":false,"i_long":106.977657,"station_id":"KRI","line":1},{"i_lat":-6.219053,"transit":false,"line":1,"time":3,"distance":3097,"i_long":106.951283,"is_transit":false,"station_name":"Cakung","station_id":"CUK"},{"i_long":106.939679,"is_transit":false,"distance":1385,"transit":false,"time":8,"line":1,"station_id":"KLDB","station_name":"Klenderbaru","i_lat":-6.217455},{"time":1,"distance":1305,"station_id":"BUA","station_name":"Buaran","i_long":106.922662,"is_transit":false,"line":1,"i_lat":-6.215568,"transit":false},{"is_transit":false,"i_lat":-6.2135,"distance":3100,"line":1,"transit":false,"time":2,"station_name":"Klender","i_long":106.899548,"station_id":"KLD"},{"line":1,"station_id":"JNG","station_name":"Jatinegara","is_transit":false,"time":3,"distance":3395,"i_lat":-6.215091,"transit":false,"i_long":106.86807400000001},{"is_transit":false,"line":1,"station_id":"MTR","i_lat":-6.212485,"time":2,"station_name":"Matraman","distance":1377,"transit":false,"i_long":106.858896},{"is_transit":false,"line":2,"i_long":106.84912,"time":2,"transit":false,"station_id":"MRI","station_name":"Manggarai","distance":1275,"i_lat":-6.209883},{"i_long":106.822649,"station_id":"SUD","distance":3186,"is_transit":false,"i_lat":-6.202263,"line":1,"station_name":"Sudirman","time":4,"transit":false},{"station_id":"SUDB","is_transit":false,"i_lat":-6.201433,"distance":280,"transit":false,"i_long":106.819881,"line":1,"time":1,"station_name":"Sudirman Baru"},{"station_id":"KAT","distance":471,"station_name":"Karet","i_long":106.816351,"transit":false,"time":1,"is_transit":false,"i_lat":-6.20132,"line":1},{"i_long":106.811091,"station_id":"THB","transit":false,"is_transit":false,"distance":2029,"station_name":"Tanah Abang","time":5,"i_lat":-6.185545,"line":1},{"time":8,"distance":3632,"station_id":"DU","i_long":106.800832,"station_name":"Duri","is_transit":true,"transit":true,"i_lat":-6.155215,"line":1},{"time":3,"transit":false,"i_lat":-6.162021,"station_id":"GGL","i_long":106.788277,"station_name":"Grogol","distance":1700,"is_transit":false,"line":5},{"i_lat":-6.161433,"is_transit":false,"station_name":"Pesing","time":2,"i_long":106.771379,"line":5,"distance":2036,"station_id":"PSG","transit":false},{"is_transit":false,"transit":false,"distance":1614,"i_long":106.756522,"station_name":"Taman Kota","time":2,"i_lat":-6.1587309999999995,"line":5,"station_id":"TKO"},{"line":5,"transit":false,"time":2,"station_name":"Bojongindah","is_transit":false,"station_id":"BOI","i_lat":-6.159876,"i_long":106.737035,"distance":2334},{"station_id":"RW","distance":1152,"line":5,"transit":false,"is_transit":false,"time":4,"i_long":106.723064,"station_name":"Rawa Buaya","i_lat":-6.162758},{"station_name":"Kalideres","is_transit":false,"transit":false,"i_lat":-6.166068,"line":5,"distance":2504,"station_id":"KDS","i_long":106.701612,"time":3},{"distance":2548,"transit":false,"i_long":106.679458,"line":5,"is_transit":false,"station_id":"PI","time":3,"station_name":"Poris","i_lat":-6.169933},{"i_long":106.665036,"i_lat":-6.171811,"transit":false,"distance":1834,"is_transit":false,"station_name":"Batuceper","time":3,"station_id":"BPR","line":5},{"i_lat":-6.17331,"transit":false,"station_id":"TTI","is_transit":false,"i_long":106.64657,"line":5,"time":3,"distance":2028,"station_name":"Tanah Tinggi"}],[{"distance":0,"i_long":107.093313,"station_id":"TLM","transit":false,"line":1,"time":0,"station_name":"Metland Telaga Murni","is_transit":false,"i_lat":-6.262938},{"transit":false,"is_transit":false,"station_id":"CIT","i_long":107.083084,"i_lat":-6.261877,"station_name":"Cibitung","distance":2800,"line":1,"time":2},{"is_transit":false,"distance":3420,"line":1,"transit":false,"station_id":"TB","time":3,"i_long":107.055722,"i_lat":-6.258864,"station_name":"Tambun"},{"time":7,"i_lat":-6.248029,"line":1,"station_name":"Bekasi Timur","distance":4460,"transit":false,"i_long":107.016735,"station_id":"BKST","is_transit":false},{"distance":2368,"time":2,"i_long":106.997013,"is_transit":false,"station_name":"Bekasi","transit":false,"station_id":"BKS","i_lat":-6.236616,"line":1},{"line":1,"is_transit":false,"i_lat":-6.224515,"distance":2520,"station_id":"KRI","time":4,"station_name":"Kranji","transit":false,"i_long":106.977657},{"time":3,"i_lat":-6.219053,"transit":false,"station_name":"Cakung","i_long":106.951283,"distance":3097,"line":1,"station_id":"CUK","is_transit":false},{"transit":false,"station_name":"Klenderbaru","line":1,"distance":1385,"is_transit":false,"time":8,"station_id":"KLDB","i_long":106.939679,"i_lat":-6.217455},{"i_lat":-6.215568,"i_long":106.922662,"line":1,"station_id":"BUA","time":1,"distance":1305,"station_name":"Buaran","is_transit":false,"transit":false},{"is_transit":false,"time":2,"i_lat":-6.2135,"station_name":"Klender","distance":3100,"station_id":"KLD","transit":false,"i_long":106.899548,"line":1},{"station_name":"Jatinegara","i_long":106.86807400000001,"line":1,"time":3,"i_lat":-6.215091,"distance":3395,"transit":true,"is_transit":true,"station_id":"JNG"},{"is_transit":false,"time":2,"i_lat":-6.209188,"station_id":"POK","station_name":"Pondok Jati","line":11,"distance":1236,"i_long":106.861737,"transit":false},{"distance":1829,"station_id":"KMT","transit":false,"is_transit":false,"i_lat":-6.193792,"i_long":106.855437,"station_name":"Kramat","line":11,"time":2},{"line":11,"station_id":"GST","transit":false,"i_lat":-6.185975,"is_transit":false,"time":1,"distance":973,"i_long":106.850107,"station_name":"Gang Sentiong"},{"distance":1567,"transit":false,"i_lat":-6.174784,"line":11,"station_name":"Pasar Senen","station_id":"PSE","is_transit":false,"time":8,"i_long":106.84368},{"i_long":106.839204,"station_id":"KMO","time":4,"distance":1436,"i_lat":-6.161728,"transit":false,"station_name":"Kemayoran","is_transit":false,"line":11},{"line":11,"station_name":"Rajawali","distance":1901,"time":5,"i_lat":-6.14505,"i_long":106.836569,"station_id":"RJW","transit":false,"is_transit":false},{"station_id":"KPB","distance":1444,"transit":true,"station_name":"Kampung Bandan","time":3,"is_transit":true,"line":4,"i_lat":-6.132549,"i_long":106.826365},{"transit":false,"station_name":"Angke","distance":4102,"i_lat":-6.144674,"i_long":106.79867,"is_transit":false,"line":1,"station_id":"AK","time":9},{"station_id":"DU","transit":true,"time":4,"is_transit":true,"distance":1230,"i_long":106.800832,"line":1,"station_name":"Duri","i_lat":-6.155215},{"distance":1700,"line":5,"transit":false,"i_long":106.788277,"time":3,"station_name":"Grogol","is_transit":false,"station_id":"GGL","i_lat":-6.162021},{"distance":2036,"transit":false,"i_lat":-6.161433,"is_transit":false,"i_long":106.771379,"time":2,"line":5,"station_id":"PSG","station_name":"Pesing"},{"transit":false,"line":5,"i_long":106.756522,"is_transit":false,"distance":1614,"station_name":"Taman Kota","time":2,"station_id":"TKO","i_lat":-6.1587309999999995},{"i_long":106.737035,"station_id":"BOI","distance":2334,"line":5,"is_transit":false,"i_lat":-6.159876,"transit":false,"time":2,"station_name":"Bojongindah"},{"transit":false,"distance":1152,"i_long":106.723064,"is_transit":false,"time":4,"station_name":"Rawa Buaya","line":5,"i_lat":-6.162758,"station_id":"RW"},{"station_id":"KDS","transit":false,"station_name":"Kalideres","distance":2504,"i_lat":-6.166068,"line":5,"i_long":106.701612,"is_transit":false,"time":3},{"time":3,"i_lat":-6.169933,"line":5,"transit":false,"is_transit":false,"i_long":106.679458,"station_id":"PI","distance":2548,"station_name":"Poris"},{"i_long":106.665036,"time":3,"is_transit":false,"transit":false,"station_id":"BPR","line":5,"distance":1834,"station_name":"Batuceper","i_lat":-6.171811},{"line":5,"station_name":"Tanah Tinggi","i_lat":-6.17331,"station_id":"TTI","transit":false,"i_long":106.64657,"is_transit":false,"time":3,"distance":2028}],[{"time":0,"station_id":"TLM","is_transit":false,"distance":0,"line":1,"transit":false,"i_lat":-6.262938,"station_name":"Metland Telaga Murni","i_long":107.093313},{"i_long":107.083084,"is_transit":false,"time":2,"line":1,"i_lat":-6.261877,"station_id":"CIT","distance":2800,"station_name":"Cibitung","transit":false},{"i_long":107.055722,"time":3,"transit":false,"station_id":"TB","distance":3420,"i_lat":-6.258864,"station_name":"Tambun","is_transit":false,"line":1},{"line":1,"station_id":"BKST","is_transit":false,"time":7,"transit":false,"distance":4460,"station_name":"Bekasi Timur","i_lat":-6.248029,"i_long":107.016735},{"i_lat":-6.236616,"station_name":"Bekasi","station_id":"BKS","is_transit":false,"line":1,"distance":2368,"transit":false,"time":2,"i_long":106.997013},{"time":4,"transit":false,"station_name":"Kranji","station_id":"KRI","i_long":106.977657,"distance":2520,"i_lat":-6.224515,"is_transit":false,"line":1},{"time":3,"is_transit":false,"station_id":"CUK","distance":3097,"transit":false,"i_long":106.951283,"i_lat":-6.219053,"station_name":"Cakung","line":1},{"station_id":"KLDB","line":1,"i_lat":-6.217455,"time":8,"distance":1385,"i_long":106.939679,"transit":false,"station_name":"Klenderbaru","is_transit":false},{"distance":1305,"i_long":106.922662,"station_name":"Buaran","time":1,"i_lat":-6.215568,"transit":false,"line":1,"is_transit":false,"station_id":"BUA"},{"line":1,"station_name":"Klender","station_id":"KLD","distance":3100,"i_long":106.899548,"is_transit":false,"transit":false,"time":2,"i_lat":-6.2135},{"station_id":"JNG","transit":false,"time":3,"station_name":"Jatinegara","i_lat":-6.215091,"is_transit":false,"line":1,"i_long":106.86807400000001,"distance":3395},{"i_long":106.858896,"distance":1377,"time":2,"is_transit":false,"transit":false,"i_lat":-6.212485,"station_id":"MTR","station_name":"Matraman","line":1},{"transit":true,"station_id":"MRI","i_lat":-6.209883,"distance":1275,"time":2,"line":2,"is_transit":true,"station_name":"Manggarai","i_long":106.84912},{"station_id":"CKI","transit":false,"line":2,"i_lat":-6.198556,"i_long":106.840169,"time":4,"station_name":"Cikini","distance":1590,"is_transit":false},{"distance":1750,"station_id":"GDD","i_long":106.832183,"time":3,"station_name":"Gondangdia","i_lat":-6.186295,"is_transit":false,"transit":false,"line":2},{"i_long":106.828284,"transit":false,"station_id":"JUA","distance":2015,"time":4,"line":2,"station_name":"Juanda","is_transit":false,"i_lat":-6.166716},{"distance":1149,"transit":false,"i_long":106.827103,"station_name":"Sawah Besar","i_lat":-6.160725,"line":2,"is_transit":false,"station_id":"SW","time":2},{"station_name":"Manggabesar","line":2,"i_lat":-6.149769,"transit":false,"station_id":"MGB","is_transit":false,"distance":906,"i_long":106.82482,"time":2},{"transit":false,"i_lat":-6.141205,"line":2,"station_name":"Jayakarta","time":2,"distance":1080,"i_long":106.820901,"station_id":"JAY","is_transit":false},{"is_transit":true,"station_id":"JAKK","station_name":"Jakarta Kota","transit":true,"distance":1264,"i_lat":-6.137569,"line":2,"time":4,"i_long":106.812439},{"station_id":"KPB","station_name":"Kampung Bandan","distance":1364,"is_transit":true,"time":3,"transit":true,"i_lat":-6.132549,"i_long":106.826365,"line":4},{"i_lat":-6.144674,"time":9,"station_id":"AK","distance":4102,"line":1,"station_name":"Angke","i_long":106.79867,"is_transit":false,"transit":false},{"line":1,"transit":true,"time":4,"distance":1230,"station_name":"Duri","is_transit":true,"station_id":"DU","i_lat":-6.155215,"i_long":106.800832},{"station_id":"GGL","distance":1700,"i_long":106.788277,"time":3,"station_name":"Grogol","is_transit":false,"i_lat":-6.162021,"transit":false,"line":5},{"station_name":"Pesing","i_long":106.771379,"station_id":"PSG","distance":2036,"i_lat":-6.161433,"time":2,"transit":false,"line":5,"is_transit":false},{"is_transit":false,"distance":1614,"i_lat":-6.1587309999999995,"i_long":106.756522,"station_id":"TKO","time":2,"line":5,"station_name":"Taman Kota","transit":false},{"distance":2334,"transit":false,"is_transit":false,"time":2,"station_name":"Bojongindah","line":5,"station_id":"BOI","i_long":106.737035,"i_lat":-6.159876},{"transit":false,"i_lat":-6.162758,"i_long":106.723064,"line":5,"distance":1152,"time":4,"is_transit":false,"station_id":"RW","station_name":"Rawa Buaya"},{"distance":2504,"i_lat":-6.166068,"station_name":"Kalideres","line":5,"transit":false,"i_long":106.701612,"is_transit":false,"time":3,"station_id":"KDS"},{"i_long":106.679458,"station_name":"Poris","time":3,"station_id":"PI","is_transit":false,"transit":false,"i_lat":-6.169933,"line":5,"distance":2548},{"transit":false,"station_name":"Batuceper","station_id":"BPR","line":5,"time":3,"i_long":106.665036,"i_lat":-6.171811,"is_transit":false,"distance":1834},{"is_transit":false,"station_id":"TTI","time":3,"distance":2028,"line":5,"i_long":106.64657,"i_lat":-6.17331,"station_name":"Tanah Tinggi","transit":false}],[{"line":1,"time":0,"is_transit":false,"i_lat":-6.262938,"distance":0,"station_name":"Metland Telaga Murni","station_id":"TLM","transit":false,"i_long":107.093313},{"line":1,"i_long":107.083084,"i_lat":-6.261877,"station_name":"Cibitung","distance":2800,"is_transit":false,"time":2,"transit":false,"station_id":"CIT"},{"station_name":"Tambun","station_id":"TB","time":3,"distance":3420,"transit":false,"i_lat":-6.258864,"is_transit":false,"i_long":107.055722,"line":1},{"time":7,"distance":4460,"transit":false,"line":1,"station_name":"Bekasi Timur","i_lat":-6.248029,"i_long":107.016735,"is_transit":false,"station_id":"BKST"},{"time":2,"i_long":106.997013,"station_name":"Bekasi","transit":false,"i_lat":-6.236616,"station_id":"BKS","line":1,"distance":2368,"is_transit":false},{"i_lat":-6.224515,"station_name":"Kranji","time":4,"transit":false,"i_long":106.977657,"line":1,"distance":2520,"is_transit":false,"station_id":"KRI"},{"distance":3097,"transit":false,"i_lat":-6.219053,"station_id":"CUK","time":3,"line":1,"i_long":106.951283,"station_name":"Cakung","is_transit":false},{"time":8,"line":1,"station_id":"KLDB","is_transit":false,"station_name":"Klenderbaru","transit":false,"i_lat":-6.217455,"distance":1385,"i_long":106.939679},{"line":1,"transit":false,"distance":1305,"station_id":"BUA","is_transit":false,"time":1,"station_name":"Buaran","i_long":106.922662,"i_lat":-6.215568},{"station_id":"KLD","i_long":106.899548,"i_lat":-6.2135,"is_transit":false,"time":2,"transit":false,"station_name":"Klender","line":1,"distance":3100},{"transit":true,"station_id":"JNG","distance":3395,"i_long":106.86807400000001,"time":3,"station_name":"Jatinegara","is_transit":true,"line":1,"i_lat":-6.215091},{"station_name":"Pondok Jati","i_long":106.861737,"distance":1236,"line":11,"station_id":"POK","is_transit":false,"i_lat":-6.209188,"transit":false,"time":2},{"transit":false,"station_id":"KMT","i_lat":-6.193792,"distance":1829,"i_long":106.855437,"line":11,"station_name":"Kramat","is_transit":false,"time":2},{"line":11,"is_transit":false,"station_id":"GST","i_lat":-6.185975,"time":1,"transit":false,"distance":973,"station_name":"Gang Sentiong","i_long":106.850107},{"station_id":"PSE","distance":1567,"line":11,"i_lat":-6.174784,"i_long":106.84368,"is_transit":false,"time":8,"transit":false,"station_name":"Pasar Senen"},{"distance":1436,"station_name":"Kemayoran","station_id":"KMO","transit":false,"line":11,"i_lat":-6.161728,"is_transit":false,"i_long":106.839204,"time":4},{"time":5,"station_name":"Rajawali","i_long":106.836569,"i_lat":-6.14505,"station_id":"RJW","distance":1901,"line":11,"transit":false,"is_transit":false},{"i_lat":-6.132549,"transit":true,"station_id":"KPB","time":3,"i_long":106.826365,"is_transit":true,"distance":1444,"line":4,"station_name":"Kampung Bandan"},{"line":2,"station_name":"Jakarta Kota","i_long":106.812439,"is_transit":true,"station_id":"JAKK","transit":true,"distance":1364,"i_lat":-6.137569,"time":3},{"station_id":"JAY","is_transit":false,"i_lat":-6.141205,"line":2,"transit":false,"time":4,"i_long":106.820901,"station_name":"Jayakarta","distance":1264},{"line":2,"transit":false,"station_id":"MGB","station_name":"Manggabesar","time":2,"is_transit":false,"distance":1080,"i_lat":-6.149769,"i_long":106.82482},{"station_id":"SW","i_long":106.827103,"is_transit":false,"line":2,"time":2,"distance":906,"station_name":"Sawah Besar","i_lat":-6.160725,"transit":false},{"station_id":"JUA","distance":1149,"line":2,"station_name":"Juanda","transit":false,"i_long":106.828284,"is_transit":false,"time":2,"i_lat":-6.166716},{"distance":2015,"station_id":"GDD","i_lat":-6.186295,"is_transit":false,"line":2,"i_long":106.832183,"transit":false,"station_name":"Gondangdia","time":4},{"line":2,"i_lat":-6.198556,"station_id":"CKI","time":3,"distance":1750,"station_name":"Cikini","i_long":106.840169,"is_transit":false,"transit":false},{"station_id":"MRI","i_long":106.84912,"time":4,"station_name":"Manggarai","distance":1590,"is_transit":true,"line":2,"i_lat":-6.209883,"transit":true},{"i_long":106.822649,"station_name":"Sudirman","time":4,"i_lat":-6.202263,"is_transit":false,"distance":3186,"transit":false,"line":1,"station_id":"SUD"},{"is_transit":false,"time":1,"transit":false,"distance":280,"station_id":"SUDB","station_name":"Sudirman Baru","i_lat":-6.201433,"i_long":106.819881,"line":1},{"i_lat":-6.20132,"distance":471,"i_long":106.816351,"station_name":"Karet","station_id":"KAT","is_transit":false,"time":1,"line":1,"transit":false},{"i_lat":-6.185545,"is_transit":false,"time":5,"line":1,"station_id":"THB","distance":2029,"transit":false,"station_name":"Tanah Abang","i_long":106.811091},{"distance":3632,"station_id":"DU","is_transit":true,"time":8,"transit":true,"i_long":106.800832,"station_name":"Duri","i_lat":-6.155215,"line":1},{"i_long":106.788277,"station_id":"GGL","is_transit":false,"station_name":"Grogol","distance":1700,"line":5,"transit":false,"i_lat":-6.162021,"time":3},{"station_id":"PSG","transit":false,"line":5,"distance":2036,"is_transit":false,"time":2,"i_long":106.771379,"i_lat":-6.161433,"station_name":"Pesing"},{"station_name":"Taman Kota","time":2,"distance":1614,"transit":false,"line":5,"i_lat":-6.1587309999999995,"i_long":106.756522,"station_id":"TKO","is_transit":false},{"i_long":106.737035,"is_transit":false,"distance":2334,"line":5,"station_name":"Bojongindah","time":2,"i_lat":-6.159876,"station_id":"BOI","transit":false},{"distance":1152,"time":4,"transit":false,"station_name":"Rawa Buaya","i_lat":-6.162758,"is_transit":false,"line":5,"i_long":106.723064,"station_id":"RW"},{"distance":2504,"time":3,"i_lat":-6.166068,"station_name":"Kalideres","line":5,"transit":false,"station_id":"KDS","i_long":106.701612,"is_transit":false},{"station_id":"PI","i_long":106.679458,"station_name":"Poris","transit":false,"is_transit":false,"i_lat":-6.169933,"time":3,"distance":2548,"line":5},{"time":3,"station_id":"BPR","transit":false,"i_lat":-6.171811,"line":5,"i_long":106.665036,"is_transit":false,"distance":1834,"station_name":"Batuceper"},{"time":3,"station_name":"Tanah Tinggi","is_transit":false,"station_id":"TTI","i_lat":-6.17331,"i_long":106.64657,"transit":false,"line":5,"distance":2028}]]}