{"data":[[{"time":0,"station_id":"TLM","i_lat":-6.262938,"i_long":107.093313,"distance":0,"line":1,"transit":false,"is_transit":false,"station_name":"Metland Telaga Murni"},{"line":1,"i_lat":-6.261877,"station_name":"Cibitung","transit":false,"distance":2800,"time":2,"station_id":"CIT","is_transit":false,"i_long":107.083084},{"i_long":107.055722,"i_lat":-6.258864,"line":1,"is_transit":false,"transit":false,"time":3,"station_name":"Tambun","distance":3420,"station_id":"TB"},{"time":7,"distance":4460,"i_lat":-6.248029,"station_id":"BKST","transit":false,"line":1,"is_transit":false,"i_long":107.016735,"station_name":"Bekasi Timur"},{"station_id":"BKS","i_long":106.997013,"transit":false,"distance":2368,"is_transit":false,"i_lat":-6.236616,"line":1,"time":2,"station_name":"Bekasi"},{"i_lat":-6.224515,"i_long":106.977657,"station_id":"KRI","distance":2520,"transit":false,"time":4,"station_name":"Kranji","line":1,"is_transit":false},{"station_id":"CUK","time":3,"line":1,"transit":false,"i_lat":-6.219053,"i_long":106.951283,"is_transit":false,"distance":3097,"station_name":"Cakung"},{"i_lat":-6.217455,"line":1,"transit":false,"is_transit":false,"i_long":106.939679,"distance":1385,"time":8,"station_id":"KLDB","station_name":"Klenderbaru"},{"distance":1305,"i_long":106.922662,"transit":false,"time":1,"i_lat":-6.215568,"station_id":"BUA","is_transit":false,"line":1,"station_name":"Buaran"},{"transit":false,"time":2,"station_id":"KLD","distance":3100,"station_name":"Klender","is_transit":false,"i_long":106.899548,"line":1,"i_lat":-6.2135},{"transit":true,"station_name":"Jatinegara","i_lat":-6.215091,"distance":3395,"is_transit":true,"station_id":"JNG","time":3,"i_long":106.86807400000001,"line":1},{"is_transit":false,"time":2,"line":11,"transit":false,"distance":1236,"station_id":"POK","station_name":"Pondok Jati","i_lat":-6.209188,"i_long":106.861737},{"station_id":"KMT","station_name":"Kramat","is_transit":false,"distance":1829,"time":2,"transit":false,"line":11,"i_long":106.855437,"i_lat":-6.193792},{"is_transit":false,"transit":false,"time":1,"i_long":106.850107,"i_lat":-6.185975,"distance":973,"station_name":"Gang Sentiong","station_id":"GST","line":11}],[{"distance":0,"i_lat":-6.262938,"i_long":107.093313,"line":1,"is_transit":false,"transit":false,"time":0,"station_id":"TLM","station_name":"Metland Telaga Murni"},{"distance":2800,"transit":false,"is_transit":false,"station_id":"CIT","i_lat":-6.261877,"i_long":107.083084,"time":2,"station_name":"Cibitung","line":1},{"is_transit":false,"i_lat":-6.258864,"transit":false,"line":1,"station_name":"Tambun","time":3,"i_long":107.055722,"distance":3420,"station_id":"TB"},{"station_id":"BKST","i_long":107.016735,"line":1,"time":7,"station_name":"Bekasi Timur","is_transit":false,"i_lat":-6.248029,"distance":4460,"transit":false},{"station_name":"Bekasi","station_id":"BKS","i_lat":-6.236616,"i_long":106.997013,"distance":2368,"transit":false,"is_transit":false,"time":2,"line":1},{"transit":false,"i_lat":-6.224515,"is_transit":false,"station_id":"KRI","station_name":"Kranji","distance":2520,"i_long":106.977657,"line":1,"time":4},{"transit":false,"station_name":"Cakung","i_long":106.951283,"station_id":"CUK","is_transit":false,"line":1,"distance":3097,"time":3,"i_lat":-6.219053},{"i_long":106.939679,"is_transit":false,"i_lat":-6.217455,"distance":1385,"line":1,"transit":false,"time":8,"station_name":"Klenderbaru","station_id":"KLDB"},{"i_long":106.922662,"station_name":"Buaran","line":1,"station_id":"BUA","is_transit":false,"time":1,"i_lat":-6.215568,"transit":false,"distance":1305},{"distance":3100,"time":2,"transit":false,"station_id":"KLD","i_lat":-6.2135,"station_name":"Klender","i_long":106.899548,"line":1,"is_transit":false},{"transit":false,"distance":3395,"time":3,"station_name":"Jatinegara","line":1,"is_transit":false,"i_lat":-6.215091,"station_id":"JNG","i_long":106.86807400000001},{"time":2,"is_transit":false,"station_name":"Matraman","station_id":"MTR","distance":1377,"i_long":106.858896,"line":1,"transit":false,"i_lat":-6.212485},{"station_id":"MRI","time":2,"transit":false,"distance":1275,"station_name":"Manggarai","i_lat":-6.209883,"line":2,"i_long":106.84912,"is_transit":false},{"is_transit":false,"i_lat":-6.202263,"station_name":"Sudirman","line":1,"time":4,"i_long":106.822649,"distance":3186,"transit":false,"station_id":"SUD"},{"i_long":106.819881,"station_id":"SUDB","station_name":"Sudirman Baru","i_lat":-6.201433,"transit":false,"distance":280,"is_transit":false,"time":1,"line":1},{"distance":471,"is_transit":false,"i_lat":-6.20132,"station_id":"KAT","line":1,"transit":false,"i_long":106.816351,"station_name":"Karet","time":1},{"i_lat":-6.185545,"i_long":106.811091,"time":5,"station_id":"THB","line":1,"distance":2029,"transit":false,"station_name":"Tanah Abang","is_transit":false},{"station_name":"Duri","station_id":"DU","i_long":106.800832,"line":1,"transit":false,"time":8,"distance":3632,"is_transit":false,"i_lat":-6.155215},{"line":1,"distance":1230,"time":4,"station_id":"AK","transit":false,"i_long":106.79867,"i_lat":-6.144674,"is_transit":false,"station_name":"Angke"},{"station_id":"KPB","line":4,"is_transit":true,"time":9,"station_name":"Kampung Bandan","transit":true,"i_long":106.826365,"distance":4102,"i_lat":-6.132549},{"transit":false,"station_name":"Rajawali","time":3,"i_long":106.836569,"line":11,"is_transit":false,"station_id":"RJW","distance":1444,"i_lat":-6.14505},{"transit":false,"i_lat":-6.161728,"distance":1901,"is_transit":false,"station_id":"KMO","i_long":106.839204,"station_name":"Kemayoran","time":5,"line":11},{"i_lat":-6.174784,"i_long":106.84368,"transit":false,"time":4,"station_name":"Pasar Senen","station_id":"PSE","distance":1436,"line":11,"is_transit":false},{"station_id":"GST","time":8,"distance":1567,"station_name":"Gang Sentiong","i_lat":-6.185975,"line":11,"transit":false,"i_long":106.850107,"is_transit":false}],[{"i_long":107.093313,"station_name":"Metland Telaga Murni","is_transit":false,"i_lat":-6.262938,"transit":false,"distance":0,"station_id":"TLM","line":1,"time":0},{"is_transit":false,"transit":false,"i_lat":-6.261877,"line":1,"station_name":"Cibitung","time":2,"i_long":107.083084,"station_id":"CIT","distance":2800},{"distance":3420,"is_transit":false,"line":1,"station_name":"Tambun","time":3,"i_lat":-6.258864,"transit":false,"i_long":107.055722,"station_id":"TB"},{"station_name":"Bekasi Timur","transit":false,"is_transit":false,"station_id":"BKST","time":7,"line":1,"i_long":107.016735,"distance":4460,"i_lat":-6.248029},{"transit":false,"time":2,"station_id":"BKS","i_long":106.997013,"station_name":"Bekasi","distance":2368,"i_lat":-6.236616,"line":1,"is_transit":false},{"distance":2520,"i_lat":-6.224515,"line":1,"time":4,"station_name":"Kranji","i_long":106.977657,"transit":false,"station_id":"KRI","is_transit":false},{"is_transit":false,"line":1,"station_id":"CUK","i_lat":-6.219053,"i_long":106.951283,"time":3,"station_name":"Cakung","distance":3097,"transit":false},{"time":8,"station_name":"Klenderbaru","distance":1385,"transit":false,"is_transit":false,"station_id":"KLDB","line":1,"i_lat":-6.217455,"i_long":106.939679},{"station_id":"BUA","line":1,"i_lat":-6.215568,"transit":false,"station_name":"Buaran","is_transit":false,"i_long":106.922662,"time":1,"distance":1305},{"distance":3100,"time":2,"i_lat":-6.2135,"line":1,"transit":false,"station_id":"KLD","i_long":106.899548,"is_transit":false,"station_name":"Klender"},{"station_id":"JNG","time":3,"station_name":"Jatinegara","is_transit":false,"line":1,"i_lat":-6.215091,"distance":3395,"transit":false,"i_long":106.86807400000001},{"station_id":"MTR","line":1,"i_long":106.858896,"station_name":"Matraman","is_transit":false,"i_lat":-6.212485,"transit":false,"distance":1377,"time":2},{"transit":true,"time":2,"i_long":106.84912,"i_lat":-6.209883,"station_id":"MRI","distance":1275,"station_name":"Manggarai","is_transit":true,"line":2},{"distance":1590,"i_long":106.840169,"is_transit":false,"line":2,"transit":false,"time":4,"station_name":"Cikini","station_id":"CKI","i_lat":-6.198556},{"is_transit":false,"distance":1750,"station_name":"Gondangdia","i_lat":-6.186295,"time":3,"transit":false,"i_long":106.832183,"line":2,"station_id":"GDD"},{"transit":false,"station_name":"Juanda","line":2,"distance":2015,"is_transit":false,"i_long":106.828284,"time":4,"i_lat":-6.166716,"station_id":"JUA"},{"i_lat":-6.160725,"station_id":"SW","distance":1149,"line":2,"is_transit":false,"i_long":106.827103,"transit":false,"station_name":"Sawah Besar","time":2},{"time":2,"is_transit":false,"transit":false,"station_name":"Manggabesar","i_long":106.82482,"distance":906,"i_lat":-6.149769,"line":2,"station_id":"MGB"},{"transit":false,"time":2,"is_transit":false,"distance":1080,"station_id":"JAY","i_lat":-6.141205,"line":2,"i_long":106.820901,"station_name":"Jayakarta"},{"i_long":106.812439,"transit":true,"distance":1264,"line":2,"is_transit":true,"station_id":"JAKK","time":4,"station_name":"Jakarta Kota","i_lat":-6.137569},{"transit":true,"station_id":"KPB","i_long":106.826365,"time":3,"station_name":"Kampung Bandan","line":4,"distance":1364,"i_lat":-6.132549,"is_transit":true},{"i_lat":-6.14505,"station_id":"RJW","is_transit":false,"transit":false,"time":3,"station_name":"Rajawali","line":11,"distance":1444,"i_long":106.836569},{"station_name":"Kemayoran","station_id":"KMO","transit":false,"is_transit":false,"i_lat":-6.161728,"line":11,"time":5,"distance":1901,"i_long":106.839204},{"station_id":"PSE","distance":1436,"station_name":"Pasar Senen","transit":false,"time":4,"is_transit":false,"i_lat":-6.174784,"i_long":106.84368,"line":11},{"station_id":"GST","transit":false,"station_name":"Gang Sentiong","line":11,"is_transit":false,"i_lat":-6.185975,"time":8,"i_long":106.850107,"distance":1567}]]}