{"data":[[{"i_lat":-6.262938,"is_transit":false,"distance":0,"i_long":107.093313,"station_id":"TLM","transit":false,"time":0,"station_name":"Metland Telaga Murni","line":1},{"i_lat":-6.261877,"transit":false,"station_name":"Cibitung","line":1,"time":2,"distance":2800,"station_id":"CIT","i_long":107.083084,"is_transit":false},{"transit":false,"distance":3420,"i_long":107.055722,"i_lat":-6.258864,"station_name":"Tambun","time":3,"is_transit":false,"station_id":"TB","line":1},{"i_lat":-6.248029,"station_id":"BKST","distance":4460,"station_name":"Bekasi Timur","time":7,"line":1,"i_long":107.016735,"is_transit":false,"transit":false},{"line":1,"station_name":"Bekasi","distance":2368,"is_transit":false,"station_id":"BKS","i_lat":-6.236616,"i_long":106.997013,"time":2,"transit":false},{"i_lat":-6.224515,"transit":false,"time":4,"station_id":"KRI","i_long":106.977657,"line":1,"is_transit":false,"station_name":"Kranji","distance":2520},{"line":1,"distance":3097,"transit":false,"is_transit":false,"i_lat":-6.219053,"i_long":106.951283,"station_name":"Cakung","station_id":"CUK","time":3},{"i_long":106.939679,"line":1,"distance":1385,"i_lat":-6.217455,"is_transit":false,"station_name":"Klenderbaru","transit":false,"time":8,"station_id":"KLDB"},{"i_lat":-6.215568,"is_transit":false,"distance":1305,"station_id":"BUA","transit":false,"station_name":"Buaran","line":1,"i_long":106.922662,"time":1},{"time":2,"i_long":106.899548,"line":1,"station_id":"KLD","distance":3100,"is_transit":false,"transit":false,"station_name":"Klender","i_lat":-6.2135},{"station_id":"JNG","is_transit":false,"time":3,"distance":3395,"i_lat":-6.215091,"i_long":106.86807400000001,"transit":false,"station_name":"Jatinegara","line":1},{"distance":1377,"i_lat":-6.212485,"is_transit":false,"transit":false,"time":2,"line":1,"station_id":"MTR","i_long":106.858896,"station_name":"Matraman"},{"distance":1275,"time":2,"station_id":"MRI","i_lat":-6.209883,"line":2,"station_name":"Manggarai","transit":false,"i_long":106.84912,"is_transit":false},{"transit":false,"i_long":106.822649,"station_id":"SUD","i_lat":-6.202263,"is_transit":false,"time":4,"distance":3186,"station_name":"Sudirman","line":1},{"station_name":"Sudirman Baru","line":1,"i_long":106.819881,"time":1,"i_lat":-6.201433,"transit":false,"is_transit":false,"station_id":"SUDB","distance":280},{"distance":471,"line":1,"time":1,"station_id":"KAT","i_lat":-6.20132,"transit":false,"i_long":106.816351,"station_name":"Karet","is_transit":false},{"i_lat":-6.185545,"is_transit":true,"distance":2029,"station_name":"Tanah Abang","transit":true,"line":1,"station_id":"THB","i_long":106.811091,"time":5},{"i_long":106.79689,"distance":3191,"line":6,"transit":false,"i_lat":-6.207404,"time":6,"station_name":"Palmerah","station_id":"PLM","is_transit":false},{"transit":false,"station_name":"Kebayoran","time":7,"i_lat":-6.237242,"is_transit":false,"station_id":"KBY","i_long":106.780334,"distance":3737,"line":6},{"station_id":"PDJ","distance":6218,"i_lat":-6.276362,"time":8,"transit":false,"station_name":"Pondokranji","i_long":106.74273,"line":6,"is_transit":false},{"station_id":"JMU","time":3,"i_lat":-6.288927,"is_transit":false,"i_long":106.728916,"line":6,"distance":2179,"station_name":"Jurangmangu","transit":false},{"i_long":106.712277,"transit":false,"time":4,"is_transit":false,"line":6,"station_name":"Sudimara","i_lat":-6.296963,"station_id":"SDM","distance":1994},{"station_id":"RU","time":6,"station_name":"Rawa Buntu","transit":false,"i_lat":-6.314823,"i_long":106.675475,"distance":4566,"is_transit":false,"line":6},{"i_long":106.66566,"line":6,"is_transit":false,"station_id":"SRP","transit":false,"i_lat":-6.319871,"station_name":"Serpong","distance":2413,"time":4},{"station_id":"CSK","transit":false,"distance":1784,"time":4,"is_transit":false,"i_long":106.640411,"i_lat":-6.32484,"line":3,"station_name":"Cisauk"}],[{"distance":0,"i_long":107.093313,"i_lat":-6.262938,"is_transit":false,"transit":false,"time":0,"station_id":"TLM","line":1,"station_name":"Metland Telaga Murni"},{"station_name":"Cibitung","is_transit":false,"time":2,"i_lat":-6.261877,"line":1,"distance":2800,"i_long":107.083084,"station_id":"CIT","transit":false},{"time":3,"i_lat":-6.258864,"line":1,"station_id":"TB","transit":false,"distance":3420,"i_long":107.055722,"station_name":"Tambun","is_transit":false},{"i_lat":-6.248029,"line":1,"time":7,"station_id":"BKST","i_long":107.016735,"distance":4460,"station_name":"Bekasi Timur","is_transit":false,"transit":false},{"transit":false,"station_id":"BKS","time":2,"line":1,"i_long":106.997013,"station_name":"Bekasi","i_lat":-6.236616,"is_transit":false,"distance":2368},{"i_lat":-6.224515,"time":4,"station_id":"KRI","distance":2520,"is_transit":false,"transit":false,"station_name":"Kranji","i_long":106.977657,"line":1},{"distance":3097,"is_transit":false,"station_name":"Cakung","line":1,"transit":false,"time":3,"i_lat":-6.219053,"station_id":"CUK","i_long":106.951283},{"station_name":"Klenderbaru","i_long":106.939679,"line":1,"is_transit":false,"time":8,"distance":1385,"i_lat":-6.217455,"transit":false,"station_id":"KLDB"},{"i_lat":-6.215568,"i_long":106.922662,"is_transit":false,"station_name":"Buaran","time":1,"transit":false,"station_id":"BUA","distance":1305,"line":1},{"station_id":"KLD","transit":false,"station_name":"Klender","is_transit":false,"i_lat":-6.2135,"line":1,"distance":3100,"time":2,"i_long":106.899548},{"i_lat":-6.215091,"i_long":106.86807400000001,"station_name":"Jatinegara","time":3,"station_id":"JNG","distance":3395,"line":1,"transit":true,"is_transit":true},{"transit":false,"distance":1236,"i_lat":-6.209188,"station_id":"POK","line":11,"is_transit":false,"time":2,"i_long":106.861737,"station_name":"Pondok Jati"},{"i_lat":-6.193792,"transit":false,"station_id":"KMT","i_long":106.855437,"time":2,"line":11,"is_transit":false,"distance":1829,"station_name":"Kramat"},{"station_name":"Gang Sentiong","i_long":106.850107,"station_id":"GST","i_lat":-6.185975,"time":1,"line":11,"is_transit":false,"transit":false,"distance":973},{"is_transit":false,"station_id":"PSE","station_name":"Pasar Senen","distance":1567,"transit":false,"line":11,"time":8,"i_lat":-6.174784,"i_long":106.84368},{"distance":1436,"i_lat":-6.161728,"line":11,"transit":false,"i_long":106.839204,"is_transit":false,"time":4,"station_id":"KMO","station_name":"Kemayoran"},{"station_name":"Rajawali","i_lat":-6.14505,"transit":false,"station_id":"RJW","time":5,"is_transit":false,"i_long":106.836569,"line":11,"distance":1901},{"distance":1444,"station_id":"KPB","i_long":106.826365,"time":3,"is_transit":true,"line":4,"transit":true,"station_name":"Kampung Bandan","i_lat":-6.132549},{"i_lat":-6.144674,"i_long":106.79867,"transit":false,"station_id":"AK","line":1,"is_transit":false,"station_name":"Angke","distance":4102,"time":9},{"transit":false,"station_name":"Duri","is_transit":false,"line":1,"i_long":106.800832,"station_id":"DU","i_lat":-6.155215,"time":4,"distance":1230},{"station_name":"Tanah Abang","i_lat":-6.185545,"distance":3632,"i_long":106.811091,"station_id":"THB","transit":true,"time":8,"line":1,"is_transit":true},{"distance":3191,"i_long":106.79689,"line":6,"station_name":"Palmerah","station_id":"PLM","is_transit":false,"time":6,"transit":false,"i_lat":-6.207404},{"is_transit":false,"station_name":"Kebayoran","line":6,"distance":3737,"time":7,"i_lat":-6.237242,"i_long":106.780334,"transit":false,"station_id":"KBY"},{"station_name":"Pondokranji","distance":6218,"i_lat":-6.276362,"is_transit":false,"line":6,"transit":false,"station_id":"PDJ","i_long":106.74273,"time":8},{"time":3,"transit":false,"station_id":"JMU","distance":2179,"i_lat":-6.288927,"is_transit":false,"i_long":106.728916,"station_name":"Jurangmangu","line":6},{"i_lat":-6.296963,"transit":false,"distance":1994,"line":6,"station_name":"Sudimara","i_long":106.712277,"station_id":"SDM","time":4,"is_transit":false},{"is_transit":false,"station_id":"RU","i_lat":-6.314823,"distance":4566,"transit":false,"station_name":"Rawa Buntu","time":6,"i_long":106.675475,"line":6},{"distance":2413,"is_transit":false,"line":6,"time":4,"station_name":"Serpong","transit":false,"station_id":"SRP","i_lat":-6.319871,"i_long":106.66566},{"is_transit":false,"transit":false,"time":4,"station_id":"CSK","distance":1784,"station_name":"Cisauk","i_lat":-6.32484,"i_long":106.640411,"line":3}],[{"time":0,"distance":0,"i_lat":-6.262938,"is_transit":false,"station_id":"TLM","i_long":107.093313,"line":1,"transit":false,"station_name":"Metland Telaga Murni"},{"i_lat":-6.261877,"time":2,"station_id":"CIT","transit":false,"station_name":"Cibitung","line":1,"i_long":107.083084,"is_transit":false,"distance":2800},{"i_long":107.055722,"is_transit":false,"transit":false,"i_lat":-6.258864,"station_name":"Tambun","line":1,"station_id":"TB","time":3,"distance":3420},{"line":1,"is_transit":false,"station_name":"Bekasi Timur","time":7,"distance":4460,"station_id":"BKST","i_lat":-6.248029,"transit":false,"i_long":107.016735},{"is_transit":false,"i_long":106.997013,"time":2,"i_lat":-6.236616,"station_id":"BKS","station_name":"Bekasi","line":1,"transit":false,"distance":2368},{"distance":2520,"station_id":"KRI","line":1,"transit":false,"i_long":106.977657,"is_transit":false,"time":4,"i_lat":-6.224515,"station_name":"Kranji"},{"i_lat":-6.219053,"is_transit":false,"i_long":106.951283,"line":1,"time":3,"distance":3097,"transit":false,"station_id":"CUK","station_name":"Cakung"},{"distance":1385,"station_name":"Klenderbaru","is_transit":false,"transit":false,"i_long":106.939679,"time":8,"station_id":"KLDB","line":1,"i_lat":-6.217455},{"i_lat":-6.215568,"station_id":"BUA","time":1,"is_transit":false,"distance":1305,"station_name":"Buaran","line":1,"i_long":106.922662,"transit":false},{"is_transit":false,"distance":3100,"line":1,"transit":false,"time":2,"station_id":"KLD","i_lat":-6.2135,"i_long":106.899548,"station_name":"Klender"},{"i_lat":-6.215091,"i_long":106.86807400000001,"is_transit":false,"distance":3395,"time":3,"transit":false,"station_id":"JNG","line":1,"station_name":"Jatinegara"},{"station_id":"MTR","line":1,"time":2,"i_long":106.858896,"station_name":"Matraman","i_lat":-6.212485,"transit":false,"is_transit":false,"distance":1377},{"station_name":"Manggarai","i_long":106.84912,"transit":true,"distance":1275,"i_lat":-6.209883,"time":2,"station_id":"MRI","line":2,"is_transit":true},{"is_transit":false,"distance":1590,"i_long":106.840169,"line":2,"station_id":"CKI","station_name":"Cikini","i_lat":-6.198556,"transit":false,"time":4},{"line":2,"transit":false,"is_transit":false,"distance":1750,"i_lat":-6.186295,"time":3,"i_long":106.832183,"station_id":"GDD","station_name":"Gondangdia"},{"is_transit":false,"time":4,"distance":2015,"station_name":"Juanda","i_long":106.828284,"station_id":"JUA","line":2,"i_lat":-6.166716,"transit":false},{"i_long":106.827103,"i_lat":-6.160725,"transit":false,"station_name":"Sawah Besar","distance":1149,"line":2,"time":2,"is_transit":false,"station_id":"SW"},{"station_name":"Manggabesar","time":2,"i_lat":-6.149769,"station_id":"MGB","i_long":106.82482,"is_transit":false,"line":2,"transit":false,"distance":906},{"distance":1080,"transit":false,"i_long":106.820901,"is_transit":false,"station_id":"JAY","station_name":"Jayakarta","line":2,"i_lat":-6.141205,"time":2},{"station_name":"Jakarta Kota","i_lat":-6.137569,"is_transit":true,"distance":1264,"line":2,"transit":true,"station_id":"JAKK","i_long":106.812439,"time":4},{"is_transit":true,"i_lat":-6.132549,"time":3,"transit":true,"station_name":"Kampung Bandan","distance":1364,"station_id":"KPB","line":4,"i_long":106.826365},{"i_lat":-6.144674,"station_name":"Angke","time":9,"i_long":106.79867,"line":1,"station_id":"AK","distance":4102,"transit":false,"is_transit":false},{"i_long":106.800832,"station_name":"Duri","distance":1230,"time":4,"transit":false,"is_transit":false,"station_id":"DU","i_lat":-6.155215,"line":1},{"i_lat":-6.185545,"station_id":"THB","i_long":106.811091,"distance":3632,"line":1,"station_name":"Tanah Abang","transit":true,"time":8,"is_transit":true},{"i_lat":-6.207404,"i_long":106.79689,"is_transit":false,"line":6,"station_name":"Palmerah","transit":false,"station_id":"PLM","distance":3191,"time":6},{"line":6,"is_transit":false,"transit":false,"distance":3737,"station_id":"KBY","time":7,"station_name":"Kebayoran","i_long":106.780334,"i_lat":-6.237242},{"is_transit":false,"i_long":106.74273,"station_id":"PDJ","time":8,"transit":false,"i_lat":-6.276362,"station_name":"Pondokranji","line":6,"distance":6218},{"line":6,"is_transit":false,"transit":false,"station_id":"JMU","distance":2179,"i_long":106.728916,"time":3,"station_name":"Jurangmangu","i_lat":-6.288927},{"station_id":"SDM","station_name":"Sudimara","time":4,"is_transit":false,"i_lat":-6.296963,"distance":1994,"i_long":106.712277,"line":6,"transit":false},{"line":6,"distance":4566,"i_long":106.675475,"time":6,"transit":false,"is_transit":false,"station_id":"RU","i_lat":-6.314823,"station_name":"Rawa Buntu"},{"i_lat":-6.319871,"i_long":106.66566,"time":4,"station_name":"Serpong","distance":2413,"is_transit":false,"line":6,"transit":false,"station_id":"SRP"},{"is_transit":false,"transit":false,"station_id":"CSK","i_long":106.640411,"line":3,"distance":1784,"i_lat":-6.32484,"time":4,"station_name":"Cisauk"}],[{"i_long":107.093313,"time":0,"distance":0,"transit":false,"line":1,"is_transit":false,"i_lat":-6.262938,"station_id":"TLM","station_name":"Metland Telaga Murni"},{"station_name":"Cibitung","line":1,"is_transit":false,"time":2,"i_lat":-6.261877,"distance":2800,"i_long":107.083084,"station_id":"CIT","transit":false},{"station_name":"Tambun","transit":false,"is_transit":false,"time":3,"station_id":"TB","distance":3420,"line":1,"i_lat":-6.258864,"i_long":107.055722},{"is_transit":false,"transit":false,"line":1,"time":7,"station_id":"BKST","i_lat":-6.248029,"station_name":"Bekasi Timur","i_long":107.016735,"distance":4460},{"time":2,"station_id":"BKS","station_name":"Bekasi","i_long":106.997013,"line":1,"distance":2368,"i_lat":-6.236616,"transit":false,"is_transit":false},{"transit":false,"i_lat":-6.224515,"station_name":"Kranji","station_id":"KRI","distance":2520,"line":1,"time":4,"is_transit":false,"i_long":106.977657},{"i_long":106.951283,"line":1,"time":3,"station_name":"Cakung","station_id":"CUK","is_transit":false,"transit":false,"distance":3097,"i_lat":-6.219053},{"station_id":"KLDB","is_transit":false,"i_long":106.939679,"distance":1385,"i_lat":-6.217455,"transit":false,"line":1,"station_name":"Klenderbaru","time":8},{"i_long":106.922662,"line":1,"is_transit":false,"station_id":"BUA","i_lat":-6.215568,"distance":1305,"time":1,"station_name":"Buaran","transit":false},{"station_id":"KLD","i_lat":-6.2135,"distance":3100,"is_transit":false,"i_long":106.899548,"time":2,"line":1,"transit":false,"station_name":"Klender"},{"line":1,"time":3,"distance":3395,"transit":true,"station_name":"Jatinegara","station_id":"JNG","i_long":106.86807400000001,"is_transit":true,"i_lat":-6.215091},{"station_id":"POK","station_name":"Pondok Jati","is_transit":false,"i_long":106.861737,"time":2,"distance":1236,"i_lat":-6.209188,"line":11,"transit":false},{"station_id":"KMT","time":2,"transit":false,"is_transit":false,"distance":1829,"i_lat":-6.193792,"station_name":"Kramat","line":11,"i_long":106.855437},{"station_name":"Gang Sentiong","i_long":106.850107,"time":1,"transit":false,"station_id":"GST","i_lat":-6.185975,"line":11,"distance":973,"is_transit":false},{"is_transit":false,"line":11,"transit":false,"station_name":"Pasar Senen","distance":1567,"time":8,"i_long":106.84368,"i_lat":-6.174784,"station_id":"PSE"},{"station_name":"Kemayoran","transit":false,"time":4,"is_transit":false,"i_long":106.839204,"i_lat":-6.161728,"line":11,"distance":1436,"station_id":"KMO"},{"line":11,"is_transit":false,"station_name":"Rajawali","i_long":106.836569,"i_lat":-6.14505,"distance":1901,"transit":false,"station_id":"RJW","time":5},{"station_name":"Kampung Bandan","i_lat":-6.132549,"distance":1444,"line":4,"is_transit":true,"time":3,"station_id":"KPB","transit":true,"i_long":106.826365},{"transit":true,"station_id":"JAKK","line":2,"distance":1364,"i_lat":-6.137569,"station_name":"Jakarta Kota","is_transit":true,"time":3,"i_long":106.812439},{"station_name":"Jayakarta","line":2,"distance":1264,"time":4,"i_lat":-6.141205,"i_long":106.820901,"is_transit":false,"transit":false,"station_id":"JAY"},{"station_name":"Manggabesar","station_id":"MGB","transit":false,"i_long":106.82482,"line":2,"is_transit":false,"i_lat":-6.149769,"distance":1080,"time":2},{"time":2,"transit":false,"distance":906,"is_transit":false,"station_name":"Sawah Besar","i_long":106.827103,"station_id":"SW","i_lat":-6.160725,"line":2},{"i_lat":-6.166716,"i_long":106.828284,"transit":false,"distance":1149,"time":2,"station_name":"Juanda","line":2,"is_transit":false,"station_id":"JUA"},{"time":4,"i_long":106.832183,"distance":2015,"i_lat":-6.186295,"is_transit":false,"station_name":"Gondangdia","line":2,"transit":false,"station_id":"GDD"},{"i_lat":-6.198556,"i_long":106.840169,"line":2,"station_id":"CKI","time":3,"distance":1750,"transit":false,"station_name":"Cikini","is_transit":false},{"station_name":"Manggarai","station_id":"MRI","distance":1590,"line":2,"i_lat":-6.209883,"is_transit":true,"i_long":106.84912,"time":4,"transit":true},{"time":4,"i_long":106.822649,"transit":false,"station_name":"Sudirman","station_id":"SUD","is_transit":false,"distance":3186,"i_lat":-6.202263,"line":1},{"transit":false,"is_transit":false,"i_lat":-6.201433,"line":1,"station_name":"Sudirman Baru","distance":280,"i_long":106.819881,"time":1,"station_id":"SUDB"},{"is_transit":false,"station_id":"KAT","i_long":106.816351,"transit":false,"distance":471,"station_name":"Karet","i_lat":-6.20132,"time":1,"line":1},{"station_name":"Tanah Abang","i_long":106.811091,"time":5,"i_lat":-6.185545,"station_id":"THB","is_transit":true,"transit":true,"distance":2029,"line":1},{"i_lat":-6.207404,"station_id":"PLM","is_transit":false,"station_name":"Palmerah","distance":3191,"i_long":106.79689,"line":6,"time":6,"transit":false},{"distance":3737,"time":7,"is_transit":false,"transit":false,"station_id":"KBY","station_name":"Kebayoran","i_long":106.780334,"line":6,"i_lat":-6.237242},{"station_name":"Pondokranji","is_transit":false,"time":8,"distance":6218,"station_id":"PDJ","transit":false,"line":6,"i_long":106.74273,"i_lat":-6.276362},{"i_lat":-6.288927,"line":6,"station_id":"JMU","time":3,"distance":2179,"station_name":"Jurangmangu","i_long":106.728916,"transit":false,"is_transit":false},{"i_lat":-6.296963,"i_long":106.712277,"is_transit":false,"line":6,"station_name":"Sudimara","distance":1994,"transit":false,"time":4,"station_id":"SDM"},{"is_transit":false,"time":6,"i_lat":-6.314823,"i_long":106.675475,"transit":false,"station_name":"Rawa Buntu","distance":4566,"line":6,"station_id":"RU"},{"station_id":"SRP","line":6,"i_long":106.66566,"time":4,"i_lat":-6.319871,"distance":2413,"is_transit":false,"transit":false,"station_name":"Serpong"},{"time":4,"i_lat":-6.32484,"station_id":"CSK","i_long":106.640411,"line":3,"distance":1784,"transit":false,"is_transit":false,"station_name":"Cisauk"}]]}