{"data":[[{"i_long":107.093313,"distance":0,"line":1,"i_lat":-6.262938,"is_transit":false,"time":0,"station_id":"TLM","transit":false,"station_name":"Metland Telaga Murni"},{"i_lat":-6.261877,"station_id":"CIT","line":0,"is_transit":false,"distance":2800,"transit":false,"station_name":"Cibitung","i_long":107.083084,"time":2},{"time":3,"i_long":107.055722,"station_id":"TB","station_name":"Tambun","is_transit":false,"distance":3420,"i_lat":-6.258864,"transit":false,"line":1},{"distance":4460,"transit":false,"i_lat":-6.248029,"station_name":"Bekasi Timur","i_long":107.016735,"line":0,"station_id":"BKST","is_transit":false,"time":7},{"station_id":"BKS","time":2,"distance":2368,"transit":false,"i_lat":-6.236616,"i_long":106.997013,"line":0,"is_transit":false,"station_name":"Bekasi"},{"i_lat":-6.224515,"time":4,"distance":2520,"i_long":106.977657,"transit":false,"station_id":"KRI","line":1,"station_name":"Kranji","is_transit":false},{"transit":false,"i_lat":-6.219053,"station_id":"CUK","is_transit":false,"line":0,"station_name":"Cakung","i_long":106.951283,"time":3,"distance":3097},{"i_lat":-6.217455,"station_id":"KLDB","station_name":"Klenderbaru","time":8,"is_transit":false,"i_long":106.939679,"distance":1385,"transit":false,"line":1},{"station_id":"BUA","i_lat":-6.215568,"station_name":"Buaran","distance":1305,"transit":false,"is_transit":false,"time":1,"i_long":106.922662,"line":0},{"i_long":106.899548,"is_transit":false,"line":1,"i_lat":-6.2135,"transit":false,"station_name":"Klender","station_id":"KLD","distance":3100,"time":2},{"station_name":"Jatinegara","i_lat":-6.215091,"distance":3395,"is_transit":true,"time":3,"i_long":106.86807400000001,"line":0,"station_id":"JNG","transit":true},{"station_name":"Pondok Jati","transit":false,"line":11,"station_id":"POK","time":2,"i_lat":-6.209188,"is_transit":false,"distance":1236,"i_long":106.861737},{"time":2,"station_name":"Kramat","i_lat":-6.193792,"station_id":"KMT","is_transit":false,"transit":false,"line":11,"i_long":106.855437,"distance":1829},{"i_lat":-6.185975,"station_name":"Gang Sentiong","time":1,"distance":973,"is_transit":false,"station_id":"GST","line":11,"transit":false,"i_long":106.850107}],[{"time":0,"distance":0,"line":1,"i_lat":-6.262938,"transit":false,"i_long":107.093313,"station_id":"TLM","station_name":"Metland Telaga Murni","is_transit":false},{"station_id":"CIT","is_transit":false,"time":2,"line":0,"distance":2800,"transit":false,"i_long":107.083084,"i_lat":-6.261877,"station_name":"Cibitung"},{"is_transit":false,"station_name":"Tambun","i_long":107.055722,"line":1,"time":3,"transit":false,"distance":3420,"i_lat":-6.258864,"station_id":"TB"},{"transit":false,"distance":4460,"station_name":"Bekasi Timur","time":7,"i_long":107.016735,"station_id":"BKST","is_transit":false,"i_lat":-6.248029,"line":0},{"station_name":"Bekasi","is_transit":false,"transit":false,"line":0,"distance":2368,"i_lat":-6.236616,"station_id":"BKS","i_long":106.997013,"time":2},{"station_name":"Kranji","time":4,"is_transit":false,"i_lat":-6.224515,"line":1,"i_long":106.977657,"station_id":"KRI","transit":false,"distance":2520},{"is_transit":false,"distance":3097,"line":0,"station_id":"CUK","time":3,"station_name":"Cakung","transit":false,"i_lat":-6.219053,"i_long":106.951283},{"distance":1385,"is_transit":false,"station_id":"KLDB","station_name":"Klenderbaru","i_lat":-6.217455,"transit":false,"line":1,"time":8,"i_long":106.939679},{"distance":1305,"station_name":"Buaran","time":1,"i_long":106.922662,"station_id":"BUA","line":0,"i_lat":-6.215568,"is_transit":false,"transit":false},{"i_long":106.899548,"line":1,"station_name":"Klender","station_id":"KLD","is_transit":false,"time":2,"i_lat":-6.2135,"distance":3100,"transit":false},{"station_name":"Jatinegara","transit":false,"line":0,"i_long":106.86807400000001,"time":3,"distance":3395,"is_transit":true,"station_id":"JNG","i_lat":-6.215091},{"distance":1377,"station_id":"MTR","station_name":"Matraman","time":2,"transit":false,"i_lat":-6.212485,"i_long":106.858896,"is_transit":false,"line":1},{"line":0,"station_id":"MRI","i_lat":-6.209883,"i_long":106.84912,"distance":1275,"transit":false,"is_transit":true,"station_name":"Manggarai","time":2},{"time":4,"transit":false,"station_name":"Sudirman","station_id":"SUD","line":1,"is_transit":false,"i_long":106.822649,"distance":3186,"i_lat":-6.202263},{"i_lat":-6.201433,"is_transit":false,"transit":false,"line":1,"station_name":"Sudirman Baru","i_long":106.819881,"time":1,"distance":280,"station_id":"SUDB"},{"distance":471,"transit":false,"line":1,"i_long":106.816351,"time":1,"station_name":"Karet","station_id":"KAT","is_transit":false,"i_lat":-6.20132},{"is_transit":true,"line":1,"station_name":"Tanah Abang","transit":false,"time":5,"distance":2029,"i_long":106.811091,"i_lat":-6.185545,"station_id":"THB"},{"station_name":"Duri","station_id":"DU","time":8,"distance":3632,"is_transit":true,"transit":true,"i_lat":-6.155215,"i_long":106.800832,"line":1},{"line":0,"transit":false,"i_lat":-6.144674,"station_id":"AK","time":4,"is_transit":false,"distance":1230,"station_name":"Angke","i_long":106.79867},{"station_name":"Kampung Bandan","i_long":106.826365,"time":9,"transit":true,"is_transit":true,"station_id":"KPB","distance":4102,"i_lat":-6.132549,"line":0},{"transit":false,"i_long":106.836569,"station_name":"Rajawali","distance":1444,"i_lat":-6.14505,"is_transit":false,"time":3,"line":11,"station_id":"RJW"},{"distance":1901,"i_long":106.839204,"time":5,"i_lat":-6.161728,"station_name":"Kemayoran","station_id":"KMO","is_transit":false,"transit":false,"line":11},{"station_id":"PSE","time":4,"line":11,"is_transit":false,"distance":1436,"i_long":106.84368,"station_name":"Pasar Senen","transit":false,"i_lat":-6.174784},{"station_name":"Gang Sentiong","i_lat":-6.185975,"transit":false,"i_long":106.850107,"time":8,"station_id":"GST","line":11,"distance":1567,"is_transit":false}],[{"station_name":"Metland Telaga Murni","distance":0,"i_long":107.093313,"is_transit":false,"i_lat":-6.262938,"station_id":"TLM","transit":false,"line":1,"time":0},{"transit":false,"station_id":"CIT","station_name":"Cibitung","is_transit":false,"line":0,"time":2,"distance":2800,"i_long":107.083084,"i_lat":-6.261877},{"transit":false,"station_id":"TB","time":3,"station_name":"Tambun","distance":3420,"line":1,"i_lat":-6.258864,"i_long":107.055722,"is_transit":false},{"station_name":"Bekasi Timur","transit":false,"i_lat":-6.248029,"is_transit":false,"distance":4460,"line":0,"station_id":"BKST","time":7,"i_long":107.016735},{"station_id":"BKS","station_name":"Bekasi","time":2,"i_lat":-6.236616,"distance":2368,"transit":false,"i_long":106.997013,"line":0,"is_transit":false},{"time":4,"is_transit":false,"line":1,"station_name":"Kranji","distance":2520,"transit":false,"i_long":106.977657,"station_id":"KRI","i_lat":-6.224515},{"station_name":"Cakung","time":3,"distance":3097,"transit":false,"i_lat":-6.219053,"station_id":"CUK","line":0,"i_long":106.951283,"is_transit":false},{"station_name":"Klenderbaru","distance":1385,"transit":false,"line":1,"i_long":106.939679,"station_id":"KLDB","time":8,"is_transit":false,"i_lat":-6.217455},{"station_name":"Buaran","line":0,"time":1,"distance":1305,"i_lat":-6.215568,"station_id":"BUA","is_transit":false,"transit":false,"i_long":106.922662},{"time":2,"is_transit":false,"station_name":"Klender","station_id":"KLD","transit":false,"i_lat":-6.2135,"distance":3100,"i_long":106.899548,"line":1},{"transit":false,"is_transit":true,"i_long":106.86807400000001,"line":0,"time":3,"station_id":"JNG","distance":3395,"i_lat":-6.215091,"station_name":"Jatinegara"},{"station_name":"Matraman","distance":1377,"transit":false,"time":2,"station_id":"MTR","i_lat":-6.212485,"i_long":106.858896,"line":1,"is_transit":false},{"distance":1275,"is_transit":true,"i_lat":-6.209883,"i_long":106.84912,"station_id":"MRI","line":0,"station_name":"Manggarai","time":2,"transit":true},{"time":4,"station_id":"CKI","station_name":"Cikini","distance":1590,"i_long":106.840169,"i_lat":-6.198556,"transit":false,"is_transit":false,"line":0},{"transit":false,"station_id":"GDD","is_transit":false,"time":3,"i_lat":-6.186295,"i_long":106.832183,"line":2,"distance":1750,"station_name":"Gondangdia"},{"i_lat":-6.166716,"station_name":"Juanda","distance":2015,"transit":false,"i_long":106.828284,"line":2,"station_id":"JUA","time":4,"is_transit":false},{"time":2,"i_lat":-6.160725,"distance":1149,"transit":false,"i_long":106.827103,"station_name":"Sawah Besar","line":2,"station_id":"SW","is_transit":false},{"station_name":"Manggabesar","i_long":106.82482,"is_transit":false,"station_id":"MGB","transit":false,"time":2,"distance":906,"i_lat":-6.149769,"line":2},{"station_name":"Jayakarta","is_transit":false,"time":2,"distance":1080,"transit":false,"i_lat":-6.141205,"line":7,"i_long":106.820901,"station_id":"JAY"},{"is_transit":true,"time":4,"station_name":"Jakarta Kota","transit":true,"i_lat":-6.137569,"line":0,"distance":1264,"station_id":"JAKK","i_long":106.812439},{"station_name":"Kampung Bandan","is_transit":true,"transit":true,"station_id":"KPB","distance":1364,"time":3,"i_lat":-6.132549,"line":0,"i_long":106.826365},{"i_long":106.836569,"distance":1444,"transit":false,"i_lat":-6.14505,"is_transit":false,"line":11,"station_id":"RJW","time":3,"station_name":"Rajawali"},{"i_long":106.839204,"is_transit":false,"transit":false,"i_lat":-6.161728,"distance":1901,"line":11,"time":5,"station_name":"Kemayoran","station_id":"KMO"},{"i_long":106.84368,"station_id":"PSE","line":11,"is_transit":false,"station_name":"Pasar Senen","i_lat":-6.174784,"transit":false,"time":4,"distance":1436},{"distance":1567,"i_long":106.850107,"station_id":"GST","station_name":"Gang Sentiong","is_transit":false,"line":11,"i_lat":-6.185975,"time":8,"transit":false}]]}