{"data":[[{"station_name":"Metland Telaga Murni","station_id":"TLM","is_transit":false,"time":0,"distance":0,"line":1,"transit":false,"i_lat":-6.262938,"i_long":107.093313},{"station_name":"Cibitung","i_long":107.083084,"transit":false,"time":2,"i_lat":-6.261877,"station_id":"CIT","is_transit":false,"distance":2800,"line":1},{"line":1,"i_long":107.055722,"transit":false,"station_name":"Tambun","time":3,"is_transit":false,"i_lat":-6.258864,"distance":3420,"station_id":"TB"},{"station_id":"BKST","line":1,"station_name":"Bekasi Timur","i_lat":-6.248029,"transit":false,"time":7,"distance":4460,"i_long":107.016735,"is_transit":false},{"time":2,"station_id":"BKS","distance":2368,"line":1,"i_lat":-6.236616,"station_name":"Bekasi","is_transit":false,"i_long":106.997013,"transit":false},{"time":4,"i_lat":-6.224515,"station_id":"KRI","line":1,"station_name":"Kranji","distance":2520,"i_long":106.977657,"is_transit":false,"transit":false},{"i_long":106.951283,"time":3,"line":1,"station_name":"Cakung","distance":3097,"i_lat":-6.219053,"station_id":"CUK","transit":false,"is_transit":false},{"distance":1385,"transit":false,"station_id":"KLDB","is_transit":false,"time":8,"i_lat":-6.217455,"line":1,"station_name":"Klenderbaru","i_long":106.939679},{"i_lat":-6.215568,"is_transit":false,"line":1,"transit":false,"time":1,"station_id":"BUA","i_long":106.922662,"station_name":"Buaran","distance":1305},{"is_transit":false,"i_lat":-6.2135,"line":1,"time":2,"distance":3100,"transit":false,"station_name":"Klender","i_long":106.899548,"station_id":"KLD"},{"station_id":"JNG","i_lat":-6.215091,"transit":true,"station_name":"Jatinegara","line":1,"is_transit":true,"distance":3395,"time":3,"i_long":106.86807400000001},{"distance":1236,"i_long":106.861737,"station_name":"Pondok Jati","station_id":"POK","line":11,"transit":false,"time":2,"is_transit":false,"i_lat":-6.209188},{"transit":false,"line":11,"distance":1829,"i_lat":-6.193792,"i_long":106.855437,"time":2,"is_transit":false,"station_name":"Kramat","station_id":"KMT"}],[{"line":1,"i_lat":-6.262938,"station_id":"TLM","is_transit":false,"station_name":"Metland Telaga Murni","distance":0,"i_long":107.093313,"transit":false,"time":0},{"distance":2800,"time":2,"line":1,"station_id":"CIT","station_name":"Cibitung","i_lat":-6.261877,"i_long":107.083084,"is_transit":false,"transit":false},{"i_lat":-6.258864,"transit":false,"i_long":107.055722,"line":1,"time":3,"station_id":"TB","is_transit":false,"distance":3420,"station_name":"Tambun"},{"distance":4460,"i_long":107.016735,"transit":false,"time":7,"line":1,"station_id":"BKST","is_transit":false,"station_name":"Bekasi Timur","i_lat":-6.248029},{"transit":false,"i_lat":-6.236616,"line":1,"time":2,"distance":2368,"i_long":106.997013,"is_transit":false,"station_name":"Bekasi","station_id":"BKS"},{"i_lat":-6.224515,"transit":false,"time":4,"line":1,"distance":2520,"i_long":106.977657,"station_name":"Kranji","station_id":"KRI","is_transit":false},{"station_name":"Cakung","station_id":"CUK","is_transit":false,"time":3,"transit":false,"i_long":106.951283,"distance":3097,"i_lat":-6.219053,"line":1},{"i_long":106.939679,"time":8,"station_name":"Klenderbaru","i_lat":-6.217455,"line":1,"station_id":"KLDB","is_transit":false,"transit":false,"distance":1385},{"station_id":"BUA","i_long":106.922662,"line":1,"time":1,"is_transit":false,"distance":1305,"station_name":"Buaran","i_lat":-6.215568,"transit":false},{"is_transit":false,"time":2,"distance":3100,"i_lat":-6.2135,"station_id":"KLD","i_long":106.899548,"line":1,"station_name":"Klender","transit":false},{"line":1,"i_lat":-6.215091,"station_id":"JNG","transit":false,"i_long":106.86807400000001,"distance":3395,"is_transit":false,"time":3,"station_name":"Jatinegara"},{"station_name":"Matraman","is_transit":false,"i_lat":-6.212485,"time":2,"i_long":106.858896,"transit":false,"distance":1377,"line":1,"station_id":"MTR"},{"station_id":"MRI","station_name":"Manggarai","time":2,"line":2,"is_transit":false,"i_lat":-6.209883,"i_long":106.84912,"distance":1275,"transit":false},{"time":4,"transit":false,"is_transit":false,"distance":3186,"line":1,"station_id":"SUD","i_lat":-6.202263,"station_name":"Sudirman","i_long":106.822649},{"station_id":"SUDB","distance":280,"transit":false,"is_transit":false,"line":1,"time":1,"i_lat":-6.201433,"i_long":106.819881,"station_name":"Sudirman Baru"},{"time":1,"i_lat":-6.20132,"line":1,"station_name":"Karet","distance":471,"i_long":106.816351,"transit":false,"station_id":"KAT","is_transit":false},{"time":5,"i_lat":-6.185545,"station_name":"Tanah Abang","line":1,"distance":2029,"transit":false,"i_long":106.811091,"station_id":"THB","is_transit":false},{"time":8,"distance":3632,"i_long":106.800832,"station_name":"Duri","line":1,"transit":false,"i_lat":-6.155215,"station_id":"DU","is_transit":false},{"distance":1230,"line":1,"is_transit":false,"i_lat":-6.144674,"i_long":106.79867,"station_id":"AK","station_name":"Angke","time":4,"transit":false},{"transit":true,"time":9,"distance":4102,"line":4,"station_name":"Kampung Bandan","station_id":"KPB","is_transit":true,"i_lat":-6.132549,"i_long":106.826365},{"station_id":"RJW","transit":false,"distance":1444,"i_lat":-6.14505,"time":3,"line":11,"station_name":"Rajawali","i_long":106.836569,"is_transit":false},{"is_transit":false,"time":5,"line":11,"station_name":"Kemayoran","distance":1901,"i_lat":-6.161728,"i_long":106.839204,"transit":false,"station_id":"KMO"},{"distance":1436,"i_lat":-6.174784,"station_id":"PSE","station_name":"Pasar Senen","is_transit":false,"transit":false,"i_long":106.84368,"line":11,"time":4},{"line":11,"i_lat":-6.185975,"station_name":"Gang Sentiong","is_transit":false,"transit":false,"station_id":"GST","distance":1567,"i_long":106.850107,"time":8},{"station_name":"Kramat","station_id":"KMT","time":1,"i_long":106.855437,"transit":false,"line":11,"distance":973,"is_transit":false,"i_lat":-6.193792}],[{"distance":0,"time":0,"line":1,"station_name":"Metland Telaga Murni","i_lat":-6.262938,"station_id":"TLM","is_transit":false,"i_long":107.093313,"transit":false},{"i_lat":-6.261877,"station_name":"Cibitung","station_id":"CIT","time":2,"i_long":107.083084,"is_transit":false,"distance":2800,"line":1,"transit":false},{"station_name":"Tambun","line":1,"is_transit":false,"time":3,"distance":3420,"i_long":107.055722,"station_id":"TB","transit":false,"i_lat":-6.258864},{"time":7,"distance":4460,"i_long":107.016735,"line":1,"is_transit":false,"station_name":"Bekasi Timur","i_lat":-6.248029,"transit":false,"station_id":"BKST"},{"station_name":"Bekasi","time":2,"i_lat":-6.236616,"station_id":"BKS","distance":2368,"line":1,"transit":false,"i_long":106.997013,"is_transit":false},{"i_lat":-6.224515,"station_name":"Kranji","i_long":106.977657,"time":4,"line":1,"station_id":"KRI","is_transit":false,"distance":2520,"transit":false},{"is_transit":false,"transit":false,"i_long":106.951283,"time":3,"distance":3097,"station_name":"Cakung","line":1,"i_lat":-6.219053,"station_id":"CUK"},{"is_transit":false,"time":8,"i_lat":-6.217455,"line":1,"transit":false,"distance":1385,"station_id":"KLDB","station_name":"Klenderbaru","i_long":106.939679},{"station_name":"Buaran","time":1,"distance":1305,"station_id":"BUA","is_transit":false,"transit":false,"i_lat":-6.215568,"i_long":106.922662,"line":1},{"i_lat":-6.2135,"station_id":"KLD","time":2,"i_long":106.899548,"line":1,"station_name":"Klender","is_transit":false,"distance":3100,"transit":false},{"i_lat":-6.215091,"line":1,"is_transit":false,"time":3,"station_name":"Jatinegara","distance":3395,"station_id":"JNG","transit":false,"i_long":106.86807400000001},{"transit":false,"is_transit":false,"time":2,"i_lat":-6.212485,"line":1,"station_name":"Matraman","station_id":"MTR","i_long":106.858896,"distance":1377},{"line":2,"station_id":"MRI","i_lat":-6.209883,"is_transit":true,"i_long":106.84912,"time":2,"transit":true,"station_name":"Manggarai","distance":1275},{"distance":1590,"station_name":"Cikini","time":4,"line":2,"i_lat":-6.198556,"station_id":"CKI","is_transit":false,"transit":false,"i_long":106.840169},{"line":2,"station_name":"Gondangdia","is_transit":false,"transit":false,"i_long":106.832183,"i_lat":-6.186295,"distance":1750,"station_id":"GDD","time":3},{"i_lat":-6.166716,"distance":2015,"line":2,"station_name":"Juanda","station_id":"JUA","transit":false,"time":4,"is_transit":false,"i_long":106.828284},{"i_lat":-6.160725,"is_transit":false,"line":2,"distance":1149,"station_name":"Sawah Besar","time":2,"transit":false,"station_id":"SW","i_long":106.827103},{"is_transit":false,"distance":906,"i_lat":-6.149769,"transit":false,"station_name":"Manggabesar","line":2,"i_long":106.82482,"time":2,"station_id":"MGB"},{"i_lat":-6.141205,"station_name":"Jayakarta","transit":false,"station_id":"JAY","is_transit":false,"i_long":106.820901,"line":2,"time":2,"distance":1080},{"time":4,"i_lat":-6.137569,"transit":true,"i_long":106.812439,"is_transit":true,"distance":1264,"station_id":"JAKK","line":2,"station_name":"Jakarta Kota"},{"i_lat":-6.132549,"station_name":"Kampung Bandan","station_id":"KPB","i_long":106.826365,"time":3,"is_transit":true,"line":4,"distance":1364,"transit":true},{"line":11,"is_transit":false,"transit":false,"station_id":"RJW","station_name":"Rajawali","distance":1444,"i_lat":-6.14505,"time":3,"i_long":106.836569},{"line":11,"time":5,"station_name":"Kemayoran","transit":false,"station_id":"KMO","is_transit":false,"i_long":106.839204,"i_lat":-6.161728,"distance":1901},{"is_transit":false,"time":4,"distance":1436,"station_id":"PSE","i_long":106.84368,"transit":false,"i_lat":-6.174784,"line":11,"station_name":"Pasar Senen"},{"i_lat":-6.185975,"station_id":"GST","i_long":106.850107,"line":11,"is_transit":false,"distance":1567,"transit":false,"station_name":"Gang Sentiong","time":8},{"transit":false,"station_name":"Kramat","time":1,"is_transit":false,"i_lat":-6.193792,"i_long":106.855437,"line":11,"distance":973,"station_id":"KMT"}]]}