{"data":[[{"i_lat":-6.262938,"transit":false,"is_transit":false,"line":1,"time":0,"distance":0,"i_long":107.093313,"station_name":"Metland Telaga Murni","station_id":"TLM"},{"station_id":"CIT","time":2,"station_name":"Cibitung","transit":false,"is_transit":false,"i_long":107.083084,"line":1,"distance":2800,"i_lat":-6.261877},{"i_lat":-6.258864,"i_long":107.055722,"line":1,"time":3,"transit":false,"station_id":"TB","is_transit":false,"station_name":"Tambun","distance":3420},{"transit":false,"i_long":107.016735,"line":1,"is_transit":false,"distance":4460,"station_id":"BKST","station_name":"Bekasi Timur","time":7,"i_lat":-6.248029},{"i_lat":-6.236616,"station_name":"Bekasi","time":2,"line":1,"transit":false,"station_id":"BKS","is_transit":false,"distance":2368,"i_long":106.997013},{"time":4,"is_transit":false,"i_long":106.977657,"line":1,"transit":false,"i_lat":-6.224515,"station_name":"Kranji","distance":2520,"station_id":"KRI"},{"time":3,"i_lat":-6.219053,"is_transit":false,"station_id":"CUK","i_long":106.951283,"distance":3097,"line":1,"transit":false,"station_name":"Cakung"},{"station_name":"Klenderbaru","time":8,"i_lat":-6.217455,"i_long":106.939679,"line":1,"distance":1385,"station_id":"KLDB","transit":false,"is_transit":false}]]}