{"data":[[{"i_lat":-6.262938,"station_name":"Metland Telaga Murni","distance":0,"time":0,"i_long":107.093313,"transit":false,"station_id":"TLM","is_transit":false,"line":1},{"station_id":"CIT","transit":false,"station_name":"Cibitung","time":2,"is_transit":false,"distance":2800,"i_lat":-6.261877,"i_long":107.083084,"line":1},{"line":1,"station_id":"TB","i_lat":-6.258864,"station_name":"Tambun","transit":false,"is_transit":false,"time":3,"distance":3420,"i_long":107.055722},{"station_name":"Bekasi Timur","i_lat":-6.248029,"time":7,"distance":4460,"i_long":107.016735,"transit":false,"is_transit":false,"station_id":"BKST","line":1},{"transit":false,"distance":2368,"station_name":"Bekasi","i_lat":-6.236616,"line":1,"station_id":"BKS","is_transit":false,"i_long":106.997013,"time":2},{"time":4,"i_long":106.977657,"line":1,"is_transit":false,"transit":false,"station_name":"Kranji","i_lat":-6.224515,"distance":2520,"station_id":"KRI"},{"station_id":"CUK","distance":3097,"line":1,"time":3,"i_long":106.951283,"transit":false,"station_name":"Cakung","i_lat":-6.219053,"is_transit":false},{"station_id":"KLDB","time":8,"is_transit":false,"i_lat":-6.217455,"distance":1385,"line":1,"station_name":"Klenderbaru","transit":false,"i_long":106.939679},{"time":1,"distance":1305,"transit":false,"station_id":"BUA","i_long":106.922662,"line":1,"station_name":"Buaran","is_transit":false,"i_lat":-6.215568},{"time":2,"station_id":"KLD","transit":false,"is_transit":false,"distance":3100,"station_name":"Klender","i_long":106.899548,"line":1,"i_lat":-6.2135},{"transit":false,"station_name":"Jatinegara","station_id":"JNG","i_long":106.86807400000001,"distance":3395,"line":1,"is_transit":false,"time":3,"i_lat":-6.215091},{"i_lat":-6.212485,"station_id":"MTR","is_transit":false,"i_long":106.858896,"line":1,"transit":false,"station_name":"Matraman","time":2,"distance":1377},{"is_transit":false,"time":2,"i_lat":-6.209883,"line":2,"station_name":"Manggarai","station_id":"MRI","distance":1275,"i_long":106.84912,"transit":false},{"is_transit":false,"transit":false,"distance":3186,"station_name":"Sudirman","i_lat":-6.202263,"i_long":106.822649,"station_id":"SUD","line":1,"time":4},{"station_name":"Sudirman Baru","station_id":"SUDB","i_lat":-6.201433,"time":1,"transit":false,"distance":280,"i_long":106.819881,"is_transit":false,"line":1},{"station_id":"KAT","is_transit":false,"distance":471,"transit":false,"station_name":"Karet","i_long":106.816351,"time":1,"i_lat":-6.20132,"line":1},{"station_id":"THB","i_long":106.811091,"time":5,"i_lat":-6.185545,"distance":2029,"line":1,"station_name":"Tanah Abang","is_transit":false,"transit":false},{"transit":true,"station_id":"DU","station_name":"Duri","i_long":106.800832,"is_transit":true,"time":8,"i_lat":-6.155215,"line":1,"distance":3632},{"i_lat":-6.162021,"time":3,"station_id":"GGL","i_long":106.788277,"is_transit":false,"station_name":"Grogol","distance":1700,"line":5,"transit":false},{"i_long":106.771379,"time":2,"is_transit":false,"transit":false,"i_lat":-6.161433,"line":5,"station_name":"Pesing","station_id":"PSG","distance":2036},{"is_transit":false,"transit":false,"station_id":"TKO","i_long":106.756522,"line":5,"distance":1614,"station_name":"Taman Kota","time":2,"i_lat":-6.1587309999999995},{"station_name":"Bojongindah","time":2,"line":5,"distance":2334,"transit":false,"station_id":"BOI","i_lat":-6.159876,"is_transit":false,"i_long":106.737035}],[{"time":0,"i_lat":-6.262938,"station_name":"Metland Telaga Murni","station_id":"TLM","is_transit":false,"distance":0,"transit":false,"i_long":107.093313,"line":1},{"i_long":107.083084,"is_transit":false,"line":1,"distance":2800,"station_name":"Cibitung","time":2,"station_id":"CIT","transit":false,"i_lat":-6.261877},{"i_long":107.055722,"is_transit":false,"station_id":"TB","transit":false,"distance":3420,"line":1,"i_lat":-6.258864,"time":3,"station_name":"Tambun"},{"is_transit":false,"station_id":"BKST","i_long":107.016735,"station_name":"Bekasi Timur","line":1,"distance":4460,"i_lat":-6.248029,"time":7,"transit":false},{"distance":2368,"is_transit":false,"station_id":"BKS","time":2,"transit":false,"line":1,"i_long":106.997013,"i_lat":-6.236616,"station_name":"Bekasi"},{"station_id":"KRI","transit":false,"distance":2520,"is_transit":false,"time":4,"i_long":106.977657,"line":1,"station_name":"Kranji","i_lat":-6.224515},{"station_id":"CUK","transit":false,"time":3,"is_transit":false,"i_lat":-6.219053,"i_long":106.951283,"station_name":"Cakung","distance":3097,"line":1},{"i_lat":-6.217455,"station_name":"Klenderbaru","i_long":106.939679,"station_id":"KLDB","is_transit":false,"line":1,"transit":false,"time":8,"distance":1385},{"station_id":"BUA","station_name":"Buaran","is_transit":false,"line":1,"distance":1305,"time":1,"i_lat":-6.215568,"i_long":106.922662,"transit":false},{"i_long":106.899548,"station_name":"Klender","distance":3100,"line":1,"time":2,"is_transit":false,"transit":false,"station_id":"KLD","i_lat":-6.2135},{"is_transit":true,"station_name":"Jatinegara","i_lat":-6.215091,"station_id":"JNG","transit":true,"distance":3395,"time":3,"i_long":106.86807400000001,"line":1},{"i_lat":-6.209188,"line":11,"distance":1236,"station_name":"Pondok Jati","time":2,"station_id":"POK","is_transit":false,"i_long":106.861737,"transit":false},{"time":2,"i_lat":-6.193792,"station_id":"KMT","line":11,"transit":false,"is_transit":false,"station_name":"Kramat","distance":1829,"i_long":106.855437},{"line":11,"station_name":"Gang Sentiong","transit":false,"is_transit":false,"distance":973,"station_id":"GST","time":1,"i_lat":-6.185975,"i_long":106.850107},{"station_name":"Pasar Senen","transit":false,"time":8,"distance":1567,"line":11,"is_transit":false,"i_long":106.84368,"station_id":"PSE","i_lat":-6.174784},{"i_lat":-6.161728,"is_transit":false,"distance":1436,"i_long":106.839204,"time":4,"station_id":"KMO","transit":false,"line":11,"station_name":"Kemayoran"},{"time":5,"distance":1901,"station_name":"Rajawali","i_lat":-6.14505,"line":11,"i_long":106.836569,"is_transit":false,"station_id":"RJW","transit":false},{"station_name":"Kampung Bandan","station_id":"KPB","line":4,"transit":true,"distance":1444,"is_transit":true,"i_long":106.826365,"i_lat":-6.132549,"time":3},{"i_lat":-6.144674,"line":1,"station_name":"Angke","station_id":"AK","transit":false,"is_transit":false,"distance":4102,"time":9,"i_long":106.79867},{"line":1,"time":4,"station_name":"Duri","station_id":"DU","transit":true,"i_lat":-6.155215,"is_transit":true,"i_long":106.800832,"distance":1230},{"is_transit":false,"i_lat":-6.162021,"distance":1700,"time":3,"line":5,"transit":false,"station_name":"Grogol","i_long":106.788277,"station_id":"GGL"},{"station_name":"Pesing","distance":2036,"time":2,"transit":false,"is_transit":false,"i_lat":-6.161433,"station_id":"PSG","i_long":106.771379,"line":5},{"is_transit":false,"station_id":"TKO","distance":1614,"transit":false,"i_long":106.756522,"line":5,"time":2,"i_lat":-6.1587309999999995,"station_name":"Taman Kota"},{"time":2,"line":5,"is_transit":false,"transit":false,"station_name":"Bojongindah","station_id":"BOI","i_lat":-6.159876,"distance":2334,"i_long":106.737035}],[{"station_name":"Metland Telaga Murni","i_lat":-6.262938,"distance":0,"line":1,"time":0,"transit":false,"station_id":"TLM","is_transit":false,"i_long":107.093313},{"station_id":"CIT","station_name":"Cibitung","is_transit":false,"line":1,"transit":false,"i_lat":-6.261877,"i_long":107.083084,"time":2,"distance":2800},{"line":1,"distance":3420,"station_id":"TB","station_name":"Tambun","i_long":107.055722,"i_lat":-6.258864,"is_transit":false,"transit":false,"time":3},{"station_id":"BKST","i_lat":-6.248029,"station_name":"Bekasi Timur","is_transit":false,"i_long":107.016735,"time":7,"line":1,"transit":false,"distance":4460},{"is_transit":false,"i_lat":-6.236616,"transit":false,"i_long":106.997013,"station_name":"Bekasi","distance":2368,"station_id":"BKS","time":2,"line":1},{"station_id":"KRI","time":4,"is_transit":false,"i_long":106.977657,"transit":false,"station_name":"Kranji","i_lat":-6.224515,"line":1,"distance":2520},{"distance":3097,"line":1,"time":3,"i_long":106.951283,"station_name":"Cakung","station_id":"CUK","transit":false,"is_transit":false,"i_lat":-6.219053},{"i_lat":-6.217455,"line":1,"station_id":"KLDB","transit":false,"station_name":"Klenderbaru","distance":1385,"time":8,"is_transit":false,"i_long":106.939679},{"transit":false,"line":1,"station_id":"BUA","time":1,"station_name":"Buaran","i_long":106.922662,"distance":1305,"is_transit":false,"i_lat":-6.215568},{"line":1,"is_transit":false,"i_long":106.899548,"distance":3100,"time":2,"i_lat":-6.2135,"transit":false,"station_name":"Klender","station_id":"KLD"},{"transit":false,"line":1,"station_id":"JNG","is_transit":false,"time":3,"i_lat":-6.215091,"i_long":106.86807400000001,"station_name":"Jatinegara","distance":3395},{"i_long":106.858896,"line":1,"station_name":"Matraman","transit":false,"is_transit":false,"time":2,"station_id":"MTR","distance":1377,"i_lat":-6.212485},{"i_long":106.84912,"distance":1275,"line":2,"transit":true,"is_transit":true,"i_lat":-6.209883,"station_name":"Manggarai","station_id":"MRI","time":2},{"station_name":"Cikini","distance":1590,"station_id":"CKI","time":4,"is_transit":false,"i_long":106.840169,"line":2,"i_lat":-6.198556,"transit":false},{"i_long":106.832183,"i_lat":-6.186295,"line":2,"station_name":"Gondangdia","is_transit":false,"transit":false,"station_id":"GDD","distance":1750,"time":3},{"line":2,"time":4,"distance":2015,"station_name":"Juanda","i_lat":-6.166716,"i_long":106.828284,"transit":false,"station_id":"JUA","is_transit":false},{"time":2,"i_lat":-6.160725,"i_long":106.827103,"line":2,"station_name":"Sawah Besar","transit":false,"station_id":"SW","distance":1149,"is_transit":false},{"is_transit":false,"distance":906,"i_long":106.82482,"i_lat":-6.149769,"transit":false,"station_name":"Manggabesar","station_id":"MGB","time":2,"line":2},{"time":2,"station_name":"Jayakarta","is_transit":false,"i_lat":-6.141205,"distance":1080,"transit":false,"i_long":106.820901,"line":2,"station_id":"JAY"},{"i_long":106.812439,"distance":1264,"is_transit":true,"transit":true,"station_id":"JAKK","time":4,"i_lat":-6.137569,"line":2,"station_name":"Jakarta Kota"},{"station_id":"KPB","i_lat":-6.132549,"transit":true,"i_long":106.826365,"station_name":"Kampung Bandan","is_transit":true,"line":4,"time":3,"distance":1364},{"transit":false,"station_name":"Angke","time":9,"line":1,"i_long":106.79867,"is_transit":false,"distance":4102,"station_id":"AK","i_lat":-6.144674},{"line":1,"distance":1230,"station_name":"Duri","i_long":106.800832,"station_id":"DU","i_lat":-6.155215,"is_transit":true,"time":4,"transit":true},{"line":5,"transit":false,"station_name":"Grogol","station_id":"GGL","is_transit":false,"time":3,"i_lat":-6.162021,"i_long":106.788277,"distance":1700},{"time":2,"distance":2036,"line":5,"station_id":"PSG","i_long":106.771379,"is_transit":false,"i_lat":-6.161433,"station_name":"Pesing","transit":false},{"is_transit":false,"distance":1614,"station_name":"Taman Kota","i_long":106.756522,"line":5,"time":2,"i_lat":-6.1587309999999995,"transit":false,"station_id":"TKO"},{"is_transit":false,"station_id":"BOI","time":2,"station_name":"Bojongindah","distance":2334,"line":5,"i_lat":-6.159876,"transit":false,"i_long":106.737035}],[{"is_transit":false,"transit":false,"station_name":"Metland Telaga Murni","station_id":"TLM","i_lat":-6.262938,"i_long":107.093313,"time":0,"line":1,"distance":0},{"distance":2800,"i_lat":-6.261877,"i_long":107.083084,"station_name":"Cibitung","station_id":"CIT","is_transit":false,"line":1,"transit":false,"time":2},{"station_id":"TB","time":3,"i_lat":-6.258864,"distance":3420,"transit":false,"is_transit":false,"i_long":107.055722,"line":1,"station_name":"Tambun"},{"i_lat":-6.248029,"line":1,"time":7,"transit":false,"distance":4460,"i_long":107.016735,"is_transit":false,"station_id":"BKST","station_name":"Bekasi Timur"},{"station_id":"BKS","i_lat":-6.236616,"is_transit":false,"distance":2368,"transit":false,"station_name":"Bekasi","time":2,"i_long":106.997013,"line":1},{"station_name":"Kranji","is_transit":false,"transit":false,"i_lat":-6.224515,"station_id":"KRI","time":4,"distance":2520,"i_long":106.977657,"line":1},{"station_id":"CUK","i_long":106.951283,"distance":3097,"i_lat":-6.219053,"is_transit":false,"station_name":"Cakung","line":1,"time":3,"transit":false},{"is_transit":false,"i_long":106.939679,"line":1,"transit":false,"station_name":"Klenderbaru","station_id":"KLDB","time":8,"distance":1385,"i_lat":-6.217455},{"line":1,"transit":false,"is_transit":false,"time":1,"distance":1305,"station_name":"Buaran","station_id":"BUA","i_long":106.922662,"i_lat":-6.215568},{"i_lat":-6.2135,"i_long":106.899548,"line":1,"distance":3100,"transit":false,"station_name":"Klender","is_transit":false,"station_id":"KLD","time":2},{"station_id":"JNG","line":1,"distance":3395,"station_name":"Jatinegara","time":3,"transit":true,"i_lat":-6.215091,"is_transit":true,"i_long":106.86807400000001},{"distance":1236,"i_lat":-6.209188,"line":11,"transit":false,"is_transit":false,"i_long":106.861737,"station_id":"POK","time":2,"station_name":"Pondok Jati"},{"transit":false,"i_long":106.855437,"station_id":"KMT","station_name":"Kramat","is_transit":false,"time":2,"distance":1829,"line":11,"i_lat":-6.193792},{"station_id":"GST","station_name":"Gang Sentiong","distance":973,"i_long":106.850107,"transit":false,"time":1,"i_lat":-6.185975,"line":11,"is_transit":false},{"i_long":106.84368,"station_id":"PSE","i_lat":-6.174784,"station_name":"Pasar Senen","distance":1567,"line":11,"time":8,"is_transit":false,"transit":false},{"i_long":106.839204,"station_name":"Kemayoran","transit":false,"station_id":"KMO","is_transit":false,"time":4,"distance":1436,"i_lat":-6.161728,"line":11},{"distance":1901,"is_transit":false,"line":11,"station_name":"Rajawali","transit":false,"station_id":"RJW","i_lat":-6.14505,"i_long":106.836569,"time":5},{"transit":true,"time":3,"line":4,"i_long":106.826365,"is_transit":true,"distance":1444,"i_lat":-6.132549,"station_id":"KPB","station_name":"Kampung Bandan"},{"station_id":"JAKK","station_name":"Jakarta Kota","i_lat":-6.137569,"transit":true,"is_transit":true,"time":3,"distance":1364,"line":2,"i_long":106.812439},{"distance":1264,"i_lat":-6.141205,"i_long":106.820901,"is_transit":false,"line":2,"time":4,"transit":false,"station_name":"Jayakarta","station_id":"JAY"},{"time":2,"i_long":106.82482,"distance":1080,"transit":false,"line":2,"station_name":"Manggabesar","station_id":"MGB","i_lat":-6.149769,"is_transit":false},{"distance":906,"i_long":106.827103,"station_name":"Sawah Besar","time":2,"line":2,"transit":false,"i_lat":-6.160725,"is_transit":false,"station_id":"SW"},{"i_lat":-6.166716,"transit":false,"station_id":"JUA","time":2,"station_name":"Juanda","distance":1149,"line":2,"i_long":106.828284,"is_transit":false},{"is_transit":false,"station_id":"GDD","time":4,"transit":false,"distance":2015,"i_lat":-6.186295,"line":2,"station_name":"Gondangdia","i_long":106.832183},{"transit":false,"time":3,"i_lat":-6.198556,"is_transit":false,"distance":1750,"station_id":"CKI","station_name":"Cikini","i_long":106.840169,"line":2},{"i_lat":-6.209883,"distance":1590,"time":4,"station_id":"MRI","station_name":"Manggarai","line":2,"is_transit":true,"i_long":106.84912,"transit":true},{"i_long":106.822649,"line":1,"time":4,"transit":false,"distance":3186,"station_name":"Sudirman","i_lat":-6.202263,"station_id":"SUD","is_transit":false},{"i_lat":-6.201433,"station_id":"SUDB","line":1,"time":1,"station_name":"Sudirman Baru","distance":280,"i_long":106.819881,"is_transit":false,"transit":false},{"transit":false,"distance":471,"line":1,"station_name":"Karet","i_lat":-6.20132,"i_long":106.816351,"is_transit":false,"time":1,"station_id":"KAT"},{"station_id":"THB","time":5,"i_lat":-6.185545,"line":1,"is_transit":false,"station_name":"Tanah Abang","distance":2029,"i_long":106.811091,"transit":false},{"station_id":"DU","station_name":"Duri","i_lat":-6.155215,"i_long":106.800832,"line":1,"transit":true,"time":8,"is_transit":true,"distance":3632},{"line":5,"station_id":"GGL","i_long":106.788277,"time":3,"distance":1700,"i_lat":-6.162021,"station_name":"Grogol","transit":false,"is_transit":false},{"i_long":106.771379,"station_name":"Pesing","station_id":"PSG","i_lat":-6.161433,"time":2,"distance":2036,"transit":false,"line":5,"is_transit":false},{"distance":1614,"station_name":"Taman Kota","station_id":"TKO","time":2,"i_lat":-6.1587309999999995,"is_transit":false,"i_long":106.756522,"transit":false,"line":5},{"transit":false,"station_id":"BOI","distance":2334,"station_name":"Bojongindah","i_lat":-6.159876,"i_long":106.737035,"line":5,"is_transit":false,"time":2}]]}