{"data":[[{"station_name":"Metland Telaga Murni","station_id":"TLM","i_lat":-6.262938,"line":1,"distance":0,"is_transit":false,"time":0,"i_long":107.093313,"transit":false},{"station_name":"Cibitung","station_id":"CIT","time":2,"line":1,"is_transit":false,"i_long":107.083084,"i_lat":-6.261877,"distance":2800,"transit":false},{"station_id":"TB","distance":3420,"i_long":107.055722,"line":1,"station_name":"Tambun","transit":false,"is_transit":false,"i_lat":-6.258864,"time":3},{"transit":false,"time":7,"station_id":"BKST","is_transit":false,"station_name":"Bekasi Timur","distance":4460,"i_long":107.016735,"i_lat":-6.248029,"line":1},{"i_lat":-6.236616,"is_transit":false,"time":2,"distance":2368,"i_long":106.997013,"station_name":"Bekasi","line":1,"transit":false,"station_id":"BKS"},{"distance":2520,"station_name":"Kranji","transit":false,"i_lat":-6.224515,"line":1,"is_transit":false,"time":4,"station_id":"KRI","i_long":106.977657},{"i_long":106.951283,"station_id":"CUK","station_name":"Cakung","time":3,"line":1,"transit":false,"distance":3097,"is_transit":false,"i_lat":-6.219053},{"i_lat":-6.217455,"station_name":"Klenderbaru","time":8,"is_transit":false,"i_long":106.939679,"station_id":"KLDB","transit":false,"distance":1385,"line":1},{"station_name":"Buaran","distance":1305,"i_long":106.922662,"time":1,"line":1,"i_lat":-6.215568,"transit":false,"station_id":"BUA","is_transit":false},{"is_transit":false,"transit":false,"station_name":"Klender","time":2,"station_id":"KLD","i_lat":-6.2135,"line":1,"distance":3100,"i_long":106.899548},{"station_id":"JNG","i_lat":-6.215091,"time":3,"station_name":"Jatinegara","i_long":106.86807400000001,"distance":3395,"transit":false,"is_transit":false,"line":1},{"transit":false,"station_id":"MTR","station_name":"Matraman","i_lat":-6.212485,"line":1,"time":2,"i_long":106.858896,"distance":1377,"is_transit":false},{"is_transit":true,"station_name":"Manggarai","transit":true,"distance":1275,"time":2,"line":2,"i_lat":-6.209883,"i_long":106.84912,"station_id":"MRI"},{"station_name":"Tebet","station_id":"TEB","i_long":106.857948,"line":2,"transit":false,"time":4,"distance":2610,"is_transit":false,"i_lat":-6.226659}],[{"line":1,"distance":0,"time":0,"station_id":"TLM","transit":false,"i_long":107.093313,"i_lat":-6.262938,"is_transit":false,"station_name":"Metland Telaga Murni"},{"station_id":"CIT","line":1,"is_transit":false,"time":2,"station_name":"Cibitung","transit":false,"i_long":107.083084,"distance":2800,"i_lat":-6.261877},{"transit":false,"station_name":"Tambun","time":3,"i_long":107.055722,"line":1,"is_transit":false,"station_id":"TB","distance":3420,"i_lat":-6.258864},{"transit":false,"i_lat":-6.248029,"distance":4460,"is_transit":false,"station_id":"BKST","i_long":107.016735,"station_name":"Bekasi Timur","time":7,"line":1},{"i_lat":-6.236616,"i_long":106.997013,"station_id":"BKS","station_name":"Bekasi","transit":false,"time":2,"distance":2368,"line":1,"is_transit":false},{"station_id":"KRI","time":4,"station_name":"Kranji","distance":2520,"i_lat":-6.224515,"line":1,"transit":false,"i_long":106.977657,"is_transit":false},{"i_long":106.951283,"station_name":"Cakung","is_transit":false,"i_lat":-6.219053,"transit":false,"distance":3097,"station_id":"CUK","line":1,"time":3},{"distance":1385,"transit":false,"i_lat":-6.217455,"line":1,"station_name":"Klenderbaru","time":8,"i_long":106.939679,"station_id":"KLDB","is_transit":false},{"distance":1305,"is_transit":false,"line":1,"station_name":"Buaran","time":1,"i_lat":-6.215568,"transit":false,"i_long":106.922662,"station_id":"BUA"},{"station_name":"Klender","transit":false,"is_transit":false,"station_id":"KLD","time":2,"line":1,"i_long":106.899548,"distance":3100,"i_lat":-6.2135},{"station_id":"JNG","transit":true,"time":3,"i_long":106.86807400000001,"station_name":"Jatinegara","distance":3395,"i_lat":-6.215091,"line":1,"is_transit":true},{"distance":1236,"i_lat":-6.209188,"line":11,"time":2,"station_name":"Pondok Jati","i_long":106.861737,"transit":false,"station_id":"POK","is_transit":false},{"is_transit":false,"line":11,"station_id":"KMT","i_lat":-6.193792,"i_long":106.855437,"time":2,"station_name":"Kramat","distance":1829,"transit":false},{"station_name":"Gang Sentiong","time":1,"distance":973,"transit":false,"is_transit":false,"station_id":"GST","line":11,"i_lat":-6.185975,"i_long":106.850107},{"station_id":"PSE","line":11,"i_lat":-6.174784,"is_transit":false,"station_name":"Pasar Senen","transit":false,"i_long":106.84368,"time":8,"distance":1567},{"distance":1436,"time":4,"i_lat":-6.161728,"line":11,"transit":false,"station_id":"KMO","i_long":106.839204,"is_transit":false,"station_name":"Kemayoran"},{"station_id":"RJW","is_transit":false,"station_name":"Rajawali","time":5,"line":11,"i_lat":-6.14505,"distance":1901,"transit":false,"i_long":106.836569},{"transit":true,"line":4,"is_transit":true,"i_lat":-6.132549,"i_long":106.826365,"time":3,"station_name":"Kampung Bandan","distance":1444,"station_id":"KPB"},{"station_id":"AK","time":9,"station_name":"Angke","transit":false,"distance":4102,"i_long":106.79867,"line":1,"i_lat":-6.144674,"is_transit":false},{"transit":false,"i_lat":-6.155215,"station_id":"DU","time":4,"station_name":"Duri","i_long":106.800832,"line":1,"distance":1230,"is_transit":false},{"transit":false,"is_transit":false,"line":1,"distance":3632,"time":8,"station_name":"Tanah Abang","i_lat":-6.185545,"i_long":106.811091,"station_id":"THB"},{"station_id":"KAT","distance":2029,"i_long":106.816351,"transit":false,"time":5,"i_lat":-6.20132,"is_transit":false,"line":1,"station_name":"Karet"},{"line":1,"is_transit":false,"station_id":"SUDB","transit":false,"station_name":"Sudirman Baru","time":1,"distance":471,"i_lat":-6.201433,"i_long":106.819881},{"is_transit":false,"time":1,"station_name":"Sudirman","transit":false,"i_long":106.822649,"distance":280,"i_lat":-6.202263,"line":1,"station_id":"SUD"},{"station_name":"Manggarai","transit":true,"time":4,"distance":3186,"station_id":"MRI","i_lat":-6.209883,"line":2,"i_long":106.84912,"is_transit":true},{"i_long":106.857948,"transit":false,"distance":2610,"line":2,"is_transit":false,"station_id":"TEB","time":4,"station_name":"Tebet","i_lat":-6.226659}],[{"transit":false,"station_id":"TLM","i_long":107.093313,"time":0,"station_name":"Metland Telaga Murni","line":1,"distance":0,"i_lat":-6.262938,"is_transit":false},{"i_lat":-6.261877,"station_id":"CIT","is_transit":false,"transit":false,"time":2,"station_name":"Cibitung","line":1,"distance":2800,"i_long":107.083084},{"station_id":"TB","station_name":"Tambun","transit":false,"is_transit":false,"i_lat":-6.258864,"line":1,"time":3,"distance":3420,"i_long":107.055722},{"station_id":"BKST","station_name":"Bekasi Timur","distance":4460,"transit":false,"is_transit":false,"time":7,"i_lat":-6.248029,"i_long":107.016735,"line":1},{"station_id":"BKS","station_name":"Bekasi","transit":false,"line":1,"is_transit":false,"i_lat":-6.236616,"time":2,"i_long":106.997013,"distance":2368},{"distance":2520,"i_lat":-6.224515,"i_long":106.977657,"is_transit":false,"line":1,"time":4,"station_id":"KRI","transit":false,"station_name":"Kranji"},{"station_id":"CUK","distance":3097,"station_name":"Cakung","is_transit":false,"time":3,"i_long":106.951283,"line":1,"i_lat":-6.219053,"transit":false},{"i_lat":-6.217455,"transit":false,"station_name":"Klenderbaru","line":1,"is_transit":false,"station_id":"KLDB","distance":1385,"i_long":106.939679,"time":8},{"station_name":"Buaran","distance":1305,"transit":false,"i_long":106.922662,"time":1,"station_id":"BUA","is_transit":false,"line":1,"i_lat":-6.215568},{"i_lat":-6.2135,"line":1,"i_long":106.899548,"is_transit":false,"station_id":"KLD","transit":false,"distance":3100,"station_name":"Klender","time":2},{"transit":true,"station_id":"JNG","time":3,"station_name":"Jatinegara","i_lat":-6.215091,"line":1,"is_transit":true,"i_long":106.86807400000001,"distance":3395},{"is_transit":false,"distance":1236,"station_name":"Pondok Jati","line":11,"i_long":106.861737,"time":2,"i_lat":-6.209188,"transit":false,"station_id":"POK"},{"station_id":"KMT","station_name":"Kramat","transit":false,"i_lat":-6.193792,"is_transit":false,"time":2,"distance":1829,"line":11,"i_long":106.855437},{"is_transit":false,"station_name":"Gang Sentiong","i_long":106.850107,"distance":973,"transit":false,"time":1,"i_lat":-6.185975,"line":11,"station_id":"GST"},{"is_transit":false,"i_long":106.84368,"time":8,"distance":1567,"i_lat":-6.174784,"line":11,"transit":false,"station_id":"PSE","station_name":"Pasar Senen"},{"i_lat":-6.161728,"station_name":"Kemayoran","distance":1436,"is_transit":false,"i_long":106.839204,"station_id":"KMO","line":11,"time":4,"transit":false},{"transit":false,"i_long":106.836569,"station_name":"Rajawali","is_transit":false,"time":5,"line":11,"station_id":"RJW","distance":1901,"i_lat":-6.14505},{"transit":true,"is_transit":true,"station_id":"KPB","i_lat":-6.132549,"distance":1444,"station_name":"Kampung Bandan","i_long":106.826365,"time":3,"line":4},{"is_transit":true,"transit":true,"i_lat":-6.137569,"station_name":"Jakarta Kota","time":3,"i_long":106.812439,"line":2,"station_id":"JAKK","distance":1364},{"station_id":"JAY","time":4,"i_long":106.820901,"is_transit":false,"station_name":"Jayakarta","line":2,"distance":1264,"transit":false,"i_lat":-6.141205},{"station_id":"MGB","time":2,"line":2,"is_transit":false,"station_name":"Manggabesar","distance":1080,"transit":false,"i_lat":-6.149769,"i_long":106.82482},{"line":2,"distance":906,"station_id":"SW","station_name":"Sawah Besar","is_transit":false,"time":2,"i_long":106.827103,"transit":false,"i_lat":-6.160725},{"line":2,"distance":1149,"transit":false,"station_id":"JUA","station_name":"Juanda","time":2,"i_lat":-6.166716,"i_long":106.828284,"is_transit":false},{"i_lat":-6.186295,"i_long":106.832183,"is_transit":false,"line":2,"station_name":"Gondangdia","transit":false,"station_id":"GDD","distance":2015,"time":4},{"time":3,"is_transit":false,"station_name":"Cikini","distance":1750,"line":2,"transit":false,"i_long":106.840169,"i_lat":-6.198556,"station_id":"CKI"},{"transit":false,"station_name":"Manggarai","station_id":"MRI","line":2,"i_lat":-6.209883,"i_long":106.84912,"time":4,"is_transit":false,"distance":1590},{"time":4,"i_lat":-6.226659,"line":2,"transit":false,"station_name":"Tebet","station_id":"TEB","distance":2610,"i_long":106.857948,"is_transit":false}]]}