{"data":[[{"station_id":"TLM","time":0,"i_long":107.093313,"station_name":"Metland Telaga Murni","i_lat":-6.262938,"is_transit":false,"distance":0,"transit":false,"line":1},{"time":2,"distance":2800,"i_long":107.083084,"transit":false,"station_name":"Cibitung","station_id":"CIT","i_lat":-6.261877,"line":1,"is_transit":false},{"is_transit":false,"station_name":"Tambun","time":3,"i_lat":-6.258864,"transit":false,"distance":3420,"i_long":107.055722,"line":1,"station_id":"TB"},{"i_lat":-6.248029,"time":7,"is_transit":false,"i_long":107.016735,"station_id":"BKST","transit":false,"line":1,"station_name":"Bekasi Timur","distance":4460},{"station_name":"Bekasi","i_lat":-6.236616,"i_long":106.997013,"line":1,"distance":2368,"time":2,"is_transit":false,"station_id":"BKS","transit":false},{"distance":2520,"is_transit":false,"time":4,"i_long":106.977657,"transit":false,"i_lat":-6.224515,"station_id":"KRI","line":1,"station_name":"Kranji"},{"line":1,"i_long":106.951283,"distance":3097,"station_name":"Cakung","is_transit":false,"station_id":"CUK","transit":false,"time":3,"i_lat":-6.219053},{"station_id":"KLDB","transit":false,"line":1,"i_lat":-6.217455,"distance":1385,"is_transit":false,"station_name":"Klenderbaru","time":8,"i_long":106.939679},{"distance":1305,"station_name":"Buaran","i_long":106.922662,"station_id":"BUA","transit":false,"is_transit":false,"time":1,"i_lat":-6.215568,"line":1},{"time":2,"station_name":"Klender","i_lat":-6.2135,"transit":false,"is_transit":false,"station_id":"KLD","distance":3100,"line":1,"i_long":106.899548},{"station_id":"JNG","is_transit":false,"distance":3395,"station_name":"Jatinegara","i_long":106.86807400000001,"line":1,"i_lat":-6.215091,"time":3,"transit":false},{"line":1,"time":2,"distance":1377,"station_name":"Matraman","i_lat":-6.212485,"station_id":"MTR","is_transit":false,"transit":false,"i_long":106.858896},{"distance":1275,"line":2,"i_lat":-6.209883,"time":2,"i_long":106.84912,"transit":false,"station_name":"Manggarai","is_transit":false,"station_id":"MRI"},{"station_id":"SUD","is_transit":false,"distance":3186,"line":1,"time":4,"i_long":106.822649,"transit":false,"i_lat":-6.202263,"station_name":"Sudirman"},{"station_name":"Sudirman Baru","distance":280,"transit":false,"i_long":106.819881,"time":1,"i_lat":-6.201433,"station_id":"SUDB","line":1,"is_transit":false},{"station_id":"KAT","is_transit":false,"distance":471,"i_lat":-6.20132,"transit":false,"i_long":106.816351,"time":1,"station_name":"Karet","line":1},{"i_long":106.811091,"line":1,"station_name":"Tanah Abang","station_id":"THB","distance":2029,"is_transit":false,"transit":false,"i_lat":-6.185545,"time":5},{"i_long":106.800832,"station_name":"Duri","time":8,"i_lat":-6.155215,"station_id":"DU","is_transit":false,"transit":false,"distance":3632,"line":1}],[{"station_id":"TLM","i_lat":-6.262938,"transit":false,"line":1,"i_long":107.093313,"time":0,"distance":0,"station_name":"Metland Telaga Murni","is_transit":false},{"transit":false,"distance":2800,"is_transit":false,"i_lat":-6.261877,"station_id":"CIT","i_long":107.083084,"line":1,"station_name":"Cibitung","time":2},{"station_id":"TB","distance":3420,"is_transit":false,"line":1,"time":3,"station_name":"Tambun","i_long":107.055722,"i_lat":-6.258864,"transit":false},{"is_transit":false,"i_lat":-6.248029,"station_name":"Bekasi Timur","distance":4460,"line":1,"transit":false,"station_id":"BKST","time":7,"i_long":107.016735},{"i_long":106.997013,"line":1,"station_name":"Bekasi","station_id":"BKS","is_transit":false,"time":2,"transit":false,"distance":2368,"i_lat":-6.236616},{"distance":2520,"i_lat":-6.224515,"is_transit":false,"station_name":"Kranji","i_long":106.977657,"transit":false,"station_id":"KRI","time":4,"line":1},{"time":3,"station_name":"Cakung","line":1,"i_lat":-6.219053,"distance":3097,"station_id":"CUK","transit":false,"is_transit":false,"i_long":106.951283},{"i_lat":-6.217455,"distance":1385,"line":1,"is_transit":false,"station_id":"KLDB","transit":false,"station_name":"Klenderbaru","i_long":106.939679,"time":8},{"station_id":"BUA","is_transit":false,"distance":1305,"station_name":"Buaran","i_lat":-6.215568,"line":1,"transit":false,"time":1,"i_long":106.922662},{"time":2,"is_transit":false,"distance":3100,"station_name":"Klender","i_long":106.899548,"line":1,"i_lat":-6.2135,"station_id":"KLD","transit":false},{"station_id":"JNG","time":3,"i_lat":-6.215091,"transit":true,"is_transit":true,"station_name":"Jatinegara","line":1,"distance":3395,"i_long":106.86807400000001},{"station_id":"POK","distance":1236,"is_transit":false,"line":11,"i_long":106.861737,"transit":false,"time":2,"i_lat":-6.209188,"station_name":"Pondok Jati"},{"time":2,"station_name":"Kramat","i_lat":-6.193792,"line":11,"station_id":"KMT","is_transit":false,"i_long":106.855437,"distance":1829,"transit":false},{"transit":false,"i_lat":-6.185975,"i_long":106.850107,"time":1,"distance":973,"is_transit":false,"station_id":"GST","station_name":"Gang Sentiong","line":11},{"is_transit":false,"line":11,"distance":1567,"transit":false,"time":8,"i_long":106.84368,"station_name":"Pasar Senen","i_lat":-6.174784,"station_id":"PSE"},{"station_name":"Kemayoran","i_lat":-6.161728,"line":11,"time":4,"distance":1436,"i_long":106.839204,"station_id":"KMO","transit":false,"is_transit":false},{"i_lat":-6.14505,"station_id":"RJW","line":11,"transit":false,"time":5,"is_transit":false,"i_long":106.836569,"station_name":"Rajawali","distance":1901},{"line":4,"i_lat":-6.132549,"station_id":"KPB","is_transit":true,"distance":1444,"i_long":106.826365,"transit":true,"station_name":"Kampung Bandan","time":3},{"i_lat":-6.144674,"time":9,"station_id":"AK","station_name":"Angke","i_long":106.79867,"is_transit":false,"distance":4102,"transit":false,"line":1},{"distance":1230,"transit":false,"time":4,"i_lat":-6.155215,"i_long":106.800832,"is_transit":false,"line":1,"station_name":"Duri","station_id":"DU"}],[{"i_long":107.093313,"distance":0,"is_transit":false,"time":0,"line":1,"station_id":"TLM","transit":false,"i_lat":-6.262938,"station_name":"Metland Telaga Murni"},{"transit":false,"is_transit":false,"line":1,"station_name":"Cibitung","time":2,"station_id":"CIT","distance":2800,"i_long":107.083084,"i_lat":-6.261877},{"line":1,"i_lat":-6.258864,"station_id":"TB","transit":false,"is_transit":false,"distance":3420,"i_long":107.055722,"time":3,"station_name":"Tambun"},{"transit":false,"i_long":107.016735,"station_id":"BKST","line":1,"is_transit":false,"distance":4460,"station_name":"Bekasi Timur","time":7,"i_lat":-6.248029},{"transit":false,"station_name":"Bekasi","is_transit":false,"line":1,"i_lat":-6.236616,"i_long":106.997013,"time":2,"station_id":"BKS","distance":2368},{"transit":false,"time":4,"distance":2520,"i_lat":-6.224515,"station_id":"KRI","is_transit":false,"station_name":"Kranji","line":1,"i_long":106.977657},{"i_lat":-6.219053,"station_id":"CUK","line":1,"transit":false,"i_long":106.951283,"distance":3097,"is_transit":false,"station_name":"Cakung","time":3},{"time":8,"distance":1385,"station_id":"KLDB","line":1,"transit":false,"station_name":"Klenderbaru","is_transit":false,"i_long":106.939679,"i_lat":-6.217455},{"station_id":"BUA","distance":1305,"is_transit":false,"station_name":"Buaran","i_lat":-6.215568,"line":1,"i_long":106.922662,"time":1,"transit":false},{"i_lat":-6.2135,"i_long":106.899548,"is_transit":false,"line":1,"distance":3100,"station_id":"KLD","time":2,"station_name":"Klender","transit":false},{"transit":false,"time":3,"station_id":"JNG","is_transit":false,"station_name":"Jatinegara","distance":3395,"i_lat":-6.215091,"i_long":106.86807400000001,"line":1},{"line":1,"time":2,"station_id":"MTR","is_transit":false,"distance":1377,"i_lat":-6.212485,"i_long":106.858896,"transit":false,"station_name":"Matraman"},{"i_lat":-6.209883,"line":2,"station_id":"MRI","is_transit":true,"i_long":106.84912,"station_name":"Manggarai","transit":true,"time":2,"distance":1275},{"transit":false,"station_name":"Cikini","time":4,"is_transit":false,"i_lat":-6.198556,"line":2,"station_id":"CKI","distance":1590,"i_long":106.840169},{"station_id":"GDD","time":3,"station_name":"Gondangdia","i_lat":-6.186295,"distance":1750,"is_transit":false,"line":2,"transit":false,"i_long":106.832183},{"time":4,"station_id":"JUA","station_name":"Juanda","i_long":106.828284,"i_lat":-6.166716,"is_transit":false,"line":2,"distance":2015,"transit":false},{"distance":1149,"i_lat":-6.160725,"transit":false,"time":2,"station_name":"Sawah Besar","i_long":106.827103,"line":2,"is_transit":false,"station_id":"SW"},{"line":2,"transit":false,"station_name":"Manggabesar","i_lat":-6.149769,"distance":906,"is_transit":false,"time":2,"station_id":"MGB","i_long":106.82482},{"i_long":106.820901,"is_transit":false,"station_id":"JAY","transit":false,"distance":1080,"station_name":"Jayakarta","i_lat":-6.141205,"line":2,"time":2},{"transit":true,"distance":1264,"station_name":"Jakarta Kota","i_lat":-6.137569,"i_long":106.812439,"line":2,"is_transit":true,"time":4,"station_id":"JAKK"},{"distance":1364,"i_long":106.826365,"station_id":"KPB","station_name":"Kampung Bandan","i_lat":-6.132549,"is_transit":true,"line":4,"time":3,"transit":true},{"is_transit":false,"station_name":"Angke","i_lat":-6.144674,"line":1,"distance":4102,"i_long":106.79867,"time":9,"station_id":"AK","transit":false},{"transit":false,"station_id":"DU","i_lat":-6.155215,"time":4,"distance":1230,"station_name":"Duri","i_long":106.800832,"is_transit":false,"line":1}],[{"line":1,"station_name":"Metland Telaga Murni","station_id":"TLM","transit":false,"i_lat":-6.262938,"i_long":107.093313,"distance":0,"is_transit":false,"time":0},{"transit":false,"station_id":"CIT","line":1,"is_transit":false,"distance":2800,"time":2,"i_long":107.083084,"i_lat":-6.261877,"station_name":"Cibitung"},{"station_id":"TB","distance":3420,"station_name":"Tambun","line":1,"i_lat":-6.258864,"transit":false,"time":3,"is_transit":false,"i_long":107.055722},{"distance":4460,"transit":false,"time":7,"i_lat":-6.248029,"i_long":107.016735,"is_transit":false,"station_name":"Bekasi Timur","line":1,"station_id":"BKST"},{"time":2,"station_id":"BKS","transit":false,"line":1,"distance":2368,"i_lat":-6.236616,"i_long":106.997013,"station_name":"Bekasi","is_transit":false},{"time":4,"station_name":"Kranji","line":1,"i_lat":-6.224515,"distance":2520,"station_id":"KRI","i_long":106.977657,"transit":false,"is_transit":false},{"station_name":"Cakung","station_id":"CUK","is_transit":false,"time":3,"distance":3097,"i_long":106.951283,"i_lat":-6.219053,"line":1,"transit":false},{"station_name":"Klenderbaru","line":1,"distance":1385,"i_long":106.939679,"time":8,"station_id":"KLDB","i_lat":-6.217455,"is_transit":false,"transit":false},{"transit":false,"time":1,"station_id":"BUA","distance":1305,"is_transit":false,"station_name":"Buaran","line":1,"i_lat":-6.215568,"i_long":106.922662},{"time":2,"transit":false,"i_long":106.899548,"station_name":"Klender","is_transit":false,"i_lat":-6.2135,"line":1,"distance":3100,"station_id":"KLD"},{"i_long":106.86807400000001,"line":1,"transit":true,"is_transit":true,"time":3,"station_name":"Jatinegara","station_id":"JNG","i_lat":-6.215091,"distance":3395},{"distance":1236,"station_id":"POK","station_name":"Pondok Jati","line":11,"transit":false,"time":2,"i_lat":-6.209188,"is_transit":false,"i_long":106.861737},{"i_long":106.855437,"line":11,"i_lat":-6.193792,"station_id":"KMT","time":2,"transit":false,"distance":1829,"station_name":"Kramat","is_transit":false},{"i_lat":-6.185975,"distance":973,"is_transit":false,"station_id":"GST","station_name":"Gang Sentiong","i_long":106.850107,"line":11,"time":1,"transit":false},{"distance":1567,"station_name":"Pasar Senen","i_long":106.84368,"transit":false,"line":11,"is_transit":false,"i_lat":-6.174784,"time":8,"station_id":"PSE"},{"is_transit":false,"transit":false,"time":4,"station_id":"KMO","distance":1436,"station_name":"Kemayoran","i_long":106.839204,"i_lat":-6.161728,"line":11},{"time":5,"is_transit":false,"station_id":"RJW","line":11,"i_long":106.836569,"station_name":"Rajawali","i_lat":-6.14505,"transit":false,"distance":1901},{"i_lat":-6.132549,"station_name":"Kampung Bandan","i_long":106.826365,"station_id":"KPB","distance":1444,"line":4,"transit":true,"is_transit":true,"time":3},{"time":3,"i_lat":-6.137569,"station_id":"JAKK","transit":true,"is_transit":true,"distance":1364,"station_name":"Jakarta Kota","i_long":106.812439,"line":2},{"time":4,"station_id":"JAY","transit":false,"distance":1264,"is_transit":false,"i_lat":-6.141205,"station_name":"Jayakarta","line":2,"i_long":106.820901},{"station_name":"Manggabesar","i_lat":-6.149769,"transit":false,"distance":1080,"i_long":106.82482,"is_transit":false,"line":2,"time":2,"station_id":"MGB"},{"distance":906,"line":2,"station_name":"Sawah Besar","time":2,"station_id":"SW","i_long":106.827103,"i_lat":-6.160725,"transit":false,"is_transit":false},{"line":2,"station_id":"JUA","station_name":"Juanda","transit":false,"time":2,"is_transit":false,"i_lat":-6.166716,"distance":1149,"i_long":106.828284},{"station_id":"GDD","is_transit":false,"transit":false,"time":4,"distance":2015,"station_name":"Gondangdia","i_lat":-6.186295,"line":2,"i_long":106.832183},{"time":3,"line":2,"i_lat":-6.198556,"is_transit":false,"station_id":"CKI","station_name":"Cikini","transit":false,"i_long":106.840169,"distance":1750},{"is_transit":true,"time":4,"station_id":"MRI","transit":true,"i_lat":-6.209883,"distance":1590,"station_name":"Manggarai","i_long":106.84912,"line":2},{"time":4,"transit":false,"is_transit":false,"station_id":"SUD","distance":3186,"station_name":"Sudirman","i_long":106.822649,"i_lat":-6.202263,"line":1},{"i_long":106.819881,"transit":false,"is_transit":false,"station_name":"Sudirman Baru","time":1,"line":1,"distance":280,"i_lat":-6.201433,"station_id":"SUDB"},{"station_id":"KAT","line":1,"is_transit":false,"time":1,"station_name":"Karet","transit":false,"distance":471,"i_long":106.816351,"i_lat":-6.20132},{"distance":2029,"is_transit":false,"i_lat":-6.185545,"i_long":106.811091,"station_id":"THB","time":5,"station_name":"Tanah Abang","transit":false,"line":1},{"distance":3632,"is_transit":false,"station_id":"DU","i_lat":-6.155215,"i_long":106.800832,"line":1,"time":8,"transit":false,"station_name":"Duri"}]]}