{"data":[[{"i_lat":-6.262938,"transit":false,"time":0,"line":1,"i_long":107.093313,"station_id":"TLM","distance":0,"station_name":"Metland Telaga Murni","is_transit":false},{"line":0,"i_lat":-6.261877,"is_transit":false,"station_id":"CIT","station_name":"Cibitung","distance":2800,"i_long":107.083084,"transit":false,"time":2},{"station_name":"Tambun","distance":3420,"line":1,"station_id":"TB","transit":false,"time":3,"i_lat":-6.258864,"is_transit":false,"i_long":107.055722},{"i_long":107.016735,"line":0,"station_id":"BKST","station_name":"Bekasi Timur","time":7,"distance":4460,"is_transit":false,"transit":false,"i_lat":-6.248029},{"station_id":"BKS","transit":false,"time":2,"i_long":106.997013,"is_transit":false,"distance":2368,"i_lat":-6.236616,"line":0,"station_name":"Bekasi"},{"line":1,"i_long":106.977657,"transit":false,"is_transit":false,"station_name":"Kranji","time":4,"i_lat":-6.224515,"distance":2520,"station_id":"KRI"},{"i_long":106.951283,"line":0,"station_name":"Cakung","distance":3097,"station_id":"CUK","transit":false,"i_lat":-6.219053,"time":3,"is_transit":false},{"distance":1385,"i_lat":-6.217455,"time":8,"i_long":106.939679,"station_name":"Klenderbaru","transit":false,"line":1,"station_id":"KLDB","is_transit":false},{"is_transit":false,"i_lat":-6.215568,"station_name":"Buaran","station_id":"BUA","distance":1305,"i_long":106.922662,"line":0,"time":1,"transit":false},{"i_long":106.899548,"transit":false,"i_lat":-6.2135,"station_id":"KLD","is_transit":false,"line":1,"station_name":"Klender","time":2,"distance":3100},{"transit":false,"i_lat":-6.215091,"is_transit":true,"station_id":"JNG","time":3,"station_name":"Jatinegara","distance":3395,"i_long":106.86807400000001,"line":0},{"line":1,"i_long":106.858896,"is_transit":false,"station_id":"MTR","station_name":"Matraman","i_lat":-6.212485,"distance":1377,"transit":false,"time":2},{"distance":1275,"transit":false,"is_transit":true,"time":2,"i_lat":-6.209883,"line":0,"station_id":"MRI","station_name":"Manggarai","i_long":106.84912},{"transit":false,"i_long":106.822649,"is_transit":false,"i_lat":-6.202263,"distance":3186,"line":1,"station_name":"Sudirman","time":4,"station_id":"SUD"},{"transit":false,"i_long":106.819881,"station_id":"SUDB","line":1,"is_transit":false,"i_lat":-6.201433,"time":1,"station_name":"Sudirman Baru","distance":280},{"station_name":"Karet","time":1,"transit":false,"i_lat":-6.20132,"station_id":"KAT","is_transit":false,"distance":471,"i_long":106.816351,"line":1},{"station_name":"Tanah Abang","i_long":106.811091,"station_id":"THB","is_transit":true,"distance":2029,"transit":true,"i_lat":-6.185545,"time":5,"line":1},{"is_transit":false,"time":6,"transit":false,"line":6,"station_id":"PLM","station_name":"Palmerah","i_lat":-6.207404,"distance":3191,"i_long":106.79689},{"is_transit":false,"station_id":"KBY","transit":false,"line":6,"station_name":"Kebayoran","distance":3737,"i_lat":-6.237242,"time":7,"i_long":106.780334},{"i_long":106.74273,"i_lat":-6.276362,"station_name":"Pondokranji","transit":false,"distance":6218,"is_transit":false,"station_id":"PDJ","line":6,"time":8},{"time":3,"i_lat":-6.288927,"is_transit":false,"distance":2179,"i_long":106.728916,"line":6,"station_id":"JMU","station_name":"Jurangmangu","transit":false},{"is_transit":false,"distance":1994,"i_long":106.712277,"i_lat":-6.296963,"line":6,"station_name":"Sudimara","time":4,"transit":false,"station_id":"SDM"},{"station_id":"RU","time":6,"station_name":"Rawa Buntu","is_transit":false,"distance":4566,"transit":false,"line":6,"i_lat":-6.314823,"i_long":106.675475},{"transit":false,"station_id":"SRP","station_name":"Serpong","time":4,"is_transit":false,"i_long":106.66566,"distance":2413,"i_lat":-6.319871,"line":6},{"station_name":"Cisauk","is_transit":false,"transit":false,"station_id":"CSK","time":4,"distance":1784,"i_lat":-6.32484,"i_long":106.640411,"line":0},{"station_id":"CC","is_transit":false,"transit":false,"distance":2519,"i_long":106.617853,"i_lat":-6.329547,"station_name":"Cicayur","line":0,"time":4}],[{"i_lat":-6.262938,"time":0,"is_transit":false,"transit":false,"station_name":"Metland Telaga Murni","station_id":"TLM","line":1,"i_long":107.093313,"distance":0},{"time":2,"i_long":107.083084,"line":0,"transit":false,"station_id":"CIT","i_lat":-6.261877,"station_name":"Cibitung","distance":2800,"is_transit":false},{"line":1,"transit":false,"i_long":107.055722,"station_id":"TB","is_transit":false,"distance":3420,"station_name":"Tambun","time":3,"i_lat":-6.258864},{"distance":4460,"time":7,"line":0,"station_id":"BKST","transit":false,"station_name":"Bekasi Timur","i_lat":-6.248029,"is_transit":false,"i_long":107.016735},{"i_long":106.997013,"is_transit":false,"time":2,"station_name":"Bekasi","transit":false,"distance":2368,"station_id":"BKS","line":0,"i_lat":-6.236616},{"transit":false,"i_long":106.977657,"station_name":"Kranji","i_lat":-6.224515,"distance":2520,"line":1,"time":4,"station_id":"KRI","is_transit":false},{"i_long":106.951283,"transit":false,"station_id":"CUK","i_lat":-6.219053,"is_transit":false,"time":3,"line":0,"station_name":"Cakung","distance":3097},{"time":8,"line":1,"station_name":"Klenderbaru","distance":1385,"transit":false,"i_lat":-6.217455,"i_long":106.939679,"station_id":"KLDB","is_transit":false},{"distance":1305,"line":0,"transit":false,"i_lat":-6.215568,"i_long":106.922662,"station_name":"Buaran","station_id":"BUA","time":1,"is_transit":false},{"line":1,"is_transit":false,"station_id":"KLD","time":2,"i_long":106.899548,"station_name":"Klender","distance":3100,"transit":false,"i_lat":-6.2135},{"transit":true,"time":3,"i_lat":-6.215091,"station_name":"Jatinegara","line":0,"station_id":"JNG","i_long":106.86807400000001,"is_transit":true,"distance":3395},{"is_transit":false,"time":2,"station_id":"POK","transit":false,"station_name":"Pondok Jati","i_lat":-6.209188,"line":11,"i_long":106.861737,"distance":1236},{"is_transit":false,"transit":false,"i_lat":-6.193792,"distance":1829,"station_name":"Kramat","station_id":"KMT","time":2,"line":11,"i_long":106.855437},{"i_long":106.850107,"time":1,"distance":973,"station_id":"GST","line":11,"is_transit":false,"station_name":"Gang Sentiong","transit":false,"i_lat":-6.185975},{"time":8,"station_name":"Pasar Senen","distance":1567,"transit":false,"i_lat":-6.174784,"is_transit":false,"i_long":106.84368,"line":11,"station_id":"PSE"},{"line":11,"transit":false,"i_lat":-6.161728,"station_name":"Kemayoran","time":4,"is_transit":false,"station_id":"KMO","distance":1436,"i_long":106.839204},{"i_lat":-6.14505,"i_long":106.836569,"time":5,"station_id":"RJW","station_name":"Rajawali","transit":false,"is_transit":false,"distance":1901,"line":11},{"station_id":"KPB","line":0,"station_name":"Kampung Bandan","is_transit":true,"i_long":106.826365,"i_lat":-6.132549,"time":3,"transit":true,"distance":1444},{"i_long":106.79867,"station_name":"Angke","i_lat":-6.144674,"time":9,"line":0,"is_transit":false,"station_id":"AK","transit":false,"distance":4102},{"station_name":"Duri","distance":1230,"station_id":"DU","transit":true,"i_long":106.800832,"time":4,"i_lat":-6.155215,"is_transit":true,"line":1},{"transit":true,"time":8,"i_lat":-6.185545,"station_id":"THB","distance":3632,"station_name":"Tanah Abang","is_transit":true,"line":1,"i_long":106.811091},{"station_id":"PLM","transit":false,"station_name":"Palmerah","distance":3191,"i_long":106.79689,"time":6,"i_lat":-6.207404,"is_transit":false,"line":6},{"station_name":"Kebayoran","line":6,"is_transit":false,"time":7,"station_id":"KBY","i_long":106.780334,"i_lat":-6.237242,"distance":3737,"transit":false},{"is_transit":false,"line":6,"time":8,"i_lat":-6.276362,"i_long":106.74273,"distance":6218,"station_name":"Pondokranji","station_id":"PDJ","transit":false},{"station_name":"Jurangmangu","i_lat":-6.288927,"time":3,"transit":false,"line":6,"is_transit":false,"station_id":"JMU","distance":2179,"i_long":106.728916},{"time":4,"i_lat":-6.296963,"station_name":"Sudimara","line":6,"station_id":"SDM","transit":false,"distance":1994,"i_long":106.712277,"is_transit":false},{"transit":false,"station_name":"Rawa Buntu","i_long":106.675475,"station_id":"RU","line":6,"distance":4566,"time":6,"i_lat":-6.314823,"is_transit":false},{"transit":false,"i_long":106.66566,"is_transit":false,"distance":2413,"time":4,"station_name":"Serpong","station_id":"SRP","i_lat":-6.319871,"line":6},{"line":0,"distance":1784,"transit":false,"i_long":106.640411,"i_lat":-6.32484,"is_transit":false,"station_name":"Cisauk","station_id":"CSK","time":4},{"time":4,"i_lat":-6.329547,"transit":false,"is_transit":false,"line":0,"distance":2519,"i_long":106.617853,"station_name":"Cicayur","station_id":"CC"}],[{"i_lat":-6.262938,"i_long":107.093313,"distance":0,"station_name":"Metland Telaga Murni","is_transit":false,"time":0,"line":1,"transit":false,"station_id":"TLM"},{"i_lat":-6.261877,"is_transit":false,"station_name":"Cibitung","i_long":107.083084,"time":2,"station_id":"CIT","line":0,"transit":false,"distance":2800},{"i_lat":-6.258864,"i_long":107.055722,"line":1,"distance":3420,"station_id":"TB","station_name":"Tambun","time":3,"transit":false,"is_transit":false},{"transit":false,"time":7,"line":0,"is_transit":false,"station_id":"BKST","i_long":107.016735,"distance":4460,"i_lat":-6.248029,"station_name":"Bekasi Timur"},{"transit":false,"line":0,"station_name":"Bekasi","i_long":106.997013,"is_transit":false,"i_lat":-6.236616,"station_id":"BKS","distance":2368,"time":2},{"is_transit":false,"i_lat":-6.224515,"line":1,"i_long":106.977657,"distance":2520,"transit":false,"station_id":"KRI","time":4,"station_name":"Kranji"},{"i_lat":-6.219053,"time":3,"station_id":"CUK","distance":3097,"i_long":106.951283,"line":0,"transit":false,"is_transit":false,"station_name":"Cakung"},{"i_long":106.939679,"i_lat":-6.217455,"line":1,"station_id":"KLDB","transit":false,"time":8,"station_name":"Klenderbaru","is_transit":false,"distance":1385},{"distance":1305,"i_lat":-6.215568,"transit":false,"is_transit":false,"station_id":"BUA","time":1,"station_name":"Buaran","i_long":106.922662,"line":0},{"i_long":106.899548,"is_transit":false,"transit":false,"station_id":"KLD","time":2,"distance":3100,"station_name":"Klender","i_lat":-6.2135,"line":1},{"distance":3395,"i_long":106.86807400000001,"is_transit":true,"station_name":"Jatinegara","transit":false,"line":0,"time":3,"i_lat":-6.215091,"station_id":"JNG"},{"station_id":"MTR","is_transit":false,"i_long":106.858896,"station_name":"Matraman","line":1,"transit":false,"time":2,"distance":1377,"i_lat":-6.212485},{"i_lat":-6.209883,"is_transit":true,"time":2,"transit":true,"station_id":"MRI","i_long":106.84912,"station_name":"Manggarai","distance":1275,"line":0},{"line":0,"is_transit":false,"station_name":"Cikini","distance":1590,"transit":false,"i_long":106.840169,"station_id":"CKI","time":4,"i_lat":-6.198556},{"transit":false,"line":2,"time":3,"i_lat":-6.186295,"i_long":106.832183,"station_id":"GDD","station_name":"Gondangdia","is_transit":false,"distance":1750},{"station_id":"JUA","time":4,"i_lat":-6.166716,"distance":2015,"i_long":106.828284,"is_transit":false,"transit":false,"station_name":"Juanda","line":2},{"station_name":"Sawah Besar","station_id":"SW","transit":false,"distance":1149,"i_lat":-6.160725,"line":2,"is_transit":false,"i_long":106.827103,"time":2},{"station_id":"MGB","station_name":"Manggabesar","distance":906,"time":2,"transit":false,"i_long":106.82482,"i_lat":-6.149769,"line":2,"is_transit":false},{"station_name":"Jayakarta","transit":false,"station_id":"JAY","time":2,"distance":1080,"i_long":106.820901,"i_lat":-6.141205,"is_transit":false,"line":7},{"i_lat":-6.137569,"transit":true,"distance":1264,"i_long":106.812439,"line":0,"station_id":"JAKK","is_transit":true,"time":4,"station_name":"Jakarta Kota"},{"i_long":106.826365,"transit":false,"time":3,"station_name":"Kampung Bandan","distance":1364,"line":0,"station_id":"KPB","i_lat":-6.132549,"is_transit":true},{"i_long":106.79867,"is_transit":false,"station_name":"Angke","transit":false,"station_id":"AK","line":0,"time":9,"distance":4102,"i_lat":-6.144674},{"transit":true,"i_lat":-6.155215,"i_long":106.800832,"distance":1230,"line":1,"time":4,"station_id":"DU","station_name":"Duri","is_transit":true},{"distance":3632,"station_name":"Tanah Abang","is_transit":true,"transit":true,"line":1,"i_lat":-6.185545,"time":8,"i_long":106.811091,"station_id":"THB"},{"station_name":"Palmerah","is_transit":false,"transit":false,"station_id":"PLM","time":6,"i_long":106.79689,"line":6,"distance":3191,"i_lat":-6.207404},{"time":7,"line":6,"i_lat":-6.237242,"station_name":"Kebayoran","station_id":"KBY","is_transit":false,"i_long":106.780334,"distance":3737,"transit":false},{"station_name":"Pondokranji","is_transit":false,"i_lat":-6.276362,"station_id":"PDJ","i_long":106.74273,"time":8,"line":6,"distance":6218,"transit":false},{"i_lat":-6.288927,"station_id":"JMU","time":3,"distance":2179,"station_name":"Jurangmangu","line":6,"transit":false,"is_transit":false,"i_long":106.728916},{"station_id":"SDM","time":4,"i_long":106.712277,"i_lat":-6.296963,"transit":false,"line":6,"station_name":"Sudimara","is_transit":false,"distance":1994},{"station_id":"RU","time":6,"i_lat":-6.314823,"station_name":"Rawa Buntu","distance":4566,"is_transit":false,"i_long":106.675475,"line":6,"transit":false},{"is_transit":false,"station_id":"SRP","distance":2413,"station_name":"Serpong","transit":false,"i_lat":-6.319871,"i_long":106.66566,"line":6,"time":4},{"station_id":"CSK","distance":1784,"station_name":"Cisauk","time":4,"is_transit":false,"transit":false,"i_long":106.640411,"i_lat":-6.32484,"line":0},{"distance":2519,"transit":false,"is_transit":false,"i_long":106.617853,"station_id":"CC","station_name":"Cicayur","time":4,"i_lat":-6.329547,"line":0}],[{"station_name":"Metland Telaga Murni","is_transit":false,"i_long":107.093313,"transit":false,"time":0,"distance":0,"line":1,"i_lat":-6.262938,"station_id":"TLM"},{"is_transit":false,"distance":2800,"transit":false,"time":2,"station_name":"Cibitung","i_lat":-6.261877,"station_id":"CIT","i_long":107.083084,"line":0},{"distance":3420,"i_lat":-6.258864,"i_long":107.055722,"transit":false,"station_name":"Tambun","time":3,"line":1,"is_transit":false,"station_id":"TB"},{"station_id":"BKST","is_transit":false,"distance":4460,"i_lat":-6.248029,"time":7,"i_long":107.016735,"line":0,"station_name":"Bekasi Timur","transit":false},{"time":2,"i_long":106.997013,"transit":false,"i_lat":-6.236616,"is_transit":false,"station_name":"Bekasi","station_id":"BKS","distance":2368,"line":0},{"is_transit":false,"time":4,"station_id":"KRI","station_name":"Kranji","distance":2520,"transit":false,"i_lat":-6.224515,"i_long":106.977657,"line":1},{"is_transit":false,"time":3,"i_long":106.951283,"station_id":"CUK","transit":false,"i_lat":-6.219053,"line":0,"station_name":"Cakung","distance":3097},{"line":1,"station_name":"Klenderbaru","transit":false,"distance":1385,"i_lat":-6.217455,"i_long":106.939679,"is_transit":false,"station_id":"KLDB","time":8},{"is_transit":false,"distance":1305,"time":1,"transit":false,"i_long":106.922662,"station_id":"BUA","station_name":"Buaran","line":0,"i_lat":-6.215568},{"distance":3100,"time":2,"i_long":106.899548,"line":1,"transit":false,"station_id":"KLD","station_name":"Klender","i_lat":-6.2135,"is_transit":false},{"distance":3395,"transit":true,"is_transit":true,"line":0,"time":3,"i_lat":-6.215091,"i_long":106.86807400000001,"station_id":"JNG","station_name":"Jatinegara"},{"line":11,"station_id":"POK","transit":false,"i_lat":-6.209188,"distance":1236,"i_long":106.861737,"station_name":"Pondok Jati","is_transit":false,"time":2},{"station_id":"KMT","i_lat":-6.193792,"transit":false,"is_transit":false,"time":2,"i_long":106.855437,"line":11,"station_name":"Kramat","distance":1829},{"station_name":"Gang Sentiong","station_id":"GST","is_transit":false,"i_lat":-6.185975,"i_long":106.850107,"time":1,"line":11,"transit":false,"distance":973},{"i_long":106.84368,"time":8,"i_lat":-6.174784,"distance":1567,"transit":false,"is_transit":false,"station_id":"PSE","station_name":"Pasar Senen","line":11},{"station_name":"Kemayoran","i_lat":-6.161728,"distance":1436,"transit":false,"line":11,"time":4,"station_id":"KMO","i_long":106.839204,"is_transit":false},{"transit":false,"is_transit":false,"line":11,"station_id":"RJW","distance":1901,"i_lat":-6.14505,"time":5,"i_long":106.836569,"station_name":"Rajawali"},{"i_lat":-6.132549,"is_transit":true,"transit":true,"i_long":106.826365,"station_name":"Kampung Bandan","line":0,"distance":1444,"time":3,"station_id":"KPB"},{"i_long":106.812439,"line":0,"distance":1364,"transit":true,"i_lat":-6.137569,"station_id":"JAKK","station_name":"Jakarta Kota","is_transit":true,"time":3},{"distance":1264,"is_transit":false,"station_name":"Jayakarta","time":4,"transit":false,"i_lat":-6.141205,"i_long":106.820901,"line":7,"station_id":"JAY"},{"is_transit":false,"time":2,"station_name":"Manggabesar","i_lat":-6.149769,"i_long":106.82482,"line":2,"transit":false,"station_id":"MGB","distance":1080},{"station_id":"SW","station_name":"Sawah Besar","time":2,"distance":906,"i_long":106.827103,"line":2,"i_lat":-6.160725,"transit":false,"is_transit":false},{"i_lat":-6.166716,"i_long":106.828284,"transit":false,"station_name":"Juanda","time":2,"line":2,"distance":1149,"is_transit":false,"station_id":"JUA"},{"i_long":106.832183,"station_id":"GDD","distance":2015,"is_transit":false,"i_lat":-6.186295,"transit":false,"time":4,"line":2,"station_name":"Gondangdia"},{"station_id":"CKI","i_lat":-6.198556,"line":0,"time":3,"transit":false,"distance":1750,"is_transit":false,"i_long":106.840169,"station_name":"Cikini"},{"time":4,"distance":1590,"transit":true,"i_long":106.84912,"i_lat":-6.209883,"line":0,"is_transit":true,"station_id":"MRI","station_name":"Manggarai"},{"line":1,"time":4,"station_id":"SUD","is_transit":false,"i_lat":-6.202263,"i_long":106.822649,"station_name":"Sudirman","distance":3186,"transit":false},{"line":1,"i_lat":-6.201433,"i_long":106.819881,"is_transit":false,"station_id":"SUDB","distance":280,"station_name":"Sudirman Baru","time":1,"transit":false},{"station_id":"KAT","is_transit":false,"time":1,"station_name":"Karet","transit":false,"i_long":106.816351,"distance":471,"i_lat":-6.20132,"line":1},{"i_lat":-6.185545,"time":5,"station_name":"Tanah Abang","is_transit":true,"transit":true,"station_id":"THB","distance":2029,"i_long":106.811091,"line":1},{"is_transit":false,"station_name":"Palmerah","line":6,"transit":false,"distance":3191,"time":6,"i_lat":-6.207404,"station_id":"PLM","i_long":106.79689},{"time":7,"distance":3737,"line":6,"i_lat":-6.237242,"transit":false,"station_id":"KBY","is_transit":false,"station_name":"Kebayoran","i_long":106.780334},{"time":8,"transit":false,"is_transit":false,"distance":6218,"line":6,"station_name":"Pondokranji","station_id":"PDJ","i_lat":-6.276362,"i_long":106.74273},{"is_transit":false,"station_id":"JMU","station_name":"Jurangmangu","i_lat":-6.288927,"distance":2179,"time":3,"line":6,"transit":false,"i_long":106.728916},{"time":4,"line":6,"transit":false,"i_long":106.712277,"station_id":"SDM","station_name":"Sudimara","distance":1994,"i_lat":-6.296963,"is_transit":false},{"time":6,"i_long":106.675475,"is_transit":false,"distance":4566,"station_name":"Rawa Buntu","station_id":"RU","line":6,"transit":false,"i_lat":-6.314823},{"i_long":106.66566,"transit":false,"i_lat":-6.319871,"time":4,"line":6,"station_id":"SRP","is_transit":false,"station_name":"Serpong","distance":2413},{"i_long":106.640411,"station_id":"CSK","distance":1784,"line":0,"time":4,"station_name":"Cisauk","is_transit":false,"transit":false,"i_lat":-6.32484},{"i_lat":-6.329547,"time":4,"station_name":"Cicayur","is_transit":false,"station_id":"CC","line":0,"distance":2519,"transit":false,"i_long":106.617853}]]}