{"data":[[{"time":0,"station_id":"TLM","station_name":"Metland Telaga Murni","i_lat":-6.262938,"i_long":107.093313,"line":1,"transit":false,"distance":0,"is_transit":false},{"i_lat":-6.261877,"transit":false,"station_id":"CIT","station_name":"Cibitung","time":2,"is_transit":false,"distance":2800,"i_long":107.083084,"line":1},{"time":3,"transit":false,"station_name":"Tambun","is_transit":false,"i_lat":-6.258864,"i_long":107.055722,"station_id":"TB","line":1,"distance":3420},{"line":1,"transit":false,"time":7,"station_name":"Bekasi Timur","station_id":"BKST","i_lat":-6.248029,"i_long":107.016735,"is_transit":false,"distance":4460},{"transit":false,"station_name":"Bekasi","i_long":106.997013,"time":2,"station_id":"BKS","distance":2368,"is_transit":false,"i_lat":-6.236616,"line":1},{"transit":false,"line":1,"time":4,"distance":2520,"station_name":"Kranji","i_lat":-6.224515,"i_long":106.977657,"station_id":"KRI","is_transit":false},{"i_lat":-6.219053,"time":3,"distance":3097,"station_name":"Cakung","station_id":"CUK","i_long":106.951283,"is_transit":false,"line":1,"transit":false},{"time":8,"station_id":"KLDB","transit":false,"station_name":"Klenderbaru","is_transit":false,"distance":1385,"i_long":106.939679,"line":1,"i_lat":-6.217455}]]}