{"data":[[{"line":1,"time":0,"transit":false,"i_long":107.093313,"station_id":"TLM","distance":0,"station_name":"Metland Telaga Murni","i_lat":-6.262938,"is_transit":false},{"line":1,"station_id":"CIT","time":2,"i_lat":-6.261877,"distance":2800,"station_name":"Cibitung","is_transit":false,"i_long":107.083084,"transit":false},{"time":3,"distance":3420,"i_long":107.055722,"station_id":"TB","is_transit":false,"station_name":"Tambun","transit":false,"line":1,"i_lat":-6.258864},{"station_id":"BKST","i_lat":-6.248029,"is_transit":false,"i_long":107.016735,"line":1,"distance":4460,"transit":false,"time":7,"station_name":"Bekasi Timur"},{"time":2,"line":1,"station_name":"Bekasi","is_transit":false,"transit":false,"station_id":"BKS","distance":2368,"i_lat":-6.236616,"i_long":106.997013},{"i_long":106.977657,"is_transit":false,"time":4,"transit":false,"station_name":"Kranji","station_id":"KRI","line":1,"distance":2520,"i_lat":-6.224515},{"i_lat":-6.219053,"line":1,"station_name":"Cakung","station_id":"CUK","distance":3097,"transit":false,"i_long":106.951283,"time":3,"is_transit":false},{"station_id":"KLDB","i_long":106.939679,"transit":false,"time":8,"distance":1385,"is_transit":false,"i_lat":-6.217455,"line":1,"station_name":"Klenderbaru"},{"is_transit":false,"i_long":106.922662,"distance":1305,"line":1,"i_lat":-6.215568,"station_id":"BUA","station_name":"Buaran","transit":false,"time":1},{"i_lat":-6.2135,"station_name":"Klender","is_transit":false,"distance":3100,"time":2,"transit":false,"line":1,"i_long":106.899548,"station_id":"KLD"},{"station_name":"Jatinegara","i_lat":-6.215091,"distance":3395,"time":3,"line":1,"i_long":106.86807400000001,"transit":false,"is_transit":false,"station_id":"JNG"},{"transit":false,"distance":1377,"is_transit":false,"station_name":"Matraman","time":2,"i_lat":-6.212485,"station_id":"MTR","i_long":106.858896,"line":1},{"line":2,"i_long":106.84912,"time":2,"distance":1275,"is_transit":false,"transit":false,"station_id":"MRI","station_name":"Manggarai","i_lat":-6.209883},{"transit":false,"is_transit":false,"station_name":"Sudirman","line":1,"distance":3186,"i_long":106.822649,"station_id":"SUD","i_lat":-6.202263,"time":4},{"i_long":106.819881,"station_id":"SUDB","time":1,"line":1,"is_transit":false,"transit":false,"distance":280,"station_name":"Sudirman Baru","i_lat":-6.201433},{"is_transit":false,"line":1,"station_id":"KAT","transit":false,"i_long":106.816351,"station_name":"Karet","distance":471,"time":1,"i_lat":-6.20132},{"distance":2029,"i_lat":-6.185545,"is_transit":false,"line":1,"time":5,"transit":false,"station_name":"Tanah Abang","i_long":106.811091,"station_id":"THB"},{"distance":3632,"is_transit":true,"i_lat":-6.155215,"line":1,"time":8,"station_id":"DU","transit":true,"station_name":"Duri","i_long":106.800832},{"transit":false,"i_long":106.788277,"time":3,"distance":1700,"station_id":"GGL","is_transit":false,"station_name":"Grogol","i_lat":-6.162021,"line":5},{"station_id":"PSG","time":2,"line":5,"i_long":106.771379,"distance":2036,"station_name":"Pesing","i_lat":-6.161433,"transit":false,"is_transit":false},{"transit":false,"i_long":106.756522,"line":5,"is_transit":false,"i_lat":-6.1587309999999995,"distance":1614,"station_id":"TKO","station_name":"Taman Kota","time":2},{"station_name":"Bojongindah","station_id":"BOI","is_transit":false,"i_long":106.737035,"transit":false,"line":5,"i_lat":-6.159876,"distance":2334,"time":2}],[{"station_id":"TLM","time":0,"is_transit":false,"transit":false,"distance":0,"station_name":"Metland Telaga Murni","i_lat":-6.262938,"i_long":107.093313,"line":1},{"i_lat":-6.261877,"i_long":107.083084,"is_transit":false,"distance":2800,"station_name":"Cibitung","transit":false,"station_id":"CIT","line":1,"time":2},{"time":3,"station_id":"TB","station_name":"Tambun","i_long":107.055722,"is_transit":false,"transit":false,"distance":3420,"line":1,"i_lat":-6.258864},{"time":7,"station_name":"Bekasi Timur","i_lat":-6.248029,"line":1,"i_long":107.016735,"is_transit":false,"transit":false,"station_id":"BKST","distance":4460},{"is_transit":false,"i_long":106.997013,"i_lat":-6.236616,"distance":2368,"time":2,"station_id":"BKS","transit":false,"station_name":"Bekasi","line":1},{"is_transit":false,"station_id":"KRI","line":1,"i_long":106.977657,"distance":2520,"station_name":"Kranji","time":4,"transit":false,"i_lat":-6.224515},{"station_name":"Cakung","is_transit":false,"station_id":"CUK","time":3,"i_lat":-6.219053,"line":1,"distance":3097,"i_long":106.951283,"transit":false},{"distance":1385,"transit":false,"time":8,"is_transit":false,"station_id":"KLDB","station_name":"Klenderbaru","i_lat":-6.217455,"i_long":106.939679,"line":1},{"station_id":"BUA","i_lat":-6.215568,"i_long":106.922662,"is_transit":false,"transit":false,"time":1,"station_name":"Buaran","line":1,"distance":1305},{"transit":false,"time":2,"i_lat":-6.2135,"station_id":"KLD","i_long":106.899548,"distance":3100,"is_transit":false,"line":1,"station_name":"Klender"},{"transit":true,"i_long":106.86807400000001,"line":1,"station_name":"Jatinegara","distance":3395,"is_transit":true,"time":3,"i_lat":-6.215091,"station_id":"JNG"},{"time":2,"station_id":"POK","station_name":"Pondok Jati","i_lat":-6.209188,"i_long":106.861737,"line":11,"transit":false,"distance":1236,"is_transit":false},{"i_lat":-6.193792,"transit":false,"station_id":"KMT","station_name":"Kramat","time":2,"is_transit":false,"distance":1829,"i_long":106.855437,"line":11},{"time":1,"transit":false,"station_name":"Gang Sentiong","is_transit":false,"i_lat":-6.185975,"i_long":106.850107,"station_id":"GST","line":11,"distance":973},{"line":11,"transit":false,"time":8,"station_name":"Pasar Senen","station_id":"PSE","i_lat":-6.174784,"i_long":106.84368,"is_transit":false,"distance":1567},{"transit":false,"station_name":"Kemayoran","i_long":106.839204,"time":4,"station_id":"KMO","distance":1436,"is_transit":false,"i_lat":-6.161728,"line":11},{"transit":false,"line":11,"distance":1901,"time":5,"station_name":"Rajawali","i_lat":-6.14505,"i_long":106.836569,"station_id":"RJW","is_transit":false},{"is_transit":true,"i_long":106.826365,"line":4,"transit":true,"station_id":"KPB","distance":1444,"time":3,"i_lat":-6.132549,"station_name":"Kampung Bandan"},{"i_lat":-6.144674,"i_long":106.79867,"is_transit":false,"time":9,"distance":4102,"line":1,"station_id":"AK","transit":false,"station_name":"Angke"},{"time":4,"transit":true,"is_transit":true,"station_id":"DU","i_lat":-6.155215,"i_long":106.800832,"distance":1230,"station_name":"Duri","line":1},{"station_name":"Grogol","distance":1700,"is_transit":false,"station_id":"GGL","transit":false,"i_lat":-6.162021,"line":5,"i_long":106.788277,"time":3},{"i_lat":-6.161433,"distance":2036,"i_long":106.771379,"transit":false,"station_id":"PSG","time":2,"station_name":"Pesing","line":5,"is_transit":false},{"transit":false,"station_name":"Taman Kota","distance":1614,"i_long":106.756522,"line":5,"time":2,"is_transit":false,"station_id":"TKO","i_lat":-6.1587309999999995},{"time":2,"distance":2334,"station_id":"BOI","transit":false,"station_name":"Bojongindah","i_lat":-6.159876,"i_long":106.737035,"line":5,"is_transit":false}],[{"is_transit":false,"distance":0,"station_name":"Metland Telaga Murni","line":1,"transit":false,"station_id":"TLM","i_long":107.093313,"time":0,"i_lat":-6.262938},{"i_lat":-6.261877,"line":1,"transit":false,"is_transit":false,"i_long":107.083084,"distance":2800,"time":2,"station_id":"CIT","station_name":"Cibitung"},{"transit":false,"station_name":"Tambun","i_lat":-6.258864,"time":3,"i_long":107.055722,"distance":3420,"line":1,"is_transit":false,"station_id":"TB"},{"station_name":"Bekasi Timur","line":1,"distance":4460,"time":7,"transit":false,"i_long":107.016735,"is_transit":false,"i_lat":-6.248029,"station_id":"BKST"},{"station_name":"Bekasi","i_lat":-6.236616,"line":1,"transit":false,"i_long":106.997013,"time":2,"station_id":"BKS","distance":2368,"is_transit":false},{"i_lat":-6.224515,"is_transit":false,"line":1,"transit":false,"distance":2520,"station_id":"KRI","station_name":"Kranji","i_long":106.977657,"time":4},{"is_transit":false,"transit":false,"line":1,"station_id":"CUK","distance":3097,"station_name":"Cakung","time":3,"i_long":106.951283,"i_lat":-6.219053},{"line":1,"is_transit":false,"distance":1385,"station_id":"KLDB","transit":false,"i_long":106.939679,"station_name":"Klenderbaru","time":8,"i_lat":-6.217455},{"station_id":"BUA","line":1,"time":1,"distance":1305,"i_lat":-6.215568,"i_long":106.922662,"is_transit":false,"transit":false,"station_name":"Buaran"},{"is_transit":false,"station_name":"Klender","station_id":"KLD","i_lat":-6.2135,"i_long":106.899548,"line":1,"time":2,"distance":3100,"transit":false},{"distance":3395,"station_id":"JNG","transit":false,"i_long":106.86807400000001,"is_transit":false,"line":1,"time":3,"station_name":"Jatinegara","i_lat":-6.215091},{"i_long":106.858896,"distance":1377,"station_name":"Matraman","time":2,"transit":false,"is_transit":false,"i_lat":-6.212485,"station_id":"MTR","line":1},{"distance":1275,"station_id":"MRI","line":2,"is_transit":true,"transit":true,"time":2,"station_name":"Manggarai","i_lat":-6.209883,"i_long":106.84912},{"i_lat":-6.198556,"station_id":"CKI","transit":false,"line":2,"time":4,"is_transit":false,"distance":1590,"i_long":106.840169,"station_name":"Cikini"},{"distance":1750,"is_transit":false,"station_id":"GDD","time":3,"transit":false,"i_long":106.832183,"line":2,"i_lat":-6.186295,"station_name":"Gondangdia"},{"is_transit":false,"i_long":106.828284,"distance":2015,"station_id":"JUA","line":2,"transit":false,"time":4,"station_name":"Juanda","i_lat":-6.166716},{"is_transit":false,"transit":false,"station_name":"Sawah Besar","i_long":106.827103,"i_lat":-6.160725,"line":2,"station_id":"SW","time":2,"distance":1149},{"station_name":"Manggabesar","station_id":"MGB","distance":906,"is_transit":false,"i_long":106.82482,"line":2,"time":2,"transit":false,"i_lat":-6.149769},{"station_name":"Jayakarta","transit":false,"i_lat":-6.141205,"line":2,"distance":1080,"time":2,"i_long":106.820901,"is_transit":false,"station_id":"JAY"},{"station_name":"Jakarta Kota","time":4,"i_long":106.812439,"station_id":"JAKK","distance":1264,"i_lat":-6.137569,"transit":true,"line":2,"is_transit":true},{"line":4,"time":3,"distance":1364,"station_id":"KPB","station_name":"Kampung Bandan","i_lat":-6.132549,"is_transit":true,"transit":true,"i_long":106.826365},{"i_lat":-6.144674,"i_long":106.79867,"station_name":"Angke","distance":4102,"time":9,"station_id":"AK","transit":false,"is_transit":false,"line":1},{"distance":1230,"i_lat":-6.155215,"transit":true,"time":4,"i_long":106.800832,"is_transit":true,"station_id":"DU","station_name":"Duri","line":1},{"distance":1700,"time":3,"transit":false,"is_transit":false,"station_id":"GGL","station_name":"Grogol","i_lat":-6.162021,"i_long":106.788277,"line":5},{"is_transit":false,"i_lat":-6.161433,"i_long":106.771379,"line":5,"station_id":"PSG","transit":false,"distance":2036,"station_name":"Pesing","time":2},{"is_transit":false,"distance":1614,"time":2,"station_id":"TKO","i_lat":-6.1587309999999995,"i_long":106.756522,"transit":false,"station_name":"Taman Kota","line":5},{"i_long":106.737035,"transit":false,"time":2,"station_id":"BOI","line":5,"distance":2334,"is_transit":false,"station_name":"Bojongindah","i_lat":-6.159876}],[{"i_long":107.093313,"is_transit":false,"i_lat":-6.262938,"time":0,"line":1,"distance":0,"station_name":"Metland Telaga Murni","station_id":"TLM","transit":false},{"i_lat":-6.261877,"station_name":"Cibitung","station_id":"CIT","is_transit":false,"transit":false,"i_long":107.083084,"distance":2800,"line":1,"time":2},{"i_long":107.055722,"transit":false,"time":3,"i_lat":-6.258864,"distance":3420,"is_transit":false,"station_name":"Tambun","line":1,"station_id":"TB"},{"time":7,"distance":4460,"i_lat":-6.248029,"is_transit":false,"i_long":107.016735,"station_name":"Bekasi Timur","transit":false,"line":1,"station_id":"BKST"},{"station_id":"BKS","line":1,"time":2,"station_name":"Bekasi","i_lat":-6.236616,"is_transit":false,"transit":false,"distance":2368,"i_long":106.997013},{"line":1,"i_lat":-6.224515,"i_long":106.977657,"distance":2520,"station_name":"Kranji","station_id":"KRI","is_transit":false,"transit":false,"time":4},{"station_name":"Cakung","line":1,"distance":3097,"is_transit":false,"i_lat":-6.219053,"transit":false,"i_long":106.951283,"station_id":"CUK","time":3},{"i_lat":-6.217455,"station_name":"Klenderbaru","distance":1385,"is_transit":false,"time":8,"station_id":"KLDB","transit":false,"line":1,"i_long":106.939679},{"i_long":106.922662,"line":1,"i_lat":-6.215568,"is_transit":false,"distance":1305,"time":1,"station_id":"BUA","transit":false,"station_name":"Buaran"},{"transit":false,"station_id":"KLD","station_name":"Klender","line":1,"i_lat":-6.2135,"time":2,"i_long":106.899548,"distance":3100,"is_transit":false},{"line":1,"transit":true,"is_transit":true,"distance":3395,"time":3,"i_lat":-6.215091,"station_id":"JNG","station_name":"Jatinegara","i_long":106.86807400000001},{"i_lat":-6.209188,"i_long":106.861737,"time":2,"transit":false,"station_name":"Pondok Jati","line":11,"station_id":"POK","is_transit":false,"distance":1236},{"i_lat":-6.193792,"i_long":106.855437,"line":11,"time":2,"station_name":"Kramat","is_transit":false,"distance":1829,"transit":false,"station_id":"KMT"},{"is_transit":false,"time":1,"transit":false,"i_lat":-6.185975,"station_name":"Gang Sentiong","i_long":106.850107,"station_id":"GST","line":11,"distance":973},{"time":8,"i_lat":-6.174784,"line":11,"station_name":"Pasar Senen","i_long":106.84368,"station_id":"PSE","transit":false,"is_transit":false,"distance":1567},{"distance":1436,"i_lat":-6.161728,"station_id":"KMO","transit":false,"time":4,"is_transit":false,"station_name":"Kemayoran","i_long":106.839204,"line":11},{"is_transit":false,"line":11,"i_lat":-6.14505,"distance":1901,"transit":false,"station_name":"Rajawali","time":5,"station_id":"RJW","i_long":106.836569},{"time":3,"i_lat":-6.132549,"is_transit":true,"distance":1444,"i_long":106.826365,"station_id":"KPB","station_name":"Kampung Bandan","line":4,"transit":true},{"is_transit":true,"time":3,"line":2,"station_name":"Jakarta Kota","station_id":"JAKK","transit":true,"distance":1364,"i_long":106.812439,"i_lat":-6.137569},{"station_name":"Jayakarta","station_id":"JAY","time":4,"line":2,"transit":false,"is_transit":false,"i_lat":-6.141205,"i_long":106.820901,"distance":1264},{"is_transit":false,"line":2,"distance":1080,"i_lat":-6.149769,"time":2,"i_long":106.82482,"station_id":"MGB","transit":false,"station_name":"Manggabesar"},{"distance":906,"is_transit":false,"transit":false,"station_id":"SW","i_lat":-6.160725,"line":2,"station_name":"Sawah Besar","time":2,"i_long":106.827103},{"is_transit":false,"distance":1149,"station_id":"JUA","time":2,"i_lat":-6.166716,"line":2,"station_name":"Juanda","transit":false,"i_long":106.828284},{"distance":2015,"is_transit":false,"station_id":"GDD","line":2,"time":4,"station_name":"Gondangdia","i_lat":-6.186295,"i_long":106.832183,"transit":false},{"transit":false,"station_name":"Cikini","i_long":106.840169,"i_lat":-6.198556,"distance":1750,"time":3,"station_id":"CKI","line":2,"is_transit":false},{"i_long":106.84912,"i_lat":-6.209883,"is_transit":true,"time":4,"line":2,"station_id":"MRI","transit":true,"distance":1590,"station_name":"Manggarai"},{"distance":3186,"is_transit":false,"i_lat":-6.202263,"line":1,"i_long":106.822649,"station_id":"SUD","transit":false,"station_name":"Sudirman","time":4},{"line":1,"i_lat":-6.201433,"is_transit":false,"i_long":106.819881,"distance":280,"transit":false,"station_name":"Sudirman Baru","station_id":"SUDB","time":1},{"transit":false,"distance":471,"i_lat":-6.20132,"time":1,"line":1,"station_id":"KAT","is_transit":false,"station_name":"Karet","i_long":106.816351},{"is_transit":false,"i_long":106.811091,"distance":2029,"station_id":"THB","time":5,"station_name":"Tanah Abang","i_lat":-6.185545,"transit":false,"line":1},{"line":1,"transit":true,"time":8,"station_id":"DU","distance":3632,"station_name":"Duri","i_lat":-6.155215,"is_transit":true,"i_long":106.800832},{"station_name":"Grogol","i_lat":-6.162021,"i_long":106.788277,"line":5,"distance":1700,"station_id":"GGL","transit":false,"is_transit":false,"time":3},{"is_transit":false,"time":2,"distance":2036,"station_name":"Pesing","transit":false,"i_lat":-6.161433,"station_id":"PSG","i_long":106.771379,"line":5},{"is_transit":false,"i_lat":-6.1587309999999995,"time":2,"line":5,"i_long":106.756522,"distance":1614,"transit":false,"station_id":"TKO","station_name":"Taman Kota"},{"time":2,"distance":2334,"i_long":106.737035,"station_id":"BOI","station_name":"Bojongindah","i_lat":-6.159876,"is_transit":false,"transit":false,"line":5}]]}