{"data":[[{"distance":0,"transit":false,"is_transit":false,"station_name":"Metland Telaga Murni","station_id":"TLM","line":1,"i_lat":-6.262938,"i_long":107.093313,"time":0},{"line":0,"time":2,"is_transit":false,"station_id":"CIT","transit":false,"station_name":"Cibitung","i_lat":-6.261877,"i_long":107.083084,"distance":2800},{"station_name":"Tambun","transit":false,"is_transit":false,"i_long":107.055722,"line":1,"station_id":"TB","time":3,"i_lat":-6.258864,"distance":3420},{"transit":false,"i_long":107.016735,"station_name":"Bekasi Timur","is_transit":false,"time":7,"line":0,"distance":4460,"i_lat":-6.248029,"station_id":"BKST"},{"line":0,"station_name":"Bekasi","i_lat":-6.236616,"i_long":106.997013,"station_id":"BKS","is_transit":false,"time":2,"distance":2368,"transit":false},{"i_long":106.977657,"line":1,"transit":false,"station_id":"KRI","station_name":"Kranji","i_lat":-6.224515,"distance":2520,"time":4,"is_transit":false},{"is_transit":false,"i_long":106.951283,"station_name":"Cakung","distance":3097,"time":3,"line":0,"station_id":"CUK","i_lat":-6.219053,"transit":false},{"transit":false,"station_id":"KLDB","station_name":"Klenderbaru","i_lat":-6.217455,"i_long":106.939679,"distance":1385,"time":8,"is_transit":false,"line":1},{"time":1,"line":0,"is_transit":false,"i_lat":-6.215568,"distance":1305,"i_long":106.922662,"transit":false,"station_id":"BUA","station_name":"Buaran"},{"distance":3100,"time":2,"line":1,"station_name":"Klender","i_long":106.899548,"station_id":"KLD","is_transit":false,"transit":false,"i_lat":-6.2135},{"is_transit":true,"i_long":106.86807400000001,"station_id":"JNG","time":3,"transit":false,"i_lat":-6.215091,"line":0,"distance":3395,"station_name":"Jatinegara"},{"station_id":"MTR","i_long":106.858896,"distance":1377,"transit":false,"station_name":"Matraman","i_lat":-6.212485,"time":2,"is_transit":false,"line":1},{"is_transit":true,"station_id":"MRI","station_name":"Manggarai","distance":1275,"line":0,"transit":false,"i_lat":-6.209883,"i_long":106.84912,"time":2},{"is_transit":false,"time":4,"transit":false,"station_name":"Sudirman","i_lat":-6.202263,"i_long":106.822649,"line":1,"distance":3186,"station_id":"SUD"},{"transit":false,"i_long":106.819881,"station_name":"Sudirman Baru","is_transit":false,"distance":280,"station_id":"SUDB","i_lat":-6.201433,"time":1,"line":1}],[{"station_name":"Metland Telaga Murni","i_lat":-6.262938,"i_long":107.093313,"distance":0,"time":0,"transit":false,"is_transit":false,"line":1,"station_id":"TLM"},{"i_lat":-6.261877,"transit":false,"is_transit":false,"distance":2800,"i_long":107.083084,"station_name":"Cibitung","time":2,"station_id":"CIT","line":0},{"line":1,"is_transit":false,"distance":3420,"i_lat":-6.258864,"i_long":107.055722,"transit":false,"station_name":"Tambun","time":3,"station_id":"TB"},{"i_long":107.016735,"i_lat":-6.248029,"distance":4460,"is_transit":false,"station_id":"BKST","line":0,"transit":false,"time":7,"station_name":"Bekasi Timur"},{"i_lat":-6.236616,"station_name":"Bekasi","line":0,"time":2,"is_transit":false,"distance":2368,"transit":false,"i_long":106.997013,"station_id":"BKS"},{"distance":2520,"i_lat":-6.224515,"time":4,"transit":false,"line":1,"i_long":106.977657,"is_transit":false,"station_id":"KRI","station_name":"Kranji"},{"station_id":"CUK","time":3,"is_transit":false,"station_name":"Cakung","i_long":106.951283,"distance":3097,"line":0,"transit":false,"i_lat":-6.219053},{"i_lat":-6.217455,"line":1,"transit":false,"i_long":106.939679,"time":8,"is_transit":false,"station_name":"Klenderbaru","distance":1385,"station_id":"KLDB"},{"distance":1305,"line":0,"transit":false,"is_transit":false,"station_id":"BUA","station_name":"Buaran","time":1,"i_lat":-6.215568,"i_long":106.922662},{"line":1,"station_name":"Klender","i_lat":-6.2135,"transit":false,"time":2,"distance":3100,"is_transit":false,"i_long":106.899548,"station_id":"KLD"},{"time":3,"line":0,"station_id":"JNG","transit":true,"i_long":106.86807400000001,"is_transit":true,"station_name":"Jatinegara","distance":3395,"i_lat":-6.215091},{"is_transit":false,"station_id":"POK","station_name":"Pondok Jati","i_lat":-6.209188,"line":11,"time":2,"transit":false,"distance":1236,"i_long":106.861737},{"is_transit":false,"distance":1829,"station_name":"Kramat","time":2,"transit":false,"i_lat":-6.193792,"line":11,"station_id":"KMT","i_long":106.855437},{"is_transit":false,"i_lat":-6.185975,"i_long":106.850107,"time":1,"distance":973,"line":11,"station_name":"Gang Sentiong","station_id":"GST","transit":false},{"i_long":106.84368,"distance":1567,"time":8,"station_name":"Pasar Senen","station_id":"PSE","transit":false,"line":11,"is_transit":false,"i_lat":-6.174784},{"station_id":"KMO","time":4,"i_long":106.839204,"distance":1436,"line":11,"transit":false,"is_transit":false,"station_name":"Kemayoran","i_lat":-6.161728},{"i_lat":-6.14505,"transit":false,"is_transit":false,"distance":1901,"i_long":106.836569,"line":11,"time":5,"station_name":"Rajawali","station_id":"RJW"},{"station_id":"KPB","i_long":106.826365,"transit":true,"i_lat":-6.132549,"line":0,"time":3,"distance":1444,"station_name":"Kampung Bandan","is_transit":true},{"distance":4102,"station_id":"AK","time":9,"i_lat":-6.144674,"is_transit":false,"i_long":106.79867,"transit":false,"station_name":"Angke","line":0},{"station_name":"Duri","time":4,"is_transit":true,"i_long":106.800832,"line":1,"distance":1230,"station_id":"DU","i_lat":-6.155215,"transit":true},{"station_name":"Tanah Abang","distance":3632,"is_transit":true,"i_lat":-6.185545,"time":8,"transit":false,"i_long":106.811091,"line":1,"station_id":"THB"},{"i_long":106.816351,"distance":2029,"is_transit":false,"station_id":"KAT","time":5,"line":1,"transit":false,"station_name":"Karet","i_lat":-6.20132},{"line":1,"i_lat":-6.201433,"distance":471,"transit":false,"i_long":106.819881,"station_name":"Sudirman Baru","station_id":"SUDB","time":1,"is_transit":false}],[{"time":0,"transit":false,"i_lat":-6.262938,"i_long":107.093313,"line":1,"is_transit":false,"station_id":"TLM","distance":0,"station_name":"Metland Telaga Murni"},{"station_name":"Cibitung","i_long":107.083084,"i_lat":-6.261877,"time":2,"station_id":"CIT","transit":false,"line":0,"distance":2800,"is_transit":false},{"distance":3420,"station_id":"TB","time":3,"station_name":"Tambun","i_lat":-6.258864,"is_transit":false,"transit":false,"i_long":107.055722,"line":1},{"i_lat":-6.248029,"station_id":"BKST","is_transit":false,"distance":4460,"time":7,"station_name":"Bekasi Timur","line":0,"transit":false,"i_long":107.016735},{"station_id":"BKS","distance":2368,"station_name":"Bekasi","i_lat":-6.236616,"i_long":106.997013,"time":2,"line":0,"is_transit":false,"transit":false},{"i_lat":-6.224515,"line":1,"station_name":"Kranji","transit":false,"station_id":"KRI","i_long":106.977657,"time":4,"distance":2520,"is_transit":false},{"line":0,"station_id":"CUK","time":3,"is_transit":false,"i_lat":-6.219053,"transit":false,"distance":3097,"station_name":"Cakung","i_long":106.951283},{"i_lat":-6.217455,"is_transit":false,"distance":1385,"station_id":"KLDB","transit":false,"station_name":"Klenderbaru","i_long":106.939679,"line":1,"time":8},{"i_lat":-6.215568,"distance":1305,"station_id":"BUA","i_long":106.922662,"line":0,"station_name":"Buaran","time":1,"transit":false,"is_transit":false},{"transit":false,"station_id":"KLD","i_long":106.899548,"line":1,"distance":3100,"time":2,"station_name":"Klender","i_lat":-6.2135,"is_transit":false},{"i_long":106.86807400000001,"distance":3395,"transit":false,"station_id":"JNG","i_lat":-6.215091,"is_transit":true,"time":3,"station_name":"Jatinegara","line":0},{"distance":1377,"i_long":106.858896,"station_id":"MTR","time":2,"transit":false,"is_transit":false,"i_lat":-6.212485,"station_name":"Matraman","line":1},{"is_transit":true,"station_id":"MRI","station_name":"Manggarai","i_lat":-6.209883,"i_long":106.84912,"line":0,"distance":1275,"time":2,"transit":true},{"i_lat":-6.198556,"transit":false,"i_long":106.840169,"is_transit":false,"line":0,"distance":1590,"station_id":"CKI","time":4,"station_name":"Cikini"},{"station_name":"Gondangdia","transit":false,"i_long":106.832183,"time":3,"distance":1750,"station_id":"GDD","i_lat":-6.186295,"line":2,"is_transit":false},{"i_lat":-6.166716,"is_transit":false,"distance":2015,"time":4,"transit":false,"station_name":"Juanda","i_long":106.828284,"line":2,"station_id":"JUA"},{"transit":false,"distance":1149,"time":2,"i_lat":-6.160725,"i_long":106.827103,"station_name":"Sawah Besar","station_id":"SW","is_transit":false,"line":2},{"i_long":106.82482,"station_id":"MGB","transit":false,"distance":906,"i_lat":-6.149769,"is_transit":false,"line":2,"time":2,"station_name":"Manggabesar"},{"line":7,"i_lat":-6.141205,"distance":1080,"transit":false,"is_transit":false,"time":2,"station_id":"JAY","i_long":106.820901,"station_name":"Jayakarta"},{"station_id":"JAKK","i_long":106.812439,"station_name":"Jakarta Kota","line":0,"distance":1264,"i_lat":-6.137569,"time":4,"is_transit":true,"transit":true},{"distance":1364,"station_id":"KPB","is_transit":true,"i_lat":-6.132549,"line":0,"station_name":"Kampung Bandan","time":3,"transit":false,"i_long":106.826365},{"line":0,"i_long":106.79867,"distance":4102,"station_name":"Angke","station_id":"AK","transit":false,"is_transit":false,"time":9,"i_lat":-6.144674},{"distance":1230,"station_id":"DU","i_lat":-6.155215,"time":4,"i_long":106.800832,"line":1,"is_transit":true,"transit":true,"station_name":"Duri"},{"i_long":106.811091,"transit":false,"time":8,"i_lat":-6.185545,"is_transit":true,"line":1,"distance":3632,"station_id":"THB","station_name":"Tanah Abang"},{"is_transit":false,"station_name":"Karet","i_lat":-6.20132,"distance":2029,"line":1,"station_id":"KAT","time":5,"i_long":106.816351,"transit":false},{"station_id":"SUDB","is_transit":false,"station_name":"Sudirman Baru","time":1,"i_lat":-6.201433,"i_long":106.819881,"line":1,"distance":471,"transit":false}],[{"i_long":107.093313,"is_transit":false,"transit":false,"station_name":"Metland Telaga Murni","time":0,"i_lat":-6.262938,"line":1,"distance":0,"station_id":"TLM"},{"time":2,"is_transit":false,"transit":false,"station_id":"CIT","distance":2800,"i_lat":-6.261877,"i_long":107.083084,"station_name":"Cibitung","line":0},{"i_lat":-6.258864,"time":3,"is_transit":false,"distance":3420,"line":1,"station_id":"TB","i_long":107.055722,"station_name":"Tambun","transit":false},{"transit":false,"station_name":"Bekasi Timur","i_long":107.016735,"distance":4460,"station_id":"BKST","line":0,"i_lat":-6.248029,"time":7,"is_transit":false},{"line":0,"i_long":106.997013,"time":2,"i_lat":-6.236616,"is_transit":false,"distance":2368,"station_id":"BKS","transit":false,"station_name":"Bekasi"},{"station_id":"KRI","is_transit":false,"time":4,"line":1,"distance":2520,"station_name":"Kranji","i_lat":-6.224515,"i_long":106.977657,"transit":false},{"i_lat":-6.219053,"is_transit":false,"transit":false,"time":3,"station_id":"CUK","distance":3097,"i_long":106.951283,"station_name":"Cakung","line":0},{"i_lat":-6.217455,"distance":1385,"station_id":"KLDB","station_name":"Klenderbaru","line":1,"is_transit":false,"time":8,"transit":false,"i_long":106.939679},{"i_long":106.922662,"station_id":"BUA","line":0,"distance":1305,"station_name":"Buaran","i_lat":-6.215568,"time":1,"is_transit":false,"transit":false},{"is_transit":false,"line":1,"station_id":"KLD","distance":3100,"i_long":106.899548,"transit":false,"time":2,"station_name":"Klender","i_lat":-6.2135},{"is_transit":true,"i_long":106.86807400000001,"i_lat":-6.215091,"time":3,"distance":3395,"transit":true,"station_id":"JNG","station_name":"Jatinegara","line":0},{"i_long":106.861737,"line":11,"transit":false,"station_id":"POK","is_transit":false,"time":2,"station_name":"Pondok Jati","i_lat":-6.209188,"distance":1236},{"is_transit":false,"i_lat":-6.193792,"distance":1829,"station_id":"KMT","transit":false,"station_name":"Kramat","time":2,"line":11,"i_long":106.855437},{"distance":973,"line":11,"is_transit":false,"transit":false,"time":1,"i_lat":-6.185975,"i_long":106.850107,"station_name":"Gang Sentiong","station_id":"GST"},{"transit":false,"is_transit":false,"line":11,"distance":1567,"i_lat":-6.174784,"time":8,"i_long":106.84368,"station_id":"PSE","station_name":"Pasar Senen"},{"distance":1436,"line":11,"time":4,"i_long":106.839204,"station_name":"Kemayoran","station_id":"KMO","transit":false,"is_transit":false,"i_lat":-6.161728},{"i_lat":-6.14505,"station_name":"Rajawali","time":5,"is_transit":false,"line":11,"transit":false,"i_long":106.836569,"distance":1901,"station_id":"RJW"},{"is_transit":true,"station_name":"Kampung Bandan","i_lat":-6.132549,"distance":1444,"i_long":106.826365,"transit":true,"station_id":"KPB","time":3,"line":0},{"distance":1364,"transit":true,"i_lat":-6.137569,"time":3,"station_id":"JAKK","i_long":106.812439,"is_transit":true,"station_name":"Jakarta Kota","line":0},{"transit":false,"line":7,"is_transit":false,"time":4,"distance":1264,"station_id":"JAY","i_long":106.820901,"i_lat":-6.141205,"station_name":"Jayakarta"},{"transit":false,"is_transit":false,"distance":1080,"station_name":"Manggabesar","i_long":106.82482,"time":2,"station_id":"MGB","i_lat":-6.149769,"line":2},{"station_name":"Sawah Besar","i_long":106.827103,"station_id":"SW","line":2,"distance":906,"time":2,"transit":false,"i_lat":-6.160725,"is_transit":false},{"transit":false,"distance":1149,"time":2,"line":2,"i_long":106.828284,"station_name":"Juanda","station_id":"JUA","i_lat":-6.166716,"is_transit":false},{"time":4,"station_name":"Gondangdia","transit":false,"i_long":106.832183,"line":2,"is_transit":false,"station_id":"GDD","i_lat":-6.186295,"distance":2015},{"i_lat":-6.198556,"distance":1750,"i_long":106.840169,"transit":false,"is_transit":false,"line":0,"station_id":"CKI","time":3,"station_name":"Cikini"},{"i_lat":-6.209883,"line":0,"transit":true,"i_long":106.84912,"station_id":"MRI","distance":1590,"time":4,"station_name":"Manggarai","is_transit":true},{"distance":3186,"i_long":106.822649,"i_lat":-6.202263,"line":1,"station_id":"SUD","is_transit":false,"transit":false,"station_name":"Sudirman","time":4},{"line":1,"i_lat":-6.201433,"station_id":"SUDB","time":1,"distance":280,"transit":false,"is_transit":false,"station_name":"Sudirman Baru","i_long":106.819881}]]}