{"data":[[{"i_long":107.093313,"is_transit":false,"station_id":"TLM","time":0,"i_lat":-6.262938,"distance":0,"line":1,"transit":false,"station_name":"Metland Telaga Murni"},{"i_long":107.083084,"transit":false,"time":2,"station_id":"CIT","line":1,"is_transit":false,"station_name":"Cibitung","distance":2800,"i_lat":-6.261877},{"i_lat":-6.258864,"transit":false,"line":1,"is_transit":false,"distance":3420,"i_long":107.055722,"station_name":"Tambun","time":3,"station_id":"TB"},{"i_long":107.016735,"time":7,"is_transit":false,"station_id":"BKST","transit":false,"line":1,"station_name":"Bekasi Timur","distance":4460,"i_lat":-6.248029},{"station_name":"Bekasi","i_lat":-6.236616,"i_long":106.997013,"station_id":"BKS","line":1,"is_transit":false,"distance":2368,"time":2,"transit":false},{"station_name":"Kranji","station_id":"KRI","distance":2520,"i_long":106.977657,"time":4,"transit":false,"line":1,"i_lat":-6.224515,"is_transit":false},{"distance":3097,"transit":false,"is_transit":false,"i_lat":-6.219053,"i_long":106.951283,"time":3,"line":1,"station_id":"CUK","station_name":"Cakung"},{"i_long":106.939679,"time":8,"i_lat":-6.217455,"distance":1385,"transit":false,"station_name":"Klenderbaru","line":1,"station_id":"KLDB","is_transit":false},{"i_long":106.922662,"line":1,"is_transit":false,"transit":false,"station_id":"BUA","distance":1305,"time":1,"station_name":"Buaran","i_lat":-6.215568},{"station_name":"Klender","time":2,"is_transit":false,"i_lat":-6.2135,"distance":3100,"station_id":"KLD","transit":false,"line":1,"i_long":106.899548},{"i_long":106.86807400000001,"line":1,"station_id":"JNG","station_name":"Jatinegara","time":3,"is_transit":false,"distance":3395,"i_lat":-6.215091,"transit":false},{"i_lat":-6.212485,"line":1,"station_id":"MTR","transit":false,"is_transit":false,"i_long":106.858896,"station_name":"Matraman","time":2,"distance":1377},{"time":2,"station_name":"Manggarai","transit":false,"distance":1275,"i_lat":-6.209883,"i_long":106.84912,"is_transit":false,"line":2,"station_id":"MRI"},{"time":4,"i_lat":-6.202263,"is_transit":false,"distance":3186,"station_name":"Sudirman","transit":false,"i_long":106.822649,"line":1,"station_id":"SUD"},{"line":1,"time":1,"station_id":"SUDB","station_name":"Sudirman Baru","distance":280,"transit":false,"i_lat":-6.201433,"i_long":106.819881,"is_transit":false},{"i_long":106.816351,"station_name":"Karet","station_id":"KAT","distance":471,"transit":false,"is_transit":false,"i_lat":-6.20132,"line":1,"time":1},{"station_name":"Tanah Abang","distance":2029,"is_transit":true,"time":5,"station_id":"THB","transit":true,"i_long":106.811091,"line":1,"i_lat":-6.185545},{"i_lat":-6.207404,"station_id":"PLM","station_name":"Palmerah","i_long":106.79689,"distance":3191,"line":6,"time":6,"is_transit":false,"transit":false},{"distance":3737,"transit":false,"station_name":"Kebayoran","i_lat":-6.237242,"time":7,"is_transit":false,"i_long":106.780334,"line":6,"station_id":"KBY"},{"station_id":"PDJ","station_name":"Pondokranji","distance":6218,"line":6,"time":8,"transit":false,"i_lat":-6.276362,"is_transit":false,"i_long":106.74273},{"i_lat":-6.288927,"station_id":"JMU","i_long":106.728916,"distance":2179,"transit":false,"line":6,"station_name":"Jurangmangu","time":3,"is_transit":false},{"time":4,"distance":1994,"i_lat":-6.296963,"station_name":"Sudimara","i_long":106.712277,"line":6,"transit":false,"station_id":"SDM","is_transit":false},{"time":6,"station_id":"RU","line":6,"i_lat":-6.314823,"station_name":"Rawa Buntu","transit":false,"i_long":106.675475,"is_transit":false,"distance":4566},{"i_lat":-6.319871,"i_long":106.66566,"station_id":"SRP","distance":2413,"is_transit":false,"transit":false,"station_name":"Serpong","time":4,"line":6},{"station_name":"Cisauk","i_long":106.640411,"station_id":"CSK","line":3,"time":4,"transit":false,"is_transit":false,"distance":1784,"i_lat":-6.32484},{"time":4,"station_name":"Cicayur","distance":2519,"station_id":"CC","transit":false,"line":3,"is_transit":false,"i_long":106.617853,"i_lat":-6.329547}],[{"is_transit":false,"station_id":"TLM","station_name":"Metland Telaga Murni","distance":0,"transit":false,"i_lat":-6.262938,"i_long":107.093313,"time":0,"line":1},{"line":1,"i_long":107.083084,"station_name":"Cibitung","i_lat":-6.261877,"station_id":"CIT","distance":2800,"time":2,"is_transit":false,"transit":false},{"i_lat":-6.258864,"line":1,"station_id":"TB","station_name":"Tambun","distance":3420,"transit":false,"is_transit":false,"i_long":107.055722,"time":3},{"is_transit":false,"i_long":107.016735,"time":7,"distance":4460,"line":1,"station_name":"Bekasi Timur","transit":false,"i_lat":-6.248029,"station_id":"BKST"},{"time":2,"i_lat":-6.236616,"distance":2368,"station_name":"Bekasi","transit":false,"station_id":"BKS","i_long":106.997013,"line":1,"is_transit":false},{"time":4,"is_transit":false,"distance":2520,"station_name":"Kranji","i_long":106.977657,"line":1,"transit":false,"i_lat":-6.224515,"station_id":"KRI"},{"distance":3097,"station_name":"Cakung","time":3,"is_transit":false,"i_long":106.951283,"line":1,"i_lat":-6.219053,"station_id":"CUK","transit":false},{"is_transit":false,"time":8,"distance":1385,"transit":false,"station_id":"KLDB","i_long":106.939679,"i_lat":-6.217455,"line":1,"station_name":"Klenderbaru"},{"i_lat":-6.215568,"station_name":"Buaran","transit":false,"line":1,"station_id":"BUA","is_transit":false,"distance":1305,"time":1,"i_long":106.922662},{"is_transit":false,"distance":3100,"time":2,"station_id":"KLD","i_lat":-6.2135,"transit":false,"i_long":106.899548,"station_name":"Klender","line":1},{"station_name":"Jatinegara","is_transit":true,"i_long":106.86807400000001,"distance":3395,"station_id":"JNG","i_lat":-6.215091,"line":1,"time":3,"transit":true},{"line":11,"station_id":"POK","distance":1236,"station_name":"Pondok Jati","transit":false,"i_lat":-6.209188,"is_transit":false,"time":2,"i_long":106.861737},{"transit":false,"i_long":106.855437,"station_id":"KMT","is_transit":false,"i_lat":-6.193792,"line":11,"time":2,"station_name":"Kramat","distance":1829},{"i_long":106.850107,"distance":973,"line":11,"station_name":"Gang Sentiong","transit":false,"time":1,"station_id":"GST","i_lat":-6.185975,"is_transit":false},{"station_id":"PSE","i_lat":-6.174784,"station_name":"Pasar Senen","time":8,"is_transit":false,"distance":1567,"line":11,"transit":false,"i_long":106.84368},{"station_name":"Kemayoran","i_long":106.839204,"is_transit":false,"transit":false,"time":4,"distance":1436,"i_lat":-6.161728,"station_id":"KMO","line":11},{"distance":1901,"transit":false,"time":5,"station_id":"RJW","line":11,"i_lat":-6.14505,"station_name":"Rajawali","i_long":106.836569,"is_transit":false},{"station_name":"Kampung Bandan","i_long":106.826365,"station_id":"KPB","i_lat":-6.132549,"is_transit":true,"transit":true,"time":3,"distance":1444,"line":4},{"distance":4102,"time":9,"transit":false,"line":1,"is_transit":false,"i_lat":-6.144674,"station_id":"AK","station_name":"Angke","i_long":106.79867},{"is_transit":false,"time":4,"line":1,"station_name":"Duri","station_id":"DU","distance":1230,"transit":false,"i_lat":-6.155215,"i_long":106.800832},{"time":8,"is_transit":true,"i_lat":-6.185545,"distance":3632,"line":1,"i_long":106.811091,"station_id":"THB","station_name":"Tanah Abang","transit":true},{"time":6,"distance":3191,"is_transit":false,"line":6,"station_id":"PLM","i_lat":-6.207404,"station_name":"Palmerah","transit":false,"i_long":106.79689},{"station_name":"Kebayoran","time":7,"station_id":"KBY","distance":3737,"line":6,"transit":false,"i_lat":-6.237242,"i_long":106.780334,"is_transit":false},{"i_lat":-6.276362,"is_transit":false,"line":6,"station_name":"Pondokranji","i_long":106.74273,"distance":6218,"station_id":"PDJ","transit":false,"time":8},{"station_id":"JMU","is_transit":false,"i_lat":-6.288927,"station_name":"Jurangmangu","i_long":106.728916,"time":3,"transit":false,"line":6,"distance":2179},{"i_lat":-6.296963,"i_long":106.712277,"is_transit":false,"station_id":"SDM","time":4,"line":6,"distance":1994,"station_name":"Sudimara","transit":false},{"i_lat":-6.314823,"line":6,"i_long":106.675475,"transit":false,"station_name":"Rawa Buntu","time":6,"station_id":"RU","is_transit":false,"distance":4566},{"station_name":"Serpong","is_transit":false,"station_id":"SRP","time":4,"distance":2413,"line":6,"i_lat":-6.319871,"i_long":106.66566,"transit":false},{"station_name":"Cisauk","transit":false,"distance":1784,"i_lat":-6.32484,"i_long":106.640411,"time":4,"is_transit":false,"line":3,"station_id":"CSK"},{"line":3,"i_lat":-6.329547,"station_id":"CC","transit":false,"time":4,"distance":2519,"i_long":106.617853,"is_transit":false,"station_name":"Cicayur"}],[{"station_id":"TLM","line":1,"transit":false,"i_long":107.093313,"distance":0,"is_transit":false,"i_lat":-6.262938,"time":0,"station_name":"Metland Telaga Murni"},{"is_transit":false,"i_long":107.083084,"station_name":"Cibitung","transit":false,"i_lat":-6.261877,"time":2,"station_id":"CIT","distance":2800,"line":1},{"station_name":"Tambun","time":3,"i_lat":-6.258864,"station_id":"TB","i_long":107.055722,"line":1,"is_transit":false,"transit":false,"distance":3420},{"i_lat":-6.248029,"line":1,"distance":4460,"i_long":107.016735,"station_name":"Bekasi Timur","time":7,"station_id":"BKST","transit":false,"is_transit":false},{"line":1,"is_transit":false,"i_long":106.997013,"time":2,"station_id":"BKS","distance":2368,"station_name":"Bekasi","transit":false,"i_lat":-6.236616},{"i_long":106.977657,"transit":false,"distance":2520,"line":1,"i_lat":-6.224515,"station_name":"Kranji","time":4,"station_id":"KRI","is_transit":false},{"station_name":"Cakung","station_id":"CUK","i_lat":-6.219053,"distance":3097,"time":3,"i_long":106.951283,"line":1,"is_transit":false,"transit":false},{"line":1,"is_transit":false,"distance":1385,"transit":false,"i_lat":-6.217455,"station_name":"Klenderbaru","i_long":106.939679,"time":8,"station_id":"KLDB"},{"station_name":"Buaran","station_id":"BUA","line":1,"time":1,"transit":false,"is_transit":false,"i_lat":-6.215568,"i_long":106.922662,"distance":1305},{"station_id":"KLD","distance":3100,"is_transit":false,"line":1,"time":2,"i_lat":-6.2135,"i_long":106.899548,"transit":false,"station_name":"Klender"},{"distance":3395,"is_transit":false,"i_long":106.86807400000001,"time":3,"station_id":"JNG","line":1,"station_name":"Jatinegara","transit":false,"i_lat":-6.215091},{"i_long":106.858896,"i_lat":-6.212485,"time":2,"station_id":"MTR","distance":1377,"station_name":"Matraman","transit":false,"is_transit":false,"line":1},{"station_id":"MRI","is_transit":true,"distance":1275,"time":2,"i_long":106.84912,"transit":true,"line":2,"i_lat":-6.209883,"station_name":"Manggarai"},{"line":2,"is_transit":false,"station_id":"CKI","station_name":"Cikini","i_long":106.840169,"distance":1590,"time":4,"transit":false,"i_lat":-6.198556},{"line":2,"station_id":"GDD","station_name":"Gondangdia","i_long":106.832183,"time":3,"transit":false,"i_lat":-6.186295,"distance":1750,"is_transit":false},{"is_transit":false,"i_lat":-6.166716,"station_name":"Juanda","time":4,"distance":2015,"transit":false,"i_long":106.828284,"station_id":"JUA","line":2},{"i_lat":-6.160725,"transit":false,"line":2,"time":2,"distance":1149,"i_long":106.827103,"station_name":"Sawah Besar","is_transit":false,"station_id":"SW"},{"station_name":"Manggabesar","time":2,"transit":false,"station_id":"MGB","distance":906,"i_lat":-6.149769,"is_transit":false,"i_long":106.82482,"line":2},{"station_id":"JAY","station_name":"Jayakarta","transit":false,"i_lat":-6.141205,"time":2,"distance":1080,"is_transit":false,"i_long":106.820901,"line":2},{"i_long":106.812439,"time":4,"is_transit":true,"transit":true,"i_lat":-6.137569,"station_name":"Jakarta Kota","line":2,"station_id":"JAKK","distance":1264},{"time":3,"distance":1364,"i_lat":-6.132549,"is_transit":true,"i_long":106.826365,"line":4,"station_id":"KPB","station_name":"Kampung Bandan","transit":true},{"transit":false,"station_name":"Angke","i_lat":-6.144674,"i_long":106.79867,"time":9,"line":1,"distance":4102,"station_id":"AK","is_transit":false},{"i_lat":-6.155215,"distance":1230,"i_long":106.800832,"is_transit":false,"station_id":"DU","station_name":"Duri","transit":false,"line":1,"time":4},{"time":8,"transit":true,"distance":3632,"is_transit":true,"i_lat":-6.185545,"station_name":"Tanah Abang","station_id":"THB","i_long":106.811091,"line":1},{"time":6,"i_long":106.79689,"station_id":"PLM","transit":false,"station_name":"Palmerah","is_transit":false,"i_lat":-6.207404,"line":6,"distance":3191},{"station_id":"KBY","transit":false,"distance":3737,"i_lat":-6.237242,"station_name":"Kebayoran","is_transit":false,"i_long":106.780334,"line":6,"time":7},{"line":6,"station_id":"PDJ","is_transit":false,"station_name":"Pondokranji","transit":false,"i_lat":-6.276362,"distance":6218,"time":8,"i_long":106.74273},{"time":3,"distance":2179,"station_id":"JMU","i_long":106.728916,"station_name":"Jurangmangu","is_transit":false,"transit":false,"i_lat":-6.288927,"line":6},{"time":4,"transit":false,"i_lat":-6.296963,"station_id":"SDM","i_long":106.712277,"station_name":"Sudimara","distance":1994,"is_transit":false,"line":6},{"i_lat":-6.314823,"station_name":"Rawa Buntu","is_transit":false,"time":6,"i_long":106.675475,"line":6,"distance":4566,"station_id":"RU","transit":false},{"is_transit":false,"transit":false,"distance":2413,"i_long":106.66566,"station_name":"Serpong","time":4,"i_lat":-6.319871,"line":6,"station_id":"SRP"},{"line":3,"transit":false,"station_name":"Cisauk","time":4,"is_transit":false,"station_id":"CSK","i_lat":-6.32484,"i_long":106.640411,"distance":1784},{"station_id":"CC","distance":2519,"line":3,"transit":false,"is_transit":false,"time":4,"i_long":106.617853,"station_name":"Cicayur","i_lat":-6.329547}],[{"is_transit":false,"distance":0,"station_id":"TLM","line":1,"station_name":"Metland Telaga Murni","time":0,"i_lat":-6.262938,"i_long":107.093313,"transit":false},{"transit":false,"station_name":"Cibitung","i_long":107.083084,"i_lat":-6.261877,"time":2,"station_id":"CIT","distance":2800,"line":1,"is_transit":false},{"i_long":107.055722,"i_lat":-6.258864,"time":3,"is_transit":false,"line":1,"station_id":"TB","transit":false,"distance":3420,"station_name":"Tambun"},{"distance":4460,"is_transit":false,"i_lat":-6.248029,"line":1,"i_long":107.016735,"station_id":"BKST","station_name":"Bekasi Timur","transit":false,"time":7},{"line":1,"i_lat":-6.236616,"is_transit":false,"i_long":106.997013,"distance":2368,"transit":false,"station_name":"Bekasi","station_id":"BKS","time":2},{"transit":false,"distance":2520,"i_lat":-6.224515,"time":4,"line":1,"station_id":"KRI","is_transit":false,"station_name":"Kranji","i_long":106.977657},{"is_transit":false,"i_long":106.951283,"distance":3097,"station_id":"CUK","time":3,"station_name":"Cakung","i_lat":-6.219053,"transit":false,"line":1},{"line":1,"transit":false,"time":8,"station_name":"Klenderbaru","station_id":"KLDB","distance":1385,"i_lat":-6.217455,"is_transit":false,"i_long":106.939679},{"station_name":"Buaran","i_lat":-6.215568,"i_long":106.922662,"line":1,"station_id":"BUA","distance":1305,"transit":false,"is_transit":false,"time":1},{"station_name":"Klender","time":2,"is_transit":false,"distance":3100,"transit":false,"i_lat":-6.2135,"station_id":"KLD","i_long":106.899548,"line":1},{"station_id":"JNG","distance":3395,"station_name":"Jatinegara","transit":true,"is_transit":true,"i_lat":-6.215091,"time":3,"i_long":106.86807400000001,"line":1},{"i_lat":-6.209188,"station_name":"Pondok Jati","transit":false,"time":2,"line":11,"is_transit":false,"distance":1236,"i_long":106.861737,"station_id":"POK"},{"i_long":106.855437,"time":2,"transit":false,"station_id":"KMT","line":11,"is_transit":false,"i_lat":-6.193792,"station_name":"Kramat","distance":1829},{"station_name":"Gang Sentiong","distance":973,"i_lat":-6.185975,"transit":false,"line":11,"time":1,"i_long":106.850107,"station_id":"GST","is_transit":false},{"station_name":"Pasar Senen","distance":1567,"station_id":"PSE","i_long":106.84368,"time":8,"transit":false,"is_transit":false,"line":11,"i_lat":-6.174784},{"distance":1436,"station_id":"KMO","i_lat":-6.161728,"is_transit":false,"station_name":"Kemayoran","i_long":106.839204,"line":11,"time":4,"transit":false},{"i_lat":-6.14505,"station_id":"RJW","station_name":"Rajawali","i_long":106.836569,"transit":false,"is_transit":false,"time":5,"line":11,"distance":1901},{"time":3,"i_long":106.826365,"station_id":"KPB","station_name":"Kampung Bandan","distance":1444,"is_transit":true,"transit":true,"line":4,"i_lat":-6.132549},{"station_name":"Jakarta Kota","transit":true,"i_long":106.812439,"distance":1364,"is_transit":true,"i_lat":-6.137569,"time":3,"station_id":"JAKK","line":2},{"line":2,"time":4,"distance":1264,"i_lat":-6.141205,"station_name":"Jayakarta","transit":false,"i_long":106.820901,"is_transit":false,"station_id":"JAY"},{"station_name":"Manggabesar","i_long":106.82482,"i_lat":-6.149769,"time":2,"is_transit":false,"transit":false,"distance":1080,"station_id":"MGB","line":2},{"is_transit":false,"i_lat":-6.160725,"time":2,"line":2,"i_long":106.827103,"station_name":"Sawah Besar","station_id":"SW","transit":false,"distance":906},{"station_name":"Juanda","transit":false,"i_lat":-6.166716,"distance":1149,"line":2,"station_id":"JUA","time":2,"is_transit":false,"i_long":106.828284},{"transit":false,"station_name":"Gondangdia","time":4,"line":2,"i_lat":-6.186295,"i_long":106.832183,"is_transit":false,"station_id":"GDD","distance":2015},{"station_id":"CKI","is_transit":false,"transit":false,"i_lat":-6.198556,"line":2,"i_long":106.840169,"time":3,"station_name":"Cikini","distance":1750},{"station_id":"MRI","i_long":106.84912,"time":4,"is_transit":true,"station_name":"Manggarai","distance":1590,"transit":true,"i_lat":-6.209883,"line":2},{"is_transit":false,"i_long":106.822649,"transit":false,"i_lat":-6.202263,"station_name":"Sudirman","distance":3186,"time":4,"line":1,"station_id":"SUD"},{"i_lat":-6.201433,"is_transit":false,"station_id":"SUDB","i_long":106.819881,"line":1,"time":1,"station_name":"Sudirman Baru","distance":280,"transit":false},{"station_name":"Karet","time":1,"station_id":"KAT","is_transit":false,"distance":471,"line":1,"i_long":106.816351,"transit":false,"i_lat":-6.20132},{"i_long":106.811091,"station_name":"Tanah Abang","is_transit":true,"time":5,"transit":true,"line":1,"distance":2029,"station_id":"THB","i_lat":-6.185545},{"i_long":106.79689,"transit":false,"i_lat":-6.207404,"is_transit":false,"time":6,"distance":3191,"line":6,"station_name":"Palmerah","station_id":"PLM"},{"transit":false,"line":6,"i_long":106.780334,"is_transit":false,"time":7,"distance":3737,"i_lat":-6.237242,"station_name":"Kebayoran","station_id":"KBY"},{"transit":false,"i_lat":-6.276362,"time":8,"is_transit":false,"distance":6218,"station_name":"Pondokranji","line":6,"station_id":"PDJ","i_long":106.74273},{"distance":2179,"is_transit":false,"station_id":"JMU","line":6,"time":3,"i_long":106.728916,"station_name":"Jurangmangu","transit":false,"i_lat":-6.288927},{"station_id":"SDM","distance":1994,"time":4,"line":6,"station_name":"Sudimara","i_lat":-6.296963,"transit":false,"i_long":106.712277,"is_transit":false},{"station_id":"RU","time":6,"distance":4566,"transit":false,"i_lat":-6.314823,"i_long":106.675475,"line":6,"station_name":"Rawa Buntu","is_transit":false},{"is_transit":false,"i_long":106.66566,"distance":2413,"i_lat":-6.319871,"transit":false,"station_name":"Serpong","line":6,"time":4,"station_id":"SRP"},{"is_transit":false,"transit":false,"distance":1784,"station_name":"Cisauk","i_lat":-6.32484,"time":4,"line":3,"station_id":"CSK","i_long":106.640411},{"time":4,"station_name":"Cicayur","line":3,"transit":false,"i_long":106.617853,"is_transit":false,"station_id":"CC","i_lat":-6.329547,"distance":2519}]]}