{"data":[[{"station_id":"TLM","distance":0,"transit":false,"station_name":"Metland Telaga Murni","i_long":107.093313,"i_lat":-6.262938,"line":1,"time":0,"is_transit":false},{"transit":false,"i_lat":-6.261877,"time":2,"distance":2800,"station_name":"Cibitung","line":1,"station_id":"CIT","i_long":107.083084,"is_transit":false},{"time":3,"transit":false,"station_name":"Tambun","station_id":"TB","line":1,"i_lat":-6.258864,"is_transit":false,"distance":3420,"i_long":107.055722},{"line":1,"i_long":107.016735,"is_transit":false,"distance":4460,"i_lat":-6.248029,"station_id":"BKST","station_name":"Bekasi Timur","transit":false,"time":7},{"station_id":"BKS","station_name":"Bekasi","i_long":106.997013,"transit":false,"line":1,"i_lat":-6.236616,"is_transit":false,"time":2,"distance":2368},{"distance":2520,"time":4,"transit":false,"station_name":"Kranji","is_transit":false,"i_lat":-6.224515,"station_id":"KRI","i_long":106.977657,"line":1},{"station_id":"CUK","line":1,"time":3,"station_name":"Cakung","is_transit":false,"i_lat":-6.219053,"distance":3097,"transit":false,"i_long":106.951283},{"transit":false,"distance":1385,"station_id":"KLDB","line":1,"is_transit":false,"station_name":"Klenderbaru","time":8,"i_lat":-6.217455,"i_long":106.939679},{"i_long":106.922662,"line":1,"station_name":"Buaran","transit":false,"i_lat":-6.215568,"is_transit":false,"time":1,"distance":1305,"station_id":"BUA"},{"is_transit":false,"time":2,"line":1,"transit":false,"i_long":106.899548,"i_lat":-6.2135,"distance":3100,"station_name":"Klender","station_id":"KLD"},{"station_name":"Jatinegara","i_lat":-6.215091,"time":3,"transit":false,"station_id":"JNG","i_long":106.86807400000001,"line":1,"is_transit":false,"distance":3395},{"i_long":106.858896,"is_transit":false,"i_lat":-6.212485,"station_id":"MTR","station_name":"Matraman","distance":1377,"line":1,"transit":false,"time":2},{"time":2,"station_name":"Manggarai","transit":false,"i_long":106.84912,"station_id":"MRI","line":2,"is_transit":false,"i_lat":-6.209883,"distance":1275},{"station_id":"SUD","i_lat":-6.202263,"station_name":"Sudirman","time":4,"i_long":106.822649,"is_transit":false,"distance":3186,"line":1,"transit":false},{"i_lat":-6.201433,"is_transit":false,"station_name":"Sudirman Baru","i_long":106.819881,"distance":280,"transit":false,"time":1,"station_id":"SUDB","line":1}],[{"line":1,"is_transit":false,"i_lat":-6.262938,"i_long":107.093313,"station_id":"TLM","time":0,"distance":0,"transit":false,"station_name":"Metland Telaga Murni"},{"station_id":"CIT","is_transit":false,"i_long":107.083084,"station_name":"Cibitung","time":2,"transit":false,"i_lat":-6.261877,"line":1,"distance":2800},{"is_transit":false,"transit":false,"station_name":"Tambun","station_id":"TB","time":3,"i_lat":-6.258864,"distance":3420,"line":1,"i_long":107.055722},{"time":7,"station_name":"Bekasi Timur","line":1,"i_lat":-6.248029,"transit":false,"is_transit":false,"station_id":"BKST","distance":4460,"i_long":107.016735},{"line":1,"is_transit":false,"time":2,"station_id":"BKS","i_long":106.997013,"transit":false,"station_name":"Bekasi","distance":2368,"i_lat":-6.236616},{"i_long":106.977657,"is_transit":false,"distance":2520,"station_name":"Kranji","line":1,"time":4,"station_id":"KRI","transit":false,"i_lat":-6.224515},{"station_id":"CUK","line":1,"transit":false,"station_name":"Cakung","i_lat":-6.219053,"is_transit":false,"distance":3097,"time":3,"i_long":106.951283},{"line":1,"distance":1385,"time":8,"transit":false,"station_id":"KLDB","i_long":106.939679,"station_name":"Klenderbaru","is_transit":false,"i_lat":-6.217455},{"time":1,"is_transit":false,"station_name":"Buaran","i_lat":-6.215568,"transit":false,"i_long":106.922662,"station_id":"BUA","distance":1305,"line":1},{"i_long":106.899548,"transit":false,"station_name":"Klender","time":2,"line":1,"station_id":"KLD","is_transit":false,"i_lat":-6.2135,"distance":3100},{"i_long":106.86807400000001,"line":1,"i_lat":-6.215091,"time":3,"station_id":"JNG","is_transit":true,"transit":true,"distance":3395,"station_name":"Jatinegara"},{"station_name":"Pondok Jati","distance":1236,"line":11,"time":2,"station_id":"POK","transit":false,"is_transit":false,"i_lat":-6.209188,"i_long":106.861737},{"i_lat":-6.193792,"i_long":106.855437,"line":11,"distance":1829,"is_transit":false,"station_name":"Kramat","station_id":"KMT","transit":false,"time":2},{"transit":false,"time":1,"i_lat":-6.185975,"distance":973,"i_long":106.850107,"line":11,"is_transit":false,"station_name":"Gang Sentiong","station_id":"GST"},{"is_transit":false,"transit":false,"time":8,"station_name":"Pasar Senen","i_long":106.84368,"line":11,"distance":1567,"i_lat":-6.174784,"station_id":"PSE"},{"i_lat":-6.161728,"distance":1436,"is_transit":false,"station_id":"KMO","line":11,"time":4,"transit":false,"station_name":"Kemayoran","i_long":106.839204},{"station_name":"Rajawali","is_transit":false,"i_lat":-6.14505,"i_long":106.836569,"time":5,"transit":false,"line":11,"station_id":"RJW","distance":1901},{"station_id":"KPB","distance":1444,"transit":true,"i_lat":-6.132549,"line":4,"is_transit":true,"i_long":106.826365,"time":3,"station_name":"Kampung Bandan"},{"distance":4102,"transit":false,"time":9,"station_id":"AK","i_long":106.79867,"line":1,"i_lat":-6.144674,"station_name":"Angke","is_transit":false},{"distance":1230,"transit":false,"i_lat":-6.155215,"i_long":106.800832,"station_id":"DU","line":1,"station_name":"Duri","is_transit":false,"time":4},{"time":8,"transit":false,"i_lat":-6.185545,"station_name":"Tanah Abang","distance":3632,"station_id":"THB","line":1,"is_transit":false,"i_long":106.811091},{"station_id":"KAT","i_lat":-6.20132,"transit":false,"line":1,"i_long":106.816351,"station_name":"Karet","time":5,"distance":2029,"is_transit":false},{"distance":471,"station_id":"SUDB","line":1,"transit":false,"i_lat":-6.201433,"i_long":106.819881,"station_name":"Sudirman Baru","time":1,"is_transit":false}],[{"time":0,"station_id":"TLM","transit":false,"i_lat":-6.262938,"i_long":107.093313,"distance":0,"station_name":"Metland Telaga Murni","line":1,"is_transit":false},{"station_id":"CIT","transit":false,"i_lat":-6.261877,"is_transit":false,"distance":2800,"station_name":"Cibitung","i_long":107.083084,"line":1,"time":2},{"is_transit":false,"transit":false,"time":3,"station_name":"Tambun","i_long":107.055722,"station_id":"TB","line":1,"distance":3420,"i_lat":-6.258864},{"time":7,"station_id":"BKST","distance":4460,"line":1,"station_name":"Bekasi Timur","i_long":107.016735,"transit":false,"i_lat":-6.248029,"is_transit":false},{"time":2,"transit":false,"i_long":106.997013,"station_id":"BKS","is_transit":false,"i_lat":-6.236616,"line":1,"distance":2368,"station_name":"Bekasi"},{"distance":2520,"line":1,"transit":false,"station_id":"KRI","station_name":"Kranji","i_long":106.977657,"i_lat":-6.224515,"is_transit":false,"time":4},{"station_id":"CUK","time":3,"line":1,"station_name":"Cakung","distance":3097,"i_long":106.951283,"is_transit":false,"i_lat":-6.219053,"transit":false},{"is_transit":false,"station_id":"KLDB","transit":false,"time":8,"station_name":"Klenderbaru","i_lat":-6.217455,"i_long":106.939679,"line":1,"distance":1385},{"line":1,"i_lat":-6.215568,"station_name":"Buaran","i_long":106.922662,"is_transit":false,"station_id":"BUA","time":1,"distance":1305,"transit":false},{"distance":3100,"is_transit":false,"transit":false,"i_lat":-6.2135,"time":2,"i_long":106.899548,"line":1,"station_id":"KLD","station_name":"Klender"},{"station_id":"JNG","i_long":106.86807400000001,"is_transit":false,"line":1,"transit":false,"station_name":"Jatinegara","time":3,"i_lat":-6.215091,"distance":3395},{"is_transit":false,"distance":1377,"time":2,"transit":false,"station_name":"Matraman","line":1,"i_lat":-6.212485,"station_id":"MTR","i_long":106.858896},{"is_transit":true,"transit":true,"station_name":"Manggarai","i_lat":-6.209883,"i_long":106.84912,"line":2,"station_id":"MRI","time":2,"distance":1275},{"i_lat":-6.198556,"is_transit":false,"distance":1590,"station_name":"Cikini","line":2,"i_long":106.840169,"transit":false,"time":4,"station_id":"CKI"},{"line":2,"station_id":"GDD","is_transit":false,"transit":false,"station_name":"Gondangdia","i_lat":-6.186295,"distance":1750,"time":3,"i_long":106.832183},{"is_transit":false,"distance":2015,"station_name":"Juanda","station_id":"JUA","i_lat":-6.166716,"time":4,"transit":false,"i_long":106.828284,"line":2},{"transit":false,"station_name":"Sawah Besar","station_id":"SW","line":2,"distance":1149,"i_long":106.827103,"i_lat":-6.160725,"time":2,"is_transit":false},{"time":2,"station_name":"Manggabesar","i_lat":-6.149769,"is_transit":false,"line":2,"transit":false,"i_long":106.82482,"station_id":"MGB","distance":906},{"time":2,"station_id":"JAY","line":2,"station_name":"Jayakarta","transit":false,"i_long":106.820901,"distance":1080,"i_lat":-6.141205,"is_transit":false},{"time":4,"line":2,"station_name":"Jakarta Kota","distance":1264,"is_transit":true,"station_id":"JAKK","i_lat":-6.137569,"i_long":106.812439,"transit":true},{"transit":true,"station_id":"KPB","i_long":106.826365,"distance":1364,"is_transit":true,"line":4,"station_name":"Kampung Bandan","i_lat":-6.132549,"time":3},{"i_lat":-6.144674,"i_long":106.79867,"line":1,"station_id":"AK","time":9,"transit":false,"is_transit":false,"station_name":"Angke","distance":4102},{"transit":false,"i_lat":-6.155215,"station_id":"DU","line":1,"station_name":"Duri","time":4,"is_transit":false,"distance":1230,"i_long":106.800832},{"i_lat":-6.185545,"time":8,"is_transit":false,"i_long":106.811091,"station_id":"THB","line":1,"station_name":"Tanah Abang","distance":3632,"transit":false},{"transit":false,"distance":2029,"is_transit":false,"time":5,"station_id":"KAT","i_lat":-6.20132,"line":1,"station_name":"Karet","i_long":106.816351},{"distance":471,"is_transit":false,"time":1,"station_id":"SUDB","i_lat":-6.201433,"transit":false,"line":1,"i_long":106.819881,"station_name":"Sudirman Baru"}],[{"line":1,"time":0,"station_name":"Metland Telaga Murni","distance":0,"is_transit":false,"station_id":"TLM","i_lat":-6.262938,"i_long":107.093313,"transit":false},{"distance":2800,"is_transit":false,"time":2,"line":1,"transit":false,"station_name":"Cibitung","i_lat":-6.261877,"station_id":"CIT","i_long":107.083084},{"station_id":"TB","is_transit":false,"distance":3420,"transit":false,"station_name":"Tambun","line":1,"i_long":107.055722,"time":3,"i_lat":-6.258864},{"i_lat":-6.248029,"is_transit":false,"transit":false,"line":1,"station_id":"BKST","station_name":"Bekasi Timur","i_long":107.016735,"time":7,"distance":4460},{"is_transit":false,"time":2,"station_id":"BKS","i_long":106.997013,"line":1,"station_name":"Bekasi","i_lat":-6.236616,"distance":2368,"transit":false},{"is_transit":false,"time":4,"transit":false,"line":1,"i_long":106.977657,"distance":2520,"station_id":"KRI","i_lat":-6.224515,"station_name":"Kranji"},{"line":1,"i_long":106.951283,"time":3,"transit":false,"is_transit":false,"distance":3097,"station_name":"Cakung","station_id":"CUK","i_lat":-6.219053},{"station_id":"KLDB","i_lat":-6.217455,"is_transit":false,"time":8,"i_long":106.939679,"line":1,"transit":false,"distance":1385,"station_name":"Klenderbaru"},{"station_name":"Buaran","distance":1305,"is_transit":false,"time":1,"i_lat":-6.215568,"station_id":"BUA","transit":false,"line":1,"i_long":106.922662},{"line":1,"is_transit":false,"distance":3100,"i_lat":-6.2135,"station_name":"Klender","i_long":106.899548,"time":2,"station_id":"KLD","transit":false},{"i_long":106.86807400000001,"transit":true,"is_transit":true,"station_name":"Jatinegara","i_lat":-6.215091,"distance":3395,"station_id":"JNG","time":3,"line":1},{"i_long":106.861737,"i_lat":-6.209188,"station_name":"Pondok Jati","time":2,"station_id":"POK","is_transit":false,"transit":false,"distance":1236,"line":11},{"time":2,"transit":false,"line":11,"station_name":"Kramat","is_transit":false,"station_id":"KMT","i_long":106.855437,"i_lat":-6.193792,"distance":1829},{"station_id":"GST","i_long":106.850107,"distance":973,"line":11,"time":1,"station_name":"Gang Sentiong","is_transit":false,"i_lat":-6.185975,"transit":false},{"i_lat":-6.174784,"time":8,"i_long":106.84368,"is_transit":false,"distance":1567,"station_id":"PSE","line":11,"transit":false,"station_name":"Pasar Senen"},{"line":11,"is_transit":false,"time":4,"transit":false,"station_name":"Kemayoran","station_id":"KMO","i_lat":-6.161728,"distance":1436,"i_long":106.839204},{"is_transit":false,"station_name":"Rajawali","i_long":106.836569,"i_lat":-6.14505,"transit":false,"station_id":"RJW","line":11,"time":5,"distance":1901},{"station_name":"Kampung Bandan","i_lat":-6.132549,"is_transit":true,"distance":1444,"line":4,"transit":true,"time":3,"station_id":"KPB","i_long":106.826365},{"line":2,"transit":true,"station_id":"JAKK","station_name":"Jakarta Kota","i_lat":-6.137569,"distance":1364,"is_transit":true,"i_long":106.812439,"time":3},{"line":2,"station_name":"Jayakarta","distance":1264,"station_id":"JAY","i_lat":-6.141205,"is_transit":false,"time":4,"transit":false,"i_long":106.820901},{"is_transit":false,"line":2,"station_id":"MGB","distance":1080,"i_long":106.82482,"time":2,"i_lat":-6.149769,"transit":false,"station_name":"Manggabesar"},{"distance":906,"transit":false,"time":2,"is_transit":false,"station_id":"SW","line":2,"i_lat":-6.160725,"i_long":106.827103,"station_name":"Sawah Besar"},{"transit":false,"i_lat":-6.166716,"i_long":106.828284,"time":2,"distance":1149,"station_name":"Juanda","line":2,"station_id":"JUA","is_transit":false},{"is_transit":false,"station_name":"Gondangdia","station_id":"GDD","i_lat":-6.186295,"i_long":106.832183,"transit":false,"line":2,"time":4,"distance":2015},{"distance":1750,"i_long":106.840169,"transit":false,"station_name":"Cikini","time":3,"i_lat":-6.198556,"line":2,"is_transit":false,"station_id":"CKI"},{"distance":1590,"station_id":"MRI","transit":true,"i_long":106.84912,"time":4,"i_lat":-6.209883,"is_transit":true,"station_name":"Manggarai","line":2},{"line":1,"station_id":"SUD","time":4,"distance":3186,"station_name":"Sudirman","is_transit":false,"transit":false,"i_lat":-6.202263,"i_long":106.822649},{"i_lat":-6.201433,"time":1,"i_long":106.819881,"transit":false,"station_name":"Sudirman Baru","is_transit":false,"distance":280,"station_id":"SUDB","line":1}]]}