{"data":[[{"time":0,"i_long":107.093313,"i_lat":-6.262938,"distance":0,"station_id":"TLM","station_name":"Metland Telaga Murni","is_transit":false,"line":1,"transit":false},{"is_transit":false,"i_long":107.083084,"i_lat":-6.261877,"station_name":"Cibitung","transit":false,"distance":2800,"line":1,"station_id":"CIT","time":2},{"station_id":"TB","transit":false,"is_transit":false,"time":3,"distance":3420,"i_long":107.055722,"station_name":"Tambun","i_lat":-6.258864,"line":1},{"i_lat":-6.248029,"station_id":"BKST","line":1,"is_transit":false,"i_long":107.016735,"transit":false,"station_name":"Bekasi Timur","distance":4460,"time":7},{"time":2,"station_id":"BKS","distance":2368,"transit":false,"is_transit":false,"i_lat":-6.236616,"station_name":"Bekasi","i_long":106.997013,"line":1},{"i_long":106.977657,"transit":false,"time":4,"line":1,"is_transit":false,"station_name":"Kranji","i_lat":-6.224515,"station_id":"KRI","distance":2520},{"distance":3097,"i_long":106.951283,"is_transit":false,"time":3,"i_lat":-6.219053,"station_name":"Cakung","line":1,"transit":false,"station_id":"CUK"},{"time":8,"i_long":106.939679,"is_transit":false,"distance":1385,"line":1,"i_lat":-6.217455,"transit":false,"station_id":"KLDB","station_name":"Klenderbaru"},{"station_id":"BUA","transit":false,"station_name":"Buaran","distance":1305,"i_long":106.922662,"line":1,"i_lat":-6.215568,"time":1,"is_transit":false},{"transit":false,"station_id":"KLD","time":2,"is_transit":false,"distance":3100,"i_lat":-6.2135,"line":1,"station_name":"Klender","i_long":106.899548},{"time":3,"line":1,"i_long":106.86807400000001,"distance":3395,"transit":false,"station_name":"Jatinegara","station_id":"JNG","i_lat":-6.215091,"is_transit":false},{"is_transit":false,"transit":false,"station_id":"MTR","line":1,"i_lat":-6.212485,"time":2,"station_name":"Matraman","distance":1377,"i_long":106.858896},{"transit":false,"is_transit":false,"distance":1275,"time":2,"station_id":"MRI","station_name":"Manggarai","line":2,"i_lat":-6.209883,"i_long":106.84912},{"i_long":106.822649,"time":4,"station_id":"SUD","is_transit":false,"distance":3186,"i_lat":-6.202263,"line":1,"transit":false,"station_name":"Sudirman"},{"distance":280,"line":1,"transit":false,"is_transit":false,"i_long":106.819881,"station_id":"SUDB","i_lat":-6.201433,"time":1,"station_name":"Sudirman Baru"},{"line":1,"is_transit":false,"station_id":"KAT","distance":471,"i_lat":-6.20132,"i_long":106.816351,"station_name":"Karet","transit":false,"time":1},{"station_id":"THB","distance":2029,"transit":false,"time":5,"i_long":106.811091,"line":1,"station_name":"Tanah Abang","i_lat":-6.185545,"is_transit":false},{"line":1,"station_id":"DU","i_long":106.800832,"time":8,"is_transit":false,"i_lat":-6.155215,"station_name":"Duri","transit":false,"distance":3632}],[{"i_lat":-6.262938,"transit":false,"is_transit":false,"line":1,"time":0,"distance":0,"i_long":107.093313,"station_name":"Metland Telaga Murni","station_id":"TLM"},{"station_id":"CIT","time":2,"station_name":"Cibitung","transit":false,"is_transit":false,"i_long":107.083084,"line":1,"distance":2800,"i_lat":-6.261877},{"i_lat":-6.258864,"i_long":107.055722,"line":1,"time":3,"transit":false,"station_id":"TB","is_transit":false,"station_name":"Tambun","distance":3420},{"transit":false,"i_long":107.016735,"line":1,"is_transit":false,"distance":4460,"station_id":"BKST","station_name":"Bekasi Timur","time":7,"i_lat":-6.248029},{"i_lat":-6.236616,"station_name":"Bekasi","time":2,"line":1,"transit":false,"station_id":"BKS","is_transit":false,"distance":2368,"i_long":106.997013},{"time":4,"is_transit":false,"i_long":106.977657,"line":1,"transit":false,"i_lat":-6.224515,"station_name":"Kranji","distance":2520,"station_id":"KRI"},{"time":3,"i_lat":-6.219053,"is_transit":false,"station_id":"CUK","i_long":106.951283,"distance":3097,"line":1,"transit":false,"station_name":"Cakung"},{"station_name":"Klenderbaru","time":8,"i_lat":-6.217455,"i_long":106.939679,"line":1,"distance":1385,"station_id":"KLDB","transit":false,"is_transit":false},{"station_name":"Buaran","transit":false,"station_id":"BUA","time":1,"distance":1305,"i_long":106.922662,"i_lat":-6.215568,"line":1,"is_transit":false},{"i_long":106.899548,"is_transit":false,"line":1,"i_lat":-6.2135,"transit":false,"station_name":"Klender","time":2,"station_id":"KLD","distance":3100},{"distance":3395,"is_transit":true,"i_lat":-6.215091,"i_long":106.86807400000001,"station_name":"Jatinegara","time":3,"transit":true,"station_id":"JNG","line":1},{"time":2,"i_long":106.861737,"line":11,"i_lat":-6.209188,"is_transit":false,"distance":1236,"station_name":"Pondok Jati","station_id":"POK","transit":false},{"station_id":"KMT","station_name":"Kramat","time":2,"transit":false,"distance":1829,"line":11,"i_long":106.855437,"is_transit":false,"i_lat":-6.193792},{"time":1,"i_long":106.850107,"is_transit":false,"distance":973,"transit":false,"line":11,"station_name":"Gang Sentiong","station_id":"GST","i_lat":-6.185975},{"distance":1567,"line":11,"station_name":"Pasar Senen","time":8,"transit":false,"is_transit":false,"i_lat":-6.174784,"i_long":106.84368,"station_id":"PSE"},{"line":11,"is_transit":false,"station_name":"Kemayoran","i_long":106.839204,"time":4,"distance":1436,"station_id":"KMO","i_lat":-6.161728,"transit":false},{"time":5,"i_lat":-6.14505,"station_id":"RJW","is_transit":false,"distance":1901,"i_long":106.836569,"line":11,"station_name":"Rajawali","transit":false},{"line":4,"station_id":"KPB","distance":1444,"i_long":106.826365,"is_transit":true,"station_name":"Kampung Bandan","time":3,"i_lat":-6.132549,"transit":true},{"transit":false,"i_lat":-6.144674,"i_long":106.79867,"time":9,"line":1,"station_id":"AK","distance":4102,"station_name":"Angke","is_transit":false},{"transit":false,"is_transit":false,"line":1,"station_name":"Duri","station_id":"DU","distance":1230,"i_long":106.800832,"i_lat":-6.155215,"time":4}],[{"time":0,"station_name":"Metland Telaga Murni","distance":0,"i_long":107.093313,"is_transit":false,"transit":false,"station_id":"TLM","i_lat":-6.262938,"line":1},{"i_lat":-6.261877,"station_id":"CIT","line":1,"transit":false,"i_long":107.083084,"is_transit":false,"station_name":"Cibitung","time":2,"distance":2800},{"is_transit":false,"station_name":"Tambun","distance":3420,"transit":false,"line":1,"time":3,"i_lat":-6.258864,"i_long":107.055722,"station_id":"TB"},{"transit":false,"distance":4460,"i_lat":-6.248029,"line":1,"i_long":107.016735,"station_id":"BKST","station_name":"Bekasi Timur","is_transit":false,"time":7},{"station_name":"Bekasi","i_lat":-6.236616,"i_long":106.997013,"station_id":"BKS","transit":false,"line":1,"is_transit":false,"time":2,"distance":2368},{"distance":2520,"is_transit":false,"station_name":"Kranji","transit":false,"time":4,"line":1,"station_id":"KRI","i_lat":-6.224515,"i_long":106.977657},{"i_lat":-6.219053,"is_transit":false,"i_long":106.951283,"station_id":"CUK","transit":false,"line":1,"distance":3097,"station_name":"Cakung","time":3},{"transit":false,"is_transit":false,"line":1,"i_long":106.939679,"i_lat":-6.217455,"station_id":"KLDB","time":8,"distance":1385,"station_name":"Klenderbaru"},{"i_lat":-6.215568,"i_long":106.922662,"time":1,"is_transit":false,"line":1,"transit":false,"station_name":"Buaran","distance":1305,"station_id":"BUA"},{"line":1,"is_transit":false,"time":2,"distance":3100,"transit":false,"i_long":106.899548,"i_lat":-6.2135,"station_name":"Klender","station_id":"KLD"},{"time":3,"line":1,"i_long":106.86807400000001,"station_name":"Jatinegara","i_lat":-6.215091,"is_transit":false,"station_id":"JNG","transit":false,"distance":3395},{"station_name":"Matraman","transit":false,"distance":1377,"line":1,"station_id":"MTR","i_long":106.858896,"is_transit":false,"i_lat":-6.212485,"time":2},{"is_transit":true,"i_lat":-6.209883,"i_long":106.84912,"station_id":"MRI","line":2,"transit":true,"time":2,"distance":1275,"station_name":"Manggarai"},{"i_lat":-6.198556,"station_id":"CKI","is_transit":false,"station_name":"Cikini","line":2,"distance":1590,"transit":false,"time":4,"i_long":106.840169},{"station_id":"GDD","i_lat":-6.186295,"line":2,"transit":false,"time":3,"distance":1750,"i_long":106.832183,"station_name":"Gondangdia","is_transit":false},{"station_name":"Juanda","time":4,"i_long":106.828284,"station_id":"JUA","i_lat":-6.166716,"line":2,"is_transit":false,"transit":false,"distance":2015},{"distance":1149,"is_transit":false,"time":2,"line":2,"station_name":"Sawah Besar","i_long":106.827103,"i_lat":-6.160725,"transit":false,"station_id":"SW"},{"i_lat":-6.149769,"line":2,"station_id":"MGB","is_transit":false,"distance":906,"time":2,"transit":false,"station_name":"Manggabesar","i_long":106.82482},{"time":2,"i_long":106.820901,"transit":false,"i_lat":-6.141205,"station_name":"Jayakarta","is_transit":false,"station_id":"JAY","distance":1080,"line":2},{"i_lat":-6.137569,"distance":1264,"line":2,"station_id":"JAKK","station_name":"Jakarta Kota","is_transit":true,"time":4,"i_long":106.812439,"transit":true},{"distance":1364,"station_id":"KPB","is_transit":true,"transit":true,"time":3,"i_lat":-6.132549,"station_name":"Kampung Bandan","i_long":106.826365,"line":4},{"transit":false,"station_name":"Angke","i_lat":-6.144674,"time":9,"line":1,"distance":4102,"station_id":"AK","i_long":106.79867,"is_transit":false},{"station_name":"Duri","time":4,"transit":false,"distance":1230,"line":1,"i_lat":-6.155215,"station_id":"DU","i_long":106.800832,"is_transit":false}],[{"line":1,"i_lat":-6.262938,"i_long":107.093313,"distance":0,"is_transit":false,"transit":false,"station_id":"TLM","time":0,"station_name":"Metland Telaga Murni"},{"line":1,"time":2,"i_long":107.083084,"station_id":"CIT","transit":false,"i_lat":-6.261877,"is_transit":false,"distance":2800,"station_name":"Cibitung"},{"distance":3420,"i_long":107.055722,"station_name":"Tambun","time":3,"i_lat":-6.258864,"line":1,"transit":false,"station_id":"TB","is_transit":false},{"time":7,"i_lat":-6.248029,"line":1,"station_id":"BKST","i_long":107.016735,"is_transit":false,"station_name":"Bekasi Timur","distance":4460,"transit":false},{"is_transit":false,"time":2,"distance":2368,"station_name":"Bekasi","i_lat":-6.236616,"i_long":106.997013,"line":1,"station_id":"BKS","transit":false},{"station_name":"Kranji","station_id":"KRI","is_transit":false,"time":4,"i_lat":-6.224515,"transit":false,"i_long":106.977657,"distance":2520,"line":1},{"i_lat":-6.219053,"distance":3097,"i_long":106.951283,"is_transit":false,"transit":false,"time":3,"station_name":"Cakung","station_id":"CUK","line":1},{"i_lat":-6.217455,"time":8,"transit":false,"station_name":"Klenderbaru","is_transit":false,"distance":1385,"i_long":106.939679,"line":1,"station_id":"KLDB"},{"i_long":106.922662,"station_name":"Buaran","distance":1305,"station_id":"BUA","time":1,"is_transit":false,"transit":false,"i_lat":-6.215568,"line":1},{"station_id":"KLD","station_name":"Klender","time":2,"i_lat":-6.2135,"transit":false,"i_long":106.899548,"line":1,"distance":3100,"is_transit":false},{"is_transit":true,"i_lat":-6.215091,"station_name":"Jatinegara","line":1,"i_long":106.86807400000001,"time":3,"distance":3395,"transit":true,"station_id":"JNG"},{"i_long":106.861737,"station_name":"Pondok Jati","station_id":"POK","is_transit":false,"time":2,"transit":false,"distance":1236,"i_lat":-6.209188,"line":11},{"station_name":"Kramat","station_id":"KMT","i_lat":-6.193792,"is_transit":false,"transit":false,"time":2,"distance":1829,"line":11,"i_long":106.855437},{"time":1,"i_long":106.850107,"transit":false,"distance":973,"is_transit":false,"line":11,"i_lat":-6.185975,"station_name":"Gang Sentiong","station_id":"GST"},{"transit":false,"line":11,"station_id":"PSE","distance":1567,"i_long":106.84368,"is_transit":false,"station_name":"Pasar Senen","time":8,"i_lat":-6.174784},{"time":4,"distance":1436,"line":11,"i_long":106.839204,"station_id":"KMO","station_name":"Kemayoran","transit":false,"i_lat":-6.161728,"is_transit":false},{"station_name":"Rajawali","line":11,"transit":false,"i_long":106.836569,"i_lat":-6.14505,"distance":1901,"time":5,"station_id":"RJW","is_transit":false},{"time":3,"station_name":"Kampung Bandan","i_long":106.826365,"is_transit":true,"transit":true,"station_id":"KPB","i_lat":-6.132549,"distance":1444,"line":4},{"transit":true,"i_lat":-6.137569,"i_long":106.812439,"line":2,"is_transit":true,"station_name":"Jakarta Kota","station_id":"JAKK","time":3,"distance":1364},{"transit":false,"station_name":"Jayakarta","time":4,"distance":1264,"i_lat":-6.141205,"line":2,"is_transit":false,"i_long":106.820901,"station_id":"JAY"},{"station_name":"Manggabesar","station_id":"MGB","is_transit":false,"distance":1080,"transit":false,"i_lat":-6.149769,"i_long":106.82482,"line":2,"time":2},{"distance":906,"transit":false,"i_lat":-6.160725,"station_name":"Sawah Besar","station_id":"SW","time":2,"line":2,"i_long":106.827103,"is_transit":false},{"line":2,"station_id":"JUA","transit":false,"is_transit":false,"time":2,"distance":1149,"i_lat":-6.166716,"station_name":"Juanda","i_long":106.828284},{"i_lat":-6.186295,"i_long":106.832183,"line":2,"transit":false,"station_name":"Gondangdia","station_id":"GDD","is_transit":false,"distance":2015,"time":4},{"station_name":"Cikini","i_lat":-6.198556,"line":2,"station_id":"CKI","distance":1750,"time":3,"i_long":106.840169,"transit":false,"is_transit":false},{"station_name":"Manggarai","transit":true,"station_id":"MRI","i_lat":-6.209883,"line":2,"is_transit":true,"time":4,"i_long":106.84912,"distance":1590},{"i_long":106.822649,"transit":false,"line":1,"station_name":"Sudirman","i_lat":-6.202263,"time":4,"distance":3186,"is_transit":false,"station_id":"SUD"},{"line":1,"station_name":"Sudirman Baru","transit":false,"distance":280,"is_transit":false,"i_long":106.819881,"time":1,"i_lat":-6.201433,"station_id":"SUDB"},{"station_id":"KAT","is_transit":false,"i_lat":-6.20132,"distance":471,"station_name":"Karet","transit":false,"line":1,"i_long":106.816351,"time":1},{"station_name":"Tanah Abang","transit":false,"i_long":106.811091,"distance":2029,"i_lat":-6.185545,"time":5,"line":1,"station_id":"THB","is_transit":false},{"distance":3632,"is_transit":false,"line":1,"i_long":106.800832,"station_id":"DU","station_name":"Duri","time":8,"transit":false,"i_lat":-6.155215}]]}