{"data":[[{"time":0,"station_id":"TLM","i_lat":-6.262938,"station_name":"Metland Telaga Murni","is_transit":false,"line":1,"distance":0,"i_long":107.093313,"transit":false},{"is_transit":false,"time":2,"station_id":"CIT","i_long":107.083084,"i_lat":-6.261877,"distance":2800,"line":1,"station_name":"Cibitung","transit":false},{"i_long":107.055722,"line":1,"i_lat":-6.258864,"distance":3420,"station_id":"TB","is_transit":false,"station_name":"Tambun","time":3,"transit":false},{"distance":4460,"i_lat":-6.248029,"station_id":"BKST","transit":false,"is_transit":false,"time":7,"line":1,"i_long":107.016735,"station_name":"Bekasi Timur"},{"time":2,"is_transit":false,"line":1,"transit":false,"distance":2368,"station_name":"Bekasi","station_id":"BKS","i_lat":-6.236616,"i_long":106.997013},{"station_name":"Kranji","i_lat":-6.224515,"transit":false,"i_long":106.977657,"time":4,"distance":2520,"station_id":"KRI","is_transit":false,"line":1},{"i_lat":-6.219053,"transit":false,"station_id":"CUK","station_name":"Cakung","distance":3097,"line":1,"time":3,"is_transit":false,"i_long":106.951283},{"station_name":"Klenderbaru","line":1,"station_id":"KLDB","i_lat":-6.217455,"i_long":106.939679,"is_transit":false,"transit":false,"distance":1385,"time":8},{"line":1,"is_transit":false,"distance":1305,"time":1,"i_lat":-6.215568,"transit":false,"i_long":106.922662,"station_id":"BUA","station_name":"Buaran"},{"i_long":106.899548,"station_name":"Klender","time":2,"distance":3100,"transit":false,"is_transit":false,"station_id":"KLD","i_lat":-6.2135,"line":1},{"station_name":"Jatinegara","station_id":"JNG","transit":false,"time":3,"line":1,"i_lat":-6.215091,"i_long":106.86807400000001,"distance":3395,"is_transit":false},{"i_lat":-6.212485,"time":2,"distance":1377,"i_long":106.858896,"is_transit":false,"line":1,"station_id":"MTR","station_name":"Matraman","transit":false},{"transit":false,"station_name":"Manggarai","is_transit":false,"time":2,"distance":1275,"i_lat":-6.209883,"i_long":106.84912,"line":2,"station_id":"MRI"},{"i_lat":-6.202263,"distance":3186,"is_transit":false,"i_long":106.822649,"station_id":"SUD","transit":false,"line":1,"station_name":"Sudirman","time":4},{"distance":280,"is_transit":false,"i_long":106.819881,"time":1,"line":1,"transit":false,"station_id":"SUDB","i_lat":-6.201433,"station_name":"Sudirman Baru"}],[{"station_id":"TLM","i_lat":-6.262938,"is_transit":false,"i_long":107.093313,"line":1,"station_name":"Metland Telaga Murni","transit":false,"distance":0,"time":0},{"transit":false,"time":2,"line":1,"is_transit":false,"distance":2800,"i_long":107.083084,"station_id":"CIT","i_lat":-6.261877,"station_name":"Cibitung"},{"transit":false,"line":1,"station_id":"TB","i_lat":-6.258864,"i_long":107.055722,"is_transit":false,"distance":3420,"time":3,"station_name":"Tambun"},{"i_long":107.016735,"is_transit":false,"station_name":"Bekasi Timur","i_lat":-6.248029,"line":1,"time":7,"transit":false,"station_id":"BKST","distance":4460},{"station_id":"BKS","line":1,"station_name":"Bekasi","i_long":106.997013,"i_lat":-6.236616,"transit":false,"is_transit":false,"distance":2368,"time":2},{"transit":false,"time":4,"is_transit":false,"i_long":106.977657,"distance":2520,"station_name":"Kranji","station_id":"KRI","i_lat":-6.224515,"line":1},{"time":3,"distance":3097,"is_transit":false,"station_id":"CUK","i_long":106.951283,"line":1,"station_name":"Cakung","i_lat":-6.219053,"transit":false},{"transit":false,"line":1,"distance":1385,"station_name":"Klenderbaru","station_id":"KLDB","i_lat":-6.217455,"i_long":106.939679,"is_transit":false,"time":8},{"distance":1305,"station_name":"Buaran","transit":false,"station_id":"BUA","i_lat":-6.215568,"time":1,"i_long":106.922662,"is_transit":false,"line":1},{"station_id":"KLD","is_transit":false,"distance":3100,"station_name":"Klender","transit":false,"i_long":106.899548,"time":2,"line":1,"i_lat":-6.2135},{"i_lat":-6.215091,"transit":true,"station_id":"JNG","line":1,"i_long":106.86807400000001,"time":3,"distance":3395,"station_name":"Jatinegara","is_transit":true},{"transit":false,"distance":1236,"is_transit":false,"time":2,"station_id":"POK","i_long":106.861737,"station_name":"Pondok Jati","i_lat":-6.209188,"line":11},{"station_id":"KMT","line":11,"is_transit":false,"i_lat":-6.193792,"i_long":106.855437,"distance":1829,"time":2,"transit":false,"station_name":"Kramat"},{"is_transit":false,"transit":false,"line":11,"distance":973,"station_name":"Gang Sentiong","station_id":"GST","i_lat":-6.185975,"i_long":106.850107,"time":1},{"time":8,"transit":false,"station_name":"Pasar Senen","distance":1567,"is_transit":false,"i_long":106.84368,"line":11,"station_id":"PSE","i_lat":-6.174784},{"station_id":"KMO","is_transit":false,"time":4,"line":11,"distance":1436,"i_long":106.839204,"transit":false,"station_name":"Kemayoran","i_lat":-6.161728},{"is_transit":false,"i_lat":-6.14505,"line":11,"i_long":106.836569,"station_name":"Rajawali","station_id":"RJW","transit":false,"time":5,"distance":1901},{"is_transit":true,"time":3,"distance":1444,"station_id":"KPB","i_lat":-6.132549,"i_long":106.826365,"station_name":"Kampung Bandan","transit":true,"line":4},{"i_long":106.79867,"time":9,"distance":4102,"is_transit":false,"i_lat":-6.144674,"line":1,"station_name":"Angke","transit":false,"station_id":"AK"},{"is_transit":false,"i_lat":-6.155215,"transit":false,"station_name":"Duri","distance":1230,"station_id":"DU","i_long":106.800832,"line":1,"time":4},{"station_id":"THB","i_lat":-6.185545,"line":1,"station_name":"Tanah Abang","is_transit":false,"i_long":106.811091,"transit":false,"time":8,"distance":3632},{"is_transit":false,"i_lat":-6.20132,"distance":2029,"i_long":106.816351,"line":1,"transit":false,"time":5,"station_id":"KAT","station_name":"Karet"},{"i_long":106.819881,"station_name":"Sudirman Baru","line":1,"distance":471,"i_lat":-6.201433,"time":1,"transit":false,"is_transit":false,"station_id":"SUDB"}],[{"i_lat":-6.262938,"distance":0,"station_id":"TLM","is_transit":false,"station_name":"Metland Telaga Murni","i_long":107.093313,"line":1,"transit":false,"time":0},{"station_id":"CIT","i_long":107.083084,"i_lat":-6.261877,"distance":2800,"transit":false,"station_name":"Cibitung","line":1,"time":2,"is_transit":false},{"distance":3420,"transit":false,"line":1,"station_id":"TB","is_transit":false,"i_long":107.055722,"station_name":"Tambun","time":3,"i_lat":-6.258864},{"i_long":107.016735,"transit":false,"line":1,"station_name":"Bekasi Timur","time":7,"station_id":"BKST","i_lat":-6.248029,"is_transit":false,"distance":4460},{"distance":2368,"transit":false,"i_lat":-6.236616,"station_name":"Bekasi","time":2,"is_transit":false,"i_long":106.997013,"line":1,"station_id":"BKS"},{"is_transit":false,"line":1,"i_lat":-6.224515,"i_long":106.977657,"station_id":"KRI","time":4,"distance":2520,"transit":false,"station_name":"Kranji"},{"line":1,"i_lat":-6.219053,"transit":false,"is_transit":false,"time":3,"i_long":106.951283,"distance":3097,"station_id":"CUK","station_name":"Cakung"},{"distance":1385,"time":8,"transit":false,"is_transit":false,"i_long":106.939679,"station_id":"KLDB","station_name":"Klenderbaru","i_lat":-6.217455,"line":1},{"distance":1305,"i_lat":-6.215568,"line":1,"station_name":"Buaran","station_id":"BUA","transit":false,"is_transit":false,"i_long":106.922662,"time":1},{"is_transit":false,"time":2,"line":1,"transit":false,"station_id":"KLD","i_lat":-6.2135,"station_name":"Klender","i_long":106.899548,"distance":3100},{"time":3,"station_name":"Jatinegara","station_id":"JNG","line":1,"i_long":106.86807400000001,"distance":3395,"is_transit":false,"transit":false,"i_lat":-6.215091},{"time":2,"line":1,"is_transit":false,"distance":1377,"i_lat":-6.212485,"transit":false,"station_name":"Matraman","i_long":106.858896,"station_id":"MTR"},{"station_id":"MRI","transit":true,"distance":1275,"is_transit":true,"i_lat":-6.209883,"i_long":106.84912,"line":2,"time":2,"station_name":"Manggarai"},{"station_name":"Cikini","i_long":106.840169,"is_transit":false,"station_id":"CKI","distance":1590,"time":4,"i_lat":-6.198556,"line":2,"transit":false},{"line":2,"station_name":"Gondangdia","i_lat":-6.186295,"distance":1750,"transit":false,"time":3,"i_long":106.832183,"station_id":"GDD","is_transit":false},{"line":2,"station_name":"Juanda","i_long":106.828284,"transit":false,"i_lat":-6.166716,"station_id":"JUA","is_transit":false,"time":4,"distance":2015},{"station_name":"Sawah Besar","distance":1149,"is_transit":false,"i_lat":-6.160725,"transit":false,"time":2,"i_long":106.827103,"line":2,"station_id":"SW"},{"is_transit":false,"line":2,"i_lat":-6.149769,"distance":906,"station_name":"Manggabesar","transit":false,"station_id":"MGB","i_long":106.82482,"time":2},{"station_name":"Jayakarta","distance":1080,"is_transit":false,"i_long":106.820901,"line":2,"i_lat":-6.141205,"station_id":"JAY","time":2,"transit":false},{"transit":true,"i_lat":-6.137569,"station_name":"Jakarta Kota","is_transit":true,"time":4,"distance":1264,"line":2,"station_id":"JAKK","i_long":106.812439},{"is_transit":true,"distance":1364,"i_long":106.826365,"i_lat":-6.132549,"station_id":"KPB","transit":true,"time":3,"line":4,"station_name":"Kampung Bandan"},{"transit":false,"i_lat":-6.144674,"i_long":106.79867,"time":9,"distance":4102,"line":1,"station_name":"Angke","station_id":"AK","is_transit":false},{"is_transit":false,"i_lat":-6.155215,"distance":1230,"time":4,"transit":false,"i_long":106.800832,"line":1,"station_name":"Duri","station_id":"DU"},{"transit":false,"i_long":106.811091,"station_id":"THB","line":1,"i_lat":-6.185545,"is_transit":false,"station_name":"Tanah Abang","distance":3632,"time":8},{"line":1,"distance":2029,"station_id":"KAT","i_lat":-6.20132,"transit":false,"is_transit":false,"station_name":"Karet","i_long":106.816351,"time":5},{"line":1,"station_name":"Sudirman Baru","distance":471,"i_lat":-6.201433,"time":1,"transit":false,"is_transit":false,"station_id":"SUDB","i_long":106.819881}],[{"is_transit":false,"transit":false,"distance":0,"time":0,"station_id":"TLM","i_lat":-6.262938,"line":1,"station_name":"Metland Telaga Murni","i_long":107.093313},{"i_lat":-6.261877,"is_transit":false,"station_id":"CIT","i_long":107.083084,"time":2,"line":1,"station_name":"Cibitung","transit":false,"distance":2800},{"station_id":"TB","time":3,"station_name":"Tambun","transit":false,"i_lat":-6.258864,"i_long":107.055722,"distance":3420,"line":1,"is_transit":false},{"is_transit":false,"time":7,"transit":false,"distance":4460,"i_lat":-6.248029,"station_name":"Bekasi Timur","station_id":"BKST","line":1,"i_long":107.016735},{"transit":false,"is_transit":false,"station_id":"BKS","line":1,"time":2,"station_name":"Bekasi","distance":2368,"i_long":106.997013,"i_lat":-6.236616},{"i_lat":-6.224515,"time":4,"distance":2520,"transit":false,"station_name":"Kranji","i_long":106.977657,"is_transit":false,"line":1,"station_id":"KRI"},{"i_lat":-6.219053,"is_transit":false,"line":1,"station_name":"Cakung","station_id":"CUK","distance":3097,"transit":false,"time":3,"i_long":106.951283},{"distance":1385,"line":1,"transit":false,"is_transit":false,"time":8,"station_name":"Klenderbaru","i_lat":-6.217455,"station_id":"KLDB","i_long":106.939679},{"line":1,"transit":false,"time":1,"is_transit":false,"i_long":106.922662,"station_name":"Buaran","i_lat":-6.215568,"distance":1305,"station_id":"BUA"},{"station_name":"Klender","is_transit":false,"line":1,"station_id":"KLD","transit":false,"distance":3100,"i_long":106.899548,"time":2,"i_lat":-6.2135},{"distance":3395,"transit":true,"i_lat":-6.215091,"is_transit":true,"i_long":106.86807400000001,"station_name":"Jatinegara","line":1,"time":3,"station_id":"JNG"},{"transit":false,"i_lat":-6.209188,"is_transit":false,"station_id":"POK","i_long":106.861737,"line":11,"station_name":"Pondok Jati","time":2,"distance":1236},{"transit":false,"is_transit":false,"i_lat":-6.193792,"distance":1829,"station_name":"Kramat","time":2,"i_long":106.855437,"station_id":"KMT","line":11},{"i_lat":-6.185975,"line":11,"station_name":"Gang Sentiong","is_transit":false,"distance":973,"i_long":106.850107,"transit":false,"time":1,"station_id":"GST"},{"line":11,"i_long":106.84368,"transit":false,"station_name":"Pasar Senen","time":8,"distance":1567,"is_transit":false,"i_lat":-6.174784,"station_id":"PSE"},{"transit":false,"station_id":"KMO","time":4,"i_lat":-6.161728,"distance":1436,"is_transit":false,"station_name":"Kemayoran","i_long":106.839204,"line":11},{"line":11,"station_name":"Rajawali","i_long":106.836569,"time":5,"distance":1901,"transit":false,"is_transit":false,"station_id":"RJW","i_lat":-6.14505},{"is_transit":true,"i_lat":-6.132549,"line":4,"station_id":"KPB","i_long":106.826365,"time":3,"distance":1444,"transit":true,"station_name":"Kampung Bandan"},{"is_transit":true,"station_id":"JAKK","i_lat":-6.137569,"distance":1364,"time":3,"line":2,"i_long":106.812439,"station_name":"Jakarta Kota","transit":true},{"station_id":"JAY","i_lat":-6.141205,"is_transit":false,"time":4,"transit":false,"i_long":106.820901,"line":2,"distance":1264,"station_name":"Jayakarta"},{"i_lat":-6.149769,"station_name":"Manggabesar","transit":false,"is_transit":false,"i_long":106.82482,"time":2,"distance":1080,"station_id":"MGB","line":2},{"time":2,"transit":false,"i_lat":-6.160725,"line":2,"station_name":"Sawah Besar","is_transit":false,"distance":906,"station_id":"SW","i_long":106.827103},{"i_lat":-6.166716,"i_long":106.828284,"transit":false,"station_id":"JUA","line":2,"time":2,"is_transit":false,"distance":1149,"station_name":"Juanda"},{"distance":2015,"transit":false,"is_transit":false,"time":4,"i_lat":-6.186295,"i_long":106.832183,"line":2,"station_name":"Gondangdia","station_id":"GDD"},{"distance":1750,"station_name":"Cikini","i_lat":-6.198556,"is_transit":false,"station_id":"CKI","i_long":106.840169,"time":3,"transit":false,"line":2},{"distance":1590,"station_name":"Manggarai","is_transit":true,"time":4,"i_long":106.84912,"transit":true,"station_id":"MRI","line":2,"i_lat":-6.209883},{"distance":3186,"is_transit":false,"i_lat":-6.202263,"line":1,"i_long":106.822649,"station_name":"Sudirman","time":4,"transit":false,"station_id":"SUD"},{"transit":false,"time":1,"station_name":"Sudirman Baru","is_transit":false,"line":1,"station_id":"SUDB","i_long":106.819881,"i_lat":-6.201433,"distance":280}]]}