{"data":[[{"is_transit":false,"i_long":107.093313,"station_id":"TLM","transit":false,"line":1,"station_name":"Metland Telaga Murni","time":0,"i_lat":-6.262938,"distance":0},{"station_name":"Cibitung","distance":2800,"is_transit":false,"station_id":"CIT","transit":false,"time":2,"i_lat":-6.261877,"i_long":107.083084,"line":1},{"transit":false,"is_transit":false,"line":1,"station_id":"TB","distance":3420,"i_long":107.055722,"time":3,"i_lat":-6.258864,"station_name":"Tambun"},{"time":7,"is_transit":false,"i_lat":-6.248029,"station_id":"BKST","transit":false,"station_name":"Bekasi Timur","distance":4460,"line":1,"i_long":107.016735},{"distance":2368,"is_transit":false,"transit":false,"i_lat":-6.236616,"i_long":106.997013,"station_name":"Bekasi","time":2,"station_id":"BKS","line":1},{"transit":false,"is_transit":false,"i_lat":-6.224515,"line":1,"time":4,"distance":2520,"station_id":"KRI","station_name":"Kranji","i_long":106.977657},{"station_name":"Cakung","transit":false,"is_transit":false,"time":3,"station_id":"CUK","i_lat":-6.219053,"distance":3097,"i_long":106.951283,"line":1},{"station_id":"KLDB","distance":1385,"station_name":"Klenderbaru","is_transit":false,"i_long":106.939679,"line":1,"transit":false,"i_lat":-6.217455,"time":8},{"line":1,"time":1,"distance":1305,"is_transit":false,"station_id":"BUA","transit":false,"station_name":"Buaran","i_lat":-6.215568,"i_long":106.922662},{"is_transit":false,"i_lat":-6.2135,"time":2,"station_name":"Klender","distance":3100,"transit":false,"i_long":106.899548,"line":1,"station_id":"KLD"},{"distance":3395,"is_transit":false,"time":3,"station_id":"JNG","i_long":106.86807400000001,"station_name":"Jatinegara","line":1,"transit":false,"i_lat":-6.215091},{"i_lat":-6.212485,"is_transit":false,"time":2,"transit":false,"i_long":106.858896,"distance":1377,"line":1,"station_name":"Matraman","station_id":"MTR"},{"is_transit":false,"i_long":106.84912,"station_id":"MRI","time":2,"line":2,"transit":false,"station_name":"Manggarai","distance":1275,"i_lat":-6.209883},{"i_lat":-6.202263,"is_transit":false,"station_name":"Sudirman","distance":3186,"station_id":"SUD","time":4,"i_long":106.822649,"transit":false,"line":1},{"line":1,"time":1,"station_id":"SUDB","is_transit":false,"i_lat":-6.201433,"transit":false,"station_name":"Sudirman Baru","distance":280,"i_long":106.819881},{"line":1,"station_id":"KAT","transit":false,"distance":471,"station_name":"Karet","is_transit":false,"time":1,"i_lat":-6.20132,"i_long":106.816351},{"time":5,"station_id":"THB","transit":false,"is_transit":false,"i_long":106.811091,"station_name":"Tanah Abang","distance":2029,"i_lat":-6.185545,"line":1}],[{"line":1,"transit":false,"is_transit":false,"time":0,"distance":0,"i_lat":-6.262938,"station_id":"TLM","station_name":"Metland Telaga Murni","i_long":107.093313},{"i_lat":-6.261877,"i_long":107.083084,"time":2,"transit":false,"station_name":"Cibitung","line":1,"station_id":"CIT","is_transit":false,"distance":2800},{"i_lat":-6.258864,"i_long":107.055722,"line":1,"time":3,"station_name":"Tambun","is_transit":false,"transit":false,"distance":3420,"station_id":"TB"},{"is_transit":false,"time":7,"transit":false,"i_lat":-6.248029,"station_name":"Bekasi Timur","i_long":107.016735,"station_id":"BKST","line":1,"distance":4460},{"time":2,"i_lat":-6.236616,"line":1,"station_name":"Bekasi","i_long":106.997013,"station_id":"BKS","transit":false,"is_transit":false,"distance":2368},{"distance":2520,"i_lat":-6.224515,"station_id":"KRI","transit":false,"time":4,"station_name":"Kranji","is_transit":false,"i_long":106.977657,"line":1},{"is_transit":false,"line":1,"i_lat":-6.219053,"transit":false,"distance":3097,"station_name":"Cakung","time":3,"station_id":"CUK","i_long":106.951283},{"line":1,"station_name":"Klenderbaru","time":8,"distance":1385,"transit":false,"i_lat":-6.217455,"is_transit":false,"i_long":106.939679,"station_id":"KLDB"},{"transit":false,"station_name":"Buaran","time":1,"line":1,"is_transit":false,"station_id":"BUA","i_lat":-6.215568,"i_long":106.922662,"distance":1305},{"station_name":"Klender","time":2,"station_id":"KLD","distance":3100,"is_transit":false,"i_lat":-6.2135,"i_long":106.899548,"line":1,"transit":false},{"i_lat":-6.215091,"station_id":"JNG","station_name":"Jatinegara","distance":3395,"line":1,"time":3,"transit":true,"is_transit":true,"i_long":106.86807400000001},{"is_transit":false,"distance":1236,"i_long":106.861737,"line":11,"station_id":"POK","time":2,"i_lat":-6.209188,"station_name":"Pondok Jati","transit":false},{"i_long":106.855437,"is_transit":false,"transit":false,"distance":1829,"time":2,"line":11,"station_id":"KMT","i_lat":-6.193792,"station_name":"Kramat"},{"station_id":"GST","line":11,"is_transit":false,"station_name":"Gang Sentiong","i_lat":-6.185975,"transit":false,"time":1,"i_long":106.850107,"distance":973},{"line":11,"station_id":"PSE","station_name":"Pasar Senen","i_long":106.84368,"time":8,"distance":1567,"transit":false,"is_transit":false,"i_lat":-6.174784},{"time":4,"is_transit":false,"station_name":"Kemayoran","station_id":"KMO","line":11,"distance":1436,"transit":false,"i_lat":-6.161728,"i_long":106.839204},{"i_long":106.836569,"time":5,"transit":false,"is_transit":false,"line":11,"distance":1901,"station_id":"RJW","station_name":"Rajawali","i_lat":-6.14505},{"distance":1444,"line":4,"is_transit":true,"time":3,"i_lat":-6.132549,"station_name":"Kampung Bandan","transit":true,"station_id":"KPB","i_long":106.826365},{"time":9,"transit":false,"station_id":"AK","is_transit":false,"i_long":106.79867,"station_name":"Angke","i_lat":-6.144674,"distance":4102,"line":1},{"distance":1230,"line":1,"transit":false,"station_id":"DU","i_lat":-6.155215,"station_name":"Duri","time":4,"is_transit":false,"i_long":106.800832},{"station_name":"Tanah Abang","time":8,"is_transit":false,"station_id":"THB","distance":3632,"i_lat":-6.185545,"line":1,"transit":false,"i_long":106.811091}],[{"i_lat":-6.262938,"transit":false,"station_name":"Metland Telaga Murni","line":1,"time":0,"station_id":"TLM","distance":0,"is_transit":false,"i_long":107.093313},{"time":2,"i_long":107.083084,"distance":2800,"i_lat":-6.261877,"station_name":"Cibitung","is_transit":false,"station_id":"CIT","transit":false,"line":1},{"i_long":107.055722,"distance":3420,"i_lat":-6.258864,"line":1,"time":3,"transit":false,"station_id":"TB","is_transit":false,"station_name":"Tambun"},{"transit":false,"station_id":"BKST","station_name":"Bekasi Timur","time":7,"distance":4460,"is_transit":false,"i_lat":-6.248029,"line":1,"i_long":107.016735},{"transit":false,"station_name":"Bekasi","distance":2368,"i_lat":-6.236616,"station_id":"BKS","line":1,"time":2,"i_long":106.997013,"is_transit":false},{"i_lat":-6.224515,"station_name":"Kranji","distance":2520,"time":4,"station_id":"KRI","is_transit":false,"transit":false,"i_long":106.977657,"line":1},{"i_lat":-6.219053,"distance":3097,"station_name":"Cakung","line":1,"i_long":106.951283,"station_id":"CUK","is_transit":false,"time":3,"transit":false},{"time":8,"station_name":"Klenderbaru","distance":1385,"transit":false,"station_id":"KLDB","is_transit":false,"i_lat":-6.217455,"i_long":106.939679,"line":1},{"station_name":"Buaran","i_long":106.922662,"transit":false,"time":1,"i_lat":-6.215568,"station_id":"BUA","line":1,"distance":1305,"is_transit":false},{"station_id":"KLD","i_lat":-6.2135,"transit":false,"i_long":106.899548,"distance":3100,"is_transit":false,"time":2,"station_name":"Klender","line":1},{"time":3,"station_id":"JNG","is_transit":false,"transit":false,"distance":3395,"i_long":106.86807400000001,"station_name":"Jatinegara","line":1,"i_lat":-6.215091},{"time":2,"i_long":106.858896,"transit":false,"station_name":"Matraman","i_lat":-6.212485,"line":1,"distance":1377,"station_id":"MTR","is_transit":false},{"line":2,"station_id":"MRI","transit":true,"i_lat":-6.209883,"time":2,"station_name":"Manggarai","distance":1275,"is_transit":true,"i_long":106.84912},{"i_long":106.840169,"time":4,"station_id":"CKI","is_transit":false,"transit":false,"station_name":"Cikini","line":2,"distance":1590,"i_lat":-6.198556},{"i_lat":-6.186295,"transit":false,"is_transit":false,"station_name":"Gondangdia","i_long":106.832183,"distance":1750,"line":2,"station_id":"GDD","time":3},{"time":4,"i_long":106.828284,"station_id":"JUA","station_name":"Juanda","transit":false,"is_transit":false,"line":2,"distance":2015,"i_lat":-6.166716},{"i_long":106.827103,"i_lat":-6.160725,"line":2,"transit":false,"is_transit":false,"time":2,"distance":1149,"station_name":"Sawah Besar","station_id":"SW"},{"distance":906,"transit":false,"station_name":"Manggabesar","line":2,"i_long":106.82482,"i_lat":-6.149769,"time":2,"station_id":"MGB","is_transit":false},{"i_long":106.820901,"distance":1080,"is_transit":false,"line":2,"station_name":"Jayakarta","time":2,"transit":false,"station_id":"JAY","i_lat":-6.141205},{"distance":1264,"i_long":106.812439,"transit":true,"station_id":"JAKK","time":4,"i_lat":-6.137569,"is_transit":true,"station_name":"Jakarta Kota","line":2},{"line":4,"station_name":"Kampung Bandan","i_lat":-6.132549,"is_transit":true,"i_long":106.826365,"time":3,"station_id":"KPB","distance":1364,"transit":true},{"station_id":"AK","i_long":106.79867,"i_lat":-6.144674,"transit":false,"distance":4102,"station_name":"Angke","is_transit":false,"time":9,"line":1},{"i_long":106.800832,"distance":1230,"line":1,"time":4,"station_id":"DU","station_name":"Duri","is_transit":false,"transit":false,"i_lat":-6.155215},{"line":1,"distance":3632,"i_lat":-6.185545,"station_id":"THB","station_name":"Tanah Abang","is_transit":false,"time":8,"transit":false,"i_long":106.811091}],[{"time":0,"station_name":"Metland Telaga Murni","is_transit":false,"transit":false,"i_lat":-6.262938,"line":1,"i_long":107.093313,"station_id":"TLM","distance":0},{"line":1,"transit":false,"is_transit":false,"distance":2800,"i_lat":-6.261877,"station_name":"Cibitung","time":2,"station_id":"CIT","i_long":107.083084},{"i_lat":-6.258864,"i_long":107.055722,"transit":false,"time":3,"station_id":"TB","line":1,"station_name":"Tambun","distance":3420,"is_transit":false},{"line":1,"station_name":"Bekasi Timur","is_transit":false,"i_lat":-6.248029,"transit":false,"i_long":107.016735,"station_id":"BKST","distance":4460,"time":7},{"station_name":"Bekasi","time":2,"is_transit":false,"i_lat":-6.236616,"transit":false,"i_long":106.997013,"line":1,"distance":2368,"station_id":"BKS"},{"line":1,"time":4,"station_name":"Kranji","station_id":"KRI","is_transit":false,"distance":2520,"i_long":106.977657,"i_lat":-6.224515,"transit":false},{"station_name":"Cakung","i_lat":-6.219053,"station_id":"CUK","distance":3097,"line":1,"time":3,"i_long":106.951283,"is_transit":false,"transit":false},{"time":8,"i_long":106.939679,"distance":1385,"i_lat":-6.217455,"transit":false,"station_id":"KLDB","station_name":"Klenderbaru","is_transit":false,"line":1},{"time":1,"transit":false,"i_long":106.922662,"i_lat":-6.215568,"station_id":"BUA","station_name":"Buaran","is_transit":false,"distance":1305,"line":1},{"station_id":"KLD","station_name":"Klender","line":1,"i_lat":-6.2135,"transit":false,"distance":3100,"i_long":106.899548,"time":2,"is_transit":false},{"line":1,"i_long":106.86807400000001,"station_name":"Jatinegara","time":3,"i_lat":-6.215091,"is_transit":true,"station_id":"JNG","transit":true,"distance":3395},{"line":11,"i_lat":-6.209188,"time":2,"transit":false,"i_long":106.861737,"station_id":"POK","station_name":"Pondok Jati","distance":1236,"is_transit":false},{"is_transit":false,"time":2,"line":11,"station_name":"Kramat","station_id":"KMT","i_long":106.855437,"i_lat":-6.193792,"transit":false,"distance":1829},{"station_name":"Gang Sentiong","distance":973,"is_transit":false,"time":1,"transit":false,"station_id":"GST","i_lat":-6.185975,"line":11,"i_long":106.850107},{"is_transit":false,"time":8,"i_lat":-6.174784,"i_long":106.84368,"line":11,"distance":1567,"station_id":"PSE","station_name":"Pasar Senen","transit":false},{"line":11,"station_id":"KMO","distance":1436,"time":4,"is_transit":false,"i_lat":-6.161728,"transit":false,"station_name":"Kemayoran","i_long":106.839204},{"transit":false,"distance":1901,"is_transit":false,"i_lat":-6.14505,"station_id":"RJW","line":11,"i_long":106.836569,"time":5,"station_name":"Rajawali"},{"station_name":"Kampung Bandan","i_lat":-6.132549,"line":4,"distance":1444,"i_long":106.826365,"transit":true,"station_id":"KPB","is_transit":true,"time":3},{"i_long":106.812439,"is_transit":true,"transit":true,"station_id":"JAKK","i_lat":-6.137569,"line":2,"time":3,"station_name":"Jakarta Kota","distance":1364},{"i_lat":-6.141205,"line":2,"is_transit":false,"time":4,"transit":false,"station_name":"Jayakarta","distance":1264,"i_long":106.820901,"station_id":"JAY"},{"transit":false,"i_lat":-6.149769,"time":2,"is_transit":false,"i_long":106.82482,"station_name":"Manggabesar","distance":1080,"line":2,"station_id":"MGB"},{"transit":false,"time":2,"station_id":"SW","is_transit":false,"i_long":106.827103,"i_lat":-6.160725,"station_name":"Sawah Besar","line":2,"distance":906},{"distance":1149,"time":2,"station_name":"Juanda","i_lat":-6.166716,"transit":false,"is_transit":false,"i_long":106.828284,"line":2,"station_id":"JUA"},{"distance":2015,"time":4,"is_transit":false,"line":2,"station_name":"Gondangdia","station_id":"GDD","i_lat":-6.186295,"transit":false,"i_long":106.832183},{"station_id":"CKI","i_lat":-6.198556,"line":2,"transit":false,"i_long":106.840169,"station_name":"Cikini","is_transit":false,"time":3,"distance":1750},{"i_long":106.84912,"transit":true,"distance":1590,"is_transit":true,"i_lat":-6.209883,"line":2,"time":4,"station_name":"Manggarai","station_id":"MRI"},{"distance":3186,"time":4,"station_name":"Sudirman","is_transit":false,"station_id":"SUD","i_lat":-6.202263,"i_long":106.822649,"line":1,"transit":false},{"distance":280,"station_name":"Sudirman Baru","station_id":"SUDB","is_transit":false,"i_long":106.819881,"transit":false,"time":1,"line":1,"i_lat":-6.201433},{"line":1,"time":1,"station_id":"KAT","distance":471,"i_long":106.816351,"i_lat":-6.20132,"station_name":"Karet","is_transit":false,"transit":false},{"transit":false,"time":5,"distance":2029,"i_long":106.811091,"line":1,"i_lat":-6.185545,"is_transit":false,"station_id":"THB","station_name":"Tanah Abang"}]]}