{"data":[[{"distance":0,"station_id":"TLM","i_long":107.093313,"line":1,"transit":false,"i_lat":-6.262938,"station_name":"Metland Telaga Murni","is_transit":false,"time":0},{"line":0,"station_id":"CIT","time":2,"transit":false,"i_lat":-6.261877,"i_long":107.083084,"station_name":"Cibitung","distance":2800,"is_transit":false},{"i_long":107.055722,"station_name":"Tambun","line":1,"is_transit":false,"distance":3420,"station_id":"TB","time":3,"i_lat":-6.258864,"transit":false},{"transit":false,"station_name":"Bekasi Timur","station_id":"BKST","distance":4460,"i_lat":-6.248029,"is_transit":false,"time":7,"i_long":107.016735,"line":0},{"time":2,"i_long":106.997013,"station_id":"BKS","transit":false,"distance":2368,"i_lat":-6.236616,"line":0,"is_transit":false,"station_name":"Bekasi"},{"i_lat":-6.224515,"line":1,"i_long":106.977657,"is_transit":false,"distance":2520,"station_id":"KRI","transit":false,"time":4,"station_name":"Kranji"},{"station_id":"CUK","i_lat":-6.219053,"station_name":"Cakung","distance":3097,"line":0,"time":3,"transit":false,"is_transit":false,"i_long":106.951283},{"time":8,"is_transit":false,"station_id":"KLDB","i_lat":-6.217455,"line":1,"transit":false,"station_name":"Klenderbaru","i_long":106.939679,"distance":1385},{"time":1,"transit":false,"distance":1305,"is_transit":false,"i_long":106.922662,"station_id":"BUA","i_lat":-6.215568,"station_name":"Buaran","line":0},{"transit":false,"distance":3100,"station_name":"Klender","is_transit":false,"i_long":106.899548,"station_id":"KLD","time":2,"line":1,"i_lat":-6.2135},{"distance":3395,"station_id":"JNG","transit":false,"i_lat":-6.215091,"time":3,"is_transit":true,"line":0,"i_long":106.86807400000001,"station_name":"Jatinegara"},{"line":1,"i_lat":-6.212485,"i_long":106.858896,"time":2,"station_id":"MTR","transit":false,"is_transit":false,"station_name":"Matraman","distance":1377},{"line":0,"time":2,"i_lat":-6.209883,"station_name":"Manggarai","transit":false,"distance":1275,"i_long":106.84912,"station_id":"MRI","is_transit":true},{"i_lat":-6.202263,"station_id":"SUD","time":4,"distance":3186,"line":1,"i_long":106.822649,"station_name":"Sudirman","is_transit":false,"transit":false},{"station_name":"Sudirman Baru","i_long":106.819881,"is_transit":false,"distance":280,"transit":false,"i_lat":-6.201433,"line":1,"station_id":"SUDB","time":1},{"line":1,"i_long":106.816351,"distance":471,"is_transit":false,"transit":false,"i_lat":-6.20132,"station_id":"KAT","station_name":"Karet","time":1},{"transit":false,"i_lat":-6.185545,"station_id":"THB","station_name":"Tanah Abang","time":5,"line":1,"is_transit":true,"distance":2029,"i_long":106.811091},{"distance":3632,"i_lat":-6.155215,"is_transit":true,"transit":true,"i_long":106.800832,"station_name":"Duri","time":8,"line":1,"station_id":"DU"},{"time":3,"i_lat":-6.162021,"is_transit":false,"distance":1700,"i_long":106.788277,"station_name":"Grogol","line":5,"station_id":"GGL","transit":false},{"i_lat":-6.161433,"is_transit":false,"time":2,"i_long":106.771379,"transit":false,"station_name":"Pesing","station_id":"PSG","distance":2036,"line":5},{"station_name":"Taman Kota","distance":1614,"station_id":"TKO","transit":false,"i_long":106.756522,"line":5,"is_transit":false,"time":2,"i_lat":-6.1587309999999995},{"i_lat":-6.159876,"station_name":"Bojongindah","time":2,"is_transit":false,"distance":2334,"i_long":106.737035,"transit":false,"line":0,"station_id":"BOI"},{"line":5,"i_lat":-6.162758,"i_long":106.723064,"station_name":"Rawa Buaya","station_id":"RW","is_transit":false,"distance":1152,"transit":false,"time":4},{"transit":false,"station_name":"Kalideres","is_transit":false,"station_id":"KDS","distance":2504,"line":5,"i_long":106.701612,"time":3,"i_lat":-6.166068},{"distance":2548,"transit":false,"i_lat":-6.169933,"i_long":106.679458,"line":5,"station_name":"Poris","time":3,"is_transit":false,"station_id":"PI"},{"transit":false,"i_lat":-6.171811,"time":3,"line":0,"distance":1834,"station_name":"Batuceper","station_id":"BPR","is_transit":false,"i_long":106.665036}],[{"distance":0,"is_transit":false,"i_long":107.093313,"line":1,"time":0,"i_lat":-6.262938,"station_name":"Metland Telaga Murni","transit":false,"station_id":"TLM"},{"time":2,"i_long":107.083084,"station_id":"CIT","station_name":"Cibitung","distance":2800,"is_transit":false,"i_lat":-6.261877,"line":0,"transit":false},{"is_transit":false,"distance":3420,"station_id":"TB","transit":false,"i_long":107.055722,"time":3,"station_name":"Tambun","line":1,"i_lat":-6.258864},{"i_long":107.016735,"distance":4460,"time":7,"station_id":"BKST","station_name":"Bekasi Timur","line":0,"i_lat":-6.248029,"is_transit":false,"transit":false},{"i_lat":-6.236616,"distance":2368,"is_transit":false,"station_id":"BKS","station_name":"Bekasi","line":0,"i_long":106.997013,"time":2,"transit":false},{"station_id":"KRI","line":1,"station_name":"Kranji","transit":false,"i_lat":-6.224515,"time":4,"i_long":106.977657,"is_transit":false,"distance":2520},{"station_id":"CUK","distance":3097,"i_long":106.951283,"transit":false,"is_transit":false,"station_name":"Cakung","time":3,"i_lat":-6.219053,"line":0},{"i_lat":-6.217455,"is_transit":false,"time":8,"i_long":106.939679,"line":1,"distance":1385,"transit":false,"station_name":"Klenderbaru","station_id":"KLDB"},{"i_long":106.922662,"is_transit":false,"line":0,"i_lat":-6.215568,"station_name":"Buaran","transit":false,"distance":1305,"time":1,"station_id":"BUA"},{"time":2,"i_long":106.899548,"transit":false,"station_name":"Klender","i_lat":-6.2135,"station_id":"KLD","distance":3100,"is_transit":false,"line":1},{"station_id":"JNG","i_long":106.86807400000001,"distance":3395,"time":3,"i_lat":-6.215091,"transit":true,"station_name":"Jatinegara","line":0,"is_transit":true},{"station_id":"POK","line":11,"transit":false,"time":2,"i_lat":-6.209188,"i_long":106.861737,"is_transit":false,"station_name":"Pondok Jati","distance":1236},{"distance":1829,"line":11,"time":2,"i_long":106.855437,"transit":false,"is_transit":false,"i_lat":-6.193792,"station_id":"KMT","station_name":"Kramat"},{"i_long":106.850107,"transit":false,"time":1,"station_name":"Gang Sentiong","i_lat":-6.185975,"is_transit":false,"line":11,"station_id":"GST","distance":973},{"station_id":"PSE","is_transit":false,"i_lat":-6.174784,"station_name":"Pasar Senen","time":8,"distance":1567,"transit":false,"i_long":106.84368,"line":11},{"station_name":"Kemayoran","distance":1436,"i_lat":-6.161728,"is_transit":false,"transit":false,"line":11,"i_long":106.839204,"station_id":"KMO","time":4},{"is_transit":false,"i_lat":-6.14505,"i_long":106.836569,"line":11,"distance":1901,"transit":false,"time":5,"station_id":"RJW","station_name":"Rajawali"},{"time":3,"i_long":106.826365,"station_id":"KPB","line":0,"distance":1444,"transit":true,"i_lat":-6.132549,"station_name":"Kampung Bandan","is_transit":true},{"is_transit":false,"station_name":"Angke","transit":false,"station_id":"AK","time":9,"i_long":106.79867,"distance":4102,"i_lat":-6.144674,"line":0},{"station_id":"DU","time":4,"i_lat":-6.155215,"line":1,"is_transit":true,"distance":1230,"transit":true,"station_name":"Duri","i_long":106.800832},{"station_name":"Grogol","i_lat":-6.162021,"transit":false,"station_id":"GGL","i_long":106.788277,"is_transit":false,"time":3,"line":5,"distance":1700},{"distance":2036,"transit":false,"line":5,"time":2,"i_long":106.771379,"station_id":"PSG","is_transit":false,"station_name":"Pesing","i_lat":-6.161433},{"i_lat":-6.1587309999999995,"i_long":106.756522,"transit":false,"time":2,"line":5,"station_id":"TKO","is_transit":false,"distance":1614,"station_name":"Taman Kota"},{"transit":false,"line":0,"station_name":"Bojongindah","i_lat":-6.159876,"i_long":106.737035,"is_transit":false,"time":2,"distance":2334,"station_id":"BOI"},{"distance":1152,"i_lat":-6.162758,"station_name":"Rawa Buaya","is_transit":false,"line":5,"time":4,"i_long":106.723064,"station_id":"RW","transit":false},{"i_lat":-6.166068,"i_long":106.701612,"line":5,"distance":2504,"time":3,"station_name":"Kalideres","is_transit":false,"station_id":"KDS","transit":false},{"transit":false,"i_long":106.679458,"line":5,"distance":2548,"station_name":"Poris","station_id":"PI","is_transit":false,"time":3,"i_lat":-6.169933},{"station_id":"BPR","i_lat":-6.171811,"line":0,"time":3,"distance":1834,"station_name":"Batuceper","is_transit":false,"transit":false,"i_long":106.665036}],[{"station_id":"TLM","i_long":107.093313,"line":1,"time":0,"is_transit":false,"station_name":"Metland Telaga Murni","distance":0,"transit":false,"i_lat":-6.262938},{"station_name":"Cibitung","line":0,"is_transit":false,"time":2,"station_id":"CIT","transit":false,"distance":2800,"i_long":107.083084,"i_lat":-6.261877},{"is_transit":false,"distance":3420,"station_name":"Tambun","transit":false,"time":3,"line":1,"station_id":"TB","i_lat":-6.258864,"i_long":107.055722},{"transit":false,"line":0,"station_name":"Bekasi Timur","is_transit":false,"distance":4460,"station_id":"BKST","i_lat":-6.248029,"i_long":107.016735,"time":7},{"station_id":"BKS","distance":2368,"i_lat":-6.236616,"line":0,"is_transit":false,"transit":false,"time":2,"i_long":106.997013,"station_name":"Bekasi"},{"is_transit":false,"transit":false,"i_long":106.977657,"line":1,"time":4,"distance":2520,"station_name":"Kranji","i_lat":-6.224515,"station_id":"KRI"},{"time":3,"station_id":"CUK","i_long":106.951283,"transit":false,"station_name":"Cakung","line":0,"is_transit":false,"distance":3097,"i_lat":-6.219053},{"distance":1385,"transit":false,"i_lat":-6.217455,"i_long":106.939679,"line":1,"station_id":"KLDB","station_name":"Klenderbaru","is_transit":false,"time":8},{"time":1,"is_transit":false,"i_lat":-6.215568,"station_name":"Buaran","distance":1305,"transit":false,"line":0,"i_long":106.922662,"station_id":"BUA"},{"station_id":"KLD","is_transit":false,"transit":false,"distance":3100,"i_lat":-6.2135,"line":1,"time":2,"i_long":106.899548,"station_name":"Klender"},{"station_name":"Jatinegara","time":3,"distance":3395,"i_long":106.86807400000001,"line":0,"is_transit":true,"i_lat":-6.215091,"transit":false,"station_id":"JNG"},{"station_id":"MTR","line":1,"station_name":"Matraman","is_transit":false,"i_lat":-6.212485,"distance":1377,"transit":false,"time":2,"i_long":106.858896},{"is_transit":true,"i_lat":-6.209883,"i_long":106.84912,"distance":1275,"station_name":"Manggarai","line":0,"time":2,"station_id":"MRI","transit":true},{"station_id":"CKI","is_transit":false,"i_lat":-6.198556,"line":0,"i_long":106.840169,"distance":1590,"station_name":"Cikini","time":4,"transit":false},{"station_id":"GDD","is_transit":false,"i_long":106.832183,"distance":1750,"transit":false,"i_lat":-6.186295,"time":3,"station_name":"Gondangdia","line":2},{"transit":false,"station_name":"Juanda","is_transit":false,"i_lat":-6.166716,"i_long":106.828284,"line":2,"time":4,"station_id":"JUA","distance":2015},{"transit":false,"time":2,"line":2,"station_name":"Sawah Besar","station_id":"SW","is_transit":false,"distance":1149,"i_lat":-6.160725,"i_long":106.827103},{"i_lat":-6.149769,"distance":906,"i_long":106.82482,"station_id":"MGB","time":2,"line":2,"station_name":"Manggabesar","is_transit":false,"transit":false},{"station_id":"JAY","distance":1080,"transit":false,"line":7,"i_lat":-6.141205,"time":2,"is_transit":false,"i_long":106.820901,"station_name":"Jayakarta"},{"station_name":"Jakarta Kota","i_lat":-6.137569,"transit":true,"station_id":"JAKK","time":4,"is_transit":true,"distance":1264,"i_long":106.812439,"line":0},{"distance":1364,"line":0,"station_name":"Kampung Bandan","station_id":"KPB","i_long":106.826365,"transit":false,"is_transit":true,"i_lat":-6.132549,"time":3},{"distance":4102,"i_lat":-6.144674,"time":9,"is_transit":false,"station_id":"AK","station_name":"Angke","transit":false,"line":0,"i_long":106.79867},{"station_id":"DU","time":4,"station_name":"Duri","line":1,"distance":1230,"i_lat":-6.155215,"transit":true,"i_long":106.800832,"is_transit":true},{"transit":false,"i_lat":-6.162021,"station_id":"GGL","line":5,"distance":1700,"time":3,"is_transit":false,"i_long":106.788277,"station_name":"Grogol"},{"distance":2036,"line":5,"station_id":"PSG","i_long":106.771379,"station_name":"Pesing","time":2,"transit":false,"is_transit":false,"i_lat":-6.161433},{"is_transit":false,"station_id":"TKO","station_name":"Taman Kota","i_long":106.756522,"time":2,"i_lat":-6.1587309999999995,"transit":false,"line":5,"distance":1614},{"line":0,"transit":false,"i_long":106.737035,"station_id":"BOI","is_transit":false,"time":2,"station_name":"Bojongindah","distance":2334,"i_lat":-6.159876},{"transit":false,"line":5,"i_lat":-6.162758,"i_long":106.723064,"station_id":"RW","is_transit":false,"time":4,"station_name":"Rawa Buaya","distance":1152},{"station_name":"Kalideres","is_transit":false,"time":3,"transit":false,"i_lat":-6.166068,"distance":2504,"i_long":106.701612,"station_id":"KDS","line":5},{"time":3,"distance":2548,"i_lat":-6.169933,"is_transit":false,"station_id":"PI","transit":false,"line":5,"i_long":106.679458,"station_name":"Poris"},{"time":3,"i_lat":-6.171811,"station_name":"Batuceper","distance":1834,"is_transit":false,"transit":false,"i_long":106.665036,"line":0,"station_id":"BPR"}],[{"station_name":"Metland Telaga Murni","is_transit":false,"i_lat":-6.262938,"station_id":"TLM","distance":0,"transit":false,"i_long":107.093313,"time":0,"line":1},{"line":0,"is_transit":false,"station_name":"Cibitung","time":2,"i_lat":-6.261877,"distance":2800,"i_long":107.083084,"transit":false,"station_id":"CIT"},{"station_name":"Tambun","i_lat":-6.258864,"time":3,"i_long":107.055722,"distance":3420,"transit":false,"is_transit":false,"line":1,"station_id":"TB"},{"i_lat":-6.248029,"distance":4460,"time":7,"station_id":"BKST","station_name":"Bekasi Timur","is_transit":false,"line":0,"transit":false,"i_long":107.016735},{"i_long":106.997013,"time":2,"distance":2368,"station_name":"Bekasi","station_id":"BKS","is_transit":false,"line":0,"transit":false,"i_lat":-6.236616},{"is_transit":false,"distance":2520,"transit":false,"i_long":106.977657,"station_id":"KRI","line":1,"station_name":"Kranji","i_lat":-6.224515,"time":4},{"station_name":"Cakung","i_long":106.951283,"station_id":"CUK","i_lat":-6.219053,"time":3,"line":0,"is_transit":false,"distance":3097,"transit":false},{"i_lat":-6.217455,"distance":1385,"is_transit":false,"time":8,"station_name":"Klenderbaru","transit":false,"line":1,"i_long":106.939679,"station_id":"KLDB"},{"station_name":"Buaran","i_lat":-6.215568,"station_id":"BUA","distance":1305,"transit":false,"i_long":106.922662,"is_transit":false,"time":1,"line":0},{"distance":3100,"station_name":"Klender","i_long":106.899548,"transit":false,"line":1,"station_id":"KLD","is_transit":false,"time":2,"i_lat":-6.2135},{"time":3,"station_id":"JNG","distance":3395,"i_lat":-6.215091,"transit":true,"is_transit":true,"station_name":"Jatinegara","i_long":106.86807400000001,"line":0},{"is_transit":false,"i_long":106.861737,"transit":false,"time":2,"station_id":"POK","distance":1236,"i_lat":-6.209188,"line":11,"station_name":"Pondok Jati"},{"station_name":"Kramat","i_long":106.855437,"line":11,"time":2,"i_lat":-6.193792,"distance":1829,"station_id":"KMT","transit":false,"is_transit":false},{"i_long":106.850107,"distance":973,"station_name":"Gang Sentiong","time":1,"line":11,"station_id":"GST","is_transit":false,"transit":false,"i_lat":-6.185975},{"transit":false,"station_id":"PSE","line":11,"distance":1567,"i_lat":-6.174784,"time":8,"i_long":106.84368,"station_name":"Pasar Senen","is_transit":false},{"station_id":"KMO","transit":false,"time":4,"distance":1436,"is_transit":false,"station_name":"Kemayoran","i_lat":-6.161728,"i_long":106.839204,"line":11},{"i_lat":-6.14505,"distance":1901,"station_name":"Rajawali","line":11,"station_id":"RJW","time":5,"is_transit":false,"i_long":106.836569,"transit":false},{"i_long":106.826365,"time":3,"is_transit":true,"transit":true,"i_lat":-6.132549,"station_name":"Kampung Bandan","line":0,"distance":1444,"station_id":"KPB"},{"time":3,"is_transit":true,"i_lat":-6.137569,"distance":1364,"i_long":106.812439,"transit":true,"line":0,"station_id":"JAKK","station_name":"Jakarta Kota"},{"is_transit":false,"time":4,"i_long":106.820901,"distance":1264,"station_id":"JAY","i_lat":-6.141205,"line":7,"transit":false,"station_name":"Jayakarta"},{"time":2,"is_transit":false,"transit":false,"distance":1080,"line":2,"station_name":"Manggabesar","station_id":"MGB","i_lat":-6.149769,"i_long":106.82482},{"time":2,"i_lat":-6.160725,"is_transit":false,"i_long":106.827103,"station_id":"SW","line":2,"station_name":"Sawah Besar","distance":906,"transit":false},{"i_lat":-6.166716,"station_id":"JUA","transit":false,"distance":1149,"time":2,"i_long":106.828284,"is_transit":false,"station_name":"Juanda","line":2},{"station_name":"Gondangdia","transit":false,"i_lat":-6.186295,"distance":2015,"line":2,"time":4,"is_transit":false,"i_long":106.832183,"station_id":"GDD"},{"distance":1750,"station_name":"Cikini","station_id":"CKI","i_lat":-6.198556,"is_transit":false,"time":3,"transit":false,"i_long":106.840169,"line":0},{"i_lat":-6.209883,"station_id":"MRI","is_transit":true,"distance":1590,"i_long":106.84912,"line":0,"station_name":"Manggarai","time":4,"transit":true},{"station_id":"SUD","time":4,"line":1,"distance":3186,"transit":false,"is_transit":false,"i_lat":-6.202263,"i_long":106.822649,"station_name":"Sudirman"},{"time":1,"distance":280,"is_transit":false,"line":1,"transit":false,"i_long":106.819881,"i_lat":-6.201433,"station_name":"Sudirman Baru","station_id":"SUDB"},{"station_name":"Karet","is_transit":false,"distance":471,"line":1,"station_id":"KAT","time":1,"transit":false,"i_lat":-6.20132,"i_long":106.816351},{"is_transit":true,"transit":false,"i_lat":-6.185545,"station_name":"Tanah Abang","station_id":"THB","i_long":106.811091,"time":5,"distance":2029,"line":1},{"station_name":"Duri","distance":3632,"transit":true,"i_lat":-6.155215,"line":1,"is_transit":true,"time":8,"i_long":106.800832,"station_id":"DU"},{"is_transit":false,"i_lat":-6.162021,"station_name":"Grogol","i_long":106.788277,"time":3,"transit":false,"station_id":"GGL","distance":1700,"line":5},{"distance":2036,"i_lat":-6.161433,"line":5,"i_long":106.771379,"transit":false,"station_id":"PSG","time":2,"station_name":"Pesing","is_transit":false},{"transit":false,"i_lat":-6.1587309999999995,"line":5,"distance":1614,"i_long":106.756522,"station_name":"Taman Kota","station_id":"TKO","is_transit":false,"time":2},{"station_id":"BOI","i_long":106.737035,"distance":2334,"is_transit":false,"time":2,"station_name":"Bojongindah","line":0,"i_lat":-6.159876,"transit":false},{"station_name":"Rawa Buaya","time":4,"distance":1152,"is_transit":false,"line":5,"i_lat":-6.162758,"i_long":106.723064,"station_id":"RW","transit":false},{"distance":2504,"i_lat":-6.166068,"station_id":"KDS","station_name":"Kalideres","time":3,"i_long":106.701612,"is_transit":false,"line":5,"transit":false},{"line":5,"is_transit":false,"station_name":"Poris","time":3,"distance":2548,"station_id":"PI","transit":false,"i_lat":-6.169933,"i_long":106.679458},{"transit":false,"i_long":106.665036,"station_name":"Batuceper","time":3,"distance":1834,"is_transit":false,"station_id":"BPR","line":0,"i_lat":-6.171811}]]}