{"data":[[{"i_lat":-6.262938,"transit":false,"station_name":"Metland Telaga Murni","station_id":"TLM","is_transit":false,"distance":0,"line":1,"time":0,"i_long":107.093313},{"i_long":107.083084,"station_name":"Cibitung","line":0,"transit":false,"i_lat":-6.261877,"time":2,"is_transit":false,"station_id":"CIT","distance":2800},{"i_lat":-6.258864,"station_name":"Tambun","is_transit":false,"station_id":"TB","time":3,"transit":false,"distance":3420,"i_long":107.055722,"line":1},{"line":0,"i_long":107.016735,"time":7,"station_id":"BKST","station_name":"Bekasi Timur","transit":false,"i_lat":-6.248029,"distance":4460,"is_transit":false},{"station_id":"BKS","station_name":"Bekasi","transit":false,"line":0,"i_lat":-6.236616,"i_long":106.997013,"is_transit":false,"time":2,"distance":2368},{"is_transit":false,"time":4,"transit":false,"i_long":106.977657,"distance":2520,"i_lat":-6.224515,"station_id":"KRI","line":1,"station_name":"Kranji"},{"transit":false,"line":0,"station_name":"Cakung","distance":3097,"i_lat":-6.219053,"station_id":"CUK","is_transit":false,"time":3,"i_long":106.951283},{"time":8,"is_transit":false,"transit":false,"station_id":"KLDB","i_lat":-6.217455,"line":1,"i_long":106.939679,"station_name":"Klenderbaru","distance":1385},{"i_lat":-6.215568,"station_id":"BUA","is_transit":false,"i_long":106.922662,"transit":false,"time":1,"station_name":"Buaran","distance":1305,"line":0},{"i_long":106.899548,"line":1,"i_lat":-6.2135,"station_id":"KLD","station_name":"Klender","time":2,"is_transit":false,"transit":false,"distance":3100},{"station_name":"Jatinegara","time":3,"transit":false,"i_lat":-6.215091,"is_transit":true,"distance":3395,"i_long":106.86807400000001,"line":0,"station_id":"JNG"},{"distance":1377,"station_id":"MTR","station_name":"Matraman","i_long":106.858896,"is_transit":false,"time":2,"i_lat":-6.212485,"line":1,"transit":false},{"is_transit":true,"distance":1275,"time":2,"i_lat":-6.209883,"i_long":106.84912,"transit":false,"line":0,"station_id":"MRI","station_name":"Manggarai"},{"distance":3186,"transit":false,"is_transit":false,"i_long":106.822649,"line":1,"station_name":"Sudirman","time":4,"i_lat":-6.202263,"station_id":"SUD"},{"i_lat":-6.201433,"line":1,"time":1,"transit":false,"i_long":106.819881,"is_transit":false,"station_id":"SUDB","station_name":"Sudirman Baru","distance":280},{"transit":false,"station_id":"KAT","time":1,"station_name":"Karet","distance":471,"i_lat":-6.20132,"is_transit":false,"i_long":106.816351,"line":1},{"station_id":"THB","time":5,"line":1,"i_long":106.811091,"is_transit":true,"i_lat":-6.185545,"distance":2029,"transit":false,"station_name":"Tanah Abang"},{"line":1,"time":8,"distance":3632,"i_long":106.800832,"station_name":"Duri","is_transit":true,"transit":false,"i_lat":-6.155215,"station_id":"DU"}],[{"line":1,"transit":false,"i_long":107.093313,"time":0,"i_lat":-6.262938,"distance":0,"station_id":"TLM","station_name":"Metland Telaga Murni","is_transit":false},{"time":2,"distance":2800,"i_long":107.083084,"line":0,"is_transit":false,"transit":false,"station_name":"Cibitung","i_lat":-6.261877,"station_id":"CIT"},{"station_name":"Tambun","i_long":107.055722,"line":1,"i_lat":-6.258864,"is_transit":false,"distance":3420,"station_id":"TB","transit":false,"time":3},{"i_long":107.016735,"transit":false,"distance":4460,"is_transit":false,"time":7,"station_id":"BKST","i_lat":-6.248029,"line":0,"station_name":"Bekasi Timur"},{"line":0,"transit":false,"i_lat":-6.236616,"is_transit":false,"distance":2368,"time":2,"i_long":106.997013,"station_id":"BKS","station_name":"Bekasi"},{"time":4,"distance":2520,"i_long":106.977657,"station_name":"Kranji","transit":false,"i_lat":-6.224515,"station_id":"KRI","line":1,"is_transit":false},{"station_id":"CUK","station_name":"Cakung","is_transit":false,"i_lat":-6.219053,"distance":3097,"transit":false,"i_long":106.951283,"line":0,"time":3},{"station_id":"KLDB","i_long":106.939679,"i_lat":-6.217455,"is_transit":false,"line":1,"transit":false,"time":8,"station_name":"Klenderbaru","distance":1385},{"distance":1305,"station_id":"BUA","i_lat":-6.215568,"station_name":"Buaran","transit":false,"is_transit":false,"i_long":106.922662,"time":1,"line":0},{"is_transit":false,"distance":3100,"station_name":"Klender","station_id":"KLD","i_long":106.899548,"time":2,"transit":false,"i_lat":-6.2135,"line":1},{"i_long":106.86807400000001,"time":3,"station_id":"JNG","station_name":"Jatinegara","transit":true,"distance":3395,"is_transit":true,"i_lat":-6.215091,"line":0},{"time":2,"distance":1236,"i_long":106.861737,"station_id":"POK","station_name":"Pondok Jati","transit":false,"is_transit":false,"i_lat":-6.209188,"line":11},{"time":2,"station_id":"KMT","station_name":"Kramat","transit":false,"distance":1829,"i_lat":-6.193792,"is_transit":false,"i_long":106.855437,"line":11},{"time":1,"is_transit":false,"line":11,"distance":973,"i_lat":-6.185975,"station_id":"GST","station_name":"Gang Sentiong","transit":false,"i_long":106.850107},{"is_transit":false,"time":8,"transit":false,"station_id":"PSE","distance":1567,"i_long":106.84368,"line":11,"i_lat":-6.174784,"station_name":"Pasar Senen"},{"line":11,"time":4,"station_name":"Kemayoran","i_lat":-6.161728,"station_id":"KMO","i_long":106.839204,"is_transit":false,"distance":1436,"transit":false},{"station_name":"Rajawali","time":5,"distance":1901,"is_transit":false,"i_lat":-6.14505,"line":11,"i_long":106.836569,"station_id":"RJW","transit":false},{"transit":true,"i_lat":-6.132549,"line":0,"station_name":"Kampung Bandan","i_long":106.826365,"is_transit":true,"distance":1444,"time":3,"station_id":"KPB"},{"station_id":"AK","i_long":106.79867,"station_name":"Angke","line":0,"is_transit":false,"distance":4102,"time":9,"i_lat":-6.144674,"transit":false},{"time":4,"i_long":106.800832,"is_transit":true,"station_name":"Duri","distance":1230,"transit":false,"i_lat":-6.155215,"station_id":"DU","line":1}],[{"i_lat":-6.262938,"is_transit":false,"time":0,"i_long":107.093313,"station_name":"Metland Telaga Murni","distance":0,"line":1,"station_id":"TLM","transit":false},{"i_lat":-6.261877,"distance":2800,"is_transit":false,"time":2,"transit":false,"i_long":107.083084,"line":0,"station_id":"CIT","station_name":"Cibitung"},{"i_lat":-6.258864,"line":1,"time":3,"station_id":"TB","station_name":"Tambun","distance":3420,"transit":false,"i_long":107.055722,"is_transit":false},{"station_name":"Bekasi Timur","i_long":107.016735,"is_transit":false,"station_id":"BKST","i_lat":-6.248029,"time":7,"distance":4460,"line":0,"transit":false},{"i_lat":-6.236616,"transit":false,"time":2,"is_transit":false,"line":0,"i_long":106.997013,"distance":2368,"station_id":"BKS","station_name":"Bekasi"},{"transit":false,"line":1,"i_lat":-6.224515,"station_name":"Kranji","is_transit":false,"i_long":106.977657,"time":4,"distance":2520,"station_id":"KRI"},{"time":3,"line":0,"distance":3097,"station_name":"Cakung","transit":false,"station_id":"CUK","i_lat":-6.219053,"i_long":106.951283,"is_transit":false},{"is_transit":false,"distance":1385,"i_long":106.939679,"time":8,"transit":false,"line":1,"i_lat":-6.217455,"station_id":"KLDB","station_name":"Klenderbaru"},{"station_id":"BUA","is_transit":false,"station_name":"Buaran","transit":false,"distance":1305,"i_long":106.922662,"i_lat":-6.215568,"line":0,"time":1},{"i_lat":-6.2135,"time":2,"i_long":106.899548,"line":1,"distance":3100,"is_transit":false,"station_name":"Klender","station_id":"KLD","transit":false},{"i_lat":-6.215091,"i_long":106.86807400000001,"distance":3395,"is_transit":true,"transit":false,"line":0,"time":3,"station_name":"Jatinegara","station_id":"JNG"},{"i_long":106.858896,"is_transit":false,"station_name":"Matraman","distance":1377,"transit":false,"i_lat":-6.212485,"station_id":"MTR","time":2,"line":1},{"distance":1275,"time":2,"station_name":"Manggarai","i_lat":-6.209883,"is_transit":true,"transit":true,"line":0,"i_long":106.84912,"station_id":"MRI"},{"station_id":"CKI","station_name":"Cikini","i_long":106.840169,"is_transit":false,"i_lat":-6.198556,"time":4,"line":0,"distance":1590,"transit":false},{"station_id":"GDD","is_transit":false,"i_lat":-6.186295,"station_name":"Gondangdia","line":2,"i_long":106.832183,"time":3,"distance":1750,"transit":false},{"line":2,"is_transit":false,"transit":false,"distance":2015,"i_long":106.828284,"i_lat":-6.166716,"station_id":"JUA","time":4,"station_name":"Juanda"},{"line":2,"time":2,"transit":false,"i_lat":-6.160725,"station_name":"Sawah Besar","is_transit":false,"station_id":"SW","distance":1149,"i_long":106.827103},{"station_id":"MGB","time":2,"line":2,"i_lat":-6.149769,"is_transit":false,"distance":906,"transit":false,"i_long":106.82482,"station_name":"Manggabesar"},{"station_id":"JAY","i_long":106.820901,"i_lat":-6.141205,"is_transit":false,"transit":false,"distance":1080,"line":7,"time":2,"station_name":"Jayakarta"},{"transit":true,"i_long":106.812439,"station_id":"JAKK","is_transit":true,"time":4,"i_lat":-6.137569,"line":0,"station_name":"Jakarta Kota","distance":1264},{"station_id":"KPB","i_lat":-6.132549,"station_name":"Kampung Bandan","time":3,"i_long":106.826365,"is_transit":true,"distance":1364,"transit":false,"line":0},{"i_long":106.79867,"station_id":"AK","i_lat":-6.144674,"is_transit":false,"distance":4102,"transit":false,"line":0,"time":9,"station_name":"Angke"},{"i_lat":-6.155215,"distance":1230,"time":4,"transit":false,"i_long":106.800832,"station_id":"DU","line":1,"is_transit":true,"station_name":"Duri"}],[{"transit":false,"i_lat":-6.262938,"i_long":107.093313,"line":1,"distance":0,"is_transit":false,"station_name":"Metland Telaga Murni","time":0,"station_id":"TLM"},{"distance":2800,"transit":false,"i_lat":-6.261877,"i_long":107.083084,"line":0,"station_name":"Cibitung","is_transit":false,"time":2,"station_id":"CIT"},{"transit":false,"station_name":"Tambun","i_lat":-6.258864,"time":3,"is_transit":false,"i_long":107.055722,"line":1,"distance":3420,"station_id":"TB"},{"line":0,"distance":4460,"transit":false,"i_lat":-6.248029,"station_id":"BKST","station_name":"Bekasi Timur","i_long":107.016735,"is_transit":false,"time":7},{"time":2,"distance":2368,"station_id":"BKS","transit":false,"line":0,"station_name":"Bekasi","i_long":106.997013,"i_lat":-6.236616,"is_transit":false},{"station_id":"KRI","station_name":"Kranji","distance":2520,"transit":false,"i_long":106.977657,"line":1,"is_transit":false,"time":4,"i_lat":-6.224515},{"transit":false,"distance":3097,"station_name":"Cakung","line":0,"is_transit":false,"time":3,"i_long":106.951283,"i_lat":-6.219053,"station_id":"CUK"},{"transit":false,"i_lat":-6.217455,"distance":1385,"i_long":106.939679,"line":1,"station_name":"Klenderbaru","is_transit":false,"station_id":"KLDB","time":8},{"i_lat":-6.215568,"i_long":106.922662,"distance":1305,"is_transit":false,"time":1,"station_id":"BUA","line":0,"station_name":"Buaran","transit":false},{"transit":false,"distance":3100,"station_name":"Klender","is_transit":false,"station_id":"KLD","i_lat":-6.2135,"i_long":106.899548,"time":2,"line":1},{"is_transit":true,"time":3,"transit":true,"i_lat":-6.215091,"i_long":106.86807400000001,"station_name":"Jatinegara","station_id":"JNG","distance":3395,"line":0},{"i_lat":-6.209188,"i_long":106.861737,"station_id":"POK","station_name":"Pondok Jati","is_transit":false,"time":2,"line":11,"transit":false,"distance":1236},{"station_name":"Kramat","distance":1829,"station_id":"KMT","line":11,"time":2,"i_long":106.855437,"transit":false,"i_lat":-6.193792,"is_transit":false},{"distance":973,"transit":false,"line":11,"i_lat":-6.185975,"station_id":"GST","is_transit":false,"time":1,"station_name":"Gang Sentiong","i_long":106.850107},{"station_id":"PSE","transit":false,"distance":1567,"station_name":"Pasar Senen","i_long":106.84368,"i_lat":-6.174784,"is_transit":false,"time":8,"line":11},{"station_name":"Kemayoran","i_lat":-6.161728,"time":4,"i_long":106.839204,"line":11,"is_transit":false,"distance":1436,"station_id":"KMO","transit":false},{"i_long":106.836569,"station_name":"Rajawali","transit":false,"station_id":"RJW","distance":1901,"i_lat":-6.14505,"is_transit":false,"line":11,"time":5},{"is_transit":true,"station_id":"KPB","i_lat":-6.132549,"transit":true,"line":0,"time":3,"i_long":106.826365,"station_name":"Kampung Bandan","distance":1444},{"station_id":"JAKK","transit":true,"i_lat":-6.137569,"is_transit":true,"distance":1364,"station_name":"Jakarta Kota","time":3,"i_long":106.812439,"line":0},{"station_id":"JAY","station_name":"Jayakarta","time":4,"distance":1264,"i_lat":-6.141205,"transit":false,"i_long":106.820901,"line":7,"is_transit":false},{"station_name":"Manggabesar","time":2,"transit":false,"station_id":"MGB","i_lat":-6.149769,"i_long":106.82482,"is_transit":false,"line":2,"distance":1080},{"time":2,"distance":906,"i_long":106.827103,"station_id":"SW","i_lat":-6.160725,"line":2,"station_name":"Sawah Besar","transit":false,"is_transit":false},{"i_lat":-6.166716,"i_long":106.828284,"distance":1149,"transit":false,"line":2,"station_id":"JUA","station_name":"Juanda","is_transit":false,"time":2},{"time":4,"i_lat":-6.186295,"i_long":106.832183,"line":2,"is_transit":false,"station_id":"GDD","distance":2015,"transit":false,"station_name":"Gondangdia"},{"i_lat":-6.198556,"transit":false,"is_transit":false,"station_id":"CKI","station_name":"Cikini","time":3,"i_long":106.840169,"line":0,"distance":1750},{"station_id":"MRI","is_transit":true,"station_name":"Manggarai","transit":true,"line":0,"time":4,"distance":1590,"i_lat":-6.209883,"i_long":106.84912},{"time":4,"station_id":"SUD","i_lat":-6.202263,"line":1,"transit":false,"distance":3186,"i_long":106.822649,"station_name":"Sudirman","is_transit":false},{"is_transit":false,"line":1,"i_lat":-6.201433,"station_name":"Sudirman Baru","time":1,"station_id":"SUDB","distance":280,"i_long":106.819881,"transit":false},{"distance":471,"i_lat":-6.20132,"station_id":"KAT","time":1,"is_transit":false,"transit":false,"i_long":106.816351,"station_name":"Karet","line":1},{"i_long":106.811091,"station_id":"THB","time":5,"transit":false,"is_transit":true,"line":1,"i_lat":-6.185545,"station_name":"Tanah Abang","distance":2029},{"station_id":"DU","transit":false,"i_long":106.800832,"is_transit":true,"line":1,"time":8,"i_lat":-6.155215,"distance":3632,"station_name":"Duri"}]]}