{"data":[[{"i_long":107.093313,"line":1,"station_id":"TLM","station_name":"Metland Telaga Murni","is_transit":false,"time":0,"distance":0,"transit":false,"i_lat":-6.262938},{"is_transit":false,"time":2,"line":1,"transit":false,"i_long":107.083084,"i_lat":-6.261877,"station_name":"Cibitung","distance":2800,"station_id":"CIT"},{"station_name":"Tambun","i_lat":-6.258864,"line":1,"station_id":"TB","transit":false,"time":3,"is_transit":false,"i_long":107.055722,"distance":3420},{"distance":4460,"line":1,"time":7,"i_long":107.016735,"transit":false,"station_id":"BKST","is_transit":false,"i_lat":-6.248029,"station_name":"Bekasi Timur"},{"station_id":"BKS","line":1,"i_long":106.997013,"i_lat":-6.236616,"time":2,"station_name":"Bekasi","distance":2368,"is_transit":false,"transit":false},{"distance":2520,"is_transit":false,"i_lat":-6.224515,"line":1,"time":4,"station_id":"KRI","i_long":106.977657,"transit":false,"station_name":"Kranji"},{"transit":false,"time":3,"distance":3097,"is_transit":false,"station_id":"CUK","i_lat":-6.219053,"station_name":"Cakung","line":1,"i_long":106.951283},{"time":8,"distance":1385,"station_id":"KLDB","is_transit":false,"transit":false,"i_lat":-6.217455,"line":1,"i_long":106.939679,"station_name":"Klenderbaru"},{"distance":1305,"is_transit":false,"station_name":"Buaran","transit":false,"i_lat":-6.215568,"i_long":106.922662,"line":1,"time":1,"station_id":"BUA"},{"i_long":106.899548,"line":1,"transit":false,"time":2,"station_name":"Klender","distance":3100,"station_id":"KLD","is_transit":false,"i_lat":-6.2135},{"transit":true,"i_lat":-6.215091,"line":1,"is_transit":true,"distance":3395,"i_long":106.86807400000001,"time":3,"station_name":"Jatinegara","station_id":"JNG"},{"i_lat":-6.209188,"station_id":"POK","distance":1236,"time":2,"i_long":106.861737,"transit":false,"station_name":"Pondok Jati","line":11,"is_transit":false},{"time":2,"distance":1829,"line":11,"transit":false,"station_id":"KMT","station_name":"Kramat","is_transit":false,"i_lat":-6.193792,"i_long":106.855437}],[{"station_id":"TLM","is_transit":false,"transit":false,"station_name":"Metland Telaga Murni","i_long":107.093313,"line":1,"distance":0,"i_lat":-6.262938,"time":0},{"distance":2800,"line":1,"station_name":"Cibitung","i_long":107.083084,"time":2,"station_id":"CIT","is_transit":false,"i_lat":-6.261877,"transit":false},{"time":3,"transit":false,"distance":3420,"station_id":"TB","is_transit":false,"i_lat":-6.258864,"line":1,"i_long":107.055722,"station_name":"Tambun"},{"station_name":"Bekasi Timur","i_long":107.016735,"station_id":"BKST","i_lat":-6.248029,"is_transit":false,"transit":false,"time":7,"distance":4460,"line":1},{"distance":2368,"time":2,"transit":false,"line":1,"is_transit":false,"i_lat":-6.236616,"station_id":"BKS","station_name":"Bekasi","i_long":106.997013},{"is_transit":false,"time":4,"line":1,"station_name":"Kranji","station_id":"KRI","distance":2520,"transit":false,"i_lat":-6.224515,"i_long":106.977657},{"time":3,"is_transit":false,"i_lat":-6.219053,"distance":3097,"line":1,"i_long":106.951283,"station_id":"CUK","station_name":"Cakung","transit":false},{"time":8,"distance":1385,"is_transit":false,"line":1,"station_id":"KLDB","i_lat":-6.217455,"station_name":"Klenderbaru","transit":false,"i_long":106.939679},{"time":1,"station_name":"Buaran","station_id":"BUA","distance":1305,"line":1,"transit":false,"i_lat":-6.215568,"i_long":106.922662,"is_transit":false},{"i_lat":-6.2135,"is_transit":false,"line":1,"station_name":"Klender","i_long":106.899548,"distance":3100,"station_id":"KLD","transit":false,"time":2},{"station_id":"JNG","is_transit":false,"i_lat":-6.215091,"station_name":"Jatinegara","i_long":106.86807400000001,"time":3,"transit":false,"line":1,"distance":3395},{"i_lat":-6.212485,"i_long":106.858896,"station_id":"MTR","is_transit":false,"time":2,"line":1,"distance":1377,"station_name":"Matraman","transit":false},{"i_lat":-6.209883,"line":2,"i_long":106.84912,"transit":false,"station_name":"Manggarai","time":2,"distance":1275,"station_id":"MRI","is_transit":false},{"station_name":"Sudirman","is_transit":false,"station_id":"SUD","time":4,"distance":3186,"line":1,"i_lat":-6.202263,"i_long":106.822649,"transit":false},{"station_name":"Sudirman Baru","transit":false,"distance":280,"i_lat":-6.201433,"i_long":106.819881,"time":1,"is_transit":false,"line":1,"station_id":"SUDB"},{"line":1,"i_lat":-6.20132,"station_id":"KAT","transit":false,"time":1,"distance":471,"i_long":106.816351,"is_transit":false,"station_name":"Karet"},{"station_id":"THB","line":1,"transit":false,"i_long":106.811091,"distance":2029,"is_transit":false,"i_lat":-6.185545,"time":5,"station_name":"Tanah Abang"},{"line":1,"i_long":106.800832,"i_lat":-6.155215,"distance":3632,"time":8,"station_name":"Duri","station_id":"DU","is_transit":false,"transit":false},{"is_transit":false,"distance":1230,"station_id":"AK","i_long":106.79867,"line":1,"time":4,"transit":false,"station_name":"Angke","i_lat":-6.144674},{"distance":4102,"line":4,"is_transit":true,"i_lat":-6.132549,"transit":true,"i_long":106.826365,"station_name":"Kampung Bandan","station_id":"KPB","time":9},{"line":11,"is_transit":false,"station_name":"Rajawali","transit":false,"time":3,"i_lat":-6.14505,"i_long":106.836569,"distance":1444,"station_id":"RJW"},{"time":5,"station_id":"KMO","is_transit":false,"transit":false,"line":11,"station_name":"Kemayoran","distance":1901,"i_long":106.839204,"i_lat":-6.161728},{"i_lat":-6.174784,"station_id":"PSE","line":11,"station_name":"Pasar Senen","i_long":106.84368,"is_transit":false,"time":4,"distance":1436,"transit":false},{"station_id":"GST","station_name":"Gang Sentiong","time":8,"is_transit":false,"transit":false,"i_long":106.850107,"line":11,"distance":1567,"i_lat":-6.185975},{"station_id":"KMT","i_lat":-6.193792,"transit":false,"i_long":106.855437,"line":11,"time":1,"station_name":"Kramat","is_transit":false,"distance":973}],[{"i_lat":-6.262938,"station_name":"Metland Telaga Murni","is_transit":false,"line":1,"station_id":"TLM","time":0,"distance":0,"transit":false,"i_long":107.093313},{"i_lat":-6.261877,"distance":2800,"station_id":"CIT","transit":false,"i_long":107.083084,"line":1,"station_name":"Cibitung","time":2,"is_transit":false},{"time":3,"is_transit":false,"station_name":"Tambun","distance":3420,"station_id":"TB","line":1,"i_lat":-6.258864,"transit":false,"i_long":107.055722},{"is_transit":false,"transit":false,"station_id":"BKST","line":1,"i_lat":-6.248029,"time":7,"station_name":"Bekasi Timur","distance":4460,"i_long":107.016735},{"line":1,"time":2,"station_name":"Bekasi","i_lat":-6.236616,"distance":2368,"station_id":"BKS","i_long":106.997013,"is_transit":false,"transit":false},{"transit":false,"time":4,"station_name":"Kranji","i_lat":-6.224515,"distance":2520,"station_id":"KRI","is_transit":false,"i_long":106.977657,"line":1},{"line":1,"time":3,"station_id":"CUK","is_transit":false,"i_long":106.951283,"distance":3097,"i_lat":-6.219053,"station_name":"Cakung","transit":false},{"i_lat":-6.217455,"transit":false,"line":1,"station_id":"KLDB","time":8,"distance":1385,"is_transit":false,"station_name":"Klenderbaru","i_long":106.939679},{"time":1,"station_name":"Buaran","transit":false,"station_id":"BUA","distance":1305,"i_lat":-6.215568,"is_transit":false,"i_long":106.922662,"line":1},{"station_id":"KLD","station_name":"Klender","transit":false,"i_lat":-6.2135,"time":2,"distance":3100,"is_transit":false,"i_long":106.899548,"line":1},{"i_long":106.86807400000001,"time":3,"is_transit":false,"transit":false,"i_lat":-6.215091,"station_name":"Jatinegara","line":1,"station_id":"JNG","distance":3395},{"time":2,"distance":1377,"i_lat":-6.212485,"is_transit":false,"i_long":106.858896,"line":1,"station_id":"MTR","station_name":"Matraman","transit":false},{"transit":true,"station_name":"Manggarai","i_lat":-6.209883,"i_long":106.84912,"time":2,"line":2,"distance":1275,"station_id":"MRI","is_transit":true},{"i_lat":-6.198556,"distance":1590,"i_long":106.840169,"station_id":"CKI","is_transit":false,"station_name":"Cikini","transit":false,"line":2,"time":4},{"time":3,"transit":false,"distance":1750,"is_transit":false,"i_lat":-6.186295,"station_name":"Gondangdia","station_id":"GDD","i_long":106.832183,"line":2},{"time":4,"i_long":106.828284,"station_id":"JUA","transit":false,"station_name":"Juanda","is_transit":false,"i_lat":-6.166716,"line":2,"distance":2015},{"station_id":"SW","transit":false,"distance":1149,"i_lat":-6.160725,"station_name":"Sawah Besar","is_transit":false,"i_long":106.827103,"line":2,"time":2},{"is_transit":false,"time":2,"transit":false,"station_name":"Manggabesar","line":2,"i_lat":-6.149769,"station_id":"MGB","distance":906,"i_long":106.82482},{"time":2,"transit":false,"is_transit":false,"station_id":"JAY","station_name":"Jayakarta","distance":1080,"i_long":106.820901,"line":2,"i_lat":-6.141205},{"transit":true,"station_name":"Jakarta Kota","i_long":106.812439,"line":2,"time":4,"is_transit":true,"i_lat":-6.137569,"distance":1264,"station_id":"JAKK"},{"i_lat":-6.132549,"distance":1364,"is_transit":true,"time":3,"station_name":"Kampung Bandan","station_id":"KPB","i_long":106.826365,"line":4,"transit":true},{"i_lat":-6.14505,"time":3,"station_id":"RJW","line":11,"transit":false,"is_transit":false,"distance":1444,"i_long":106.836569,"station_name":"Rajawali"},{"station_name":"Kemayoran","station_id":"KMO","is_transit":false,"i_long":106.839204,"time":5,"distance":1901,"line":11,"i_lat":-6.161728,"transit":false},{"distance":1436,"i_lat":-6.174784,"is_transit":false,"i_long":106.84368,"transit":false,"station_name":"Pasar Senen","station_id":"PSE","time":4,"line":11},{"i_long":106.850107,"distance":1567,"transit":false,"i_lat":-6.185975,"line":11,"time":8,"station_id":"GST","is_transit":false,"station_name":"Gang Sentiong"},{"transit":false,"station_id":"KMT","time":1,"is_transit":false,"i_long":106.855437,"station_name":"Kramat","distance":973,"i_lat":-6.193792,"line":11}]]}