{"data":[[{"line":1,"is_transit":false,"station_id":"TLM","time":0,"station_name":"Metland Telaga Murni","i_lat":-6.262938,"distance":0,"i_long":107.093313,"transit":false},{"station_name":"Cibitung","distance":2800,"line":1,"i_lat":-6.261877,"is_transit":false,"station_id":"CIT","time":2,"transit":false,"i_long":107.083084},{"line":1,"i_lat":-6.258864,"station_name":"Tambun","transit":false,"time":3,"is_transit":false,"station_id":"TB","distance":3420,"i_long":107.055722},{"is_transit":false,"station_name":"Bekasi Timur","distance":4460,"transit":false,"time":7,"i_lat":-6.248029,"line":1,"station_id":"BKST","i_long":107.016735},{"i_long":106.997013,"time":2,"station_id":"BKS","transit":false,"distance":2368,"line":1,"i_lat":-6.236616,"is_transit":false,"station_name":"Bekasi"},{"station_name":"Kranji","time":4,"line":1,"transit":false,"distance":2520,"is_transit":false,"i_lat":-6.224515,"station_id":"KRI","i_long":106.977657},{"station_id":"CUK","time":3,"is_transit":false,"i_long":106.951283,"station_name":"Cakung","i_lat":-6.219053,"transit":false,"distance":3097,"line":1},{"station_id":"KLDB","station_name":"Klenderbaru","time":8,"is_transit":false,"distance":1385,"i_long":106.939679,"line":1,"transit":false,"i_lat":-6.217455},{"station_name":"Buaran","i_long":106.922662,"transit":false,"distance":1305,"station_id":"BUA","i_lat":-6.215568,"time":1,"line":1,"is_transit":false},{"time":2,"station_name":"Klender","i_lat":-6.2135,"line":1,"station_id":"KLD","distance":3100,"is_transit":false,"i_long":106.899548,"transit":false},{"station_id":"JNG","time":3,"i_long":106.86807400000001,"line":1,"transit":false,"distance":3395,"i_lat":-6.215091,"station_name":"Jatinegara","is_transit":false},{"transit":false,"i_lat":-6.212485,"is_transit":false,"station_id":"MTR","station_name":"Matraman","i_long":106.858896,"time":2,"distance":1377,"line":1},{"station_name":"Manggarai","i_lat":-6.209883,"i_long":106.84912,"line":2,"transit":true,"is_transit":true,"distance":1275,"time":2,"station_id":"MRI"},{"time":4,"is_transit":false,"station_id":"TEB","distance":2610,"i_long":106.857948,"line":2,"transit":false,"i_lat":-6.226659,"station_name":"Tebet"}],[{"is_transit":false,"time":0,"transit":false,"station_name":"Metland Telaga Murni","i_lat":-6.262938,"line":1,"i_long":107.093313,"station_id":"TLM","distance":0},{"transit":false,"i_lat":-6.261877,"station_id":"CIT","distance":2800,"i_long":107.083084,"station_name":"Cibitung","line":1,"time":2,"is_transit":false},{"line":1,"station_name":"Tambun","i_long":107.055722,"distance":3420,"time":3,"station_id":"TB","is_transit":false,"i_lat":-6.258864,"transit":false},{"station_name":"Bekasi Timur","i_lat":-6.248029,"transit":false,"i_long":107.016735,"station_id":"BKST","is_transit":false,"distance":4460,"time":7,"line":1},{"i_long":106.997013,"is_transit":false,"line":1,"transit":false,"i_lat":-6.236616,"distance":2368,"station_id":"BKS","time":2,"station_name":"Bekasi"},{"line":1,"time":4,"i_lat":-6.224515,"i_long":106.977657,"is_transit":false,"station_id":"KRI","transit":false,"station_name":"Kranji","distance":2520},{"line":1,"station_id":"CUK","i_long":106.951283,"station_name":"Cakung","time":3,"transit":false,"distance":3097,"is_transit":false,"i_lat":-6.219053},{"station_id":"KLDB","is_transit":false,"line":1,"i_long":106.939679,"transit":false,"distance":1385,"i_lat":-6.217455,"time":8,"station_name":"Klenderbaru"},{"station_id":"BUA","time":1,"is_transit":false,"i_long":106.922662,"line":1,"transit":false,"distance":1305,"i_lat":-6.215568,"station_name":"Buaran"},{"transit":false,"station_name":"Klender","distance":3100,"station_id":"KLD","i_lat":-6.2135,"i_long":106.899548,"is_transit":false,"time":2,"line":1},{"station_id":"JNG","is_transit":true,"station_name":"Jatinegara","distance":3395,"line":1,"transit":true,"i_lat":-6.215091,"i_long":106.86807400000001,"time":3},{"transit":false,"time":2,"station_name":"Pondok Jati","is_transit":false,"distance":1236,"i_lat":-6.209188,"i_long":106.861737,"line":11,"station_id":"POK"},{"is_transit":false,"i_lat":-6.193792,"transit":false,"station_name":"Kramat","i_long":106.855437,"distance":1829,"line":11,"station_id":"KMT","time":2},{"time":1,"i_lat":-6.185975,"transit":false,"is_transit":false,"station_name":"Gang Sentiong","line":11,"distance":973,"i_long":106.850107,"station_id":"GST"},{"is_transit":false,"time":8,"transit":false,"station_name":"Pasar Senen","line":11,"i_lat":-6.174784,"station_id":"PSE","distance":1567,"i_long":106.84368},{"time":4,"transit":false,"is_transit":false,"station_id":"KMO","station_name":"Kemayoran","distance":1436,"i_long":106.839204,"line":11,"i_lat":-6.161728},{"transit":false,"station_name":"Rajawali","i_long":106.836569,"line":11,"time":5,"is_transit":false,"i_lat":-6.14505,"station_id":"RJW","distance":1901},{"time":3,"i_lat":-6.132549,"station_id":"KPB","i_long":106.826365,"transit":true,"is_transit":true,"distance":1444,"station_name":"Kampung Bandan","line":4},{"station_name":"Angke","station_id":"AK","transit":false,"i_lat":-6.144674,"line":1,"time":9,"distance":4102,"is_transit":false,"i_long":106.79867},{"station_name":"Duri","i_long":106.800832,"transit":false,"station_id":"DU","distance":1230,"is_transit":false,"time":4,"i_lat":-6.155215,"line":1},{"transit":false,"line":1,"station_id":"THB","is_transit":false,"time":8,"station_name":"Tanah Abang","distance":3632,"i_lat":-6.185545,"i_long":106.811091},{"station_name":"Karet","transit":false,"i_long":106.816351,"station_id":"KAT","line":1,"is_transit":false,"i_lat":-6.20132,"distance":2029,"time":5},{"station_id":"SUDB","distance":471,"is_transit":false,"station_name":"Sudirman Baru","transit":false,"i_lat":-6.201433,"line":1,"i_long":106.819881,"time":1},{"i_long":106.822649,"line":1,"station_name":"Sudirman","transit":false,"station_id":"SUD","is_transit":false,"distance":280,"time":1,"i_lat":-6.202263},{"i_long":106.84912,"i_lat":-6.209883,"station_id":"MRI","station_name":"Manggarai","is_transit":true,"time":4,"transit":true,"distance":3186,"line":2},{"time":4,"is_transit":false,"station_id":"TEB","distance":2610,"i_lat":-6.226659,"line":2,"transit":false,"station_name":"Tebet","i_long":106.857948}],[{"line":1,"station_id":"TLM","transit":false,"station_name":"Metland Telaga Murni","distance":0,"i_long":107.093313,"is_transit":false,"time":0,"i_lat":-6.262938},{"i_long":107.083084,"station_id":"CIT","line":1,"i_lat":-6.261877,"transit":false,"distance":2800,"station_name":"Cibitung","is_transit":false,"time":2},{"is_transit":false,"time":3,"station_name":"Tambun","i_lat":-6.258864,"transit":false,"line":1,"i_long":107.055722,"station_id":"TB","distance":3420},{"i_long":107.016735,"station_id":"BKST","time":7,"distance":4460,"line":1,"transit":false,"station_name":"Bekasi Timur","is_transit":false,"i_lat":-6.248029},{"is_transit":false,"station_name":"Bekasi","line":1,"station_id":"BKS","time":2,"i_lat":-6.236616,"transit":false,"i_long":106.997013,"distance":2368},{"distance":2520,"i_long":106.977657,"line":1,"time":4,"i_lat":-6.224515,"station_id":"KRI","is_transit":false,"transit":false,"station_name":"Kranji"},{"i_long":106.951283,"time":3,"i_lat":-6.219053,"station_name":"Cakung","line":1,"is_transit":false,"distance":3097,"station_id":"CUK","transit":false},{"is_transit":false,"transit":false,"i_long":106.939679,"i_lat":-6.217455,"line":1,"station_id":"KLDB","distance":1385,"time":8,"station_name":"Klenderbaru"},{"distance":1305,"station_name":"Buaran","station_id":"BUA","is_transit":false,"line":1,"i_long":106.922662,"time":1,"i_lat":-6.215568,"transit":false},{"station_id":"KLD","distance":3100,"transit":false,"station_name":"Klender","i_lat":-6.2135,"line":1,"is_transit":false,"time":2,"i_long":106.899548},{"line":1,"is_transit":true,"distance":3395,"transit":true,"station_name":"Jatinegara","time":3,"station_id":"JNG","i_lat":-6.215091,"i_long":106.86807400000001},{"i_lat":-6.209188,"time":2,"is_transit":false,"i_long":106.861737,"line":11,"distance":1236,"station_id":"POK","transit":false,"station_name":"Pondok Jati"},{"is_transit":false,"time":2,"distance":1829,"transit":false,"station_name":"Kramat","station_id":"KMT","i_lat":-6.193792,"i_long":106.855437,"line":11},{"time":1,"line":11,"i_lat":-6.185975,"station_id":"GST","transit":false,"is_transit":false,"station_name":"Gang Sentiong","i_long":106.850107,"distance":973},{"is_transit":false,"station_name":"Pasar Senen","station_id":"PSE","i_long":106.84368,"line":11,"transit":false,"time":8,"i_lat":-6.174784,"distance":1567},{"time":4,"i_lat":-6.161728,"station_id":"KMO","is_transit":false,"line":11,"station_name":"Kemayoran","i_long":106.839204,"transit":false,"distance":1436},{"station_id":"RJW","is_transit":false,"i_long":106.836569,"distance":1901,"time":5,"line":11,"i_lat":-6.14505,"transit":false,"station_name":"Rajawali"},{"time":3,"i_lat":-6.132549,"distance":1444,"transit":true,"station_id":"KPB","is_transit":true,"i_long":106.826365,"line":4,"station_name":"Kampung Bandan"},{"transit":true,"station_id":"JAKK","distance":1364,"line":2,"i_long":106.812439,"i_lat":-6.137569,"station_name":"Jakarta Kota","is_transit":true,"time":3},{"station_name":"Jayakarta","distance":1264,"line":2,"is_transit":false,"transit":false,"station_id":"JAY","i_lat":-6.141205,"i_long":106.820901,"time":4},{"i_lat":-6.149769,"line":2,"distance":1080,"station_name":"Manggabesar","station_id":"MGB","is_transit":false,"time":2,"transit":false,"i_long":106.82482},{"i_lat":-6.160725,"i_long":106.827103,"is_transit":false,"distance":906,"station_id":"SW","line":2,"time":2,"station_name":"Sawah Besar","transit":false},{"transit":false,"distance":1149,"station_id":"JUA","station_name":"Juanda","i_lat":-6.166716,"time":2,"line":2,"i_long":106.828284,"is_transit":false},{"distance":2015,"time":4,"i_lat":-6.186295,"station_name":"Gondangdia","line":2,"station_id":"GDD","transit":false,"i_long":106.832183,"is_transit":false},{"is_transit":false,"i_long":106.840169,"line":2,"i_lat":-6.198556,"time":3,"transit":false,"distance":1750,"station_id":"CKI","station_name":"Cikini"},{"line":2,"station_name":"Manggarai","is_transit":false,"time":4,"station_id":"MRI","i_lat":-6.209883,"transit":false,"distance":1590,"i_long":106.84912},{"station_name":"Tebet","time":4,"line":2,"i_long":106.857948,"station_id":"TEB","i_lat":-6.226659,"distance":2610,"is_transit":false,"transit":false}]]}