{"data":[[{"station_id":"TLM","station_name":"Metland Telaga Murni","distance":0,"time":0,"line":1,"i_long":107.093313,"transit":false,"i_lat":-6.262938,"is_transit":false},{"line":1,"i_long":107.083084,"is_transit":false,"station_name":"Cibitung","station_id":"CIT","time":2,"transit":false,"distance":2800,"i_lat":-6.261877},{"station_id":"TB","is_transit":false,"line":1,"station_name":"Tambun","distance":3420,"i_long":107.055722,"time":3,"i_lat":-6.258864,"transit":false},{"is_transit":false,"transit":false,"station_id":"BKST","time":7,"distance":4460,"i_long":107.016735,"station_name":"Bekasi Timur","line":1,"i_lat":-6.248029},{"time":2,"i_lat":-6.236616,"transit":false,"line":1,"distance":2368,"i_long":106.997013,"station_name":"Bekasi","station_id":"BKS","is_transit":false},{"distance":2520,"line":1,"is_transit":false,"transit":false,"i_long":106.977657,"i_lat":-6.224515,"time":4,"station_name":"Kranji","station_id":"KRI"},{"is_transit":false,"station_id":"CUK","time":3,"line":1,"distance":3097,"transit":false,"i_long":106.951283,"i_lat":-6.219053,"station_name":"Cakung"},{"i_lat":-6.217455,"i_long":106.939679,"is_transit":false,"station_name":"Klenderbaru","station_id":"KLDB","time":8,"distance":1385,"line":1,"transit":false},{"time":1,"station_name":"Buaran","line":1,"station_id":"BUA","transit":false,"i_lat":-6.215568,"i_long":106.922662,"distance":1305,"is_transit":false},{"i_long":106.899548,"i_lat":-6.2135,"time":2,"transit":false,"station_id":"KLD","is_transit":false,"distance":3100,"line":1,"station_name":"Klender"},{"is_transit":true,"line":1,"station_id":"JNG","station_name":"Jatinegara","time":3,"i_lat":-6.215091,"distance":3395,"transit":true,"i_long":106.86807400000001},{"is_transit":false,"distance":1236,"time":2,"line":11,"station_name":"Pondok Jati","i_long":106.861737,"station_id":"POK","transit":false,"i_lat":-6.209188},{"is_transit":false,"station_id":"KMT","line":11,"i_lat":-6.193792,"transit":false,"time":2,"distance":1829,"station_name":"Kramat","i_long":106.855437},{"station_name":"Gang Sentiong","station_id":"GST","i_lat":-6.185975,"is_transit":false,"line":11,"time":1,"distance":973,"i_long":106.850107,"transit":false}],[{"station_name":"Metland Telaga Murni","transit":false,"station_id":"TLM","distance":0,"is_transit":false,"i_lat":-6.262938,"i_long":107.093313,"time":0,"line":1},{"transit":false,"station_name":"Cibitung","distance":2800,"i_long":107.083084,"station_id":"CIT","i_lat":-6.261877,"line":1,"time":2,"is_transit":false},{"i_lat":-6.258864,"station_name":"Tambun","is_transit":false,"time":3,"distance":3420,"i_long":107.055722,"line":1,"transit":false,"station_id":"TB"},{"distance":4460,"i_lat":-6.248029,"station_name":"Bekasi Timur","station_id":"BKST","is_transit":false,"transit":false,"i_long":107.016735,"time":7,"line":1},{"transit":false,"i_long":106.997013,"i_lat":-6.236616,"is_transit":false,"distance":2368,"time":2,"station_name":"Bekasi","station_id":"BKS","line":1},{"station_name":"Kranji","time":4,"distance":2520,"station_id":"KRI","i_lat":-6.224515,"line":1,"transit":false,"i_long":106.977657,"is_transit":false},{"station_id":"CUK","i_long":106.951283,"station_name":"Cakung","time":3,"transit":false,"is_transit":false,"distance":3097,"line":1,"i_lat":-6.219053},{"is_transit":false,"i_long":106.939679,"station_id":"KLDB","transit":false,"distance":1385,"i_lat":-6.217455,"line":1,"time":8,"station_name":"Klenderbaru"},{"transit":false,"time":1,"i_lat":-6.215568,"i_long":106.922662,"station_name":"Buaran","station_id":"BUA","distance":1305,"line":1,"is_transit":false},{"line":1,"station_name":"Klender","transit":false,"is_transit":false,"time":2,"distance":3100,"i_lat":-6.2135,"station_id":"KLD","i_long":106.899548},{"station_name":"Jatinegara","distance":3395,"i_lat":-6.215091,"time":3,"i_long":106.86807400000001,"transit":false,"line":1,"station_id":"JNG","is_transit":false},{"station_id":"MTR","distance":1377,"line":1,"is_transit":false,"time":2,"i_long":106.858896,"i_lat":-6.212485,"transit":false,"station_name":"Matraman"},{"is_transit":false,"time":2,"i_lat":-6.209883,"station_id":"MRI","station_name":"Manggarai","transit":false,"i_long":106.84912,"line":2,"distance":1275},{"line":1,"transit":false,"station_id":"SUD","i_long":106.822649,"distance":3186,"i_lat":-6.202263,"is_transit":false,"time":4,"station_name":"Sudirman"},{"i_lat":-6.201433,"station_name":"Sudirman Baru","time":1,"is_transit":false,"i_long":106.819881,"station_id":"SUDB","transit":false,"line":1,"distance":280},{"i_lat":-6.20132,"i_long":106.816351,"line":1,"transit":false,"is_transit":false,"distance":471,"station_id":"KAT","time":1,"station_name":"Karet"},{"transit":false,"is_transit":false,"station_id":"THB","i_long":106.811091,"distance":2029,"time":5,"station_name":"Tanah Abang","line":1,"i_lat":-6.185545},{"distance":3632,"i_lat":-6.155215,"i_long":106.800832,"is_transit":false,"time":8,"station_name":"Duri","line":1,"station_id":"DU","transit":false},{"transit":false,"station_name":"Angke","is_transit":false,"station_id":"AK","time":4,"i_long":106.79867,"distance":1230,"i_lat":-6.144674,"line":1},{"time":9,"i_long":106.826365,"i_lat":-6.132549,"station_id":"KPB","is_transit":true,"station_name":"Kampung Bandan","line":4,"distance":4102,"transit":true},{"i_long":106.836569,"station_id":"RJW","distance":1444,"line":11,"station_name":"Rajawali","time":3,"transit":false,"i_lat":-6.14505,"is_transit":false},{"i_lat":-6.161728,"transit":false,"is_transit":false,"i_long":106.839204,"distance":1901,"station_id":"KMO","station_name":"Kemayoran","time":5,"line":11},{"time":4,"i_lat":-6.174784,"is_transit":false,"distance":1436,"station_id":"PSE","station_name":"Pasar Senen","transit":false,"i_long":106.84368,"line":11},{"station_id":"GST","is_transit":false,"station_name":"Gang Sentiong","transit":false,"distance":1567,"line":11,"i_long":106.850107,"time":8,"i_lat":-6.185975}],[{"i_long":107.093313,"distance":0,"time":0,"line":1,"transit":false,"station_id":"TLM","i_lat":-6.262938,"is_transit":false,"station_name":"Metland Telaga Murni"},{"station_name":"Cibitung","transit":false,"station_id":"CIT","line":1,"time":2,"i_long":107.083084,"is_transit":false,"distance":2800,"i_lat":-6.261877},{"time":3,"distance":3420,"i_long":107.055722,"is_transit":false,"station_name":"Tambun","station_id":"TB","line":1,"transit":false,"i_lat":-6.258864},{"station_name":"Bekasi Timur","time":7,"i_long":107.016735,"line":1,"distance":4460,"i_lat":-6.248029,"transit":false,"is_transit":false,"station_id":"BKST"},{"is_transit":false,"transit":false,"i_lat":-6.236616,"station_name":"Bekasi","distance":2368,"line":1,"station_id":"BKS","time":2,"i_long":106.997013},{"time":4,"station_id":"KRI","i_long":106.977657,"line":1,"station_name":"Kranji","transit":false,"is_transit":false,"i_lat":-6.224515,"distance":2520},{"i_lat":-6.219053,"is_transit":false,"i_long":106.951283,"distance":3097,"line":1,"station_name":"Cakung","station_id":"CUK","transit":false,"time":3},{"distance":1385,"i_long":106.939679,"transit":false,"station_id":"KLDB","time":8,"line":1,"station_name":"Klenderbaru","i_lat":-6.217455,"is_transit":false},{"transit":false,"is_transit":false,"station_id":"BUA","time":1,"distance":1305,"i_lat":-6.215568,"station_name":"Buaran","i_long":106.922662,"line":1},{"station_name":"Klender","i_long":106.899548,"time":2,"i_lat":-6.2135,"transit":false,"distance":3100,"is_transit":false,"line":1,"station_id":"KLD"},{"i_lat":-6.215091,"i_long":106.86807400000001,"distance":3395,"station_id":"JNG","time":3,"line":1,"station_name":"Jatinegara","transit":false,"is_transit":false},{"transit":false,"is_transit":false,"distance":1377,"i_long":106.858896,"line":1,"station_name":"Matraman","i_lat":-6.212485,"station_id":"MTR","time":2},{"station_id":"MRI","line":2,"distance":1275,"i_long":106.84912,"is_transit":true,"station_name":"Manggarai","i_lat":-6.209883,"transit":true,"time":2},{"time":4,"i_lat":-6.198556,"transit":false,"distance":1590,"line":2,"is_transit":false,"station_id":"CKI","i_long":106.840169,"station_name":"Cikini"},{"station_id":"GDD","is_transit":false,"time":3,"i_long":106.832183,"i_lat":-6.186295,"station_name":"Gondangdia","line":2,"distance":1750,"transit":false},{"station_name":"Juanda","time":4,"station_id":"JUA","i_lat":-6.166716,"i_long":106.828284,"transit":false,"is_transit":false,"distance":2015,"line":2},{"time":2,"station_name":"Sawah Besar","i_lat":-6.160725,"station_id":"SW","is_transit":false,"i_long":106.827103,"line":2,"transit":false,"distance":1149},{"time":2,"station_id":"MGB","is_transit":false,"station_name":"Manggabesar","transit":false,"distance":906,"i_lat":-6.149769,"i_long":106.82482,"line":2},{"is_transit":false,"time":2,"distance":1080,"i_lat":-6.141205,"i_long":106.820901,"line":2,"station_name":"Jayakarta","station_id":"JAY","transit":false},{"i_lat":-6.137569,"station_name":"Jakarta Kota","i_long":106.812439,"line":2,"transit":true,"is_transit":true,"station_id":"JAKK","distance":1264,"time":4},{"line":4,"transit":true,"time":3,"station_id":"KPB","i_long":106.826365,"i_lat":-6.132549,"station_name":"Kampung Bandan","is_transit":true,"distance":1364},{"transit":false,"i_lat":-6.14505,"station_id":"RJW","is_transit":false,"time":3,"station_name":"Rajawali","line":11,"distance":1444,"i_long":106.836569},{"distance":1901,"line":11,"i_lat":-6.161728,"i_long":106.839204,"time":5,"station_id":"KMO","transit":false,"is_transit":false,"station_name":"Kemayoran"},{"station_id":"PSE","time":4,"i_lat":-6.174784,"transit":false,"is_transit":false,"station_name":"Pasar Senen","i_long":106.84368,"line":11,"distance":1436},{"station_id":"GST","is_transit":false,"time":8,"i_long":106.850107,"distance":1567,"i_lat":-6.185975,"transit":false,"line":11,"station_name":"Gang Sentiong"}]]}