{"data":[[{"i_long":107.093313,"time":0,"distance":0,"station_id":"TLM","line":1,"is_transit":false,"station_name":"Metland Telaga Murni","transit":false,"i_lat":-6.262938},{"time":2,"station_name":"Cibitung","distance":2800,"transit":false,"i_lat":-6.261877,"is_transit":false,"i_long":107.083084,"line":0,"station_id":"CIT"},{"line":1,"transit":false,"i_lat":-6.258864,"station_name":"Tambun","time":3,"is_transit":false,"station_id":"TB","distance":3420,"i_long":107.055722},{"i_lat":-6.248029,"i_long":107.016735,"time":7,"station_id":"BKST","station_name":"Bekasi Timur","transit":false,"is_transit":false,"distance":4460,"line":0},{"is_transit":false,"time":2,"distance":2368,"transit":false,"i_long":106.997013,"station_name":"Bekasi","line":0,"station_id":"BKS","i_lat":-6.236616},{"time":4,"transit":false,"line":1,"i_long":106.977657,"distance":2520,"station_name":"Kranji","is_transit":false,"station_id":"KRI","i_lat":-6.224515},{"distance":3097,"time":3,"i_long":106.951283,"line":0,"i_lat":-6.219053,"transit":false,"station_name":"Cakung","is_transit":false,"station_id":"CUK"},{"station_name":"Klenderbaru","i_lat":-6.217455,"time":8,"transit":false,"i_long":106.939679,"station_id":"KLDB","distance":1385,"is_transit":false,"line":1}]]}