{"data":[[{"line":1,"distance":0,"transit":false,"i_lat":-6.262938,"station_id":"TLM","is_transit":false,"time":0,"i_long":107.093313,"station_name":"Metland Telaga Murni"},{"is_transit":false,"distance":2800,"station_name":"Cibitung","i_lat":-6.261877,"transit":false,"line":1,"time":2,"i_long":107.083084,"station_id":"CIT"},{"i_lat":-6.258864,"distance":3420,"line":1,"station_name":"Tambun","is_transit":false,"time":3,"i_long":107.055722,"transit":false,"station_id":"TB"},{"transit":false,"station_name":"Bekasi Timur","station_id":"BKST","i_lat":-6.248029,"i_long":107.016735,"is_transit":false,"time":7,"line":1,"distance":4460},{"i_lat":-6.236616,"i_long":106.997013,"line":1,"time":2,"transit":false,"station_name":"Bekasi","distance":2368,"station_id":"BKS","is_transit":false},{"i_long":106.977657,"transit":false,"distance":2520,"is_transit":false,"station_id":"KRI","line":1,"station_name":"Kranji","i_lat":-6.224515,"time":4},{"distance":3097,"transit":false,"station_id":"CUK","i_long":106.951283,"i_lat":-6.219053,"station_name":"Cakung","is_transit":false,"line":1,"time":3},{"i_lat":-6.217455,"time":8,"station_id":"KLDB","is_transit":false,"line":1,"station_name":"Klenderbaru","distance":1385,"i_long":106.939679,"transit":false},{"station_name":"Buaran","station_id":"BUA","is_transit":false,"i_lat":-6.215568,"i_long":106.922662,"transit":false,"time":1,"line":1,"distance":1305},{"transit":false,"i_long":106.899548,"line":1,"time":2,"station_id":"KLD","distance":3100,"station_name":"Klender","i_lat":-6.2135,"is_transit":false},{"station_name":"Jatinegara","distance":3395,"i_lat":-6.215091,"line":1,"i_long":106.86807400000001,"station_id":"JNG","is_transit":false,"transit":false,"time":3},{"transit":false,"station_name":"Matraman","line":1,"is_transit":false,"time":2,"i_lat":-6.212485,"i_long":106.858896,"station_id":"MTR","distance":1377},{"line":2,"station_id":"MRI","transit":false,"time":2,"distance":1275,"i_lat":-6.209883,"i_long":106.84912,"station_name":"Manggarai","is_transit":false},{"is_transit":false,"distance":3186,"transit":false,"i_lat":-6.202263,"station_name":"Sudirman","station_id":"SUD","time":4,"i_long":106.822649,"line":1},{"transit":false,"time":1,"is_transit":false,"distance":280,"line":1,"station_id":"SUDB","station_name":"Sudirman Baru","i_lat":-6.201433,"i_long":106.819881},{"transit":false,"line":1,"is_transit":false,"station_name":"Karet","station_id":"KAT","distance":471,"time":1,"i_long":106.816351,"i_lat":-6.20132},{"i_lat":-6.185545,"i_long":106.811091,"station_name":"Tanah Abang","station_id":"THB","is_transit":false,"distance":2029,"transit":false,"line":1,"time":5},{"station_name":"Duri","transit":true,"i_long":106.800832,"distance":3632,"time":8,"i_lat":-6.155215,"line":1,"station_id":"DU","is_transit":true},{"distance":1700,"time":3,"i_lat":-6.162021,"station_name":"Grogol","station_id":"GGL","is_transit":false,"i_long":106.788277,"transit":false,"line":5},{"distance":2036,"station_name":"Pesing","station_id":"PSG","line":5,"transit":false,"i_lat":-6.161433,"time":2,"i_long":106.771379,"is_transit":false},{"line":5,"station_id":"TKO","i_long":106.756522,"station_name":"Taman Kota","time":2,"transit":false,"i_lat":-6.1587309999999995,"distance":1614,"is_transit":false},{"station_name":"Bojongindah","time":2,"distance":2334,"line":5,"transit":false,"station_id":"BOI","i_long":106.737035,"i_lat":-6.159876,"is_transit":false},{"i_lat":-6.162758,"time":4,"line":5,"i_long":106.723064,"station_name":"Rawa Buaya","is_transit":false,"station_id":"RW","transit":false,"distance":1152},{"i_long":106.701612,"distance":2504,"line":5,"transit":false,"is_transit":false,"time":3,"station_name":"Kalideres","i_lat":-6.166068,"station_id":"KDS"},{"is_transit":false,"time":3,"distance":2548,"station_name":"Poris","station_id":"PI","transit":false,"i_lat":-6.169933,"line":5,"i_long":106.679458},{"is_transit":false,"i_lat":-6.171811,"i_long":106.665036,"station_name":"Batuceper","station_id":"BPR","line":5,"time":3,"distance":1834,"transit":false}],[{"line":1,"station_name":"Metland Telaga Murni","i_lat":-6.262938,"is_transit":false,"transit":false,"time":0,"distance":0,"i_long":107.093313,"station_id":"TLM"},{"station_id":"CIT","i_lat":-6.261877,"i_long":107.083084,"line":1,"transit":false,"time":2,"distance":2800,"station_name":"Cibitung","is_transit":false},{"transit":false,"distance":3420,"station_name":"Tambun","station_id":"TB","is_transit":false,"time":3,"i_long":107.055722,"line":1,"i_lat":-6.258864},{"station_id":"BKST","distance":4460,"time":7,"station_name":"Bekasi Timur","i_long":107.016735,"line":1,"i_lat":-6.248029,"transit":false,"is_transit":false},{"distance":2368,"i_long":106.997013,"i_lat":-6.236616,"station_name":"Bekasi","line":1,"time":2,"is_transit":false,"transit":false,"station_id":"BKS"},{"transit":false,"is_transit":false,"time":4,"distance":2520,"i_long":106.977657,"station_name":"Kranji","station_id":"KRI","line":1,"i_lat":-6.224515},{"station_id":"CUK","transit":false,"time":3,"station_name":"Cakung","is_transit":false,"line":1,"i_long":106.951283,"distance":3097,"i_lat":-6.219053},{"line":1,"station_id":"KLDB","i_lat":-6.217455,"transit":false,"is_transit":false,"i_long":106.939679,"time":8,"distance":1385,"station_name":"Klenderbaru"},{"time":1,"station_id":"BUA","i_long":106.922662,"line":1,"is_transit":false,"station_name":"Buaran","transit":false,"distance":1305,"i_lat":-6.215568},{"transit":false,"station_id":"KLD","is_transit":false,"i_lat":-6.2135,"line":1,"time":2,"distance":3100,"i_long":106.899548,"station_name":"Klender"},{"time":3,"distance":3395,"i_long":106.86807400000001,"line":1,"transit":true,"i_lat":-6.215091,"station_id":"JNG","is_transit":true,"station_name":"Jatinegara"},{"i_long":106.861737,"i_lat":-6.209188,"is_transit":false,"line":11,"transit":false,"station_name":"Pondok Jati","station_id":"POK","time":2,"distance":1236},{"is_transit":false,"station_name":"Kramat","i_lat":-6.193792,"line":11,"time":2,"i_long":106.855437,"transit":false,"station_id":"KMT","distance":1829},{"i_lat":-6.185975,"is_transit":false,"i_long":106.850107,"station_id":"GST","distance":973,"transit":false,"time":1,"line":11,"station_name":"Gang Sentiong"},{"transit":false,"distance":1567,"i_lat":-6.174784,"is_transit":false,"i_long":106.84368,"time":8,"station_name":"Pasar Senen","line":11,"station_id":"PSE"},{"is_transit":false,"time":4,"distance":1436,"station_id":"KMO","station_name":"Kemayoran","line":11,"i_long":106.839204,"i_lat":-6.161728,"transit":false},{"transit":false,"station_id":"RJW","time":5,"i_lat":-6.14505,"station_name":"Rajawali","line":11,"is_transit":false,"i_long":106.836569,"distance":1901},{"transit":true,"i_long":106.826365,"line":4,"station_id":"KPB","time":3,"i_lat":-6.132549,"distance":1444,"is_transit":true,"station_name":"Kampung Bandan"},{"time":9,"is_transit":false,"i_long":106.79867,"station_id":"AK","line":1,"transit":false,"station_name":"Angke","i_lat":-6.144674,"distance":4102},{"i_long":106.800832,"station_id":"DU","i_lat":-6.155215,"distance":1230,"line":1,"transit":true,"is_transit":true,"time":4,"station_name":"Duri"},{"distance":1700,"is_transit":false,"i_long":106.788277,"line":5,"station_name":"Grogol","station_id":"GGL","time":3,"transit":false,"i_lat":-6.162021},{"i_lat":-6.161433,"line":5,"station_name":"Pesing","is_transit":false,"station_id":"PSG","distance":2036,"i_long":106.771379,"time":2,"transit":false},{"station_id":"TKO","line":5,"time":2,"i_lat":-6.1587309999999995,"i_long":106.756522,"is_transit":false,"station_name":"Taman Kota","distance":1614,"transit":false},{"time":2,"line":5,"i_long":106.737035,"distance":2334,"station_id":"BOI","i_lat":-6.159876,"transit":false,"is_transit":false,"station_name":"Bojongindah"},{"time":4,"line":5,"transit":false,"is_transit":false,"station_name":"Rawa Buaya","station_id":"RW","i_lat":-6.162758,"i_long":106.723064,"distance":1152},{"is_transit":false,"line":5,"transit":false,"station_name":"Kalideres","station_id":"KDS","i_lat":-6.166068,"time":3,"distance":2504,"i_long":106.701612},{"time":3,"i_lat":-6.169933,"transit":false,"station_id":"PI","is_transit":false,"distance":2548,"line":5,"station_name":"Poris","i_long":106.679458},{"is_transit":false,"distance":1834,"i_lat":-6.171811,"i_long":106.665036,"line":5,"time":3,"transit":false,"station_name":"Batuceper","station_id":"BPR"}],[{"time":0,"transit":false,"station_id":"TLM","i_lat":-6.262938,"line":1,"distance":0,"station_name":"Metland Telaga Murni","i_long":107.093313,"is_transit":false},{"line":1,"station_name":"Cibitung","i_long":107.083084,"transit":false,"is_transit":false,"station_id":"CIT","time":2,"distance":2800,"i_lat":-6.261877},{"is_transit":false,"transit":false,"station_name":"Tambun","time":3,"i_long":107.055722,"station_id":"TB","distance":3420,"i_lat":-6.258864,"line":1},{"station_id":"BKST","transit":false,"line":1,"i_long":107.016735,"is_transit":false,"station_name":"Bekasi Timur","distance":4460,"time":7,"i_lat":-6.248029},{"station_id":"BKS","i_long":106.997013,"line":1,"is_transit":false,"time":2,"distance":2368,"station_name":"Bekasi","i_lat":-6.236616,"transit":false},{"time":4,"i_lat":-6.224515,"line":1,"is_transit":false,"distance":2520,"transit":false,"station_id":"KRI","i_long":106.977657,"station_name":"Kranji"},{"station_name":"Cakung","is_transit":false,"distance":3097,"i_lat":-6.219053,"transit":false,"line":1,"time":3,"i_long":106.951283,"station_id":"CUK"},{"station_name":"Klenderbaru","is_transit":false,"time":8,"i_lat":-6.217455,"i_long":106.939679,"transit":false,"station_id":"KLDB","distance":1385,"line":1},{"transit":false,"i_long":106.922662,"station_id":"BUA","i_lat":-6.215568,"is_transit":false,"time":1,"distance":1305,"line":1,"station_name":"Buaran"},{"time":2,"transit":false,"station_name":"Klender","i_lat":-6.2135,"i_long":106.899548,"line":1,"station_id":"KLD","is_transit":false,"distance":3100},{"transit":false,"station_name":"Jatinegara","station_id":"JNG","distance":3395,"time":3,"i_lat":-6.215091,"i_long":106.86807400000001,"line":1,"is_transit":false},{"time":2,"transit":false,"line":1,"i_long":106.858896,"distance":1377,"is_transit":false,"station_name":"Matraman","station_id":"MTR","i_lat":-6.212485},{"is_transit":true,"i_lat":-6.209883,"i_long":106.84912,"station_id":"MRI","time":2,"line":2,"distance":1275,"transit":true,"station_name":"Manggarai"},{"line":2,"station_name":"Cikini","transit":false,"i_long":106.840169,"is_transit":false,"station_id":"CKI","time":4,"i_lat":-6.198556,"distance":1590},{"i_long":106.832183,"i_lat":-6.186295,"is_transit":false,"transit":false,"station_name":"Gondangdia","station_id":"GDD","time":3,"distance":1750,"line":2},{"i_long":106.828284,"line":2,"station_id":"JUA","distance":2015,"is_transit":false,"transit":false,"station_name":"Juanda","time":4,"i_lat":-6.166716},{"is_transit":false,"distance":1149,"time":2,"station_name":"Sawah Besar","i_long":106.827103,"line":2,"station_id":"SW","transit":false,"i_lat":-6.160725},{"station_name":"Manggabesar","transit":false,"distance":906,"i_lat":-6.149769,"line":2,"i_long":106.82482,"is_transit":false,"station_id":"MGB","time":2},{"transit":false,"time":2,"i_lat":-6.141205,"station_id":"JAY","distance":1080,"line":2,"i_long":106.820901,"station_name":"Jayakarta","is_transit":false},{"transit":true,"station_id":"JAKK","time":4,"distance":1264,"i_long":106.812439,"is_transit":true,"line":2,"i_lat":-6.137569,"station_name":"Jakarta Kota"},{"i_lat":-6.132549,"transit":true,"line":4,"station_id":"KPB","station_name":"Kampung Bandan","distance":1364,"time":3,"i_long":106.826365,"is_transit":true},{"i_lat":-6.144674,"distance":4102,"line":1,"i_long":106.79867,"transit":false,"station_id":"AK","is_transit":false,"station_name":"Angke","time":9},{"transit":true,"distance":1230,"is_transit":true,"station_name":"Duri","i_long":106.800832,"line":1,"station_id":"DU","time":4,"i_lat":-6.155215},{"i_long":106.788277,"is_transit":false,"station_name":"Grogol","transit":false,"distance":1700,"station_id":"GGL","i_lat":-6.162021,"time":3,"line":5},{"line":5,"i_long":106.771379,"station_id":"PSG","distance":2036,"station_name":"Pesing","transit":false,"i_lat":-6.161433,"time":2,"is_transit":false},{"station_name":"Taman Kota","time":2,"distance":1614,"i_lat":-6.1587309999999995,"i_long":106.756522,"station_id":"TKO","line":5,"is_transit":false,"transit":false},{"station_name":"Bojongindah","transit":false,"station_id":"BOI","is_transit":false,"i_lat":-6.159876,"i_long":106.737035,"line":5,"distance":2334,"time":2},{"is_transit":false,"station_id":"RW","transit":false,"distance":1152,"time":4,"station_name":"Rawa Buaya","i_long":106.723064,"line":5,"i_lat":-6.162758},{"distance":2504,"line":5,"station_name":"Kalideres","transit":false,"i_lat":-6.166068,"time":3,"station_id":"KDS","i_long":106.701612,"is_transit":false},{"station_name":"Poris","transit":false,"distance":2548,"is_transit":false,"station_id":"PI","line":5,"time":3,"i_lat":-6.169933,"i_long":106.679458},{"i_long":106.665036,"station_name":"Batuceper","line":5,"time":3,"station_id":"BPR","is_transit":false,"distance":1834,"transit":false,"i_lat":-6.171811}],[{"i_lat":-6.262938,"line":1,"i_long":107.093313,"station_id":"TLM","station_name":"Metland Telaga Murni","time":0,"transit":false,"is_transit":false,"distance":0},{"is_transit":false,"i_lat":-6.261877,"time":2,"station_name":"Cibitung","transit":false,"station_id":"CIT","distance":2800,"i_long":107.083084,"line":1},{"station_id":"TB","i_lat":-6.258864,"transit":false,"is_transit":false,"distance":3420,"station_name":"Tambun","i_long":107.055722,"line":1,"time":3},{"transit":false,"i_lat":-6.248029,"station_name":"Bekasi Timur","station_id":"BKST","distance":4460,"time":7,"i_long":107.016735,"is_transit":false,"line":1},{"station_id":"BKS","i_lat":-6.236616,"station_name":"Bekasi","time":2,"transit":false,"distance":2368,"is_transit":false,"line":1,"i_long":106.997013},{"i_long":106.977657,"transit":false,"is_transit":false,"time":4,"i_lat":-6.224515,"line":1,"station_name":"Kranji","station_id":"KRI","distance":2520},{"transit":false,"station_id":"CUK","i_lat":-6.219053,"i_long":106.951283,"line":1,"time":3,"station_name":"Cakung","is_transit":false,"distance":3097},{"is_transit":false,"i_lat":-6.217455,"i_long":106.939679,"line":1,"station_id":"KLDB","distance":1385,"station_name":"Klenderbaru","transit":false,"time":8},{"i_long":106.922662,"i_lat":-6.215568,"transit":false,"distance":1305,"time":1,"station_id":"BUA","is_transit":false,"line":1,"station_name":"Buaran"},{"line":1,"i_long":106.899548,"transit":false,"distance":3100,"time":2,"is_transit":false,"i_lat":-6.2135,"station_name":"Klender","station_id":"KLD"},{"transit":true,"station_name":"Jatinegara","i_long":106.86807400000001,"time":3,"is_transit":true,"i_lat":-6.215091,"station_id":"JNG","distance":3395,"line":1},{"i_lat":-6.209188,"station_id":"POK","time":2,"distance":1236,"line":11,"i_long":106.861737,"transit":false,"station_name":"Pondok Jati","is_transit":false},{"station_id":"KMT","is_transit":false,"time":2,"line":11,"distance":1829,"i_lat":-6.193792,"station_name":"Kramat","i_long":106.855437,"transit":false},{"i_lat":-6.185975,"distance":973,"time":1,"i_long":106.850107,"transit":false,"station_id":"GST","is_transit":false,"line":11,"station_name":"Gang Sentiong"},{"transit":false,"station_id":"PSE","i_long":106.84368,"station_name":"Pasar Senen","line":11,"is_transit":false,"time":8,"distance":1567,"i_lat":-6.174784},{"transit":false,"is_transit":false,"line":11,"station_name":"Kemayoran","i_long":106.839204,"time":4,"i_lat":-6.161728,"station_id":"KMO","distance":1436},{"station_id":"RJW","time":5,"transit":false,"station_name":"Rajawali","is_transit":false,"line":11,"i_long":106.836569,"distance":1901,"i_lat":-6.14505},{"transit":true,"station_name":"Kampung Bandan","station_id":"KPB","distance":1444,"is_transit":true,"line":4,"time":3,"i_long":106.826365,"i_lat":-6.132549},{"distance":1364,"time":3,"line":2,"i_lat":-6.137569,"transit":true,"station_id":"JAKK","is_transit":true,"station_name":"Jakarta Kota","i_long":106.812439},{"line":2,"distance":1264,"station_name":"Jayakarta","station_id":"JAY","transit":false,"is_transit":false,"i_long":106.820901,"time":4,"i_lat":-6.141205},{"time":2,"station_name":"Manggabesar","line":2,"station_id":"MGB","transit":false,"is_transit":false,"distance":1080,"i_lat":-6.149769,"i_long":106.82482},{"line":2,"time":2,"distance":906,"station_name":"Sawah Besar","i_lat":-6.160725,"transit":false,"is_transit":false,"i_long":106.827103,"station_id":"SW"},{"station_name":"Juanda","is_transit":false,"distance":1149,"transit":false,"station_id":"JUA","time":2,"line":2,"i_lat":-6.166716,"i_long":106.828284},{"line":2,"station_id":"GDD","distance":2015,"is_transit":false,"transit":false,"i_lat":-6.186295,"i_long":106.832183,"station_name":"Gondangdia","time":4},{"distance":1750,"station_name":"Cikini","time":3,"transit":false,"station_id":"CKI","line":2,"i_long":106.840169,"is_transit":false,"i_lat":-6.198556},{"transit":true,"station_name":"Manggarai","i_lat":-6.209883,"station_id":"MRI","is_transit":true,"time":4,"i_long":106.84912,"line":2,"distance":1590},{"station_id":"SUD","i_long":106.822649,"station_name":"Sudirman","distance":3186,"transit":false,"is_transit":false,"i_lat":-6.202263,"line":1,"time":4},{"station_id":"SUDB","transit":false,"time":1,"distance":280,"is_transit":false,"i_lat":-6.201433,"station_name":"Sudirman Baru","i_long":106.819881,"line":1},{"time":1,"transit":false,"station_name":"Karet","station_id":"KAT","distance":471,"i_lat":-6.20132,"i_long":106.816351,"line":1,"is_transit":false},{"distance":2029,"station_id":"THB","transit":false,"i_lat":-6.185545,"station_name":"Tanah Abang","line":1,"time":5,"i_long":106.811091,"is_transit":false},{"i_lat":-6.155215,"distance":3632,"i_long":106.800832,"line":1,"station_name":"Duri","is_transit":true,"station_id":"DU","transit":true,"time":8},{"line":5,"is_transit":false,"station_id":"GGL","i_long":106.788277,"station_name":"Grogol","transit":false,"time":3,"distance":1700,"i_lat":-6.162021},{"station_id":"PSG","is_transit":false,"distance":2036,"i_long":106.771379,"time":2,"transit":false,"station_name":"Pesing","i_lat":-6.161433,"line":5},{"is_transit":false,"i_lat":-6.1587309999999995,"transit":false,"line":5,"station_name":"Taman Kota","station_id":"TKO","distance":1614,"i_long":106.756522,"time":2},{"is_transit":false,"distance":2334,"i_long":106.737035,"line":5,"i_lat":-6.159876,"station_id":"BOI","transit":false,"station_name":"Bojongindah","time":2},{"is_transit":false,"station_id":"RW","i_lat":-6.162758,"i_long":106.723064,"station_name":"Rawa Buaya","line":5,"distance":1152,"transit":false,"time":4},{"transit":false,"line":5,"i_lat":-6.166068,"distance":2504,"i_long":106.701612,"is_transit":false,"station_id":"KDS","time":3,"station_name":"Kalideres"},{"is_transit":false,"i_long":106.679458,"time":3,"transit":false,"i_lat":-6.169933,"distance":2548,"station_name":"Poris","station_id":"PI","line":5},{"line":5,"i_lat":-6.171811,"station_name":"Batuceper","is_transit":false,"transit":false,"station_id":"BPR","time":3,"distance":1834,"i_long":106.665036}]]}