{"data":[[{"i_lat":-6.262938,"distance":0,"station_name":"Metland Telaga Murni","i_long":107.093313,"line":1,"transit":false,"station_id":"TLM","is_transit":false,"time":0},{"transit":false,"is_transit":false,"i_long":107.083084,"line":1,"station_id":"CIT","i_lat":-6.261877,"distance":2800,"time":2,"station_name":"Cibitung"},{"line":1,"station_name":"Tambun","time":3,"distance":3420,"station_id":"TB","is_transit":false,"transit":false,"i_lat":-6.258864,"i_long":107.055722},{"line":1,"transit":false,"time":7,"is_transit":false,"station_id":"BKST","distance":4460,"station_name":"Bekasi Timur","i_lat":-6.248029,"i_long":107.016735},{"line":1,"is_transit":false,"station_name":"Bekasi","transit":false,"time":2,"distance":2368,"i_long":106.997013,"station_id":"BKS","i_lat":-6.236616},{"transit":false,"i_lat":-6.224515,"is_transit":false,"station_name":"Kranji","i_long":106.977657,"time":4,"distance":2520,"line":1,"station_id":"KRI"},{"time":3,"distance":3097,"is_transit":false,"i_long":106.951283,"line":1,"station_name":"Cakung","i_lat":-6.219053,"station_id":"CUK","transit":false},{"distance":1385,"is_transit":false,"i_long":106.939679,"line":1,"station_id":"KLDB","station_name":"Klenderbaru","i_lat":-6.217455,"time":8,"transit":false},{"i_lat":-6.215568,"time":1,"transit":false,"is_transit":false,"station_name":"Buaran","station_id":"BUA","distance":1305,"i_long":106.922662,"line":1},{"station_id":"KLD","line":1,"transit":false,"is_transit":false,"i_lat":-6.2135,"distance":3100,"station_name":"Klender","time":2,"i_long":106.899548},{"time":3,"is_transit":false,"i_long":106.86807400000001,"line":1,"station_id":"JNG","station_name":"Jatinegara","transit":false,"i_lat":-6.215091,"distance":3395},{"line":1,"is_transit":false,"transit":false,"station_id":"MTR","time":2,"station_name":"Matraman","i_lat":-6.212485,"distance":1377,"i_long":106.858896},{"line":2,"i_lat":-6.209883,"transit":false,"time":2,"i_long":106.84912,"is_transit":false,"station_name":"Manggarai","station_id":"MRI","distance":1275},{"station_id":"SUD","transit":false,"is_transit":false,"i_long":106.822649,"time":4,"distance":3186,"i_lat":-6.202263,"station_name":"Sudirman","line":1},{"line":1,"distance":280,"transit":false,"i_lat":-6.201433,"time":1,"station_id":"SUDB","is_transit":false,"station_name":"Sudirman Baru","i_long":106.819881},{"is_transit":false,"transit":false,"distance":471,"i_lat":-6.20132,"station_id":"KAT","line":1,"i_long":106.816351,"station_name":"Karet","time":1},{"station_name":"Tanah Abang","time":5,"line":1,"is_transit":true,"transit":true,"distance":2029,"i_lat":-6.185545,"i_long":106.811091,"station_id":"THB"},{"line":6,"station_id":"PLM","time":6,"is_transit":false,"i_long":106.79689,"transit":false,"station_name":"Palmerah","distance":3191,"i_lat":-6.207404},{"line":6,"i_lat":-6.237242,"is_transit":false,"station_name":"Kebayoran","i_long":106.780334,"time":7,"station_id":"KBY","distance":3737,"transit":false},{"line":6,"is_transit":false,"station_name":"Pondokranji","transit":false,"distance":6218,"i_lat":-6.276362,"time":8,"i_long":106.74273,"station_id":"PDJ"},{"time":3,"i_long":106.728916,"station_id":"JMU","transit":false,"is_transit":false,"distance":2179,"i_lat":-6.288927,"line":6,"station_name":"Jurangmangu"},{"i_long":106.712277,"distance":1994,"line":6,"transit":false,"station_name":"Sudimara","station_id":"SDM","is_transit":false,"time":4,"i_lat":-6.296963},{"station_name":"Rawa Buntu","transit":false,"station_id":"RU","i_lat":-6.314823,"is_transit":false,"distance":4566,"i_long":106.675475,"time":6,"line":6}],[{"time":0,"station_name":"Metland Telaga Murni","station_id":"TLM","distance":0,"is_transit":false,"i_long":107.093313,"transit":false,"i_lat":-6.262938,"line":1},{"time":2,"i_lat":-6.261877,"i_long":107.083084,"station_id":"CIT","distance":2800,"transit":false,"station_name":"Cibitung","is_transit":false,"line":1},{"is_transit":false,"i_lat":-6.258864,"i_long":107.055722,"station_name":"Tambun","time":3,"line":1,"transit":false,"distance":3420,"station_id":"TB"},{"distance":4460,"station_name":"Bekasi Timur","i_long":107.016735,"line":1,"time":7,"station_id":"BKST","i_lat":-6.248029,"transit":false,"is_transit":false},{"i_long":106.997013,"station_id":"BKS","station_name":"Bekasi","line":1,"is_transit":false,"distance":2368,"transit":false,"time":2,"i_lat":-6.236616},{"is_transit":false,"transit":false,"time":4,"station_id":"KRI","i_lat":-6.224515,"station_name":"Kranji","i_long":106.977657,"distance":2520,"line":1},{"i_long":106.951283,"is_transit":false,"time":3,"station_name":"Cakung","transit":false,"station_id":"CUK","distance":3097,"line":1,"i_lat":-6.219053},{"transit":false,"is_transit":false,"station_id":"KLDB","station_name":"Klenderbaru","distance":1385,"i_lat":-6.217455,"i_long":106.939679,"line":1,"time":8},{"transit":false,"is_transit":false,"i_long":106.922662,"line":1,"station_name":"Buaran","station_id":"BUA","distance":1305,"time":1,"i_lat":-6.215568},{"distance":3100,"line":1,"station_name":"Klender","transit":false,"time":2,"station_id":"KLD","i_long":106.899548,"i_lat":-6.2135,"is_transit":false},{"line":1,"transit":true,"time":3,"is_transit":true,"station_name":"Jatinegara","station_id":"JNG","distance":3395,"i_lat":-6.215091,"i_long":106.86807400000001},{"line":11,"i_long":106.861737,"station_id":"POK","is_transit":false,"i_lat":-6.209188,"distance":1236,"transit":false,"time":2,"station_name":"Pondok Jati"},{"distance":1829,"i_lat":-6.193792,"is_transit":false,"transit":false,"station_id":"KMT","time":2,"i_long":106.855437,"line":11,"station_name":"Kramat"},{"station_id":"GST","i_lat":-6.185975,"i_long":106.850107,"line":11,"time":1,"station_name":"Gang Sentiong","is_transit":false,"distance":973,"transit":false},{"station_name":"Pasar Senen","line":11,"transit":false,"is_transit":false,"i_lat":-6.174784,"distance":1567,"time":8,"i_long":106.84368,"station_id":"PSE"},{"transit":false,"station_id":"KMO","time":4,"station_name":"Kemayoran","distance":1436,"i_lat":-6.161728,"i_long":106.839204,"line":11,"is_transit":false},{"is_transit":false,"line":11,"station_id":"RJW","transit":false,"time":5,"distance":1901,"station_name":"Rajawali","i_lat":-6.14505,"i_long":106.836569},{"is_transit":true,"time":3,"i_lat":-6.132549,"line":4,"i_long":106.826365,"distance":1444,"station_name":"Kampung Bandan","transit":true,"station_id":"KPB"},{"i_lat":-6.144674,"is_transit":false,"distance":4102,"i_long":106.79867,"time":9,"transit":false,"station_id":"AK","line":1,"station_name":"Angke"},{"station_id":"DU","transit":false,"is_transit":false,"distance":1230,"station_name":"Duri","i_lat":-6.155215,"i_long":106.800832,"time":4,"line":1},{"station_name":"Tanah Abang","is_transit":true,"transit":true,"station_id":"THB","i_long":106.811091,"distance":3632,"time":8,"line":1,"i_lat":-6.185545},{"i_long":106.79689,"is_transit":false,"transit":false,"distance":3191,"station_id":"PLM","i_lat":-6.207404,"line":6,"station_name":"Palmerah","time":6},{"is_transit":false,"i_lat":-6.237242,"transit":false,"line":6,"station_name":"Kebayoran","station_id":"KBY","distance":3737,"i_long":106.780334,"time":7},{"is_transit":false,"distance":6218,"i_long":106.74273,"line":6,"i_lat":-6.276362,"station_id":"PDJ","transit":false,"station_name":"Pondokranji","time":8},{"is_transit":false,"station_id":"JMU","i_lat":-6.288927,"i_long":106.728916,"station_name":"Jurangmangu","line":6,"distance":2179,"transit":false,"time":3},{"transit":false,"line":6,"i_lat":-6.296963,"distance":1994,"i_long":106.712277,"is_transit":false,"station_id":"SDM","time":4,"station_name":"Sudimara"},{"is_transit":false,"i_long":106.675475,"time":6,"transit":false,"i_lat":-6.314823,"distance":4566,"station_name":"Rawa Buntu","station_id":"RU","line":6}],[{"line":1,"i_lat":-6.262938,"station_name":"Metland Telaga Murni","is_transit":false,"transit":false,"station_id":"TLM","time":0,"distance":0,"i_long":107.093313},{"i_lat":-6.261877,"station_name":"Cibitung","time":2,"i_long":107.083084,"line":1,"is_transit":false,"distance":2800,"transit":false,"station_id":"CIT"},{"transit":false,"time":3,"station_id":"TB","distance":3420,"station_name":"Tambun","line":1,"is_transit":false,"i_long":107.055722,"i_lat":-6.258864},{"is_transit":false,"station_id":"BKST","station_name":"Bekasi Timur","i_lat":-6.248029,"line":1,"transit":false,"i_long":107.016735,"time":7,"distance":4460},{"is_transit":false,"time":2,"distance":2368,"i_lat":-6.236616,"transit":false,"line":1,"i_long":106.997013,"station_name":"Bekasi","station_id":"BKS"},{"station_id":"KRI","line":1,"time":4,"transit":false,"i_lat":-6.224515,"is_transit":false,"i_long":106.977657,"station_name":"Kranji","distance":2520},{"distance":3097,"transit":false,"station_name":"Cakung","i_long":106.951283,"is_transit":false,"line":1,"i_lat":-6.219053,"station_id":"CUK","time":3},{"station_name":"Klenderbaru","i_lat":-6.217455,"station_id":"KLDB","transit":false,"distance":1385,"is_transit":false,"line":1,"time":8,"i_long":106.939679},{"is_transit":false,"line":1,"station_name":"Buaran","station_id":"BUA","i_long":106.922662,"transit":false,"distance":1305,"time":1,"i_lat":-6.215568},{"is_transit":false,"line":1,"station_id":"KLD","i_long":106.899548,"distance":3100,"time":2,"i_lat":-6.2135,"station_name":"Klender","transit":false},{"station_name":"Jatinegara","station_id":"JNG","time":3,"i_lat":-6.215091,"i_long":106.86807400000001,"distance":3395,"transit":false,"line":1,"is_transit":false},{"line":1,"i_lat":-6.212485,"station_name":"Matraman","distance":1377,"time":2,"transit":false,"station_id":"MTR","is_transit":false,"i_long":106.858896},{"station_name":"Manggarai","line":2,"is_transit":true,"i_long":106.84912,"transit":true,"i_lat":-6.209883,"time":2,"station_id":"MRI","distance":1275},{"station_id":"CKI","time":4,"distance":1590,"i_lat":-6.198556,"station_name":"Cikini","is_transit":false,"line":2,"i_long":106.840169,"transit":false},{"is_transit":false,"time":3,"station_name":"Gondangdia","transit":false,"line":2,"station_id":"GDD","i_lat":-6.186295,"distance":1750,"i_long":106.832183},{"i_long":106.828284,"is_transit":false,"transit":false,"station_name":"Juanda","distance":2015,"i_lat":-6.166716,"line":2,"station_id":"JUA","time":4},{"station_name":"Sawah Besar","station_id":"SW","i_lat":-6.160725,"line":2,"is_transit":false,"time":2,"i_long":106.827103,"distance":1149,"transit":false},{"i_lat":-6.149769,"distance":906,"i_long":106.82482,"line":2,"time":2,"transit":false,"station_id":"MGB","is_transit":false,"station_name":"Manggabesar"},{"distance":1080,"transit":false,"station_name":"Jayakarta","line":2,"station_id":"JAY","i_long":106.820901,"is_transit":false,"time":2,"i_lat":-6.141205},{"station_name":"Jakarta Kota","station_id":"JAKK","line":2,"is_transit":true,"transit":true,"distance":1264,"time":4,"i_lat":-6.137569,"i_long":106.812439},{"station_id":"KPB","is_transit":true,"time":3,"transit":true,"station_name":"Kampung Bandan","i_lat":-6.132549,"line":4,"i_long":106.826365,"distance":1364},{"station_name":"Angke","transit":false,"i_lat":-6.144674,"distance":4102,"i_long":106.79867,"line":1,"time":9,"is_transit":false,"station_id":"AK"},{"is_transit":false,"line":1,"station_name":"Duri","transit":false,"i_lat":-6.155215,"distance":1230,"time":4,"i_long":106.800832,"station_id":"DU"},{"station_name":"Tanah Abang","station_id":"THB","i_lat":-6.185545,"line":1,"time":8,"transit":true,"distance":3632,"is_transit":true,"i_long":106.811091},{"station_id":"PLM","station_name":"Palmerah","transit":false,"i_long":106.79689,"time":6,"i_lat":-6.207404,"is_transit":false,"line":6,"distance":3191},{"transit":false,"station_id":"KBY","is_transit":false,"time":7,"i_long":106.780334,"distance":3737,"i_lat":-6.237242,"line":6,"station_name":"Kebayoran"},{"is_transit":false,"line":6,"i_long":106.74273,"i_lat":-6.276362,"station_id":"PDJ","transit":false,"distance":6218,"station_name":"Pondokranji","time":8},{"line":6,"transit":false,"station_id":"JMU","distance":2179,"i_lat":-6.288927,"is_transit":false,"station_name":"Jurangmangu","i_long":106.728916,"time":3},{"station_id":"SDM","line":6,"i_long":106.712277,"i_lat":-6.296963,"is_transit":false,"transit":false,"time":4,"distance":1994,"station_name":"Sudimara"},{"station_id":"RU","is_transit":false,"transit":false,"time":6,"i_long":106.675475,"station_name":"Rawa Buntu","distance":4566,"i_lat":-6.314823,"line":6}],[{"line":1,"station_id":"TLM","time":0,"i_lat":-6.262938,"transit":false,"i_long":107.093313,"is_transit":false,"station_name":"Metland Telaga Murni","distance":0},{"station_name":"Cibitung","i_long":107.083084,"i_lat":-6.261877,"is_transit":false,"station_id":"CIT","time":2,"transit":false,"distance":2800,"line":1},{"line":1,"distance":3420,"i_lat":-6.258864,"time":3,"station_name":"Tambun","i_long":107.055722,"is_transit":false,"station_id":"TB","transit":false},{"is_transit":false,"line":1,"distance":4460,"time":7,"station_name":"Bekasi Timur","i_long":107.016735,"station_id":"BKST","i_lat":-6.248029,"transit":false},{"time":2,"is_transit":false,"i_lat":-6.236616,"i_long":106.997013,"station_name":"Bekasi","line":1,"station_id":"BKS","transit":false,"distance":2368},{"station_name":"Kranji","i_lat":-6.224515,"is_transit":false,"line":1,"distance":2520,"time":4,"station_id":"KRI","i_long":106.977657,"transit":false},{"transit":false,"i_long":106.951283,"distance":3097,"is_transit":false,"time":3,"station_id":"CUK","i_lat":-6.219053,"station_name":"Cakung","line":1},{"transit":false,"station_id":"KLDB","i_long":106.939679,"is_transit":false,"time":8,"i_lat":-6.217455,"distance":1385,"station_name":"Klenderbaru","line":1},{"i_long":106.922662,"transit":false,"station_name":"Buaran","distance":1305,"line":1,"station_id":"BUA","time":1,"i_lat":-6.215568,"is_transit":false},{"time":2,"station_id":"KLD","i_lat":-6.2135,"line":1,"station_name":"Klender","is_transit":false,"distance":3100,"transit":false,"i_long":106.899548},{"i_lat":-6.215091,"is_transit":true,"distance":3395,"i_long":106.86807400000001,"time":3,"transit":true,"line":1,"station_name":"Jatinegara","station_id":"JNG"},{"i_lat":-6.209188,"station_name":"Pondok Jati","transit":false,"is_transit":false,"distance":1236,"time":2,"i_long":106.861737,"station_id":"POK","line":11},{"station_name":"Kramat","transit":false,"time":2,"is_transit":false,"i_long":106.855437,"station_id":"KMT","i_lat":-6.193792,"distance":1829,"line":11},{"station_id":"GST","i_lat":-6.185975,"time":1,"is_transit":false,"line":11,"transit":false,"i_long":106.850107,"station_name":"Gang Sentiong","distance":973},{"i_lat":-6.174784,"distance":1567,"transit":false,"station_name":"Pasar Senen","station_id":"PSE","is_transit":false,"time":8,"i_long":106.84368,"line":11},{"is_transit":false,"transit":false,"time":4,"i_lat":-6.161728,"line":11,"station_id":"KMO","i_long":106.839204,"distance":1436,"station_name":"Kemayoran"},{"station_id":"RJW","distance":1901,"i_lat":-6.14505,"i_long":106.836569,"is_transit":false,"line":11,"station_name":"Rajawali","time":5,"transit":false},{"station_name":"Kampung Bandan","is_transit":true,"transit":true,"distance":1444,"i_long":106.826365,"station_id":"KPB","i_lat":-6.132549,"line":4,"time":3},{"time":3,"distance":1364,"i_lat":-6.137569,"line":2,"i_long":106.812439,"station_name":"Jakarta Kota","is_transit":true,"station_id":"JAKK","transit":true},{"line":2,"station_id":"JAY","transit":false,"is_transit":false,"time":4,"distance":1264,"station_name":"Jayakarta","i_long":106.820901,"i_lat":-6.141205},{"is_transit":false,"line":2,"transit":false,"time":2,"station_id":"MGB","station_name":"Manggabesar","distance":1080,"i_lat":-6.149769,"i_long":106.82482},{"transit":false,"distance":906,"i_lat":-6.160725,"is_transit":false,"station_id":"SW","i_long":106.827103,"time":2,"line":2,"station_name":"Sawah Besar"},{"is_transit":false,"i_long":106.828284,"station_name":"Juanda","i_lat":-6.166716,"station_id":"JUA","transit":false,"time":2,"line":2,"distance":1149},{"line":2,"time":4,"is_transit":false,"i_lat":-6.186295,"station_name":"Gondangdia","transit":false,"station_id":"GDD","distance":2015,"i_long":106.832183},{"distance":1750,"station_id":"CKI","station_name":"Cikini","is_transit":false,"transit":false,"i_lat":-6.198556,"line":2,"i_long":106.840169,"time":3},{"station_id":"MRI","is_transit":true,"distance":1590,"station_name":"Manggarai","i_lat":-6.209883,"transit":true,"line":2,"time":4,"i_long":106.84912},{"transit":false,"time":4,"is_transit":false,"i_lat":-6.202263,"i_long":106.822649,"line":1,"station_name":"Sudirman","station_id":"SUD","distance":3186},{"transit":false,"is_transit":false,"line":1,"i_long":106.819881,"distance":280,"time":1,"i_lat":-6.201433,"station_name":"Sudirman Baru","station_id":"SUDB"},{"distance":471,"i_lat":-6.20132,"station_name":"Karet","time":1,"is_transit":false,"i_long":106.816351,"line":1,"transit":false,"station_id":"KAT"},{"transit":true,"station_id":"THB","is_transit":true,"time":5,"distance":2029,"line":1,"station_name":"Tanah Abang","i_long":106.811091,"i_lat":-6.185545},{"line":6,"is_transit":false,"i_lat":-6.207404,"station_name":"Palmerah","transit":false,"station_id":"PLM","time":6,"distance":3191,"i_long":106.79689},{"time":7,"distance":3737,"i_long":106.780334,"transit":false,"i_lat":-6.237242,"line":6,"station_id":"KBY","station_name":"Kebayoran","is_transit":false},{"line":6,"station_name":"Pondokranji","time":8,"transit":false,"distance":6218,"i_lat":-6.276362,"i_long":106.74273,"station_id":"PDJ","is_transit":false},{"transit":false,"station_name":"Jurangmangu","distance":2179,"line":6,"station_id":"JMU","i_lat":-6.288927,"is_transit":false,"time":3,"i_long":106.728916},{"i_long":106.712277,"i_lat":-6.296963,"line":6,"station_name":"Sudimara","is_transit":false,"time":4,"station_id":"SDM","transit":false,"distance":1994},{"line":6,"i_lat":-6.314823,"transit":false,"time":6,"i_long":106.675475,"station_name":"Rawa Buntu","is_transit":false,"station_id":"RU","distance":4566}]]}