{"data":[[{"station_id":"TLM","time":0,"is_transit":false,"distance":0,"transit":false,"i_lat":-6.262938,"station_name":"Metland Telaga Murni","line":1,"i_long":107.093313},{"transit":false,"line":0,"distance":2800,"i_lat":-6.261877,"i_long":107.083084,"station_name":"Cibitung","is_transit":false,"time":2,"station_id":"CIT"},{"time":3,"transit":false,"i_lat":-6.258864,"distance":3420,"i_long":107.055722,"line":1,"station_name":"Tambun","is_transit":false,"station_id":"TB"},{"transit":false,"i_long":107.016735,"line":0,"station_name":"Bekasi Timur","is_transit":false,"distance":4460,"station_id":"BKST","time":7,"i_lat":-6.248029},{"time":2,"line":0,"station_id":"BKS","i_lat":-6.236616,"distance":2368,"station_name":"Bekasi","transit":false,"i_long":106.997013,"is_transit":false},{"station_id":"KRI","is_transit":false,"i_lat":-6.224515,"transit":false,"line":1,"time":4,"distance":2520,"station_name":"Kranji","i_long":106.977657},{"is_transit":false,"time":3,"transit":false,"station_id":"CUK","i_long":106.951283,"line":0,"distance":3097,"station_name":"Cakung","i_lat":-6.219053},{"station_name":"Klenderbaru","i_long":106.939679,"distance":1385,"is_transit":false,"transit":false,"station_id":"KLDB","time":8,"i_lat":-6.217455,"line":1},{"station_id":"BUA","time":1,"transit":false,"i_lat":-6.215568,"line":0,"i_long":106.922662,"station_name":"Buaran","distance":1305,"is_transit":false},{"i_lat":-6.2135,"distance":3100,"station_name":"Klender","time":2,"transit":false,"station_id":"KLD","line":1,"is_transit":false,"i_long":106.899548},{"distance":3395,"is_transit":true,"line":0,"i_long":106.86807400000001,"transit":false,"i_lat":-6.215091,"station_id":"JNG","station_name":"Jatinegara","time":3},{"i_lat":-6.212485,"station_name":"Matraman","time":2,"transit":false,"i_long":106.858896,"station_id":"MTR","is_transit":false,"line":1,"distance":1377},{"station_name":"Manggarai","transit":false,"is_transit":true,"station_id":"MRI","time":2,"i_lat":-6.209883,"i_long":106.84912,"line":0,"distance":1275},{"i_lat":-6.202263,"line":1,"transit":false,"is_transit":false,"time":4,"i_long":106.822649,"station_name":"Sudirman","station_id":"SUD","distance":3186},{"distance":280,"line":1,"i_long":106.819881,"is_transit":false,"station_id":"SUDB","station_name":"Sudirman Baru","time":1,"i_lat":-6.201433,"transit":false},{"time":1,"distance":471,"station_id":"KAT","i_lat":-6.20132,"line":1,"is_transit":false,"i_long":106.816351,"transit":false,"station_name":"Karet"},{"distance":2029,"station_name":"Tanah Abang","station_id":"THB","time":5,"i_lat":-6.185545,"transit":true,"i_long":106.811091,"is_transit":true,"line":1},{"time":6,"distance":3191,"transit":false,"station_id":"PLM","i_lat":-6.207404,"i_long":106.79689,"station_name":"Palmerah","line":6,"is_transit":false},{"i_lat":-6.237242,"station_name":"Kebayoran","is_transit":false,"station_id":"KBY","i_long":106.780334,"line":6,"time":7,"distance":3737,"transit":false},{"is_transit":false,"station_name":"Pondokranji","i_lat":-6.276362,"line":6,"station_id":"PDJ","transit":false,"distance":6218,"time":8,"i_long":106.74273},{"time":3,"station_name":"Jurangmangu","distance":2179,"i_long":106.728916,"i_lat":-6.288927,"transit":false,"station_id":"JMU","line":6,"is_transit":false},{"transit":false,"i_long":106.712277,"line":6,"is_transit":false,"time":4,"distance":1994,"station_id":"SDM","i_lat":-6.296963,"station_name":"Sudimara"},{"i_lat":-6.314823,"line":6,"station_name":"Rawa Buntu","is_transit":false,"distance":4566,"i_long":106.675475,"time":6,"transit":false,"station_id":"RU"}],[{"is_transit":false,"station_name":"Metland Telaga Murni","i_lat":-6.262938,"i_long":107.093313,"station_id":"TLM","time":0,"line":1,"transit":false,"distance":0},{"transit":false,"i_lat":-6.261877,"i_long":107.083084,"is_transit":false,"distance":2800,"line":0,"station_id":"CIT","station_name":"Cibitung","time":2},{"station_id":"TB","station_name":"Tambun","transit":false,"distance":3420,"i_lat":-6.258864,"i_long":107.055722,"line":1,"is_transit":false,"time":3},{"station_id":"BKST","i_long":107.016735,"time":7,"distance":4460,"i_lat":-6.248029,"line":0,"station_name":"Bekasi Timur","transit":false,"is_transit":false},{"is_transit":false,"distance":2368,"station_id":"BKS","station_name":"Bekasi","time":2,"transit":false,"i_lat":-6.236616,"i_long":106.997013,"line":0},{"line":1,"is_transit":false,"time":4,"station_id":"KRI","distance":2520,"transit":false,"station_name":"Kranji","i_long":106.977657,"i_lat":-6.224515},{"is_transit":false,"station_name":"Cakung","transit":false,"station_id":"CUK","distance":3097,"i_lat":-6.219053,"line":0,"i_long":106.951283,"time":3},{"i_lat":-6.217455,"time":8,"i_long":106.939679,"is_transit":false,"line":1,"station_id":"KLDB","distance":1385,"station_name":"Klenderbaru","transit":false},{"transit":false,"time":1,"i_long":106.922662,"i_lat":-6.215568,"is_transit":false,"line":0,"distance":1305,"station_id":"BUA","station_name":"Buaran"},{"i_lat":-6.2135,"transit":false,"i_long":106.899548,"station_id":"KLD","line":1,"station_name":"Klender","time":2,"is_transit":false,"distance":3100},{"i_lat":-6.215091,"is_transit":true,"time":3,"transit":true,"distance":3395,"line":0,"station_id":"JNG","i_long":106.86807400000001,"station_name":"Jatinegara"},{"transit":false,"station_name":"Pondok Jati","time":2,"distance":1236,"line":11,"is_transit":false,"station_id":"POK","i_lat":-6.209188,"i_long":106.861737},{"time":2,"i_lat":-6.193792,"line":11,"i_long":106.855437,"station_id":"KMT","station_name":"Kramat","is_transit":false,"distance":1829,"transit":false},{"i_long":106.850107,"line":11,"distance":973,"station_name":"Gang Sentiong","i_lat":-6.185975,"station_id":"GST","time":1,"is_transit":false,"transit":false},{"station_id":"PSE","is_transit":false,"time":8,"transit":false,"i_lat":-6.174784,"line":11,"station_name":"Pasar Senen","i_long":106.84368,"distance":1567},{"time":4,"distance":1436,"i_long":106.839204,"line":11,"station_name":"Kemayoran","transit":false,"station_id":"KMO","i_lat":-6.161728,"is_transit":false},{"is_transit":false,"time":5,"transit":false,"line":11,"station_name":"Rajawali","i_lat":-6.14505,"distance":1901,"station_id":"RJW","i_long":106.836569},{"distance":1444,"station_id":"KPB","i_lat":-6.132549,"transit":true,"station_name":"Kampung Bandan","time":3,"is_transit":true,"i_long":106.826365,"line":0},{"transit":false,"is_transit":false,"time":9,"i_lat":-6.144674,"line":0,"station_id":"AK","i_long":106.79867,"distance":4102,"station_name":"Angke"},{"transit":true,"i_long":106.800832,"i_lat":-6.155215,"line":1,"station_id":"DU","is_transit":true,"station_name":"Duri","distance":1230,"time":4},{"station_id":"THB","is_transit":true,"i_lat":-6.185545,"distance":3632,"transit":true,"line":1,"time":8,"station_name":"Tanah Abang","i_long":106.811091},{"time":6,"transit":false,"i_lat":-6.207404,"line":6,"station_name":"Palmerah","distance":3191,"is_transit":false,"station_id":"PLM","i_long":106.79689},{"i_lat":-6.237242,"distance":3737,"i_long":106.780334,"station_name":"Kebayoran","time":7,"transit":false,"line":6,"is_transit":false,"station_id":"KBY"},{"transit":false,"station_name":"Pondokranji","i_long":106.74273,"line":6,"time":8,"distance":6218,"station_id":"PDJ","is_transit":false,"i_lat":-6.276362},{"line":6,"time":3,"i_lat":-6.288927,"station_name":"Jurangmangu","is_transit":false,"transit":false,"station_id":"JMU","distance":2179,"i_long":106.728916},{"distance":1994,"station_id":"SDM","station_name":"Sudimara","i_lat":-6.296963,"is_transit":false,"transit":false,"line":6,"i_long":106.712277,"time":4},{"station_name":"Rawa Buntu","is_transit":false,"distance":4566,"station_id":"RU","time":6,"transit":false,"i_long":106.675475,"line":6,"i_lat":-6.314823}],[{"line":1,"is_transit":false,"transit":false,"station_id":"TLM","station_name":"Metland Telaga Murni","distance":0,"i_lat":-6.262938,"time":0,"i_long":107.093313},{"station_name":"Cibitung","line":0,"i_long":107.083084,"station_id":"CIT","transit":false,"is_transit":false,"time":2,"distance":2800,"i_lat":-6.261877},{"time":3,"distance":3420,"is_transit":false,"station_id":"TB","i_lat":-6.258864,"line":1,"transit":false,"i_long":107.055722,"station_name":"Tambun"},{"distance":4460,"i_lat":-6.248029,"station_id":"BKST","line":0,"station_name":"Bekasi Timur","time":7,"is_transit":false,"transit":false,"i_long":107.016735},{"i_long":106.997013,"station_name":"Bekasi","distance":2368,"i_lat":-6.236616,"line":0,"time":2,"station_id":"BKS","is_transit":false,"transit":false},{"is_transit":false,"time":4,"i_lat":-6.224515,"station_name":"Kranji","distance":2520,"i_long":106.977657,"line":1,"station_id":"KRI","transit":false},{"time":3,"station_name":"Cakung","station_id":"CUK","i_lat":-6.219053,"i_long":106.951283,"line":0,"is_transit":false,"distance":3097,"transit":false},{"line":1,"i_lat":-6.217455,"time":8,"distance":1385,"is_transit":false,"station_name":"Klenderbaru","station_id":"KLDB","transit":false,"i_long":106.939679},{"time":1,"line":0,"station_id":"BUA","i_long":106.922662,"is_transit":false,"station_name":"Buaran","distance":1305,"transit":false,"i_lat":-6.215568},{"line":1,"distance":3100,"station_name":"Klender","time":2,"transit":false,"i_lat":-6.2135,"station_id":"KLD","i_long":106.899548,"is_transit":false},{"station_name":"Jatinegara","line":0,"i_lat":-6.215091,"is_transit":true,"time":3,"distance":3395,"station_id":"JNG","i_long":106.86807400000001,"transit":false},{"i_lat":-6.212485,"station_name":"Matraman","is_transit":false,"distance":1377,"station_id":"MTR","transit":false,"time":2,"line":1,"i_long":106.858896},{"time":2,"station_id":"MRI","station_name":"Manggarai","transit":true,"i_lat":-6.209883,"line":0,"distance":1275,"is_transit":true,"i_long":106.84912},{"i_long":106.840169,"time":4,"line":0,"station_name":"Cikini","station_id":"CKI","distance":1590,"i_lat":-6.198556,"is_transit":false,"transit":false},{"station_name":"Gondangdia","station_id":"GDD","i_lat":-6.186295,"i_long":106.832183,"line":2,"transit":false,"is_transit":false,"time":3,"distance":1750},{"i_lat":-6.166716,"line":2,"station_id":"JUA","i_long":106.828284,"is_transit":false,"station_name":"Juanda","distance":2015,"transit":false,"time":4},{"is_transit":false,"i_lat":-6.160725,"i_long":106.827103,"line":2,"distance":1149,"transit":false,"station_id":"SW","station_name":"Sawah Besar","time":2},{"transit":false,"line":2,"time":2,"is_transit":false,"station_id":"MGB","distance":906,"i_lat":-6.149769,"station_name":"Manggabesar","i_long":106.82482},{"station_name":"Jayakarta","is_transit":false,"time":2,"station_id":"JAY","transit":false,"i_lat":-6.141205,"i_long":106.820901,"distance":1080,"line":7},{"distance":1264,"is_transit":true,"station_name":"Jakarta Kota","i_long":106.812439,"station_id":"JAKK","transit":true,"i_lat":-6.137569,"time":4,"line":0},{"time":3,"line":0,"i_long":106.826365,"station_name":"Kampung Bandan","distance":1364,"is_transit":true,"station_id":"KPB","transit":false,"i_lat":-6.132549},{"i_lat":-6.144674,"line":0,"distance":4102,"is_transit":false,"station_name":"Angke","time":9,"station_id":"AK","i_long":106.79867,"transit":false},{"station_id":"DU","line":1,"station_name":"Duri","distance":1230,"i_long":106.800832,"is_transit":true,"i_lat":-6.155215,"time":4,"transit":true},{"station_name":"Tanah Abang","i_long":106.811091,"time":8,"is_transit":true,"i_lat":-6.185545,"transit":true,"line":1,"station_id":"THB","distance":3632},{"time":6,"is_transit":false,"i_lat":-6.207404,"transit":false,"station_name":"Palmerah","distance":3191,"line":6,"station_id":"PLM","i_long":106.79689},{"time":7,"station_name":"Kebayoran","transit":false,"distance":3737,"is_transit":false,"i_lat":-6.237242,"i_long":106.780334,"station_id":"KBY","line":6},{"distance":6218,"i_lat":-6.276362,"station_name":"Pondokranji","time":8,"is_transit":false,"i_long":106.74273,"line":6,"transit":false,"station_id":"PDJ"},{"i_long":106.728916,"transit":false,"distance":2179,"line":6,"is_transit":false,"station_id":"JMU","time":3,"i_lat":-6.288927,"station_name":"Jurangmangu"},{"transit":false,"i_lat":-6.296963,"station_name":"Sudimara","i_long":106.712277,"station_id":"SDM","is_transit":false,"time":4,"distance":1994,"line":6},{"time":6,"i_lat":-6.314823,"station_name":"Rawa Buntu","transit":false,"station_id":"RU","distance":4566,"i_long":106.675475,"line":6,"is_transit":false}],[{"i_lat":-6.262938,"station_id":"TLM","is_transit":false,"time":0,"i_long":107.093313,"line":1,"transit":false,"distance":0,"station_name":"Metland Telaga Murni"},{"i_long":107.083084,"transit":false,"time":2,"i_lat":-6.261877,"station_id":"CIT","distance":2800,"station_name":"Cibitung","is_transit":false,"line":0},{"distance":3420,"transit":false,"line":1,"is_transit":false,"i_lat":-6.258864,"i_long":107.055722,"station_name":"Tambun","station_id":"TB","time":3},{"is_transit":false,"transit":false,"distance":4460,"i_long":107.016735,"station_name":"Bekasi Timur","station_id":"BKST","line":0,"time":7,"i_lat":-6.248029},{"i_long":106.997013,"i_lat":-6.236616,"time":2,"distance":2368,"transit":false,"line":0,"is_transit":false,"station_name":"Bekasi","station_id":"BKS"},{"station_id":"KRI","time":4,"is_transit":false,"station_name":"Kranji","distance":2520,"line":1,"transit":false,"i_long":106.977657,"i_lat":-6.224515},{"is_transit":false,"distance":3097,"station_name":"Cakung","transit":false,"i_lat":-6.219053,"time":3,"i_long":106.951283,"line":0,"station_id":"CUK"},{"i_long":106.939679,"transit":false,"line":1,"distance":1385,"time":8,"station_id":"KLDB","is_transit":false,"station_name":"Klenderbaru","i_lat":-6.217455},{"transit":false,"i_long":106.922662,"station_name":"Buaran","station_id":"BUA","is_transit":false,"line":0,"distance":1305,"time":1,"i_lat":-6.215568},{"distance":3100,"line":1,"station_id":"KLD","transit":false,"i_lat":-6.2135,"time":2,"is_transit":false,"station_name":"Klender","i_long":106.899548},{"i_long":106.86807400000001,"line":0,"i_lat":-6.215091,"is_transit":true,"station_name":"Jatinegara","distance":3395,"station_id":"JNG","time":3,"transit":true},{"transit":false,"station_name":"Pondok Jati","station_id":"POK","line":11,"i_long":106.861737,"is_transit":false,"i_lat":-6.209188,"time":2,"distance":1236},{"line":11,"is_transit":false,"time":2,"distance":1829,"i_lat":-6.193792,"i_long":106.855437,"station_id":"KMT","station_name":"Kramat","transit":false},{"i_long":106.850107,"station_name":"Gang Sentiong","time":1,"station_id":"GST","line":11,"transit":false,"distance":973,"i_lat":-6.185975,"is_transit":false},{"station_id":"PSE","time":8,"transit":false,"distance":1567,"is_transit":false,"station_name":"Pasar Senen","line":11,"i_long":106.84368,"i_lat":-6.174784},{"is_transit":false,"distance":1436,"time":4,"i_lat":-6.161728,"line":11,"station_name":"Kemayoran","i_long":106.839204,"transit":false,"station_id":"KMO"},{"i_lat":-6.14505,"station_id":"RJW","transit":false,"station_name":"Rajawali","i_long":106.836569,"distance":1901,"line":11,"is_transit":false,"time":5},{"distance":1444,"line":0,"station_name":"Kampung Bandan","is_transit":true,"transit":true,"i_long":106.826365,"time":3,"i_lat":-6.132549,"station_id":"KPB"},{"is_transit":true,"station_id":"JAKK","distance":1364,"line":0,"time":3,"i_lat":-6.137569,"i_long":106.812439,"station_name":"Jakarta Kota","transit":true},{"is_transit":false,"i_lat":-6.141205,"distance":1264,"time":4,"station_id":"JAY","station_name":"Jayakarta","i_long":106.820901,"transit":false,"line":7},{"station_name":"Manggabesar","distance":1080,"time":2,"station_id":"MGB","i_lat":-6.149769,"i_long":106.82482,"transit":false,"is_transit":false,"line":2},{"line":2,"distance":906,"station_name":"Sawah Besar","transit":false,"i_long":106.827103,"i_lat":-6.160725,"station_id":"SW","is_transit":false,"time":2},{"is_transit":false,"time":2,"transit":false,"i_lat":-6.166716,"line":2,"station_name":"Juanda","station_id":"JUA","distance":1149,"i_long":106.828284},{"i_lat":-6.186295,"i_long":106.832183,"line":2,"station_name":"Gondangdia","is_transit":false,"transit":false,"time":4,"distance":2015,"station_id":"GDD"},{"distance":1750,"time":3,"station_id":"CKI","is_transit":false,"i_long":106.840169,"line":0,"transit":false,"i_lat":-6.198556,"station_name":"Cikini"},{"line":0,"time":4,"is_transit":true,"station_name":"Manggarai","station_id":"MRI","distance":1590,"transit":true,"i_lat":-6.209883,"i_long":106.84912},{"station_name":"Sudirman","line":1,"is_transit":false,"time":4,"i_lat":-6.202263,"i_long":106.822649,"distance":3186,"station_id":"SUD","transit":false},{"time":1,"station_name":"Sudirman Baru","station_id":"SUDB","transit":false,"is_transit":false,"i_long":106.819881,"distance":280,"i_lat":-6.201433,"line":1},{"station_id":"KAT","is_transit":false,"station_name":"Karet","distance":471,"time":1,"transit":false,"i_lat":-6.20132,"i_long":106.816351,"line":1},{"transit":true,"i_lat":-6.185545,"is_transit":true,"time":5,"line":1,"distance":2029,"i_long":106.811091,"station_name":"Tanah Abang","station_id":"THB"},{"time":6,"distance":3191,"transit":false,"line":6,"station_name":"Palmerah","is_transit":false,"i_lat":-6.207404,"station_id":"PLM","i_long":106.79689},{"line":6,"i_lat":-6.237242,"transit":false,"station_id":"KBY","distance":3737,"i_long":106.780334,"station_name":"Kebayoran","time":7,"is_transit":false},{"i_lat":-6.276362,"i_long":106.74273,"distance":6218,"transit":false,"station_id":"PDJ","time":8,"station_name":"Pondokranji","line":6,"is_transit":false},{"station_name":"Jurangmangu","transit":false,"i_lat":-6.288927,"is_transit":false,"time":3,"distance":2179,"line":6,"station_id":"JMU","i_long":106.728916},{"transit":false,"station_id":"SDM","line":6,"i_lat":-6.296963,"time":4,"distance":1994,"i_long":106.712277,"station_name":"Sudimara","is_transit":false},{"station_name":"Rawa Buntu","distance":4566,"station_id":"RU","i_long":106.675475,"line":6,"is_transit":false,"time":6,"i_lat":-6.314823,"transit":false}]]}