{"data":[[{"transit":false,"distance":0,"station_id":"TLM","is_transit":false,"station_name":"Metland Telaga Murni","i_lat":-6.262938,"i_long":107.093313,"line":1,"time":0},{"station_id":"CIT","distance":2800,"time":2,"i_long":107.083084,"station_name":"Cibitung","is_transit":false,"i_lat":-6.261877,"transit":false,"line":1},{"time":3,"transit":false,"distance":3420,"i_long":107.055722,"station_name":"Tambun","is_transit":false,"i_lat":-6.258864,"station_id":"TB","line":1},{"transit":false,"line":1,"station_id":"BKST","is_transit":false,"station_name":"Bekasi Timur","time":7,"distance":4460,"i_lat":-6.248029,"i_long":107.016735},{"distance":2368,"is_transit":false,"station_name":"Bekasi","time":2,"station_id":"BKS","i_lat":-6.236616,"i_long":106.997013,"transit":false,"line":1},{"time":4,"station_id":"KRI","is_transit":false,"distance":2520,"i_long":106.977657,"i_lat":-6.224515,"line":1,"transit":false,"station_name":"Kranji"},{"transit":false,"station_name":"Cakung","station_id":"CUK","time":3,"distance":3097,"is_transit":false,"i_long":106.951283,"i_lat":-6.219053,"line":1},{"line":1,"distance":1385,"i_lat":-6.217455,"station_id":"KLDB","station_name":"Klenderbaru","i_long":106.939679,"time":8,"transit":false,"is_transit":false},{"time":1,"is_transit":false,"transit":false,"station_id":"BUA","i_lat":-6.215568,"line":1,"i_long":106.922662,"distance":1305,"station_name":"Buaran"},{"is_transit":false,"i_long":106.899548,"line":1,"distance":3100,"station_id":"KLD","i_lat":-6.2135,"transit":false,"time":2,"station_name":"Klender"},{"is_transit":false,"i_long":106.86807400000001,"time":3,"distance":3395,"station_name":"Jatinegara","transit":false,"line":1,"station_id":"JNG","i_lat":-6.215091},{"station_name":"Matraman","i_long":106.858896,"station_id":"MTR","time":2,"distance":1377,"i_lat":-6.212485,"line":1,"transit":false,"is_transit":false},{"station_name":"Manggarai","time":2,"station_id":"MRI","distance":1275,"i_lat":-6.209883,"i_long":106.84912,"is_transit":true,"transit":true,"line":2},{"is_transit":false,"i_lat":-6.226659,"i_long":106.857948,"line":2,"distance":2610,"transit":false,"time":4,"station_name":"Tebet","station_id":"TEB"}],[{"line":1,"station_name":"Metland Telaga Murni","i_lat":-6.262938,"distance":0,"is_transit":false,"time":0,"station_id":"TLM","i_long":107.093313,"transit":false},{"distance":2800,"is_transit":false,"i_long":107.083084,"transit":false,"i_lat":-6.261877,"station_name":"Cibitung","line":1,"time":2,"station_id":"CIT"},{"station_id":"TB","transit":false,"is_transit":false,"distance":3420,"i_lat":-6.258864,"i_long":107.055722,"line":1,"time":3,"station_name":"Tambun"},{"line":1,"transit":false,"station_id":"BKST","distance":4460,"i_long":107.016735,"station_name":"Bekasi Timur","is_transit":false,"time":7,"i_lat":-6.248029},{"is_transit":false,"station_name":"Bekasi","time":2,"i_lat":-6.236616,"station_id":"BKS","distance":2368,"line":1,"i_long":106.997013,"transit":false},{"distance":2520,"station_name":"Kranji","station_id":"KRI","time":4,"i_lat":-6.224515,"transit":false,"i_long":106.977657,"is_transit":false,"line":1},{"distance":3097,"i_long":106.951283,"i_lat":-6.219053,"station_name":"Cakung","time":3,"station_id":"CUK","line":1,"is_transit":false,"transit":false},{"station_name":"Klenderbaru","i_long":106.939679,"line":1,"station_id":"KLDB","transit":false,"is_transit":false,"time":8,"distance":1385,"i_lat":-6.217455},{"i_long":106.922662,"station_name":"Buaran","transit":false,"i_lat":-6.215568,"time":1,"station_id":"BUA","line":1,"is_transit":false,"distance":1305},{"distance":3100,"i_long":106.899548,"i_lat":-6.2135,"is_transit":false,"station_name":"Klender","time":2,"transit":false,"line":1,"station_id":"KLD"},{"station_id":"JNG","station_name":"Jatinegara","is_transit":true,"i_long":106.86807400000001,"line":1,"transit":true,"time":3,"distance":3395,"i_lat":-6.215091},{"distance":1236,"i_lat":-6.209188,"line":11,"time":2,"station_id":"POK","transit":false,"station_name":"Pondok Jati","is_transit":false,"i_long":106.861737},{"transit":false,"distance":1829,"line":11,"i_lat":-6.193792,"i_long":106.855437,"station_id":"KMT","station_name":"Kramat","is_transit":false,"time":2},{"station_name":"Gang Sentiong","i_long":106.850107,"transit":false,"station_id":"GST","line":11,"i_lat":-6.185975,"is_transit":false,"time":1,"distance":973},{"transit":false,"time":8,"is_transit":false,"station_name":"Pasar Senen","station_id":"PSE","distance":1567,"i_lat":-6.174784,"line":11,"i_long":106.84368},{"station_name":"Kemayoran","station_id":"KMO","transit":false,"i_long":106.839204,"line":11,"i_lat":-6.161728,"time":4,"distance":1436,"is_transit":false},{"line":11,"time":5,"transit":false,"distance":1901,"is_transit":false,"station_name":"Rajawali","i_lat":-6.14505,"station_id":"RJW","i_long":106.836569},{"i_long":106.826365,"distance":1444,"station_id":"KPB","transit":true,"is_transit":true,"line":4,"station_name":"Kampung Bandan","time":3,"i_lat":-6.132549},{"is_transit":false,"transit":false,"station_id":"AK","distance":4102,"i_lat":-6.144674,"line":1,"i_long":106.79867,"station_name":"Angke","time":9},{"is_transit":false,"time":4,"i_long":106.800832,"line":1,"station_id":"DU","station_name":"Duri","transit":false,"distance":1230,"i_lat":-6.155215},{"station_name":"Tanah Abang","transit":false,"is_transit":false,"i_lat":-6.185545,"i_long":106.811091,"station_id":"THB","time":8,"distance":3632,"line":1},{"transit":false,"is_transit":false,"station_id":"KAT","station_name":"Karet","i_lat":-6.20132,"i_long":106.816351,"distance":2029,"line":1,"time":5},{"line":1,"transit":false,"i_long":106.819881,"station_name":"Sudirman Baru","is_transit":false,"time":1,"station_id":"SUDB","distance":471,"i_lat":-6.201433},{"time":1,"station_name":"Sudirman","i_long":106.822649,"is_transit":false,"distance":280,"transit":false,"line":1,"station_id":"SUD","i_lat":-6.202263},{"transit":true,"station_name":"Manggarai","station_id":"MRI","is_transit":true,"time":4,"i_lat":-6.209883,"i_long":106.84912,"line":2,"distance":3186},{"time":4,"transit":false,"station_id":"TEB","i_lat":-6.226659,"is_transit":false,"i_long":106.857948,"line":2,"station_name":"Tebet","distance":2610}],[{"transit":false,"distance":0,"i_long":107.093313,"line":1,"station_id":"TLM","time":0,"is_transit":false,"i_lat":-6.262938,"station_name":"Metland Telaga Murni"},{"transit":false,"distance":2800,"time":2,"line":1,"i_lat":-6.261877,"i_long":107.083084,"station_id":"CIT","is_transit":false,"station_name":"Cibitung"},{"time":3,"i_lat":-6.258864,"station_id":"TB","station_name":"Tambun","i_long":107.055722,"distance":3420,"line":1,"is_transit":false,"transit":false},{"station_id":"BKST","transit":false,"is_transit":false,"distance":4460,"line":1,"i_lat":-6.248029,"station_name":"Bekasi Timur","time":7,"i_long":107.016735},{"i_lat":-6.236616,"i_long":106.997013,"time":2,"station_name":"Bekasi","station_id":"BKS","distance":2368,"is_transit":false,"line":1,"transit":false},{"is_transit":false,"i_lat":-6.224515,"i_long":106.977657,"transit":false,"station_name":"Kranji","time":4,"line":1,"station_id":"KRI","distance":2520},{"line":1,"station_name":"Cakung","transit":false,"i_long":106.951283,"time":3,"station_id":"CUK","i_lat":-6.219053,"is_transit":false,"distance":3097},{"time":8,"transit":false,"i_lat":-6.217455,"line":1,"i_long":106.939679,"station_name":"Klenderbaru","distance":1385,"is_transit":false,"station_id":"KLDB"},{"station_name":"Buaran","i_lat":-6.215568,"station_id":"BUA","transit":false,"i_long":106.922662,"is_transit":false,"distance":1305,"time":1,"line":1},{"transit":false,"distance":3100,"i_long":106.899548,"i_lat":-6.2135,"station_id":"KLD","time":2,"station_name":"Klender","line":1,"is_transit":false},{"station_name":"Jatinegara","distance":3395,"transit":true,"line":1,"time":3,"is_transit":true,"i_lat":-6.215091,"i_long":106.86807400000001,"station_id":"JNG"},{"line":11,"station_name":"Pondok Jati","transit":false,"is_transit":false,"station_id":"POK","i_long":106.861737,"time":2,"distance":1236,"i_lat":-6.209188},{"is_transit":false,"distance":1829,"station_id":"KMT","time":2,"i_lat":-6.193792,"i_long":106.855437,"station_name":"Kramat","line":11,"transit":false},{"transit":false,"distance":973,"i_long":106.850107,"station_id":"GST","is_transit":false,"line":11,"station_name":"Gang Sentiong","i_lat":-6.185975,"time":1},{"station_id":"PSE","i_long":106.84368,"distance":1567,"i_lat":-6.174784,"time":8,"is_transit":false,"line":11,"station_name":"Pasar Senen","transit":false},{"line":11,"station_name":"Kemayoran","i_long":106.839204,"time":4,"i_lat":-6.161728,"station_id":"KMO","is_transit":false,"distance":1436,"transit":false},{"i_lat":-6.14505,"line":11,"station_id":"RJW","distance":1901,"i_long":106.836569,"transit":false,"time":5,"is_transit":false,"station_name":"Rajawali"},{"time":3,"i_lat":-6.132549,"distance":1444,"line":4,"i_long":106.826365,"is_transit":true,"transit":true,"station_name":"Kampung Bandan","station_id":"KPB"},{"is_transit":true,"station_name":"Jakarta Kota","time":3,"i_lat":-6.137569,"station_id":"JAKK","transit":true,"i_long":106.812439,"line":2,"distance":1364},{"station_name":"Jayakarta","line":2,"i_long":106.820901,"distance":1264,"i_lat":-6.141205,"station_id":"JAY","transit":false,"is_transit":false,"time":4},{"station_id":"MGB","transit":false,"station_name":"Manggabesar","time":2,"is_transit":false,"distance":1080,"i_long":106.82482,"i_lat":-6.149769,"line":2},{"station_name":"Sawah Besar","i_lat":-6.160725,"station_id":"SW","is_transit":false,"transit":false,"time":2,"line":2,"distance":906,"i_long":106.827103},{"time":2,"station_id":"JUA","line":2,"i_lat":-6.166716,"i_long":106.828284,"is_transit":false,"transit":false,"station_name":"Juanda","distance":1149},{"i_long":106.832183,"line":2,"is_transit":false,"station_id":"GDD","distance":2015,"transit":false,"station_name":"Gondangdia","i_lat":-6.186295,"time":4},{"station_id":"CKI","is_transit":false,"line":2,"time":3,"transit":false,"distance":1750,"i_lat":-6.198556,"station_name":"Cikini","i_long":106.840169},{"i_lat":-6.209883,"distance":1590,"transit":false,"station_name":"Manggarai","time":4,"is_transit":false,"i_long":106.84912,"station_id":"MRI","line":2},{"is_transit":false,"distance":2610,"i_long":106.857948,"time":4,"i_lat":-6.226659,"transit":false,"station_name":"Tebet","line":2,"station_id":"TEB"}]]}