{"data":[[{"i_lat":-6.262938,"time":0,"is_transit":false,"transit":false,"i_long":107.093313,"station_name":"Metland Telaga Murni","line":1,"distance":0,"station_id":"TLM"},{"station_name":"Cibitung","i_long":107.083084,"line":1,"time":2,"distance":2800,"is_transit":false,"station_id":"CIT","transit":false,"i_lat":-6.261877},{"i_long":107.055722,"time":3,"is_transit":false,"transit":false,"line":1,"i_lat":-6.258864,"station_id":"TB","distance":3420,"station_name":"Tambun"},{"line":1,"time":7,"i_long":107.016735,"distance":4460,"i_lat":-6.248029,"is_transit":false,"station_id":"BKST","transit":false,"station_name":"Bekasi Timur"},{"i_lat":-6.236616,"station_id":"BKS","transit":false,"station_name":"Bekasi","is_transit":false,"time":2,"distance":2368,"line":1,"i_long":106.997013},{"transit":false,"is_transit":false,"i_long":106.977657,"line":1,"time":4,"station_name":"Kranji","i_lat":-6.224515,"station_id":"KRI","distance":2520},{"transit":false,"i_long":106.951283,"time":3,"distance":3097,"is_transit":false,"line":1,"station_id":"CUK","station_name":"Cakung","i_lat":-6.219053},{"time":8,"i_long":106.939679,"station_id":"KLDB","distance":1385,"is_transit":false,"station_name":"Klenderbaru","i_lat":-6.217455,"transit":false,"line":1},{"station_name":"Buaran","i_long":106.922662,"line":1,"transit":false,"i_lat":-6.215568,"station_id":"BUA","is_transit":false,"time":1,"distance":1305},{"is_transit":false,"station_name":"Klender","i_lat":-6.2135,"distance":3100,"station_id":"KLD","transit":false,"line":1,"i_long":106.899548,"time":2},{"line":1,"station_name":"Jatinegara","transit":false,"i_long":106.86807400000001,"station_id":"JNG","i_lat":-6.215091,"distance":3395,"time":3,"is_transit":false},{"distance":1377,"is_transit":false,"i_long":106.858896,"station_name":"Matraman","time":2,"line":1,"i_lat":-6.212485,"transit":false,"station_id":"MTR"},{"is_transit":false,"transit":false,"i_long":106.84912,"line":2,"i_lat":-6.209883,"time":2,"station_id":"MRI","distance":1275,"station_name":"Manggarai"},{"station_id":"SUD","time":4,"line":1,"transit":false,"i_long":106.822649,"distance":3186,"station_name":"Sudirman","i_lat":-6.202263,"is_transit":false},{"i_long":106.819881,"is_transit":false,"station_name":"Sudirman Baru","transit":false,"station_id":"SUDB","line":1,"time":1,"i_lat":-6.201433,"distance":280},{"station_id":"KAT","transit":false,"time":1,"i_long":106.816351,"is_transit":false,"station_name":"Karet","distance":471,"i_lat":-6.20132,"line":1},{"transit":true,"station_name":"Tanah Abang","is_transit":true,"time":5,"i_lat":-6.185545,"i_long":106.811091,"station_id":"THB","line":1,"distance":2029},{"station_id":"PLM","time":6,"i_lat":-6.207404,"transit":false,"line":6,"distance":3191,"is_transit":false,"station_name":"Palmerah","i_long":106.79689}],[{"station_id":"TLM","line":1,"i_long":107.093313,"i_lat":-6.262938,"distance":0,"is_transit":false,"time":0,"transit":false,"station_name":"Metland Telaga Murni"},{"transit":false,"i_long":107.083084,"time":2,"is_transit":false,"station_name":"Cibitung","station_id":"CIT","i_lat":-6.261877,"line":1,"distance":2800},{"line":1,"i_lat":-6.258864,"is_transit":false,"transit":false,"time":3,"i_long":107.055722,"station_id":"TB","station_name":"Tambun","distance":3420},{"i_long":107.016735,"time":7,"i_lat":-6.248029,"station_id":"BKST","station_name":"Bekasi Timur","line":1,"distance":4460,"transit":false,"is_transit":false},{"station_name":"Bekasi","i_long":106.997013,"line":1,"station_id":"BKS","i_lat":-6.236616,"is_transit":false,"transit":false,"distance":2368,"time":2},{"station_id":"KRI","transit":false,"distance":2520,"is_transit":false,"i_long":106.977657,"time":4,"line":1,"station_name":"Kranji","i_lat":-6.224515},{"i_lat":-6.219053,"distance":3097,"is_transit":false,"line":1,"transit":false,"i_long":106.951283,"time":3,"station_id":"CUK","station_name":"Cakung"},{"is_transit":false,"station_name":"Klenderbaru","transit":false,"i_lat":-6.217455,"line":1,"distance":1385,"i_long":106.939679,"station_id":"KLDB","time":8},{"distance":1305,"i_long":106.922662,"transit":false,"time":1,"i_lat":-6.215568,"station_id":"BUA","line":1,"is_transit":false,"station_name":"Buaran"},{"transit":false,"distance":3100,"is_transit":false,"station_name":"Klender","i_lat":-6.2135,"time":2,"station_id":"KLD","i_long":106.899548,"line":1},{"distance":3395,"transit":true,"i_long":106.86807400000001,"line":1,"station_id":"JNG","station_name":"Jatinegara","i_lat":-6.215091,"is_transit":true,"time":3},{"station_id":"POK","transit":false,"is_transit":false,"i_lat":-6.209188,"i_long":106.861737,"line":11,"time":2,"station_name":"Pondok Jati","distance":1236},{"is_transit":false,"i_long":106.855437,"station_id":"KMT","line":11,"transit":false,"distance":1829,"station_name":"Kramat","time":2,"i_lat":-6.193792},{"transit":false,"i_lat":-6.185975,"station_name":"Gang Sentiong","is_transit":false,"distance":973,"station_id":"GST","time":1,"line":11,"i_long":106.850107},{"transit":false,"line":11,"time":8,"station_id":"PSE","is_transit":false,"station_name":"Pasar Senen","i_lat":-6.174784,"distance":1567,"i_long":106.84368},{"station_id":"KMO","station_name":"Kemayoran","distance":1436,"time":4,"i_lat":-6.161728,"transit":false,"i_long":106.839204,"line":11,"is_transit":false},{"transit":false,"station_name":"Rajawali","is_transit":false,"distance":1901,"i_lat":-6.14505,"station_id":"RJW","line":11,"i_long":106.836569,"time":5},{"time":3,"distance":1444,"station_id":"KPB","station_name":"Kampung Bandan","i_long":106.826365,"is_transit":true,"line":4,"i_lat":-6.132549,"transit":true},{"is_transit":false,"i_lat":-6.144674,"distance":4102,"line":1,"transit":false,"time":9,"station_name":"Angke","i_long":106.79867,"station_id":"AK"},{"line":1,"station_id":"DU","station_name":"Duri","time":4,"distance":1230,"is_transit":false,"i_lat":-6.155215,"transit":false,"i_long":106.800832},{"is_transit":true,"line":1,"station_id":"THB","i_lat":-6.185545,"time":8,"station_name":"Tanah Abang","distance":3632,"transit":true,"i_long":106.811091},{"is_transit":false,"line":6,"i_long":106.79689,"time":6,"transit":false,"station_id":"PLM","station_name":"Palmerah","distance":3191,"i_lat":-6.207404}],[{"i_long":107.093313,"station_id":"TLM","distance":0,"is_transit":false,"i_lat":-6.262938,"line":1,"station_name":"Metland Telaga Murni","time":0,"transit":false},{"station_id":"CIT","is_transit":false,"i_lat":-6.261877,"distance":2800,"transit":false,"i_long":107.083084,"line":1,"time":2,"station_name":"Cibitung"},{"distance":3420,"station_id":"TB","station_name":"Tambun","i_long":107.055722,"transit":false,"time":3,"is_transit":false,"i_lat":-6.258864,"line":1},{"i_long":107.016735,"station_id":"BKST","transit":false,"is_transit":false,"distance":4460,"station_name":"Bekasi Timur","time":7,"i_lat":-6.248029,"line":1},{"station_id":"BKS","transit":false,"line":1,"i_long":106.997013,"i_lat":-6.236616,"station_name":"Bekasi","time":2,"distance":2368,"is_transit":false},{"i_lat":-6.224515,"station_name":"Kranji","is_transit":false,"line":1,"time":4,"distance":2520,"station_id":"KRI","transit":false,"i_long":106.977657},{"transit":false,"i_long":106.951283,"line":1,"is_transit":false,"distance":3097,"time":3,"station_id":"CUK","station_name":"Cakung","i_lat":-6.219053},{"transit":false,"is_transit":false,"station_name":"Klenderbaru","i_lat":-6.217455,"i_long":106.939679,"station_id":"KLDB","distance":1385,"line":1,"time":8},{"i_long":106.922662,"line":1,"distance":1305,"time":1,"is_transit":false,"transit":false,"station_id":"BUA","station_name":"Buaran","i_lat":-6.215568},{"i_lat":-6.2135,"is_transit":false,"transit":false,"time":2,"station_id":"KLD","distance":3100,"station_name":"Klender","line":1,"i_long":106.899548},{"station_name":"Jatinegara","line":1,"i_lat":-6.215091,"distance":3395,"is_transit":false,"i_long":106.86807400000001,"time":3,"transit":false,"station_id":"JNG"},{"station_id":"MTR","transit":false,"i_long":106.858896,"line":1,"time":2,"distance":1377,"station_name":"Matraman","is_transit":false,"i_lat":-6.212485},{"distance":1275,"is_transit":true,"i_long":106.84912,"transit":true,"station_name":"Manggarai","station_id":"MRI","line":2,"time":2,"i_lat":-6.209883},{"time":4,"line":2,"station_name":"Cikini","station_id":"CKI","i_lat":-6.198556,"transit":false,"i_long":106.840169,"is_transit":false,"distance":1590},{"transit":false,"line":2,"station_id":"GDD","i_long":106.832183,"distance":1750,"is_transit":false,"i_lat":-6.186295,"station_name":"Gondangdia","time":3},{"is_transit":false,"station_id":"JUA","line":2,"distance":2015,"station_name":"Juanda","transit":false,"i_lat":-6.166716,"i_long":106.828284,"time":4},{"station_name":"Sawah Besar","i_long":106.827103,"is_transit":false,"i_lat":-6.160725,"line":2,"time":2,"station_id":"SW","distance":1149,"transit":false},{"is_transit":false,"i_lat":-6.149769,"line":2,"station_name":"Manggabesar","distance":906,"transit":false,"i_long":106.82482,"station_id":"MGB","time":2},{"distance":1080,"time":2,"i_long":106.820901,"is_transit":false,"station_name":"Jayakarta","transit":false,"station_id":"JAY","i_lat":-6.141205,"line":2},{"line":2,"is_transit":true,"i_lat":-6.137569,"distance":1264,"time":4,"station_id":"JAKK","station_name":"Jakarta Kota","transit":true,"i_long":106.812439},{"is_transit":true,"i_lat":-6.132549,"transit":true,"station_name":"Kampung Bandan","i_long":106.826365,"distance":1364,"line":4,"station_id":"KPB","time":3},{"transit":false,"station_name":"Angke","line":1,"distance":4102,"is_transit":false,"time":9,"station_id":"AK","i_long":106.79867,"i_lat":-6.144674},{"i_lat":-6.155215,"i_long":106.800832,"line":1,"time":4,"distance":1230,"station_id":"DU","station_name":"Duri","is_transit":false,"transit":false},{"time":8,"is_transit":true,"i_lat":-6.185545,"station_name":"Tanah Abang","distance":3632,"station_id":"THB","transit":true,"i_long":106.811091,"line":1},{"station_name":"Palmerah","i_long":106.79689,"line":6,"time":6,"i_lat":-6.207404,"distance":3191,"transit":false,"is_transit":false,"station_id":"PLM"}],[{"time":0,"is_transit":false,"i_lat":-6.262938,"station_id":"TLM","station_name":"Metland Telaga Murni","line":1,"distance":0,"i_long":107.093313,"transit":false},{"distance":2800,"station_id":"CIT","transit":false,"is_transit":false,"i_lat":-6.261877,"i_long":107.083084,"station_name":"Cibitung","line":1,"time":2},{"line":1,"station_id":"TB","transit":false,"i_lat":-6.258864,"time":3,"is_transit":false,"distance":3420,"i_long":107.055722,"station_name":"Tambun"},{"distance":4460,"transit":false,"i_lat":-6.248029,"line":1,"station_name":"Bekasi Timur","is_transit":false,"station_id":"BKST","time":7,"i_long":107.016735},{"i_long":106.997013,"station_id":"BKS","time":2,"distance":2368,"i_lat":-6.236616,"transit":false,"station_name":"Bekasi","is_transit":false,"line":1},{"line":1,"station_name":"Kranji","distance":2520,"time":4,"i_lat":-6.224515,"i_long":106.977657,"station_id":"KRI","transit":false,"is_transit":false},{"transit":false,"i_lat":-6.219053,"i_long":106.951283,"station_id":"CUK","time":3,"is_transit":false,"line":1,"station_name":"Cakung","distance":3097},{"i_long":106.939679,"line":1,"time":8,"distance":1385,"transit":false,"i_lat":-6.217455,"is_transit":false,"station_name":"Klenderbaru","station_id":"KLDB"},{"i_lat":-6.215568,"distance":1305,"i_long":106.922662,"line":1,"is_transit":false,"transit":false,"station_name":"Buaran","time":1,"station_id":"BUA"},{"transit":false,"time":2,"i_lat":-6.2135,"i_long":106.899548,"station_name":"Klender","is_transit":false,"station_id":"KLD","distance":3100,"line":1},{"i_lat":-6.215091,"time":3,"line":1,"transit":true,"is_transit":true,"station_name":"Jatinegara","distance":3395,"station_id":"JNG","i_long":106.86807400000001},{"distance":1236,"time":2,"is_transit":false,"station_id":"POK","transit":false,"station_name":"Pondok Jati","i_lat":-6.209188,"i_long":106.861737,"line":11},{"i_lat":-6.193792,"i_long":106.855437,"is_transit":false,"time":2,"line":11,"distance":1829,"transit":false,"station_name":"Kramat","station_id":"KMT"},{"transit":false,"i_long":106.850107,"line":11,"i_lat":-6.185975,"distance":973,"time":1,"is_transit":false,"station_id":"GST","station_name":"Gang Sentiong"},{"transit":false,"distance":1567,"time":8,"station_id":"PSE","line":11,"i_long":106.84368,"i_lat":-6.174784,"is_transit":false,"station_name":"Pasar Senen"},{"time":4,"i_lat":-6.161728,"station_name":"Kemayoran","i_long":106.839204,"is_transit":false,"line":11,"transit":false,"distance":1436,"station_id":"KMO"},{"i_lat":-6.14505,"station_name":"Rajawali","distance":1901,"time":5,"station_id":"RJW","transit":false,"is_transit":false,"i_long":106.836569,"line":11},{"line":4,"station_name":"Kampung Bandan","i_lat":-6.132549,"station_id":"KPB","transit":true,"i_long":106.826365,"time":3,"is_transit":true,"distance":1444},{"time":3,"is_transit":true,"station_id":"JAKK","distance":1364,"line":2,"transit":true,"i_lat":-6.137569,"station_name":"Jakarta Kota","i_long":106.812439},{"i_long":106.820901,"is_transit":false,"time":4,"line":2,"i_lat":-6.141205,"station_id":"JAY","distance":1264,"station_name":"Jayakarta","transit":false},{"i_long":106.82482,"time":2,"transit":false,"station_id":"MGB","distance":1080,"i_lat":-6.149769,"station_name":"Manggabesar","is_transit":false,"line":2},{"line":2,"is_transit":false,"station_id":"SW","time":2,"transit":false,"distance":906,"station_name":"Sawah Besar","i_lat":-6.160725,"i_long":106.827103},{"i_lat":-6.166716,"station_name":"Juanda","station_id":"JUA","is_transit":false,"line":2,"distance":1149,"transit":false,"time":2,"i_long":106.828284},{"time":4,"transit":false,"station_name":"Gondangdia","station_id":"GDD","i_long":106.832183,"distance":2015,"i_lat":-6.186295,"is_transit":false,"line":2},{"time":3,"is_transit":false,"station_id":"CKI","distance":1750,"transit":false,"i_long":106.840169,"i_lat":-6.198556,"station_name":"Cikini","line":2},{"station_id":"MRI","line":2,"i_lat":-6.209883,"time":4,"distance":1590,"i_long":106.84912,"transit":true,"station_name":"Manggarai","is_transit":true},{"station_id":"SUD","i_long":106.822649,"station_name":"Sudirman","time":4,"i_lat":-6.202263,"transit":false,"line":1,"is_transit":false,"distance":3186},{"line":1,"station_name":"Sudirman Baru","station_id":"SUDB","distance":280,"i_long":106.819881,"is_transit":false,"transit":false,"time":1,"i_lat":-6.201433},{"station_id":"KAT","transit":false,"time":1,"station_name":"Karet","i_lat":-6.20132,"is_transit":false,"line":1,"i_long":106.816351,"distance":471},{"i_long":106.811091,"distance":2029,"time":5,"is_transit":true,"transit":true,"i_lat":-6.185545,"station_id":"THB","station_name":"Tanah Abang","line":1},{"transit":false,"station_id":"PLM","i_lat":-6.207404,"distance":3191,"time":6,"line":6,"is_transit":false,"station_name":"Palmerah","i_long":106.79689}]]}