{"data":[[{"distance":0,"is_transit":false,"transit":false,"line":1,"i_long":107.093313,"time":0,"i_lat":-6.262938,"station_id":"TLM","station_name":"Metland Telaga Murni"},{"is_transit":false,"distance":2800,"line":1,"station_id":"CIT","i_lat":-6.261877,"i_long":107.083084,"transit":false,"station_name":"Cibitung","time":2},{"i_long":107.055722,"station_name":"Tambun","line":1,"station_id":"TB","transit":false,"is_transit":false,"distance":3420,"time":3,"i_lat":-6.258864},{"i_long":107.016735,"distance":4460,"time":7,"is_transit":false,"station_name":"Bekasi Timur","transit":false,"i_lat":-6.248029,"line":1,"station_id":"BKST"},{"line":1,"time":2,"i_lat":-6.236616,"is_transit":false,"transit":false,"i_long":106.997013,"distance":2368,"station_id":"BKS","station_name":"Bekasi"},{"is_transit":false,"distance":2520,"i_lat":-6.224515,"line":1,"time":4,"station_id":"KRI","transit":false,"station_name":"Kranji","i_long":106.977657},{"station_id":"CUK","distance":3097,"is_transit":false,"line":1,"time":3,"i_lat":-6.219053,"transit":false,"i_long":106.951283,"station_name":"Cakung"},{"i_long":106.939679,"distance":1385,"station_id":"KLDB","time":8,"line":1,"is_transit":false,"transit":false,"station_name":"Klenderbaru","i_lat":-6.217455},{"station_name":"Buaran","is_transit":false,"i_long":106.922662,"line":1,"i_lat":-6.215568,"transit":false,"station_id":"BUA","time":1,"distance":1305},{"time":2,"distance":3100,"i_lat":-6.2135,"station_id":"KLD","is_transit":false,"i_long":106.899548,"line":1,"transit":false,"station_name":"Klender"},{"i_long":106.86807400000001,"distance":3395,"line":1,"station_name":"Jatinegara","station_id":"JNG","is_transit":false,"time":3,"i_lat":-6.215091,"transit":false},{"distance":1377,"is_transit":false,"line":1,"station_name":"Matraman","i_lat":-6.212485,"time":2,"station_id":"MTR","i_long":106.858896,"transit":false},{"i_long":106.84912,"transit":true,"line":2,"station_id":"MRI","time":2,"i_lat":-6.209883,"is_transit":true,"distance":1275,"station_name":"Manggarai"},{"station_id":"CKI","distance":1590,"i_long":106.840169,"is_transit":false,"time":4,"station_name":"Cikini","line":2,"transit":false,"i_lat":-6.198556}],[{"station_name":"Metland Telaga Murni","distance":0,"is_transit":false,"time":0,"station_id":"TLM","transit":false,"i_lat":-6.262938,"i_long":107.093313,"line":1},{"transit":false,"line":1,"i_lat":-6.261877,"station_id":"CIT","distance":2800,"i_long":107.083084,"time":2,"station_name":"Cibitung","is_transit":false},{"station_id":"TB","station_name":"Tambun","line":1,"transit":false,"distance":3420,"i_long":107.055722,"time":3,"is_transit":false,"i_lat":-6.258864},{"transit":false,"is_transit":false,"distance":4460,"i_lat":-6.248029,"station_name":"Bekasi Timur","station_id":"BKST","time":7,"i_long":107.016735,"line":1},{"station_name":"Bekasi","i_long":106.997013,"transit":false,"time":2,"is_transit":false,"distance":2368,"station_id":"BKS","line":1,"i_lat":-6.236616},{"time":4,"station_id":"KRI","i_long":106.977657,"station_name":"Kranji","transit":false,"i_lat":-6.224515,"line":1,"is_transit":false,"distance":2520},{"station_name":"Cakung","i_lat":-6.219053,"time":3,"is_transit":false,"line":1,"i_long":106.951283,"station_id":"CUK","distance":3097,"transit":false},{"i_lat":-6.217455,"transit":false,"line":1,"distance":1385,"station_name":"Klenderbaru","station_id":"KLDB","i_long":106.939679,"time":8,"is_transit":false},{"i_long":106.922662,"station_id":"BUA","distance":1305,"is_transit":false,"time":1,"station_name":"Buaran","i_lat":-6.215568,"line":1,"transit":false},{"station_id":"KLD","transit":false,"distance":3100,"is_transit":false,"station_name":"Klender","i_lat":-6.2135,"time":2,"i_long":106.899548,"line":1},{"distance":3395,"station_id":"JNG","transit":true,"i_long":106.86807400000001,"time":3,"station_name":"Jatinegara","i_lat":-6.215091,"line":1,"is_transit":true},{"i_lat":-6.209188,"i_long":106.861737,"station_name":"Pondok Jati","line":11,"time":2,"station_id":"POK","distance":1236,"is_transit":false,"transit":false},{"is_transit":false,"transit":false,"time":2,"distance":1829,"station_name":"Kramat","i_lat":-6.193792,"i_long":106.855437,"line":11,"station_id":"KMT"},{"is_transit":false,"station_id":"GST","i_lat":-6.185975,"distance":973,"time":1,"transit":false,"line":11,"station_name":"Gang Sentiong","i_long":106.850107},{"is_transit":false,"time":8,"station_name":"Pasar Senen","transit":false,"station_id":"PSE","i_lat":-6.174784,"distance":1567,"i_long":106.84368,"line":11},{"i_long":106.839204,"time":4,"i_lat":-6.161728,"distance":1436,"is_transit":false,"station_name":"Kemayoran","line":11,"station_id":"KMO","transit":false},{"i_long":106.836569,"distance":1901,"time":5,"is_transit":false,"line":11,"station_id":"RJW","station_name":"Rajawali","i_lat":-6.14505,"transit":false},{"distance":1444,"i_lat":-6.132549,"line":4,"is_transit":true,"transit":true,"i_long":106.826365,"station_id":"KPB","time":3,"station_name":"Kampung Bandan"},{"transit":true,"station_name":"Jakarta Kota","time":3,"distance":1364,"station_id":"JAKK","i_lat":-6.137569,"i_long":106.812439,"line":2,"is_transit":true},{"time":4,"transit":false,"i_long":106.820901,"distance":1264,"is_transit":false,"station_name":"Jayakarta","station_id":"JAY","i_lat":-6.141205,"line":2},{"time":2,"i_long":106.82482,"is_transit":false,"i_lat":-6.149769,"distance":1080,"transit":false,"station_id":"MGB","station_name":"Manggabesar","line":2},{"i_lat":-6.160725,"is_transit":false,"line":2,"station_name":"Sawah Besar","distance":906,"transit":false,"station_id":"SW","i_long":106.827103,"time":2},{"distance":1149,"time":2,"line":2,"i_lat":-6.166716,"is_transit":false,"station_name":"Juanda","station_id":"JUA","transit":false,"i_long":106.828284},{"station_name":"Gondangdia","time":4,"station_id":"GDD","distance":2015,"i_lat":-6.186295,"i_long":106.832183,"is_transit":false,"line":2,"transit":false},{"is_transit":false,"transit":false,"time":3,"distance":1750,"line":2,"station_name":"Cikini","i_lat":-6.198556,"i_long":106.840169,"station_id":"CKI"}],[{"is_transit":false,"transit":false,"station_name":"Metland Telaga Murni","distance":0,"time":0,"station_id":"TLM","i_lat":-6.262938,"i_long":107.093313,"line":1},{"line":1,"station_name":"Cibitung","time":2,"i_long":107.083084,"transit":false,"i_lat":-6.261877,"station_id":"CIT","distance":2800,"is_transit":false},{"time":3,"i_long":107.055722,"station_name":"Tambun","i_lat":-6.258864,"line":1,"distance":3420,"transit":false,"is_transit":false,"station_id":"TB"},{"i_lat":-6.248029,"time":7,"distance":4460,"is_transit":false,"transit":false,"line":1,"station_id":"BKST","station_name":"Bekasi Timur","i_long":107.016735},{"i_lat":-6.236616,"distance":2368,"station_name":"Bekasi","line":1,"time":2,"transit":false,"i_long":106.997013,"is_transit":false,"station_id":"BKS"},{"time":4,"is_transit":false,"station_id":"KRI","i_lat":-6.224515,"distance":2520,"transit":false,"station_name":"Kranji","line":1,"i_long":106.977657},{"station_id":"CUK","distance":3097,"i_long":106.951283,"line":1,"i_lat":-6.219053,"time":3,"station_name":"Cakung","is_transit":false,"transit":false},{"is_transit":false,"station_name":"Klenderbaru","transit":false,"i_lat":-6.217455,"time":8,"distance":1385,"i_long":106.939679,"line":1,"station_id":"KLDB"},{"i_long":106.922662,"station_id":"BUA","is_transit":false,"station_name":"Buaran","time":1,"distance":1305,"i_lat":-6.215568,"line":1,"transit":false},{"station_id":"KLD","is_transit":false,"distance":3100,"transit":false,"station_name":"Klender","i_lat":-6.2135,"i_long":106.899548,"line":1,"time":2},{"i_long":106.86807400000001,"distance":3395,"is_transit":true,"station_name":"Jatinegara","line":1,"time":3,"station_id":"JNG","transit":true,"i_lat":-6.215091},{"station_name":"Pondok Jati","station_id":"POK","time":2,"i_lat":-6.209188,"distance":1236,"line":11,"i_long":106.861737,"transit":false,"is_transit":false},{"i_long":106.855437,"station_id":"KMT","line":11,"is_transit":false,"station_name":"Kramat","transit":false,"i_lat":-6.193792,"time":2,"distance":1829},{"station_name":"Gang Sentiong","i_lat":-6.185975,"i_long":106.850107,"is_transit":false,"time":1,"line":11,"station_id":"GST","distance":973,"transit":false},{"i_lat":-6.174784,"line":11,"station_id":"PSE","station_name":"Pasar Senen","i_long":106.84368,"is_transit":false,"transit":false,"distance":1567,"time":8},{"transit":false,"distance":1436,"time":4,"station_id":"KMO","line":11,"i_long":106.839204,"station_name":"Kemayoran","i_lat":-6.161728,"is_transit":false},{"line":11,"i_lat":-6.14505,"i_long":106.836569,"is_transit":false,"station_name":"Rajawali","time":5,"distance":1901,"transit":false,"station_id":"RJW"},{"i_lat":-6.132549,"i_long":106.826365,"line":4,"transit":true,"station_id":"KPB","time":3,"is_transit":true,"distance":1444,"station_name":"Kampung Bandan"},{"time":9,"line":1,"station_name":"Angke","distance":4102,"i_lat":-6.144674,"is_transit":false,"station_id":"AK","i_long":106.79867,"transit":false},{"station_name":"Duri","i_long":106.800832,"is_transit":false,"station_id":"DU","transit":false,"line":1,"time":4,"distance":1230,"i_lat":-6.155215},{"transit":false,"distance":3632,"station_id":"THB","is_transit":false,"i_long":106.811091,"station_name":"Tanah Abang","time":8,"i_lat":-6.185545,"line":1},{"i_long":106.816351,"time":5,"distance":2029,"station_id":"KAT","line":1,"is_transit":false,"i_lat":-6.20132,"transit":false,"station_name":"Karet"},{"is_transit":false,"i_long":106.819881,"station_id":"SUDB","transit":false,"distance":471,"i_lat":-6.201433,"time":1,"station_name":"Sudirman Baru","line":1},{"i_lat":-6.202263,"line":1,"station_name":"Sudirman","is_transit":false,"i_long":106.822649,"transit":false,"time":1,"distance":280,"station_id":"SUD"},{"station_name":"Manggarai","transit":true,"is_transit":true,"distance":3186,"station_id":"MRI","line":2,"time":4,"i_lat":-6.209883,"i_long":106.84912},{"station_name":"Cikini","station_id":"CKI","time":4,"distance":1590,"i_lat":-6.198556,"i_long":106.840169,"line":2,"is_transit":false,"transit":false}],[{"station_id":"TLM","distance":0,"line":1,"i_long":107.093313,"transit":false,"station_name":"Metland Telaga Murni","is_transit":false,"i_lat":-6.262938,"time":0},{"i_long":107.083084,"is_transit":false,"station_id":"CIT","transit":false,"i_lat":-6.261877,"time":2,"distance":2800,"station_name":"Cibitung","line":1},{"transit":false,"i_long":107.055722,"distance":3420,"station_id":"TB","station_name":"Tambun","is_transit":false,"time":3,"i_lat":-6.258864,"line":1},{"is_transit":false,"station_name":"Bekasi Timur","transit":false,"station_id":"BKST","line":1,"distance":4460,"i_lat":-6.248029,"time":7,"i_long":107.016735},{"station_name":"Bekasi","transit":false,"distance":2368,"station_id":"BKS","time":2,"i_long":106.997013,"is_transit":false,"i_lat":-6.236616,"line":1},{"line":1,"distance":2520,"transit":false,"station_name":"Kranji","i_long":106.977657,"station_id":"KRI","time":4,"is_transit":false,"i_lat":-6.224515},{"station_name":"Cakung","station_id":"CUK","transit":false,"distance":3097,"i_long":106.951283,"i_lat":-6.219053,"is_transit":false,"time":3,"line":1},{"i_lat":-6.217455,"distance":1385,"time":8,"transit":false,"line":1,"station_name":"Klenderbaru","is_transit":false,"i_long":106.939679,"station_id":"KLDB"},{"is_transit":false,"time":1,"i_lat":-6.215568,"distance":1305,"line":1,"station_name":"Buaran","transit":false,"i_long":106.922662,"station_id":"BUA"},{"transit":false,"station_name":"Klender","i_lat":-6.2135,"time":2,"is_transit":false,"distance":3100,"station_id":"KLD","i_long":106.899548,"line":1},{"time":3,"i_long":106.86807400000001,"i_lat":-6.215091,"distance":3395,"line":1,"station_name":"Jatinegara","transit":false,"station_id":"JNG","is_transit":false},{"transit":false,"is_transit":false,"station_name":"Matraman","time":2,"distance":1377,"i_lat":-6.212485,"station_id":"MTR","i_long":106.858896,"line":1},{"station_name":"Manggarai","station_id":"MRI","distance":1275,"i_lat":-6.209883,"line":2,"i_long":106.84912,"transit":false,"is_transit":false,"time":2},{"station_id":"SUD","station_name":"Sudirman","distance":3186,"i_lat":-6.202263,"i_long":106.822649,"transit":false,"time":4,"line":1,"is_transit":false},{"i_long":106.819881,"line":1,"transit":false,"is_transit":false,"station_name":"Sudirman Baru","station_id":"SUDB","time":1,"i_lat":-6.201433,"distance":280},{"line":1,"time":1,"station_name":"Karet","is_transit":false,"transit":false,"station_id":"KAT","distance":471,"i_lat":-6.20132,"i_long":106.816351},{"distance":2029,"i_lat":-6.185545,"is_transit":false,"i_long":106.811091,"time":5,"station_id":"THB","line":1,"transit":false,"station_name":"Tanah Abang"},{"is_transit":false,"i_lat":-6.155215,"station_name":"Duri","transit":false,"station_id":"DU","time":8,"distance":3632,"i_long":106.800832,"line":1},{"is_transit":false,"station_id":"AK","station_name":"Angke","transit":false,"distance":1230,"i_lat":-6.144674,"i_long":106.79867,"line":1,"time":4},{"station_id":"KPB","time":9,"transit":true,"distance":4102,"is_transit":true,"i_long":106.826365,"station_name":"Kampung Bandan","i_lat":-6.132549,"line":4},{"station_id":"JAKK","i_long":106.812439,"i_lat":-6.137569,"is_transit":true,"transit":true,"station_name":"Jakarta Kota","line":2,"time":3,"distance":1364},{"i_lat":-6.141205,"transit":false,"station_id":"JAY","distance":1264,"station_name":"Jayakarta","i_long":106.820901,"time":4,"line":2,"is_transit":false},{"i_lat":-6.149769,"station_id":"MGB","i_long":106.82482,"transit":false,"time":2,"station_name":"Manggabesar","distance":1080,"is_transit":false,"line":2},{"line":2,"transit":false,"time":2,"distance":906,"station_id":"SW","station_name":"Sawah Besar","i_lat":-6.160725,"i_long":106.827103,"is_transit":false},{"time":2,"i_long":106.828284,"station_name":"Juanda","transit":false,"distance":1149,"station_id":"JUA","is_transit":false,"i_lat":-6.166716,"line":2},{"line":2,"i_lat":-6.186295,"i_long":106.832183,"transit":false,"is_transit":false,"time":4,"distance":2015,"station_name":"Gondangdia","station_id":"GDD"},{"time":3,"station_name":"Cikini","transit":false,"i_lat":-6.198556,"station_id":"CKI","distance":1750,"is_transit":false,"i_long":106.840169,"line":2}]]}