{"data":[[{"transit":false,"station_id":"TLM","distance":0,"station_name":"Metland Telaga Murni","i_long":107.093313,"is_transit":false,"line":1,"time":0,"i_lat":-6.262938},{"i_lat":-6.261877,"station_id":"CIT","distance":2800,"transit":false,"is_transit":false,"line":1,"i_long":107.083084,"station_name":"Cibitung","time":2},{"time":3,"is_transit":false,"station_id":"TB","distance":3420,"transit":false,"i_lat":-6.258864,"i_long":107.055722,"station_name":"Tambun","line":1},{"station_name":"Bekasi Timur","transit":false,"time":7,"i_long":107.016735,"station_id":"BKST","line":1,"is_transit":false,"distance":4460,"i_lat":-6.248029},{"station_name":"Bekasi","transit":false,"is_transit":false,"distance":2368,"i_lat":-6.236616,"i_long":106.997013,"time":2,"line":1,"station_id":"BKS"},{"line":1,"i_long":106.977657,"station_name":"Kranji","transit":false,"time":4,"distance":2520,"station_id":"KRI","is_transit":false,"i_lat":-6.224515},{"i_long":106.951283,"transit":false,"time":3,"station_name":"Cakung","station_id":"CUK","is_transit":false,"line":1,"distance":3097,"i_lat":-6.219053},{"i_lat":-6.217455,"is_transit":false,"distance":1385,"station_id":"KLDB","time":8,"station_name":"Klenderbaru","transit":false,"i_long":106.939679,"line":1},{"i_long":106.922662,"i_lat":-6.215568,"distance":1305,"time":1,"station_name":"Buaran","is_transit":false,"transit":false,"line":1,"station_id":"BUA"},{"station_id":"KLD","time":2,"i_lat":-6.2135,"station_name":"Klender","distance":3100,"is_transit":false,"i_long":106.899548,"line":1,"transit":false},{"distance":3395,"transit":false,"station_name":"Jatinegara","i_long":106.86807400000001,"line":1,"i_lat":-6.215091,"station_id":"JNG","is_transit":false,"time":3},{"is_transit":false,"station_name":"Matraman","distance":1377,"station_id":"MTR","transit":false,"i_long":106.858896,"time":2,"i_lat":-6.212485,"line":1},{"station_id":"MRI","line":2,"i_long":106.84912,"is_transit":false,"transit":false,"time":2,"station_name":"Manggarai","i_lat":-6.209883,"distance":1275},{"station_id":"SUD","station_name":"Sudirman","line":1,"time":4,"i_lat":-6.202263,"is_transit":false,"distance":3186,"transit":false,"i_long":106.822649},{"station_name":"Sudirman Baru","i_lat":-6.201433,"transit":false,"distance":280,"i_long":106.819881,"line":1,"time":1,"is_transit":false,"station_id":"SUDB"},{"is_transit":false,"i_long":106.816351,"station_name":"Karet","distance":471,"line":1,"transit":false,"time":1,"i_lat":-6.20132,"station_id":"KAT"},{"is_transit":true,"line":1,"i_lat":-6.185545,"time":5,"i_long":106.811091,"station_name":"Tanah Abang","station_id":"THB","transit":true,"distance":2029},{"distance":3191,"time":6,"station_id":"PLM","transit":false,"is_transit":false,"station_name":"Palmerah","line":6,"i_long":106.79689,"i_lat":-6.207404},{"time":7,"is_transit":false,"i_lat":-6.237242,"line":6,"transit":false,"station_name":"Kebayoran","i_long":106.780334,"distance":3737,"station_id":"KBY"},{"distance":6218,"station_name":"Pondokranji","line":6,"station_id":"PDJ","time":8,"is_transit":false,"transit":false,"i_lat":-6.276362,"i_long":106.74273},{"line":6,"distance":2179,"is_transit":false,"i_lat":-6.288927,"station_name":"Jurangmangu","time":3,"i_long":106.728916,"station_id":"JMU","transit":false},{"i_lat":-6.296963,"is_transit":false,"transit":false,"line":6,"time":4,"station_id":"SDM","i_long":106.712277,"station_name":"Sudimara","distance":1994},{"transit":false,"is_transit":false,"station_id":"RU","i_lat":-6.314823,"station_name":"Rawa Buntu","distance":4566,"time":6,"i_long":106.675475,"line":6}],[{"time":0,"station_id":"TLM","station_name":"Metland Telaga Murni","i_long":107.093313,"distance":0,"line":1,"i_lat":-6.262938,"transit":false,"is_transit":false},{"time":2,"station_id":"CIT","is_transit":false,"line":1,"station_name":"Cibitung","distance":2800,"i_lat":-6.261877,"transit":false,"i_long":107.083084},{"distance":3420,"i_lat":-6.258864,"is_transit":false,"time":3,"station_id":"TB","i_long":107.055722,"station_name":"Tambun","line":1,"transit":false},{"time":7,"distance":4460,"i_long":107.016735,"line":1,"is_transit":false,"station_id":"BKST","i_lat":-6.248029,"station_name":"Bekasi Timur","transit":false},{"i_lat":-6.236616,"is_transit":false,"time":2,"station_name":"Bekasi","i_long":106.997013,"transit":false,"distance":2368,"line":1,"station_id":"BKS"},{"time":4,"i_long":106.977657,"line":1,"transit":false,"i_lat":-6.224515,"station_name":"Kranji","station_id":"KRI","is_transit":false,"distance":2520},{"is_transit":false,"distance":3097,"i_long":106.951283,"time":3,"transit":false,"line":1,"station_id":"CUK","station_name":"Cakung","i_lat":-6.219053},{"i_long":106.939679,"is_transit":false,"i_lat":-6.217455,"time":8,"line":1,"station_id":"KLDB","distance":1385,"station_name":"Klenderbaru","transit":false},{"i_lat":-6.215568,"i_long":106.922662,"station_name":"Buaran","distance":1305,"station_id":"BUA","line":1,"time":1,"transit":false,"is_transit":false},{"i_long":106.899548,"is_transit":false,"distance":3100,"time":2,"station_id":"KLD","transit":false,"line":1,"station_name":"Klender","i_lat":-6.2135},{"line":1,"is_transit":true,"station_name":"Jatinegara","i_long":106.86807400000001,"time":3,"distance":3395,"station_id":"JNG","transit":true,"i_lat":-6.215091},{"i_lat":-6.209188,"station_name":"Pondok Jati","is_transit":false,"i_long":106.861737,"station_id":"POK","time":2,"line":11,"transit":false,"distance":1236},{"i_lat":-6.193792,"is_transit":false,"i_long":106.855437,"line":11,"distance":1829,"time":2,"transit":false,"station_name":"Kramat","station_id":"KMT"},{"time":1,"station_name":"Gang Sentiong","line":11,"distance":973,"transit":false,"station_id":"GST","is_transit":false,"i_long":106.850107,"i_lat":-6.185975},{"i_lat":-6.174784,"distance":1567,"station_id":"PSE","time":8,"station_name":"Pasar Senen","is_transit":false,"i_long":106.84368,"transit":false,"line":11},{"transit":false,"i_lat":-6.161728,"distance":1436,"i_long":106.839204,"station_name":"Kemayoran","line":11,"station_id":"KMO","is_transit":false,"time":4},{"station_name":"Rajawali","time":5,"station_id":"RJW","transit":false,"i_long":106.836569,"line":11,"i_lat":-6.14505,"distance":1901,"is_transit":false},{"time":3,"transit":true,"i_lat":-6.132549,"line":4,"is_transit":true,"station_name":"Kampung Bandan","station_id":"KPB","i_long":106.826365,"distance":1444},{"line":1,"distance":4102,"station_id":"AK","time":9,"station_name":"Angke","i_lat":-6.144674,"i_long":106.79867,"transit":false,"is_transit":false},{"is_transit":false,"distance":1230,"i_long":106.800832,"line":1,"time":4,"i_lat":-6.155215,"station_name":"Duri","transit":false,"station_id":"DU"},{"station_id":"THB","is_transit":true,"distance":3632,"line":1,"i_lat":-6.185545,"station_name":"Tanah Abang","time":8,"transit":true,"i_long":106.811091},{"is_transit":false,"i_long":106.79689,"line":6,"distance":3191,"time":6,"station_id":"PLM","transit":false,"station_name":"Palmerah","i_lat":-6.207404},{"is_transit":false,"distance":3737,"i_long":106.780334,"station_id":"KBY","station_name":"Kebayoran","i_lat":-6.237242,"line":6,"time":7,"transit":false},{"transit":false,"time":8,"is_transit":false,"station_name":"Pondokranji","distance":6218,"i_long":106.74273,"station_id":"PDJ","line":6,"i_lat":-6.276362},{"transit":false,"i_long":106.728916,"is_transit":false,"time":3,"station_id":"JMU","i_lat":-6.288927,"distance":2179,"station_name":"Jurangmangu","line":6},{"distance":1994,"i_lat":-6.296963,"is_transit":false,"line":6,"station_name":"Sudimara","station_id":"SDM","i_long":106.712277,"time":4,"transit":false},{"transit":false,"distance":4566,"is_transit":false,"station_name":"Rawa Buntu","line":6,"i_lat":-6.314823,"i_long":106.675475,"time":6,"station_id":"RU"}],[{"i_long":107.093313,"station_name":"Metland Telaga Murni","i_lat":-6.262938,"is_transit":false,"line":1,"station_id":"TLM","distance":0,"transit":false,"time":0},{"i_lat":-6.261877,"station_id":"CIT","time":2,"distance":2800,"transit":false,"is_transit":false,"i_long":107.083084,"line":1,"station_name":"Cibitung"},{"time":3,"distance":3420,"is_transit":false,"i_long":107.055722,"transit":false,"station_id":"TB","i_lat":-6.258864,"line":1,"station_name":"Tambun"},{"i_lat":-6.248029,"i_long":107.016735,"station_id":"BKST","time":7,"distance":4460,"transit":false,"line":1,"station_name":"Bekasi Timur","is_transit":false},{"station_id":"BKS","i_long":106.997013,"time":2,"transit":false,"is_transit":false,"i_lat":-6.236616,"distance":2368,"line":1,"station_name":"Bekasi"},{"line":1,"distance":2520,"i_long":106.977657,"station_id":"KRI","is_transit":false,"time":4,"transit":false,"i_lat":-6.224515,"station_name":"Kranji"},{"i_lat":-6.219053,"line":1,"station_name":"Cakung","time":3,"i_long":106.951283,"station_id":"CUK","transit":false,"is_transit":false,"distance":3097},{"station_name":"Klenderbaru","station_id":"KLDB","is_transit":false,"transit":false,"line":1,"time":8,"distance":1385,"i_lat":-6.217455,"i_long":106.939679},{"i_long":106.922662,"time":1,"transit":false,"station_id":"BUA","distance":1305,"station_name":"Buaran","i_lat":-6.215568,"line":1,"is_transit":false},{"station_id":"KLD","distance":3100,"station_name":"Klender","transit":false,"is_transit":false,"i_long":106.899548,"line":1,"time":2,"i_lat":-6.2135},{"time":3,"transit":false,"line":1,"distance":3395,"station_name":"Jatinegara","station_id":"JNG","i_long":106.86807400000001,"is_transit":false,"i_lat":-6.215091},{"i_lat":-6.212485,"station_id":"MTR","is_transit":false,"station_name":"Matraman","i_long":106.858896,"time":2,"distance":1377,"line":1,"transit":false},{"i_long":106.84912,"distance":1275,"station_name":"Manggarai","time":2,"station_id":"MRI","is_transit":true,"line":2,"i_lat":-6.209883,"transit":true},{"i_lat":-6.198556,"line":2,"time":4,"transit":false,"station_id":"CKI","is_transit":false,"distance":1590,"i_long":106.840169,"station_name":"Cikini"},{"time":3,"transit":false,"station_name":"Gondangdia","station_id":"GDD","i_lat":-6.186295,"is_transit":false,"i_long":106.832183,"line":2,"distance":1750},{"distance":2015,"time":4,"is_transit":false,"i_long":106.828284,"i_lat":-6.166716,"line":2,"station_name":"Juanda","station_id":"JUA","transit":false},{"line":2,"station_name":"Sawah Besar","i_long":106.827103,"station_id":"SW","distance":1149,"time":2,"is_transit":false,"i_lat":-6.160725,"transit":false},{"transit":false,"is_transit":false,"time":2,"distance":906,"station_id":"MGB","i_lat":-6.149769,"station_name":"Manggabesar","line":2,"i_long":106.82482},{"time":2,"station_name":"Jayakarta","station_id":"JAY","line":2,"is_transit":false,"i_long":106.820901,"transit":false,"i_lat":-6.141205,"distance":1080},{"time":4,"station_name":"Jakarta Kota","i_long":106.812439,"distance":1264,"station_id":"JAKK","is_transit":true,"i_lat":-6.137569,"line":2,"transit":true},{"is_transit":true,"line":4,"i_long":106.826365,"time":3,"station_id":"KPB","i_lat":-6.132549,"distance":1364,"station_name":"Kampung Bandan","transit":true},{"distance":4102,"transit":false,"line":1,"i_long":106.79867,"is_transit":false,"i_lat":-6.144674,"time":9,"station_name":"Angke","station_id":"AK"},{"transit":false,"station_name":"Duri","distance":1230,"is_transit":false,"i_lat":-6.155215,"station_id":"DU","i_long":106.800832,"line":1,"time":4},{"distance":3632,"line":1,"i_long":106.811091,"is_transit":true,"station_id":"THB","station_name":"Tanah Abang","transit":true,"i_lat":-6.185545,"time":8},{"transit":false,"line":6,"station_id":"PLM","is_transit":false,"time":6,"i_long":106.79689,"distance":3191,"i_lat":-6.207404,"station_name":"Palmerah"},{"i_long":106.780334,"distance":3737,"line":6,"is_transit":false,"station_name":"Kebayoran","time":7,"station_id":"KBY","i_lat":-6.237242,"transit":false},{"station_id":"PDJ","i_lat":-6.276362,"distance":6218,"station_name":"Pondokranji","time":8,"i_long":106.74273,"is_transit":false,"line":6,"transit":false},{"transit":false,"i_long":106.728916,"is_transit":false,"i_lat":-6.288927,"station_id":"JMU","station_name":"Jurangmangu","distance":2179,"time":3,"line":6},{"i_long":106.712277,"line":6,"station_id":"SDM","time":4,"station_name":"Sudimara","distance":1994,"transit":false,"is_transit":false,"i_lat":-6.296963},{"i_long":106.675475,"is_transit":false,"i_lat":-6.314823,"transit":false,"line":6,"time":6,"distance":4566,"station_id":"RU","station_name":"Rawa Buntu"}],[{"line":1,"station_id":"TLM","distance":0,"i_lat":-6.262938,"is_transit":false,"i_long":107.093313,"station_name":"Metland Telaga Murni","time":0,"transit":false},{"station_name":"Cibitung","station_id":"CIT","is_transit":false,"i_long":107.083084,"time":2,"transit":false,"i_lat":-6.261877,"distance":2800,"line":1},{"time":3,"station_name":"Tambun","distance":3420,"station_id":"TB","is_transit":false,"transit":false,"i_lat":-6.258864,"line":1,"i_long":107.055722},{"is_transit":false,"distance":4460,"time":7,"transit":false,"i_lat":-6.248029,"station_id":"BKST","station_name":"Bekasi Timur","i_long":107.016735,"line":1},{"transit":false,"station_id":"BKS","time":2,"is_transit":false,"station_name":"Bekasi","i_lat":-6.236616,"i_long":106.997013,"line":1,"distance":2368},{"is_transit":false,"station_id":"KRI","distance":2520,"transit":false,"time":4,"station_name":"Kranji","i_long":106.977657,"i_lat":-6.224515,"line":1},{"distance":3097,"transit":false,"is_transit":false,"i_lat":-6.219053,"i_long":106.951283,"station_id":"CUK","station_name":"Cakung","time":3,"line":1},{"i_long":106.939679,"station_name":"Klenderbaru","station_id":"KLDB","distance":1385,"i_lat":-6.217455,"transit":false,"time":8,"is_transit":false,"line":1},{"station_name":"Buaran","i_long":106.922662,"station_id":"BUA","time":1,"line":1,"transit":false,"distance":1305,"is_transit":false,"i_lat":-6.215568},{"line":1,"station_name":"Klender","is_transit":false,"time":2,"station_id":"KLD","i_lat":-6.2135,"transit":false,"i_long":106.899548,"distance":3100},{"line":1,"time":3,"station_id":"JNG","transit":true,"station_name":"Jatinegara","i_lat":-6.215091,"i_long":106.86807400000001,"distance":3395,"is_transit":true},{"distance":1236,"time":2,"i_long":106.861737,"is_transit":false,"station_name":"Pondok Jati","transit":false,"i_lat":-6.209188,"line":11,"station_id":"POK"},{"distance":1829,"i_long":106.855437,"time":2,"i_lat":-6.193792,"line":11,"station_name":"Kramat","transit":false,"is_transit":false,"station_id":"KMT"},{"i_lat":-6.185975,"station_id":"GST","transit":false,"line":11,"is_transit":false,"time":1,"distance":973,"station_name":"Gang Sentiong","i_long":106.850107},{"time":8,"is_transit":false,"station_name":"Pasar Senen","i_long":106.84368,"transit":false,"line":11,"station_id":"PSE","i_lat":-6.174784,"distance":1567},{"time":4,"i_long":106.839204,"is_transit":false,"station_id":"KMO","i_lat":-6.161728,"distance":1436,"transit":false,"station_name":"Kemayoran","line":11},{"time":5,"is_transit":false,"i_lat":-6.14505,"line":11,"distance":1901,"transit":false,"i_long":106.836569,"station_id":"RJW","station_name":"Rajawali"},{"station_id":"KPB","transit":true,"i_lat":-6.132549,"time":3,"line":4,"i_long":106.826365,"distance":1444,"station_name":"Kampung Bandan","is_transit":true},{"transit":true,"line":2,"time":3,"station_name":"Jakarta Kota","distance":1364,"station_id":"JAKK","is_transit":true,"i_lat":-6.137569,"i_long":106.812439},{"i_lat":-6.141205,"transit":false,"distance":1264,"i_long":106.820901,"station_id":"JAY","station_name":"Jayakarta","time":4,"is_transit":false,"line":2},{"time":2,"line":2,"transit":false,"station_name":"Manggabesar","i_lat":-6.149769,"is_transit":false,"distance":1080,"i_long":106.82482,"station_id":"MGB"},{"station_name":"Sawah Besar","is_transit":false,"i_lat":-6.160725,"line":2,"distance":906,"i_long":106.827103,"time":2,"station_id":"SW","transit":false},{"i_long":106.828284,"is_transit":false,"i_lat":-6.166716,"transit":false,"line":2,"distance":1149,"station_id":"JUA","station_name":"Juanda","time":2},{"is_transit":false,"distance":2015,"station_name":"Gondangdia","transit":false,"station_id":"GDD","time":4,"i_long":106.832183,"line":2,"i_lat":-6.186295},{"station_id":"CKI","i_long":106.840169,"time":3,"line":2,"i_lat":-6.198556,"is_transit":false,"transit":false,"station_name":"Cikini","distance":1750},{"i_long":106.84912,"distance":1590,"station_id":"MRI","is_transit":true,"time":4,"line":2,"transit":true,"station_name":"Manggarai","i_lat":-6.209883},{"i_lat":-6.202263,"distance":3186,"transit":false,"station_name":"Sudirman","line":1,"is_transit":false,"time":4,"station_id":"SUD","i_long":106.822649},{"station_name":"Sudirman Baru","time":1,"transit":false,"i_lat":-6.201433,"station_id":"SUDB","i_long":106.819881,"distance":280,"line":1,"is_transit":false},{"transit":false,"is_transit":false,"i_lat":-6.20132,"time":1,"line":1,"station_name":"Karet","station_id":"KAT","distance":471,"i_long":106.816351},{"i_lat":-6.185545,"time":5,"is_transit":true,"station_name":"Tanah Abang","i_long":106.811091,"line":1,"distance":2029,"station_id":"THB","transit":true},{"transit":false,"i_long":106.79689,"time":6,"station_name":"Palmerah","station_id":"PLM","distance":3191,"is_transit":false,"line":6,"i_lat":-6.207404},{"time":7,"line":6,"i_long":106.780334,"station_name":"Kebayoran","is_transit":false,"i_lat":-6.237242,"station_id":"KBY","transit":false,"distance":3737},{"station_name":"Pondokranji","i_long":106.74273,"station_id":"PDJ","is_transit":false,"line":6,"distance":6218,"time":8,"transit":false,"i_lat":-6.276362},{"i_lat":-6.288927,"station_id":"JMU","is_transit":false,"i_long":106.728916,"transit":false,"station_name":"Jurangmangu","time":3,"distance":2179,"line":6},{"is_transit":false,"line":6,"distance":1994,"transit":false,"station_id":"SDM","i_lat":-6.296963,"i_long":106.712277,"station_name":"Sudimara","time":4},{"line":6,"i_long":106.675475,"station_id":"RU","station_name":"Rawa Buntu","i_lat":-6.314823,"is_transit":false,"time":6,"transit":false,"distance":4566}]]}