{"data":[[{"is_transit":false,"transit":false,"station_name":"Metland Telaga Murni","i_lat":-6.262938,"time":0,"line":1,"station_id":"TLM","distance":0,"i_long":107.093313},{"station_name":"Cibitung","time":2,"line":1,"i_lat":-6.261877,"distance":2800,"station_id":"CIT","transit":false,"i_long":107.083084,"is_transit":false},{"i_lat":-6.258864,"i_long":107.055722,"time":3,"distance":3420,"line":1,"station_id":"TB","is_transit":false,"station_name":"Tambun","transit":false},{"time":7,"station_name":"Bekasi Timur","distance":4460,"station_id":"BKST","is_transit":false,"i_long":107.016735,"transit":false,"i_lat":-6.248029,"line":1},{"line":1,"station_name":"Bekasi","is_transit":false,"transit":false,"i_long":106.997013,"time":2,"station_id":"BKS","distance":2368,"i_lat":-6.236616},{"station_name":"Kranji","i_lat":-6.224515,"is_transit":false,"transit":false,"station_id":"KRI","time":4,"i_long":106.977657,"line":1,"distance":2520},{"i_lat":-6.219053,"transit":false,"line":1,"time":3,"station_id":"CUK","distance":3097,"station_name":"Cakung","is_transit":false,"i_long":106.951283},{"time":8,"station_id":"KLDB","station_name":"Klenderbaru","is_transit":false,"i_lat":-6.217455,"line":1,"transit":false,"distance":1385,"i_long":106.939679},{"distance":1305,"i_lat":-6.215568,"time":1,"is_transit":false,"station_name":"Buaran","station_id":"BUA","line":1,"transit":false,"i_long":106.922662},{"transit":false,"station_name":"Klender","station_id":"KLD","time":2,"is_transit":false,"i_long":106.899548,"distance":3100,"i_lat":-6.2135,"line":1},{"i_long":106.86807400000001,"line":1,"time":3,"is_transit":true,"transit":true,"i_lat":-6.215091,"station_id":"JNG","station_name":"Jatinegara","distance":3395},{"i_long":106.861737,"station_name":"Pondok Jati","station_id":"POK","time":2,"is_transit":false,"transit":false,"line":11,"i_lat":-6.209188,"distance":1236},{"i_long":106.855437,"distance":1829,"line":11,"time":2,"station_name":"Kramat","station_id":"KMT","is_transit":false,"transit":false,"i_lat":-6.193792},{"time":1,"transit":false,"i_long":106.850107,"distance":973,"station_id":"GST","line":11,"station_name":"Gang Sentiong","i_lat":-6.185975,"is_transit":false}],[{"distance":0,"i_long":107.093313,"transit":false,"station_name":"Metland Telaga Murni","line":1,"time":0,"is_transit":false,"station_id":"TLM","i_lat":-6.262938},{"i_long":107.083084,"line":1,"station_name":"Cibitung","distance":2800,"station_id":"CIT","transit":false,"i_lat":-6.261877,"is_transit":false,"time":2},{"line":1,"distance":3420,"i_long":107.055722,"station_name":"Tambun","station_id":"TB","time":3,"transit":false,"i_lat":-6.258864,"is_transit":false},{"station_name":"Bekasi Timur","distance":4460,"i_lat":-6.248029,"transit":false,"i_long":107.016735,"time":7,"is_transit":false,"station_id":"BKST","line":1},{"i_long":106.997013,"line":1,"transit":false,"is_transit":false,"distance":2368,"time":2,"station_name":"Bekasi","station_id":"BKS","i_lat":-6.236616},{"distance":2520,"station_name":"Kranji","time":4,"is_transit":false,"transit":false,"i_long":106.977657,"line":1,"i_lat":-6.224515,"station_id":"KRI"},{"station_id":"CUK","time":3,"is_transit":false,"station_name":"Cakung","transit":false,"i_long":106.951283,"distance":3097,"i_lat":-6.219053,"line":1},{"time":8,"distance":1385,"station_id":"KLDB","i_lat":-6.217455,"transit":false,"is_transit":false,"station_name":"Klenderbaru","i_long":106.939679,"line":1},{"i_long":106.922662,"i_lat":-6.215568,"station_name":"Buaran","station_id":"BUA","distance":1305,"transit":false,"time":1,"is_transit":false,"line":1},{"station_name":"Klender","time":2,"distance":3100,"i_long":106.899548,"station_id":"KLD","i_lat":-6.2135,"is_transit":false,"line":1,"transit":false},{"i_lat":-6.215091,"station_name":"Jatinegara","i_long":106.86807400000001,"is_transit":false,"station_id":"JNG","distance":3395,"line":1,"transit":false,"time":3},{"line":1,"i_lat":-6.212485,"time":2,"distance":1377,"station_id":"MTR","i_long":106.858896,"station_name":"Matraman","is_transit":false,"transit":false},{"is_transit":false,"station_name":"Manggarai","line":2,"i_lat":-6.209883,"distance":1275,"station_id":"MRI","time":2,"transit":false,"i_long":106.84912},{"i_lat":-6.202263,"is_transit":false,"station_name":"Sudirman","distance":3186,"time":4,"station_id":"SUD","transit":false,"i_long":106.822649,"line":1},{"line":1,"is_transit":false,"transit":false,"distance":280,"station_name":"Sudirman Baru","i_lat":-6.201433,"station_id":"SUDB","time":1,"i_long":106.819881},{"station_id":"KAT","transit":false,"i_lat":-6.20132,"i_long":106.816351,"time":1,"is_transit":false,"distance":471,"station_name":"Karet","line":1},{"station_name":"Tanah Abang","station_id":"THB","time":5,"is_transit":false,"i_long":106.811091,"i_lat":-6.185545,"line":1,"distance":2029,"transit":false},{"station_name":"Duri","i_long":106.800832,"time":8,"is_transit":false,"i_lat":-6.155215,"station_id":"DU","line":1,"distance":3632,"transit":false},{"station_id":"AK","is_transit":false,"distance":1230,"transit":false,"line":1,"time":4,"station_name":"Angke","i_long":106.79867,"i_lat":-6.144674},{"station_id":"KPB","i_lat":-6.132549,"station_name":"Kampung Bandan","time":9,"is_transit":true,"distance":4102,"line":4,"transit":true,"i_long":106.826365},{"i_lat":-6.14505,"i_long":106.836569,"station_id":"RJW","time":3,"station_name":"Rajawali","is_transit":false,"distance":1444,"line":11,"transit":false},{"i_long":106.839204,"is_transit":false,"i_lat":-6.161728,"distance":1901,"station_id":"KMO","transit":false,"time":5,"line":11,"station_name":"Kemayoran"},{"i_long":106.84368,"distance":1436,"i_lat":-6.174784,"is_transit":false,"transit":false,"time":4,"station_id":"PSE","station_name":"Pasar Senen","line":11},{"station_name":"Gang Sentiong","distance":1567,"time":8,"transit":false,"station_id":"GST","i_long":106.850107,"line":11,"i_lat":-6.185975,"is_transit":false}],[{"time":0,"transit":false,"is_transit":false,"i_lat":-6.262938,"station_id":"TLM","i_long":107.093313,"station_name":"Metland Telaga Murni","distance":0,"line":1},{"distance":2800,"time":2,"station_name":"Cibitung","line":1,"is_transit":false,"station_id":"CIT","transit":false,"i_lat":-6.261877,"i_long":107.083084},{"i_long":107.055722,"i_lat":-6.258864,"time":3,"station_name":"Tambun","distance":3420,"transit":false,"line":1,"is_transit":false,"station_id":"TB"},{"station_id":"BKST","time":7,"is_transit":false,"distance":4460,"transit":false,"station_name":"Bekasi Timur","i_long":107.016735,"line":1,"i_lat":-6.248029},{"distance":2368,"time":2,"station_id":"BKS","transit":false,"line":1,"station_name":"Bekasi","is_transit":false,"i_long":106.997013,"i_lat":-6.236616},{"i_long":106.977657,"station_id":"KRI","transit":false,"station_name":"Kranji","time":4,"is_transit":false,"line":1,"distance":2520,"i_lat":-6.224515},{"i_long":106.951283,"station_name":"Cakung","line":1,"transit":false,"i_lat":-6.219053,"time":3,"is_transit":false,"distance":3097,"station_id":"CUK"},{"time":8,"i_lat":-6.217455,"transit":false,"station_id":"KLDB","i_long":106.939679,"line":1,"distance":1385,"is_transit":false,"station_name":"Klenderbaru"},{"time":1,"i_long":106.922662,"station_name":"Buaran","is_transit":false,"transit":false,"line":1,"i_lat":-6.215568,"station_id":"BUA","distance":1305},{"time":2,"transit":false,"i_long":106.899548,"station_id":"KLD","distance":3100,"i_lat":-6.2135,"station_name":"Klender","is_transit":false,"line":1},{"station_name":"Jatinegara","distance":3395,"is_transit":false,"station_id":"JNG","i_lat":-6.215091,"i_long":106.86807400000001,"line":1,"time":3,"transit":false},{"line":1,"time":2,"is_transit":false,"transit":false,"i_lat":-6.212485,"station_name":"Matraman","distance":1377,"station_id":"MTR","i_long":106.858896},{"transit":true,"i_lat":-6.209883,"station_id":"MRI","i_long":106.84912,"time":2,"station_name":"Manggarai","distance":1275,"is_transit":true,"line":2},{"time":4,"distance":1590,"is_transit":false,"station_id":"CKI","transit":false,"i_long":106.840169,"i_lat":-6.198556,"line":2,"station_name":"Cikini"},{"transit":false,"i_lat":-6.186295,"station_name":"Gondangdia","time":3,"is_transit":false,"distance":1750,"station_id":"GDD","line":2,"i_long":106.832183},{"time":4,"i_lat":-6.166716,"line":2,"distance":2015,"station_name":"Juanda","i_long":106.828284,"transit":false,"station_id":"JUA","is_transit":false},{"transit":false,"is_transit":false,"i_lat":-6.160725,"distance":1149,"station_id":"SW","station_name":"Sawah Besar","time":2,"line":2,"i_long":106.827103},{"station_id":"MGB","i_long":106.82482,"transit":false,"i_lat":-6.149769,"station_name":"Manggabesar","distance":906,"time":2,"is_transit":false,"line":2},{"station_id":"JAY","line":2,"distance":1080,"is_transit":false,"station_name":"Jayakarta","transit":false,"i_lat":-6.141205,"i_long":106.820901,"time":2},{"distance":1264,"station_id":"JAKK","i_lat":-6.137569,"station_name":"Jakarta Kota","line":2,"i_long":106.812439,"time":4,"is_transit":true,"transit":true},{"is_transit":true,"line":4,"i_lat":-6.132549,"time":3,"distance":1364,"station_name":"Kampung Bandan","station_id":"KPB","transit":true,"i_long":106.826365},{"line":11,"i_lat":-6.14505,"distance":1444,"i_long":106.836569,"station_id":"RJW","is_transit":false,"station_name":"Rajawali","transit":false,"time":3},{"transit":false,"station_id":"KMO","i_long":106.839204,"station_name":"Kemayoran","is_transit":false,"time":5,"i_lat":-6.161728,"line":11,"distance":1901},{"line":11,"distance":1436,"time":4,"i_long":106.84368,"station_id":"PSE","transit":false,"i_lat":-6.174784,"is_transit":false,"station_name":"Pasar Senen"},{"is_transit":false,"line":11,"i_lat":-6.185975,"time":8,"transit":false,"station_name":"Gang Sentiong","station_id":"GST","distance":1567,"i_long":106.850107}]]}