{"data":[[{"station_name":"Metland Telaga Murni","is_transit":false,"transit":false,"time":0,"distance":0,"line":1,"i_lat":-6.262938,"station_id":"TLM","i_long":107.093313},{"line":1,"is_transit":false,"station_name":"Cibitung","transit":false,"time":2,"distance":2800,"i_lat":-6.261877,"station_id":"CIT","i_long":107.083084},{"i_lat":-6.258864,"is_transit":false,"station_name":"Tambun","station_id":"TB","line":1,"distance":3420,"i_long":107.055722,"transit":false,"time":3},{"i_lat":-6.248029,"distance":4460,"station_name":"Bekasi Timur","time":7,"station_id":"BKST","transit":false,"is_transit":false,"i_long":107.016735,"line":1},{"distance":2368,"i_long":106.997013,"is_transit":false,"i_lat":-6.236616,"transit":false,"station_id":"BKS","time":2,"station_name":"Bekasi","line":1},{"i_lat":-6.224515,"time":4,"distance":2520,"i_long":106.977657,"transit":false,"station_name":"Kranji","is_transit":false,"station_id":"KRI","line":1},{"distance":3097,"station_id":"CUK","i_long":106.951283,"station_name":"Cakung","line":1,"is_transit":false,"transit":false,"time":3,"i_lat":-6.219053},{"i_lat":-6.217455,"time":8,"i_long":106.939679,"distance":1385,"transit":false,"line":1,"station_name":"Klenderbaru","station_id":"KLDB","is_transit":false},{"time":1,"distance":1305,"i_lat":-6.215568,"line":1,"station_name":"Buaran","is_transit":false,"i_long":106.922662,"station_id":"BUA","transit":false},{"station_name":"Klender","i_long":106.899548,"line":1,"is_transit":false,"station_id":"KLD","distance":3100,"transit":false,"time":2,"i_lat":-6.2135},{"i_lat":-6.215091,"time":3,"i_long":106.86807400000001,"line":1,"transit":false,"distance":3395,"is_transit":false,"station_id":"JNG","station_name":"Jatinegara"},{"line":1,"time":2,"distance":1377,"is_transit":false,"station_name":"Matraman","transit":false,"station_id":"MTR","i_lat":-6.212485,"i_long":106.858896},{"line":2,"time":2,"transit":false,"station_name":"Manggarai","is_transit":false,"distance":1275,"i_lat":-6.209883,"station_id":"MRI","i_long":106.84912},{"i_long":106.822649,"transit":false,"distance":3186,"i_lat":-6.202263,"station_id":"SUD","line":1,"time":4,"station_name":"Sudirman","is_transit":false},{"station_id":"SUDB","station_name":"Sudirman Baru","is_transit":false,"line":1,"i_lat":-6.201433,"time":1,"transit":false,"distance":280,"i_long":106.819881},{"station_id":"KAT","station_name":"Karet","time":1,"is_transit":false,"i_lat":-6.20132,"distance":471,"i_long":106.816351,"transit":false,"line":1},{"transit":true,"i_long":106.811091,"line":1,"i_lat":-6.185545,"station_name":"Tanah Abang","time":5,"station_id":"THB","is_transit":true,"distance":2029},{"i_long":106.79689,"transit":false,"line":6,"station_name":"Palmerah","station_id":"PLM","distance":3191,"is_transit":false,"i_lat":-6.207404,"time":6}],[{"line":1,"transit":false,"station_id":"TLM","distance":0,"time":0,"i_lat":-6.262938,"i_long":107.093313,"station_name":"Metland Telaga Murni","is_transit":false},{"station_name":"Cibitung","transit":false,"station_id":"CIT","is_transit":false,"distance":2800,"line":1,"i_long":107.083084,"time":2,"i_lat":-6.261877},{"transit":false,"i_lat":-6.258864,"i_long":107.055722,"time":3,"is_transit":false,"distance":3420,"station_name":"Tambun","station_id":"TB","line":1},{"is_transit":false,"time":7,"line":1,"transit":false,"station_id":"BKST","station_name":"Bekasi Timur","distance":4460,"i_long":107.016735,"i_lat":-6.248029},{"i_lat":-6.236616,"i_long":106.997013,"station_name":"Bekasi","transit":false,"distance":2368,"station_id":"BKS","line":1,"is_transit":false,"time":2},{"is_transit":false,"i_lat":-6.224515,"station_name":"Kranji","transit":false,"i_long":106.977657,"distance":2520,"line":1,"time":4,"station_id":"KRI"},{"i_lat":-6.219053,"station_name":"Cakung","i_long":106.951283,"time":3,"transit":false,"is_transit":false,"distance":3097,"line":1,"station_id":"CUK"},{"station_name":"Klenderbaru","transit":false,"is_transit":false,"distance":1385,"line":1,"i_long":106.939679,"station_id":"KLDB","i_lat":-6.217455,"time":8},{"line":1,"station_name":"Buaran","is_transit":false,"i_lat":-6.215568,"station_id":"BUA","time":1,"distance":1305,"transit":false,"i_long":106.922662},{"station_name":"Klender","i_long":106.899548,"i_lat":-6.2135,"line":1,"station_id":"KLD","time":2,"transit":false,"is_transit":false,"distance":3100},{"is_transit":true,"line":1,"station_name":"Jatinegara","distance":3395,"time":3,"station_id":"JNG","i_lat":-6.215091,"i_long":106.86807400000001,"transit":true},{"i_lat":-6.209188,"time":2,"distance":1236,"station_id":"POK","i_long":106.861737,"transit":false,"is_transit":false,"station_name":"Pondok Jati","line":11},{"time":2,"station_name":"Kramat","i_long":106.855437,"distance":1829,"is_transit":false,"line":11,"i_lat":-6.193792,"station_id":"KMT","transit":false},{"line":11,"is_transit":false,"distance":973,"station_id":"GST","transit":false,"i_lat":-6.185975,"time":1,"station_name":"Gang Sentiong","i_long":106.850107},{"line":11,"station_name":"Pasar Senen","transit":false,"i_long":106.84368,"station_id":"PSE","distance":1567,"is_transit":false,"time":8,"i_lat":-6.174784},{"distance":1436,"line":11,"i_long":106.839204,"is_transit":false,"i_lat":-6.161728,"transit":false,"station_name":"Kemayoran","station_id":"KMO","time":4},{"i_lat":-6.14505,"i_long":106.836569,"line":11,"station_id":"RJW","station_name":"Rajawali","is_transit":false,"time":5,"transit":false,"distance":1901},{"i_long":106.826365,"time":3,"transit":true,"station_id":"KPB","is_transit":true,"station_name":"Kampung Bandan","distance":1444,"i_lat":-6.132549,"line":4},{"station_name":"Angke","time":9,"i_lat":-6.144674,"transit":false,"station_id":"AK","i_long":106.79867,"line":1,"is_transit":false,"distance":4102},{"distance":1230,"transit":false,"time":4,"station_id":"DU","i_lat":-6.155215,"is_transit":false,"station_name":"Duri","i_long":106.800832,"line":1},{"transit":true,"is_transit":true,"station_id":"THB","distance":3632,"line":1,"i_long":106.811091,"time":8,"i_lat":-6.185545,"station_name":"Tanah Abang"},{"station_name":"Palmerah","line":6,"time":6,"station_id":"PLM","transit":false,"distance":3191,"i_long":106.79689,"is_transit":false,"i_lat":-6.207404}],[{"line":1,"transit":false,"time":0,"distance":0,"is_transit":false,"station_id":"TLM","i_long":107.093313,"i_lat":-6.262938,"station_name":"Metland Telaga Murni"},{"station_name":"Cibitung","station_id":"CIT","line":1,"time":2,"transit":false,"i_lat":-6.261877,"is_transit":false,"distance":2800,"i_long":107.083084},{"station_name":"Tambun","station_id":"TB","i_lat":-6.258864,"is_transit":false,"i_long":107.055722,"transit":false,"line":1,"time":3,"distance":3420},{"station_id":"BKST","is_transit":false,"time":7,"distance":4460,"line":1,"station_name":"Bekasi Timur","i_long":107.016735,"transit":false,"i_lat":-6.248029},{"i_long":106.997013,"line":1,"transit":false,"i_lat":-6.236616,"time":2,"station_name":"Bekasi","station_id":"BKS","is_transit":false,"distance":2368},{"distance":2520,"i_lat":-6.224515,"station_name":"Kranji","station_id":"KRI","transit":false,"line":1,"is_transit":false,"time":4,"i_long":106.977657},{"transit":false,"station_id":"CUK","station_name":"Cakung","time":3,"i_lat":-6.219053,"distance":3097,"is_transit":false,"line":1,"i_long":106.951283},{"i_lat":-6.217455,"line":1,"i_long":106.939679,"transit":false,"time":8,"station_id":"KLDB","station_name":"Klenderbaru","is_transit":false,"distance":1385},{"transit":false,"time":1,"station_name":"Buaran","station_id":"BUA","distance":1305,"i_long":106.922662,"i_lat":-6.215568,"is_transit":false,"line":1},{"i_lat":-6.2135,"time":2,"is_transit":false,"station_id":"KLD","line":1,"station_name":"Klender","transit":false,"i_long":106.899548,"distance":3100},{"line":1,"distance":3395,"station_name":"Jatinegara","is_transit":false,"i_lat":-6.215091,"station_id":"JNG","i_long":106.86807400000001,"time":3,"transit":false},{"line":1,"distance":1377,"i_lat":-6.212485,"station_name":"Matraman","station_id":"MTR","i_long":106.858896,"is_transit":false,"time":2,"transit":false},{"is_transit":true,"line":2,"distance":1275,"i_long":106.84912,"station_id":"MRI","transit":true,"station_name":"Manggarai","time":2,"i_lat":-6.209883},{"i_lat":-6.198556,"distance":1590,"i_long":106.840169,"station_id":"CKI","line":2,"time":4,"station_name":"Cikini","is_transit":false,"transit":false},{"i_long":106.832183,"distance":1750,"i_lat":-6.186295,"is_transit":false,"transit":false,"station_id":"GDD","time":3,"line":2,"station_name":"Gondangdia"},{"transit":false,"station_id":"JUA","station_name":"Juanda","time":4,"distance":2015,"is_transit":false,"i_lat":-6.166716,"i_long":106.828284,"line":2},{"station_id":"SW","time":2,"is_transit":false,"distance":1149,"station_name":"Sawah Besar","i_lat":-6.160725,"i_long":106.827103,"transit":false,"line":2},{"time":2,"i_long":106.82482,"distance":906,"i_lat":-6.149769,"station_name":"Manggabesar","transit":false,"line":2,"is_transit":false,"station_id":"MGB"},{"i_long":106.820901,"distance":1080,"line":2,"transit":false,"station_id":"JAY","station_name":"Jayakarta","is_transit":false,"time":2,"i_lat":-6.141205},{"is_transit":true,"distance":1264,"i_long":106.812439,"time":4,"station_name":"Jakarta Kota","transit":true,"station_id":"JAKK","i_lat":-6.137569,"line":2},{"station_name":"Kampung Bandan","i_lat":-6.132549,"line":4,"distance":1364,"transit":true,"station_id":"KPB","time":3,"i_long":106.826365,"is_transit":true},{"i_lat":-6.144674,"line":1,"transit":false,"station_name":"Angke","i_long":106.79867,"distance":4102,"station_id":"AK","time":9,"is_transit":false},{"line":1,"station_name":"Duri","distance":1230,"transit":false,"i_lat":-6.155215,"is_transit":false,"station_id":"DU","i_long":106.800832,"time":4},{"time":8,"distance":3632,"is_transit":true,"station_id":"THB","line":1,"station_name":"Tanah Abang","i_lat":-6.185545,"i_long":106.811091,"transit":true},{"time":6,"i_long":106.79689,"station_name":"Palmerah","line":6,"is_transit":false,"distance":3191,"transit":false,"station_id":"PLM","i_lat":-6.207404}],[{"i_long":107.093313,"distance":0,"i_lat":-6.262938,"line":1,"station_name":"Metland Telaga Murni","time":0,"station_id":"TLM","is_transit":false,"transit":false},{"station_name":"Cibitung","distance":2800,"i_lat":-6.261877,"station_id":"CIT","is_transit":false,"i_long":107.083084,"transit":false,"line":1,"time":2},{"transit":false,"station_id":"TB","i_long":107.055722,"distance":3420,"is_transit":false,"station_name":"Tambun","time":3,"i_lat":-6.258864,"line":1},{"i_lat":-6.248029,"i_long":107.016735,"line":1,"station_id":"BKST","station_name":"Bekasi Timur","is_transit":false,"time":7,"distance":4460,"transit":false},{"i_long":106.997013,"transit":false,"line":1,"station_id":"BKS","is_transit":false,"distance":2368,"station_name":"Bekasi","time":2,"i_lat":-6.236616},{"time":4,"station_name":"Kranji","line":1,"is_transit":false,"transit":false,"distance":2520,"i_lat":-6.224515,"station_id":"KRI","i_long":106.977657},{"i_long":106.951283,"line":1,"station_id":"CUK","distance":3097,"station_name":"Cakung","i_lat":-6.219053,"is_transit":false,"time":3,"transit":false},{"time":8,"is_transit":false,"transit":false,"distance":1385,"i_long":106.939679,"station_id":"KLDB","line":1,"station_name":"Klenderbaru","i_lat":-6.217455},{"time":1,"station_name":"Buaran","line":1,"transit":false,"distance":1305,"i_lat":-6.215568,"is_transit":false,"station_id":"BUA","i_long":106.922662},{"distance":3100,"line":1,"i_lat":-6.2135,"transit":false,"station_name":"Klender","is_transit":false,"time":2,"i_long":106.899548,"station_id":"KLD"},{"line":1,"station_name":"Jatinegara","transit":true,"distance":3395,"i_lat":-6.215091,"station_id":"JNG","i_long":106.86807400000001,"time":3,"is_transit":true},{"distance":1236,"i_long":106.861737,"line":11,"is_transit":false,"station_id":"POK","i_lat":-6.209188,"time":2,"station_name":"Pondok Jati","transit":false},{"station_name":"Kramat","is_transit":false,"time":2,"line":11,"station_id":"KMT","i_long":106.855437,"transit":false,"i_lat":-6.193792,"distance":1829},{"station_id":"GST","transit":false,"line":11,"is_transit":false,"distance":973,"station_name":"Gang Sentiong","time":1,"i_lat":-6.185975,"i_long":106.850107},{"time":8,"i_long":106.84368,"is_transit":false,"station_name":"Pasar Senen","distance":1567,"line":11,"station_id":"PSE","i_lat":-6.174784,"transit":false},{"i_lat":-6.161728,"transit":false,"station_id":"KMO","distance":1436,"time":4,"station_name":"Kemayoran","line":11,"is_transit":false,"i_long":106.839204},{"is_transit":false,"station_id":"RJW","i_lat":-6.14505,"i_long":106.836569,"time":5,"transit":false,"station_name":"Rajawali","distance":1901,"line":11},{"i_long":106.826365,"time":3,"i_lat":-6.132549,"line":4,"distance":1444,"station_id":"KPB","station_name":"Kampung Bandan","transit":true,"is_transit":true},{"time":3,"i_long":106.812439,"is_transit":true,"distance":1364,"station_id":"JAKK","line":2,"i_lat":-6.137569,"station_name":"Jakarta Kota","transit":true},{"line":2,"distance":1264,"time":4,"i_lat":-6.141205,"i_long":106.820901,"station_name":"Jayakarta","station_id":"JAY","transit":false,"is_transit":false},{"is_transit":false,"distance":1080,"i_lat":-6.149769,"i_long":106.82482,"transit":false,"line":2,"station_id":"MGB","time":2,"station_name":"Manggabesar"},{"is_transit":false,"i_long":106.827103,"station_name":"Sawah Besar","station_id":"SW","transit":false,"distance":906,"time":2,"i_lat":-6.160725,"line":2},{"line":2,"station_id":"JUA","is_transit":false,"transit":false,"time":2,"i_lat":-6.166716,"station_name":"Juanda","i_long":106.828284,"distance":1149},{"line":2,"transit":false,"i_long":106.832183,"station_id":"GDD","distance":2015,"is_transit":false,"station_name":"Gondangdia","i_lat":-6.186295,"time":4},{"station_id":"CKI","distance":1750,"line":2,"is_transit":false,"transit":false,"time":3,"i_lat":-6.198556,"i_long":106.840169,"station_name":"Cikini"},{"distance":1590,"line":2,"time":4,"transit":true,"is_transit":true,"station_name":"Manggarai","i_long":106.84912,"station_id":"MRI","i_lat":-6.209883},{"transit":false,"distance":3186,"i_long":106.822649,"time":4,"i_lat":-6.202263,"station_name":"Sudirman","is_transit":false,"line":1,"station_id":"SUD"},{"line":1,"is_transit":false,"time":1,"transit":false,"distance":280,"station_name":"Sudirman Baru","station_id":"SUDB","i_lat":-6.201433,"i_long":106.819881},{"time":1,"i_lat":-6.20132,"station_id":"KAT","station_name":"Karet","i_long":106.816351,"line":1,"transit":false,"is_transit":false,"distance":471},{"is_transit":true,"station_name":"Tanah Abang","transit":true,"i_long":106.811091,"distance":2029,"station_id":"THB","time":5,"i_lat":-6.185545,"line":1},{"time":6,"station_id":"PLM","line":6,"is_transit":false,"i_long":106.79689,"distance":3191,"transit":false,"i_lat":-6.207404,"station_name":"Palmerah"}]]}