{"data":[[{"line":1,"i_lat":-6.262938,"i_long":107.093313,"transit":false,"is_transit":false,"station_name":"Metland Telaga Murni","time":0,"station_id":"TLM","distance":0},{"time":2,"station_name":"Cibitung","transit":false,"i_lat":-6.261877,"station_id":"CIT","distance":2800,"is_transit":false,"i_long":107.083084,"line":1},{"i_lat":-6.258864,"transit":false,"station_name":"Tambun","is_transit":false,"station_id":"TB","i_long":107.055722,"time":3,"distance":3420,"line":1},{"transit":false,"station_id":"BKST","time":7,"distance":4460,"i_long":107.016735,"i_lat":-6.248029,"station_name":"Bekasi Timur","is_transit":false,"line":1},{"station_name":"Bekasi","i_long":106.997013,"i_lat":-6.236616,"station_id":"BKS","is_transit":false,"time":2,"transit":false,"line":1,"distance":2368},{"station_id":"KRI","transit":false,"i_lat":-6.224515,"line":1,"is_transit":false,"time":4,"station_name":"Kranji","distance":2520,"i_long":106.977657},{"i_lat":-6.219053,"station_name":"Cakung","transit":false,"station_id":"CUK","is_transit":false,"line":1,"distance":3097,"i_long":106.951283,"time":3},{"time":8,"station_name":"Klenderbaru","i_long":106.939679,"transit":false,"distance":1385,"line":1,"i_lat":-6.217455,"station_id":"KLDB","is_transit":false},{"i_lat":-6.215568,"distance":1305,"transit":false,"is_transit":false,"station_name":"Buaran","time":1,"line":1,"i_long":106.922662,"station_id":"BUA"},{"i_long":106.899548,"line":1,"i_lat":-6.2135,"station_name":"Klender","transit":false,"distance":3100,"is_transit":false,"station_id":"KLD","time":2},{"distance":3395,"station_id":"JNG","i_lat":-6.215091,"i_long":106.86807400000001,"time":3,"station_name":"Jatinegara","transit":false,"line":1,"is_transit":false},{"station_name":"Matraman","is_transit":false,"line":1,"i_lat":-6.212485,"time":2,"distance":1377,"transit":false,"i_long":106.858896,"station_id":"MTR"},{"i_lat":-6.209883,"distance":1275,"line":2,"station_id":"MRI","is_transit":false,"station_name":"Manggarai","time":2,"i_long":106.84912,"transit":false},{"line":1,"is_transit":false,"distance":3186,"station_id":"SUD","i_lat":-6.202263,"i_long":106.822649,"transit":false,"station_name":"Sudirman","time":4},{"time":1,"station_name":"Sudirman Baru","distance":280,"i_lat":-6.201433,"station_id":"SUDB","i_long":106.819881,"is_transit":false,"line":1,"transit":false},{"station_name":"Karet","time":1,"i_long":106.816351,"distance":471,"station_id":"KAT","i_lat":-6.20132,"line":1,"is_transit":false,"transit":false},{"line":1,"station_name":"Tanah Abang","i_lat":-6.185545,"station_id":"THB","distance":2029,"i_long":106.811091,"transit":true,"is_transit":true,"time":5},{"line":6,"station_name":"Palmerah","distance":3191,"station_id":"PLM","transit":false,"time":6,"i_lat":-6.207404,"i_long":106.79689,"is_transit":false},{"line":6,"station_name":"Kebayoran","station_id":"KBY","time":7,"distance":3737,"i_lat":-6.237242,"is_transit":false,"transit":false,"i_long":106.780334},{"time":8,"station_id":"PDJ","is_transit":false,"station_name":"Pondokranji","distance":6218,"line":6,"i_lat":-6.276362,"transit":false,"i_long":106.74273},{"station_name":"Jurangmangu","is_transit":false,"i_long":106.728916,"time":3,"transit":false,"i_lat":-6.288927,"station_id":"JMU","line":6,"distance":2179},{"line":6,"transit":false,"is_transit":false,"i_lat":-6.296963,"i_long":106.712277,"station_id":"SDM","time":4,"station_name":"Sudimara","distance":1994},{"is_transit":false,"time":6,"i_long":106.675475,"line":6,"station_name":"Rawa Buntu","station_id":"RU","transit":false,"distance":4566,"i_lat":-6.314823}],[{"station_id":"TLM","i_long":107.093313,"line":1,"station_name":"Metland Telaga Murni","transit":false,"i_lat":-6.262938,"distance":0,"is_transit":false,"time":0},{"i_lat":-6.261877,"station_id":"CIT","distance":2800,"transit":false,"time":2,"i_long":107.083084,"line":1,"is_transit":false,"station_name":"Cibitung"},{"transit":false,"i_lat":-6.258864,"line":1,"i_long":107.055722,"time":3,"distance":3420,"station_name":"Tambun","station_id":"TB","is_transit":false},{"station_name":"Bekasi Timur","transit":false,"is_transit":false,"i_long":107.016735,"station_id":"BKST","line":1,"i_lat":-6.248029,"distance":4460,"time":7},{"time":2,"i_long":106.997013,"station_id":"BKS","is_transit":false,"line":1,"station_name":"Bekasi","distance":2368,"i_lat":-6.236616,"transit":false},{"i_lat":-6.224515,"line":1,"station_name":"Kranji","distance":2520,"time":4,"transit":false,"is_transit":false,"i_long":106.977657,"station_id":"KRI"},{"distance":3097,"station_name":"Cakung","time":3,"station_id":"CUK","transit":false,"is_transit":false,"i_long":106.951283,"i_lat":-6.219053,"line":1},{"i_long":106.939679,"distance":1385,"line":1,"transit":false,"station_id":"KLDB","i_lat":-6.217455,"time":8,"is_transit":false,"station_name":"Klenderbaru"},{"station_id":"BUA","line":1,"distance":1305,"transit":false,"i_lat":-6.215568,"is_transit":false,"time":1,"i_long":106.922662,"station_name":"Buaran"},{"i_lat":-6.2135,"station_name":"Klender","distance":3100,"time":2,"i_long":106.899548,"is_transit":false,"line":1,"station_id":"KLD","transit":false},{"distance":3395,"i_lat":-6.215091,"station_name":"Jatinegara","line":1,"i_long":106.86807400000001,"station_id":"JNG","time":3,"is_transit":true,"transit":true},{"line":11,"distance":1236,"transit":false,"is_transit":false,"station_id":"POK","station_name":"Pondok Jati","time":2,"i_long":106.861737,"i_lat":-6.209188},{"is_transit":false,"distance":1829,"i_lat":-6.193792,"time":2,"station_id":"KMT","station_name":"Kramat","transit":false,"line":11,"i_long":106.855437},{"is_transit":false,"station_id":"GST","transit":false,"distance":973,"i_long":106.850107,"station_name":"Gang Sentiong","i_lat":-6.185975,"time":1,"line":11},{"station_name":"Pasar Senen","i_lat":-6.174784,"i_long":106.84368,"time":8,"is_transit":false,"line":11,"distance":1567,"transit":false,"station_id":"PSE"},{"is_transit":false,"line":11,"station_id":"KMO","transit":false,"i_lat":-6.161728,"i_long":106.839204,"time":4,"station_name":"Kemayoran","distance":1436},{"line":11,"station_id":"RJW","i_long":106.836569,"distance":1901,"time":5,"i_lat":-6.14505,"transit":false,"is_transit":false,"station_name":"Rajawali"},{"time":3,"station_id":"KPB","line":4,"transit":true,"i_lat":-6.132549,"is_transit":true,"station_name":"Kampung Bandan","distance":1444,"i_long":106.826365},{"station_name":"Angke","distance":4102,"transit":false,"is_transit":false,"station_id":"AK","i_lat":-6.144674,"line":1,"time":9,"i_long":106.79867},{"time":4,"distance":1230,"station_id":"DU","line":1,"is_transit":false,"i_long":106.800832,"station_name":"Duri","transit":false,"i_lat":-6.155215},{"station_id":"THB","transit":true,"i_lat":-6.185545,"i_long":106.811091,"station_name":"Tanah Abang","line":1,"time":8,"is_transit":true,"distance":3632},{"station_id":"PLM","i_long":106.79689,"time":6,"distance":3191,"i_lat":-6.207404,"transit":false,"is_transit":false,"station_name":"Palmerah","line":6},{"station_name":"Kebayoran","distance":3737,"i_lat":-6.237242,"is_transit":false,"transit":false,"station_id":"KBY","time":7,"i_long":106.780334,"line":6},{"is_transit":false,"i_long":106.74273,"line":6,"i_lat":-6.276362,"transit":false,"distance":6218,"time":8,"station_id":"PDJ","station_name":"Pondokranji"},{"station_id":"JMU","time":3,"is_transit":false,"i_lat":-6.288927,"i_long":106.728916,"distance":2179,"transit":false,"line":6,"station_name":"Jurangmangu"},{"i_lat":-6.296963,"i_long":106.712277,"station_id":"SDM","is_transit":false,"transit":false,"time":4,"station_name":"Sudimara","line":6,"distance":1994},{"time":6,"station_id":"RU","i_long":106.675475,"transit":false,"is_transit":false,"station_name":"Rawa Buntu","line":6,"distance":4566,"i_lat":-6.314823}],[{"distance":0,"is_transit":false,"transit":false,"i_long":107.093313,"line":1,"station_name":"Metland Telaga Murni","i_lat":-6.262938,"station_id":"TLM","time":0},{"line":1,"transit":false,"i_lat":-6.261877,"is_transit":false,"station_name":"Cibitung","i_long":107.083084,"time":2,"distance":2800,"station_id":"CIT"},{"time":3,"distance":3420,"is_transit":false,"i_long":107.055722,"station_name":"Tambun","station_id":"TB","transit":false,"i_lat":-6.258864,"line":1},{"i_long":107.016735,"line":1,"station_name":"Bekasi Timur","transit":false,"distance":4460,"station_id":"BKST","i_lat":-6.248029,"is_transit":false,"time":7},{"line":1,"i_lat":-6.236616,"distance":2368,"time":2,"i_long":106.997013,"station_name":"Bekasi","transit":false,"station_id":"BKS","is_transit":false},{"time":4,"distance":2520,"station_name":"Kranji","transit":false,"station_id":"KRI","i_long":106.977657,"i_lat":-6.224515,"line":1,"is_transit":false},{"i_long":106.951283,"distance":3097,"station_id":"CUK","line":1,"station_name":"Cakung","i_lat":-6.219053,"transit":false,"is_transit":false,"time":3},{"i_long":106.939679,"is_transit":false,"time":8,"distance":1385,"station_name":"Klenderbaru","line":1,"i_lat":-6.217455,"station_id":"KLDB","transit":false},{"station_id":"BUA","station_name":"Buaran","line":1,"time":1,"is_transit":false,"distance":1305,"transit":false,"i_lat":-6.215568,"i_long":106.922662},{"station_name":"Klender","i_long":106.899548,"i_lat":-6.2135,"transit":false,"station_id":"KLD","distance":3100,"line":1,"time":2,"is_transit":false},{"line":1,"station_name":"Jatinegara","i_lat":-6.215091,"transit":false,"distance":3395,"station_id":"JNG","i_long":106.86807400000001,"time":3,"is_transit":false},{"distance":1377,"transit":false,"is_transit":false,"i_lat":-6.212485,"station_name":"Matraman","station_id":"MTR","i_long":106.858896,"line":1,"time":2},{"time":2,"i_long":106.84912,"distance":1275,"line":2,"station_name":"Manggarai","transit":true,"station_id":"MRI","is_transit":true,"i_lat":-6.209883},{"station_id":"CKI","is_transit":false,"time":4,"i_lat":-6.198556,"station_name":"Cikini","distance":1590,"i_long":106.840169,"transit":false,"line":2},{"line":2,"station_name":"Gondangdia","station_id":"GDD","distance":1750,"is_transit":false,"i_long":106.832183,"time":3,"transit":false,"i_lat":-6.186295},{"time":4,"i_lat":-6.166716,"transit":false,"station_id":"JUA","is_transit":false,"i_long":106.828284,"line":2,"station_name":"Juanda","distance":2015},{"i_long":106.827103,"station_id":"SW","is_transit":false,"distance":1149,"time":2,"line":2,"i_lat":-6.160725,"transit":false,"station_name":"Sawah Besar"},{"i_lat":-6.149769,"i_long":106.82482,"station_id":"MGB","station_name":"Manggabesar","time":2,"transit":false,"distance":906,"is_transit":false,"line":2},{"i_lat":-6.141205,"line":2,"station_name":"Jayakarta","i_long":106.820901,"station_id":"JAY","distance":1080,"transit":false,"time":2,"is_transit":false},{"distance":1264,"line":2,"time":4,"transit":true,"i_long":106.812439,"is_transit":true,"station_name":"Jakarta Kota","station_id":"JAKK","i_lat":-6.137569},{"station_name":"Kampung Bandan","distance":1364,"i_long":106.826365,"station_id":"KPB","i_lat":-6.132549,"transit":true,"is_transit":true,"line":4,"time":3},{"line":1,"distance":4102,"is_transit":false,"station_id":"AK","i_lat":-6.144674,"station_name":"Angke","time":9,"i_long":106.79867,"transit":false},{"time":4,"i_long":106.800832,"station_name":"Duri","transit":false,"distance":1230,"station_id":"DU","is_transit":false,"line":1,"i_lat":-6.155215},{"is_transit":true,"i_long":106.811091,"time":8,"station_id":"THB","i_lat":-6.185545,"line":1,"distance":3632,"transit":true,"station_name":"Tanah Abang"},{"i_lat":-6.207404,"distance":3191,"transit":false,"line":6,"i_long":106.79689,"station_name":"Palmerah","is_transit":false,"time":6,"station_id":"PLM"},{"time":7,"is_transit":false,"i_long":106.780334,"transit":false,"station_id":"KBY","distance":3737,"i_lat":-6.237242,"station_name":"Kebayoran","line":6},{"i_lat":-6.276362,"i_long":106.74273,"line":6,"station_name":"Pondokranji","station_id":"PDJ","transit":false,"time":8,"distance":6218,"is_transit":false},{"time":3,"transit":false,"distance":2179,"station_name":"Jurangmangu","is_transit":false,"line":6,"i_long":106.728916,"i_lat":-6.288927,"station_id":"JMU"},{"distance":1994,"station_id":"SDM","is_transit":false,"station_name":"Sudimara","line":6,"i_lat":-6.296963,"time":4,"transit":false,"i_long":106.712277},{"station_id":"RU","time":6,"is_transit":false,"i_lat":-6.314823,"i_long":106.675475,"transit":false,"line":6,"station_name":"Rawa Buntu","distance":4566}],[{"station_id":"TLM","transit":false,"station_name":"Metland Telaga Murni","is_transit":false,"i_lat":-6.262938,"distance":0,"i_long":107.093313,"time":0,"line":1},{"distance":2800,"transit":false,"time":2,"i_long":107.083084,"station_name":"Cibitung","line":1,"station_id":"CIT","is_transit":false,"i_lat":-6.261877},{"distance":3420,"transit":false,"station_id":"TB","station_name":"Tambun","i_long":107.055722,"time":3,"i_lat":-6.258864,"line":1,"is_transit":false},{"transit":false,"i_lat":-6.248029,"is_transit":false,"distance":4460,"i_long":107.016735,"station_name":"Bekasi Timur","time":7,"station_id":"BKST","line":1},{"i_lat":-6.236616,"i_long":106.997013,"transit":false,"station_name":"Bekasi","line":1,"time":2,"distance":2368,"station_id":"BKS","is_transit":false},{"distance":2520,"station_name":"Kranji","station_id":"KRI","i_lat":-6.224515,"time":4,"transit":false,"is_transit":false,"i_long":106.977657,"line":1},{"station_name":"Cakung","is_transit":false,"i_long":106.951283,"distance":3097,"station_id":"CUK","transit":false,"line":1,"i_lat":-6.219053,"time":3},{"distance":1385,"time":8,"station_name":"Klenderbaru","transit":false,"i_long":106.939679,"is_transit":false,"i_lat":-6.217455,"station_id":"KLDB","line":1},{"line":1,"is_transit":false,"station_name":"Buaran","distance":1305,"station_id":"BUA","transit":false,"i_lat":-6.215568,"i_long":106.922662,"time":1},{"i_long":106.899548,"is_transit":false,"station_id":"KLD","time":2,"line":1,"transit":false,"distance":3100,"station_name":"Klender","i_lat":-6.2135},{"line":1,"time":3,"transit":true,"i_lat":-6.215091,"is_transit":true,"station_id":"JNG","distance":3395,"station_name":"Jatinegara","i_long":106.86807400000001},{"line":11,"station_name":"Pondok Jati","station_id":"POK","i_long":106.861737,"i_lat":-6.209188,"transit":false,"is_transit":false,"distance":1236,"time":2},{"line":11,"station_name":"Kramat","i_lat":-6.193792,"i_long":106.855437,"time":2,"transit":false,"is_transit":false,"distance":1829,"station_id":"KMT"},{"i_long":106.850107,"line":11,"station_name":"Gang Sentiong","transit":false,"is_transit":false,"i_lat":-6.185975,"time":1,"distance":973,"station_id":"GST"},{"station_name":"Pasar Senen","time":8,"is_transit":false,"i_long":106.84368,"i_lat":-6.174784,"distance":1567,"transit":false,"line":11,"station_id":"PSE"},{"time":4,"transit":false,"i_lat":-6.161728,"distance":1436,"station_id":"KMO","i_long":106.839204,"line":11,"station_name":"Kemayoran","is_transit":false},{"i_long":106.836569,"distance":1901,"station_id":"RJW","station_name":"Rajawali","line":11,"transit":false,"time":5,"i_lat":-6.14505,"is_transit":false},{"distance":1444,"station_name":"Kampung Bandan","station_id":"KPB","i_long":106.826365,"transit":true,"i_lat":-6.132549,"line":4,"is_transit":true,"time":3},{"station_name":"Jakarta Kota","transit":true,"i_long":106.812439,"distance":1364,"is_transit":true,"time":3,"station_id":"JAKK","i_lat":-6.137569,"line":2},{"station_name":"Jayakarta","time":4,"transit":false,"i_lat":-6.141205,"is_transit":false,"distance":1264,"i_long":106.820901,"station_id":"JAY","line":2},{"time":2,"line":2,"station_name":"Manggabesar","distance":1080,"transit":false,"i_lat":-6.149769,"station_id":"MGB","is_transit":false,"i_long":106.82482},{"station_id":"SW","station_name":"Sawah Besar","distance":906,"i_lat":-6.160725,"time":2,"transit":false,"is_transit":false,"line":2,"i_long":106.827103},{"station_id":"JUA","transit":false,"station_name":"Juanda","line":2,"is_transit":false,"time":2,"distance":1149,"i_lat":-6.166716,"i_long":106.828284},{"time":4,"i_lat":-6.186295,"transit":false,"is_transit":false,"distance":2015,"station_id":"GDD","station_name":"Gondangdia","i_long":106.832183,"line":2},{"station_id":"CKI","i_lat":-6.198556,"line":2,"time":3,"station_name":"Cikini","is_transit":false,"transit":false,"distance":1750,"i_long":106.840169},{"is_transit":true,"transit":true,"i_lat":-6.209883,"line":2,"distance":1590,"time":4,"station_name":"Manggarai","station_id":"MRI","i_long":106.84912},{"time":4,"i_lat":-6.202263,"station_name":"Sudirman","station_id":"SUD","is_transit":false,"distance":3186,"line":1,"transit":false,"i_long":106.822649},{"distance":280,"i_long":106.819881,"transit":false,"station_name":"Sudirman Baru","line":1,"is_transit":false,"time":1,"station_id":"SUDB","i_lat":-6.201433},{"is_transit":false,"line":1,"station_id":"KAT","transit":false,"time":1,"distance":471,"i_lat":-6.20132,"station_name":"Karet","i_long":106.816351},{"station_id":"THB","transit":true,"distance":2029,"i_lat":-6.185545,"i_long":106.811091,"station_name":"Tanah Abang","is_transit":true,"line":1,"time":5},{"distance":3191,"time":6,"station_id":"PLM","i_long":106.79689,"line":6,"transit":false,"is_transit":false,"i_lat":-6.207404,"station_name":"Palmerah"},{"i_long":106.780334,"line":6,"distance":3737,"is_transit":false,"station_name":"Kebayoran","i_lat":-6.237242,"time":7,"station_id":"KBY","transit":false},{"station_id":"PDJ","line":6,"transit":false,"is_transit":false,"distance":6218,"time":8,"i_lat":-6.276362,"station_name":"Pondokranji","i_long":106.74273},{"distance":2179,"time":3,"transit":false,"station_id":"JMU","is_transit":false,"i_lat":-6.288927,"i_long":106.728916,"line":6,"station_name":"Jurangmangu"},{"i_lat":-6.296963,"transit":false,"line":6,"is_transit":false,"distance":1994,"station_id":"SDM","station_name":"Sudimara","i_long":106.712277,"time":4},{"i_long":106.675475,"station_id":"RU","line":6,"distance":4566,"transit":false,"station_name":"Rawa Buntu","i_lat":-6.314823,"time":6,"is_transit":false}]]}