{"data":[[{"is_transit":false,"i_long":107.093313,"transit":false,"i_lat":-6.262938,"line":1,"time":0,"distance":0,"station_id":"TLM","station_name":"Metland Telaga Murni"},{"time":2,"station_name":"Cibitung","distance":2800,"station_id":"CIT","i_long":107.083084,"line":1,"is_transit":false,"transit":false,"i_lat":-6.261877},{"time":3,"station_id":"TB","transit":false,"station_name":"Tambun","is_transit":false,"i_lat":-6.258864,"i_long":107.055722,"distance":3420,"line":1},{"i_long":107.016735,"station_name":"Bekasi Timur","line":1,"is_transit":false,"distance":4460,"i_lat":-6.248029,"time":7,"transit":false,"station_id":"BKST"},{"distance":2368,"transit":false,"station_id":"BKS","time":2,"is_transit":false,"i_lat":-6.236616,"i_long":106.997013,"line":1,"station_name":"Bekasi"},{"station_name":"Kranji","i_long":106.977657,"distance":2520,"station_id":"KRI","transit":false,"i_lat":-6.224515,"is_transit":false,"line":1,"time":4},{"i_lat":-6.219053,"i_long":106.951283,"distance":3097,"is_transit":false,"station_name":"Cakung","line":1,"time":3,"transit":false,"station_id":"CUK"},{"station_name":"Klenderbaru","line":1,"i_long":106.939679,"time":8,"station_id":"KLDB","is_transit":false,"i_lat":-6.217455,"transit":false,"distance":1385},{"i_long":106.922662,"time":1,"station_id":"BUA","station_name":"Buaran","is_transit":false,"transit":false,"distance":1305,"i_lat":-6.215568,"line":1},{"i_lat":-6.2135,"line":1,"station_id":"KLD","time":2,"distance":3100,"i_long":106.899548,"is_transit":false,"station_name":"Klender","transit":false},{"station_name":"Jatinegara","time":3,"station_id":"JNG","transit":false,"i_lat":-6.215091,"line":1,"distance":3395,"i_long":106.86807400000001,"is_transit":false},{"station_name":"Matraman","line":1,"i_long":106.858896,"is_transit":false,"transit":false,"distance":1377,"time":2,"i_lat":-6.212485,"station_id":"MTR"},{"is_transit":false,"i_long":106.84912,"station_name":"Manggarai","distance":1275,"i_lat":-6.209883,"time":2,"station_id":"MRI","line":2,"transit":false},{"station_id":"SUD","i_lat":-6.202263,"time":4,"is_transit":false,"station_name":"Sudirman","transit":false,"distance":3186,"line":1,"i_long":106.822649},{"line":1,"station_name":"Sudirman Baru","time":1,"is_transit":false,"distance":280,"i_lat":-6.201433,"station_id":"SUDB","transit":false,"i_long":106.819881},{"is_transit":false,"i_lat":-6.20132,"distance":471,"station_name":"Karet","transit":false,"i_long":106.816351,"station_id":"KAT","time":1,"line":1},{"station_name":"Tanah Abang","i_lat":-6.185545,"i_long":106.811091,"is_transit":true,"transit":true,"distance":2029,"time":5,"station_id":"THB","line":1},{"distance":3191,"i_lat":-6.207404,"station_id":"PLM","i_long":106.79689,"is_transit":false,"time":6,"transit":false,"station_name":"Palmerah","line":6},{"station_id":"KBY","transit":false,"line":6,"i_lat":-6.237242,"is_transit":false,"i_long":106.780334,"distance":3737,"time":7,"station_name":"Kebayoran"},{"distance":6218,"station_name":"Pondokranji","station_id":"PDJ","time":8,"line":6,"transit":false,"i_lat":-6.276362,"i_long":106.74273,"is_transit":false},{"i_lat":-6.288927,"transit":false,"station_id":"JMU","station_name":"Jurangmangu","distance":2179,"is_transit":false,"i_long":106.728916,"time":3,"line":6},{"transit":false,"station_id":"SDM","line":6,"time":4,"i_long":106.712277,"station_name":"Sudimara","distance":1994,"i_lat":-6.296963,"is_transit":false},{"line":6,"i_long":106.675475,"station_name":"Rawa Buntu","distance":4566,"time":6,"is_transit":false,"transit":false,"station_id":"RU","i_lat":-6.314823},{"transit":false,"station_name":"Serpong","distance":2413,"is_transit":false,"i_lat":-6.319871,"time":4,"i_long":106.66566,"line":6,"station_id":"SRP"},{"distance":1784,"is_transit":false,"i_lat":-6.32484,"transit":false,"station_name":"Cisauk","i_long":106.640411,"line":3,"station_id":"CSK","time":4},{"time":4,"transit":false,"i_lat":-6.329547,"is_transit":false,"station_name":"Cicayur","i_long":106.617853,"station_id":"CC","distance":2519,"line":3}],[{"is_transit":false,"transit":false,"station_name":"Metland Telaga Murni","i_lat":-6.262938,"station_id":"TLM","line":1,"distance":0,"i_long":107.093313,"time":0},{"i_lat":-6.261877,"time":2,"is_transit":false,"distance":2800,"station_name":"Cibitung","line":1,"station_id":"CIT","transit":false,"i_long":107.083084},{"station_id":"TB","is_transit":false,"transit":false,"time":3,"distance":3420,"station_name":"Tambun","i_lat":-6.258864,"line":1,"i_long":107.055722},{"station_id":"BKST","line":1,"time":7,"i_long":107.016735,"is_transit":false,"distance":4460,"station_name":"Bekasi Timur","i_lat":-6.248029,"transit":false},{"time":2,"distance":2368,"line":1,"station_name":"Bekasi","i_long":106.997013,"i_lat":-6.236616,"transit":false,"is_transit":false,"station_id":"BKS"},{"transit":false,"i_lat":-6.224515,"distance":2520,"i_long":106.977657,"station_name":"Kranji","time":4,"is_transit":false,"station_id":"KRI","line":1},{"distance":3097,"i_lat":-6.219053,"i_long":106.951283,"time":3,"is_transit":false,"station_name":"Cakung","line":1,"station_id":"CUK","transit":false},{"is_transit":false,"i_lat":-6.217455,"time":8,"station_id":"KLDB","line":1,"distance":1385,"transit":false,"i_long":106.939679,"station_name":"Klenderbaru"},{"transit":false,"is_transit":false,"station_id":"BUA","time":1,"station_name":"Buaran","i_lat":-6.215568,"distance":1305,"line":1,"i_long":106.922662},{"station_name":"Klender","transit":false,"time":2,"is_transit":false,"i_lat":-6.2135,"station_id":"KLD","i_long":106.899548,"distance":3100,"line":1},{"line":1,"i_long":106.86807400000001,"i_lat":-6.215091,"time":3,"distance":3395,"station_id":"JNG","transit":true,"is_transit":true,"station_name":"Jatinegara"},{"time":2,"is_transit":false,"station_name":"Pondok Jati","i_lat":-6.209188,"i_long":106.861737,"station_id":"POK","line":11,"transit":false,"distance":1236},{"i_long":106.855437,"transit":false,"station_name":"Kramat","i_lat":-6.193792,"is_transit":false,"distance":1829,"station_id":"KMT","line":11,"time":2},{"station_id":"GST","i_long":106.850107,"line":11,"distance":973,"time":1,"station_name":"Gang Sentiong","i_lat":-6.185975,"is_transit":false,"transit":false},{"transit":false,"station_name":"Pasar Senen","i_long":106.84368,"time":8,"line":11,"station_id":"PSE","distance":1567,"is_transit":false,"i_lat":-6.174784},{"transit":false,"i_lat":-6.161728,"line":11,"is_transit":false,"i_long":106.839204,"distance":1436,"station_name":"Kemayoran","time":4,"station_id":"KMO"},{"line":11,"time":5,"distance":1901,"is_transit":false,"i_long":106.836569,"i_lat":-6.14505,"station_id":"RJW","transit":false,"station_name":"Rajawali"},{"time":3,"transit":true,"is_transit":true,"i_lat":-6.132549,"line":4,"station_id":"KPB","station_name":"Kampung Bandan","distance":1444,"i_long":106.826365},{"transit":false,"i_long":106.79867,"station_name":"Angke","station_id":"AK","distance":4102,"time":9,"is_transit":false,"line":1,"i_lat":-6.144674},{"distance":1230,"is_transit":false,"time":4,"i_lat":-6.155215,"transit":false,"station_name":"Duri","i_long":106.800832,"line":1,"station_id":"DU"},{"i_lat":-6.185545,"time":8,"station_name":"Tanah Abang","i_long":106.811091,"line":1,"station_id":"THB","is_transit":true,"transit":true,"distance":3632},{"line":6,"is_transit":false,"i_long":106.79689,"station_name":"Palmerah","transit":false,"distance":3191,"station_id":"PLM","time":6,"i_lat":-6.207404},{"distance":3737,"is_transit":false,"time":7,"station_id":"KBY","transit":false,"line":6,"i_long":106.780334,"station_name":"Kebayoran","i_lat":-6.237242},{"is_transit":false,"station_id":"PDJ","station_name":"Pondokranji","i_long":106.74273,"time":8,"transit":false,"i_lat":-6.276362,"distance":6218,"line":6},{"is_transit":false,"transit":false,"i_lat":-6.288927,"i_long":106.728916,"distance":2179,"station_id":"JMU","station_name":"Jurangmangu","time":3,"line":6},{"transit":false,"time":4,"i_long":106.712277,"is_transit":false,"station_id":"SDM","i_lat":-6.296963,"line":6,"station_name":"Sudimara","distance":1994},{"is_transit":false,"transit":false,"station_name":"Rawa Buntu","time":6,"i_lat":-6.314823,"i_long":106.675475,"line":6,"station_id":"RU","distance":4566},{"i_lat":-6.319871,"is_transit":false,"i_long":106.66566,"time":4,"transit":false,"line":6,"distance":2413,"station_name":"Serpong","station_id":"SRP"},{"time":4,"distance":1784,"i_long":106.640411,"line":3,"transit":false,"station_name":"Cisauk","station_id":"CSK","i_lat":-6.32484,"is_transit":false},{"station_id":"CC","transit":false,"i_long":106.617853,"is_transit":false,"station_name":"Cicayur","i_lat":-6.329547,"distance":2519,"time":4,"line":3}],[{"station_name":"Metland Telaga Murni","is_transit":false,"distance":0,"line":1,"time":0,"i_lat":-6.262938,"transit":false,"station_id":"TLM","i_long":107.093313},{"i_lat":-6.261877,"station_id":"CIT","time":2,"i_long":107.083084,"distance":2800,"is_transit":false,"station_name":"Cibitung","transit":false,"line":1},{"transit":false,"station_id":"TB","station_name":"Tambun","time":3,"distance":3420,"line":1,"i_lat":-6.258864,"is_transit":false,"i_long":107.055722},{"station_id":"BKST","distance":4460,"station_name":"Bekasi Timur","transit":false,"is_transit":false,"time":7,"i_lat":-6.248029,"i_long":107.016735,"line":1},{"i_lat":-6.236616,"i_long":106.997013,"is_transit":false,"station_name":"Bekasi","distance":2368,"line":1,"time":2,"station_id":"BKS","transit":false},{"is_transit":false,"time":4,"distance":2520,"line":1,"station_name":"Kranji","i_lat":-6.224515,"i_long":106.977657,"station_id":"KRI","transit":false},{"i_lat":-6.219053,"station_name":"Cakung","distance":3097,"is_transit":false,"station_id":"CUK","transit":false,"i_long":106.951283,"line":1,"time":3},{"distance":1385,"is_transit":false,"transit":false,"station_id":"KLDB","line":1,"station_name":"Klenderbaru","time":8,"i_lat":-6.217455,"i_long":106.939679},{"transit":false,"distance":1305,"i_lat":-6.215568,"station_id":"BUA","station_name":"Buaran","i_long":106.922662,"time":1,"line":1,"is_transit":false},{"is_transit":false,"transit":false,"i_lat":-6.2135,"line":1,"station_name":"Klender","i_long":106.899548,"station_id":"KLD","time":2,"distance":3100},{"is_transit":false,"station_name":"Jatinegara","distance":3395,"i_long":106.86807400000001,"time":3,"station_id":"JNG","line":1,"transit":false,"i_lat":-6.215091},{"line":1,"is_transit":false,"transit":false,"time":2,"i_lat":-6.212485,"i_long":106.858896,"station_name":"Matraman","station_id":"MTR","distance":1377},{"station_name":"Manggarai","transit":true,"is_transit":true,"station_id":"MRI","line":2,"time":2,"i_long":106.84912,"distance":1275,"i_lat":-6.209883},{"is_transit":false,"i_long":106.840169,"distance":1590,"station_id":"CKI","line":2,"transit":false,"time":4,"station_name":"Cikini","i_lat":-6.198556},{"station_name":"Gondangdia","is_transit":false,"station_id":"GDD","i_long":106.832183,"line":2,"transit":false,"time":3,"distance":1750,"i_lat":-6.186295},{"time":4,"i_long":106.828284,"line":2,"distance":2015,"is_transit":false,"station_name":"Juanda","transit":false,"station_id":"JUA","i_lat":-6.166716},{"station_id":"SW","transit":false,"i_lat":-6.160725,"is_transit":false,"distance":1149,"time":2,"i_long":106.827103,"line":2,"station_name":"Sawah Besar"},{"is_transit":false,"station_name":"Manggabesar","i_lat":-6.149769,"time":2,"line":2,"distance":906,"i_long":106.82482,"station_id":"MGB","transit":false},{"station_name":"Jayakarta","line":2,"is_transit":false,"time":2,"station_id":"JAY","i_long":106.820901,"distance":1080,"i_lat":-6.141205,"transit":false},{"time":4,"line":2,"i_lat":-6.137569,"station_id":"JAKK","transit":true,"i_long":106.812439,"is_transit":true,"station_name":"Jakarta Kota","distance":1264},{"distance":1364,"i_lat":-6.132549,"station_id":"KPB","station_name":"Kampung Bandan","transit":true,"time":3,"line":4,"is_transit":true,"i_long":106.826365},{"i_long":106.79867,"station_id":"AK","station_name":"Angke","distance":4102,"time":9,"i_lat":-6.144674,"line":1,"is_transit":false,"transit":false},{"distance":1230,"i_lat":-6.155215,"station_id":"DU","line":1,"i_long":106.800832,"station_name":"Duri","is_transit":false,"time":4,"transit":false},{"transit":true,"time":8,"is_transit":true,"station_name":"Tanah Abang","distance":3632,"station_id":"THB","i_lat":-6.185545,"i_long":106.811091,"line":1},{"is_transit":false,"distance":3191,"station_name":"Palmerah","line":6,"time":6,"station_id":"PLM","transit":false,"i_lat":-6.207404,"i_long":106.79689},{"station_name":"Kebayoran","line":6,"distance":3737,"i_lat":-6.237242,"transit":false,"is_transit":false,"i_long":106.780334,"station_id":"KBY","time":7},{"distance":6218,"station_name":"Pondokranji","time":8,"i_long":106.74273,"line":6,"is_transit":false,"station_id":"PDJ","transit":false,"i_lat":-6.276362},{"time":3,"i_lat":-6.288927,"station_id":"JMU","is_transit":false,"i_long":106.728916,"line":6,"transit":false,"station_name":"Jurangmangu","distance":2179},{"i_long":106.712277,"i_lat":-6.296963,"station_id":"SDM","time":4,"distance":1994,"line":6,"station_name":"Sudimara","is_transit":false,"transit":false},{"i_long":106.675475,"is_transit":false,"line":6,"station_id":"RU","distance":4566,"transit":false,"time":6,"i_lat":-6.314823,"station_name":"Rawa Buntu"},{"station_name":"Serpong","distance":2413,"line":6,"i_long":106.66566,"time":4,"is_transit":false,"station_id":"SRP","transit":false,"i_lat":-6.319871},{"station_id":"CSK","distance":1784,"transit":false,"station_name":"Cisauk","i_lat":-6.32484,"time":4,"i_long":106.640411,"is_transit":false,"line":3},{"time":4,"i_lat":-6.329547,"line":3,"station_id":"CC","station_name":"Cicayur","transit":false,"is_transit":false,"distance":2519,"i_long":106.617853}],[{"distance":0,"transit":false,"line":1,"i_lat":-6.262938,"i_long":107.093313,"is_transit":false,"station_id":"TLM","time":0,"station_name":"Metland Telaga Murni"},{"is_transit":false,"line":1,"distance":2800,"i_lat":-6.261877,"station_name":"Cibitung","station_id":"CIT","time":2,"i_long":107.083084,"transit":false},{"line":1,"station_id":"TB","distance":3420,"i_lat":-6.258864,"is_transit":false,"station_name":"Tambun","time":3,"i_long":107.055722,"transit":false},{"is_transit":false,"station_name":"Bekasi Timur","i_long":107.016735,"i_lat":-6.248029,"distance":4460,"time":7,"line":1,"station_id":"BKST","transit":false},{"distance":2368,"is_transit":false,"i_long":106.997013,"station_name":"Bekasi","i_lat":-6.236616,"transit":false,"station_id":"BKS","time":2,"line":1},{"distance":2520,"station_name":"Kranji","is_transit":false,"line":1,"i_long":106.977657,"time":4,"i_lat":-6.224515,"transit":false,"station_id":"KRI"},{"transit":false,"distance":3097,"i_lat":-6.219053,"i_long":106.951283,"station_name":"Cakung","line":1,"is_transit":false,"station_id":"CUK","time":3},{"transit":false,"station_name":"Klenderbaru","station_id":"KLDB","time":8,"is_transit":false,"distance":1385,"i_lat":-6.217455,"line":1,"i_long":106.939679},{"i_lat":-6.215568,"line":1,"distance":1305,"station_name":"Buaran","is_transit":false,"transit":false,"time":1,"i_long":106.922662,"station_id":"BUA"},{"time":2,"i_lat":-6.2135,"line":1,"i_long":106.899548,"distance":3100,"is_transit":false,"transit":false,"station_id":"KLD","station_name":"Klender"},{"distance":3395,"i_long":106.86807400000001,"transit":true,"station_name":"Jatinegara","line":1,"is_transit":true,"station_id":"JNG","time":3,"i_lat":-6.215091},{"line":11,"is_transit":false,"i_long":106.861737,"distance":1236,"transit":false,"time":2,"i_lat":-6.209188,"station_id":"POK","station_name":"Pondok Jati"},{"is_transit":false,"time":2,"i_long":106.855437,"station_name":"Kramat","transit":false,"distance":1829,"station_id":"KMT","line":11,"i_lat":-6.193792},{"is_transit":false,"i_lat":-6.185975,"i_long":106.850107,"station_id":"GST","line":11,"transit":false,"time":1,"station_name":"Gang Sentiong","distance":973},{"i_long":106.84368,"station_name":"Pasar Senen","is_transit":false,"time":8,"distance":1567,"transit":false,"i_lat":-6.174784,"station_id":"PSE","line":11},{"transit":false,"station_id":"KMO","distance":1436,"is_transit":false,"time":4,"i_lat":-6.161728,"i_long":106.839204,"station_name":"Kemayoran","line":11},{"i_lat":-6.14505,"i_long":106.836569,"line":11,"is_transit":false,"transit":false,"time":5,"station_name":"Rajawali","station_id":"RJW","distance":1901},{"distance":1444,"i_long":106.826365,"is_transit":true,"station_name":"Kampung Bandan","transit":true,"station_id":"KPB","line":4,"i_lat":-6.132549,"time":3},{"station_id":"JAKK","transit":true,"distance":1364,"is_transit":true,"time":3,"i_lat":-6.137569,"line":2,"station_name":"Jakarta Kota","i_long":106.812439},{"time":4,"station_id":"JAY","is_transit":false,"i_lat":-6.141205,"i_long":106.820901,"distance":1264,"line":2,"transit":false,"station_name":"Jayakarta"},{"time":2,"station_name":"Manggabesar","transit":false,"i_lat":-6.149769,"is_transit":false,"i_long":106.82482,"line":2,"station_id":"MGB","distance":1080},{"transit":false,"distance":906,"i_long":106.827103,"time":2,"i_lat":-6.160725,"is_transit":false,"station_id":"SW","station_name":"Sawah Besar","line":2},{"distance":1149,"station_name":"Juanda","i_long":106.828284,"line":2,"i_lat":-6.166716,"is_transit":false,"station_id":"JUA","time":2,"transit":false},{"station_name":"Gondangdia","distance":2015,"i_lat":-6.186295,"transit":false,"i_long":106.832183,"time":4,"line":2,"is_transit":false,"station_id":"GDD"},{"line":2,"station_name":"Cikini","i_lat":-6.198556,"transit":false,"station_id":"CKI","is_transit":false,"time":3,"distance":1750,"i_long":106.840169},{"transit":true,"i_long":106.84912,"station_name":"Manggarai","distance":1590,"i_lat":-6.209883,"is_transit":true,"line":2,"time":4,"station_id":"MRI"},{"time":4,"distance":3186,"transit":false,"i_lat":-6.202263,"station_id":"SUD","is_transit":false,"line":1,"station_name":"Sudirman","i_long":106.822649},{"station_id":"SUDB","i_long":106.819881,"station_name":"Sudirman Baru","is_transit":false,"time":1,"line":1,"i_lat":-6.201433,"transit":false,"distance":280},{"distance":471,"i_long":106.816351,"line":1,"i_lat":-6.20132,"station_name":"Karet","is_transit":false,"time":1,"station_id":"KAT","transit":false},{"line":1,"time":5,"is_transit":true,"i_lat":-6.185545,"station_name":"Tanah Abang","station_id":"THB","transit":true,"distance":2029,"i_long":106.811091},{"is_transit":false,"station_name":"Palmerah","distance":3191,"time":6,"station_id":"PLM","transit":false,"i_lat":-6.207404,"i_long":106.79689,"line":6},{"time":7,"i_long":106.780334,"station_name":"Kebayoran","distance":3737,"i_lat":-6.237242,"station_id":"KBY","line":6,"is_transit":false,"transit":false},{"i_lat":-6.276362,"transit":false,"line":6,"time":8,"station_id":"PDJ","station_name":"Pondokranji","distance":6218,"is_transit":false,"i_long":106.74273},{"is_transit":false,"transit":false,"station_name":"Jurangmangu","distance":2179,"line":6,"station_id":"JMU","time":3,"i_long":106.728916,"i_lat":-6.288927},{"station_id":"SDM","i_long":106.712277,"line":6,"distance":1994,"transit":false,"i_lat":-6.296963,"station_name":"Sudimara","time":4,"is_transit":false},{"distance":4566,"line":6,"is_transit":false,"station_name":"Rawa Buntu","i_lat":-6.314823,"time":6,"station_id":"RU","transit":false,"i_long":106.675475},{"distance":2413,"i_long":106.66566,"station_id":"SRP","is_transit":false,"transit":false,"time":4,"station_name":"Serpong","i_lat":-6.319871,"line":6},{"line":3,"station_id":"CSK","is_transit":false,"time":4,"distance":1784,"transit":false,"i_lat":-6.32484,"i_long":106.640411,"station_name":"Cisauk"},{"is_transit":false,"station_name":"Cicayur","station_id":"CC","transit":false,"line":3,"distance":2519,"time":4,"i_long":106.617853,"i_lat":-6.329547}]]}