{"data":[[{"station_id":"TLM","is_transit":false,"i_lat":-6.262938,"line":1,"time":0,"distance":0,"i_long":107.093313,"station_name":"Metland Telaga Murni","transit":false},{"station_name":"Cibitung","is_transit":false,"station_id":"CIT","i_lat":-6.261877,"time":2,"i_long":107.083084,"distance":2800,"transit":false,"line":1},{"distance":3420,"i_lat":-6.258864,"i_long":107.055722,"station_id":"TB","is_transit":false,"time":3,"transit":false,"station_name":"Tambun","line":1},{"station_name":"Bekasi Timur","line":1,"i_long":107.016735,"transit":false,"i_lat":-6.248029,"distance":4460,"station_id":"BKST","time":7,"is_transit":false},{"transit":false,"distance":2368,"i_lat":-6.236616,"is_transit":false,"i_long":106.997013,"time":2,"station_id":"BKS","line":1,"station_name":"Bekasi"},{"distance":2520,"transit":false,"station_id":"KRI","line":1,"i_long":106.977657,"time":4,"station_name":"Kranji","is_transit":false,"i_lat":-6.224515},{"time":3,"i_lat":-6.219053,"station_id":"CUK","distance":3097,"is_transit":false,"line":1,"station_name":"Cakung","transit":false,"i_long":106.951283},{"is_transit":false,"i_lat":-6.217455,"time":8,"distance":1385,"station_name":"Klenderbaru","i_long":106.939679,"line":1,"station_id":"KLDB","transit":false},{"is_transit":false,"i_lat":-6.215568,"transit":false,"station_name":"Buaran","line":1,"station_id":"BUA","i_long":106.922662,"distance":1305,"time":1},{"station_id":"KLD","station_name":"Klender","i_lat":-6.2135,"is_transit":false,"transit":false,"i_long":106.899548,"distance":3100,"time":2,"line":1},{"is_transit":false,"transit":false,"i_long":106.86807400000001,"line":1,"distance":3395,"time":3,"i_lat":-6.215091,"station_id":"JNG","station_name":"Jatinegara"},{"station_id":"MTR","i_long":106.858896,"station_name":"Matraman","i_lat":-6.212485,"time":2,"line":1,"distance":1377,"is_transit":false,"transit":false},{"is_transit":false,"i_long":106.84912,"line":2,"station_name":"Manggarai","station_id":"MRI","distance":1275,"i_lat":-6.209883,"transit":false,"time":2},{"transit":false,"distance":3186,"i_long":106.822649,"time":4,"is_transit":false,"station_name":"Sudirman","i_lat":-6.202263,"station_id":"SUD","line":1},{"distance":280,"transit":false,"i_long":106.819881,"station_id":"SUDB","station_name":"Sudirman Baru","time":1,"is_transit":false,"i_lat":-6.201433,"line":1},{"i_long":106.816351,"distance":471,"station_name":"Karet","line":1,"i_lat":-6.20132,"station_id":"KAT","transit":false,"time":1,"is_transit":false},{"distance":2029,"transit":false,"line":1,"station_id":"THB","is_transit":false,"i_lat":-6.185545,"i_long":106.811091,"time":5,"station_name":"Tanah Abang"},{"station_id":"DU","transit":true,"station_name":"Duri","distance":3632,"i_long":106.800832,"i_lat":-6.155215,"time":8,"is_transit":true,"line":1},{"station_id":"GRG","time":3,"is_transit":false,"line":5,"distance":1700,"i_lat":-6.162021,"station_name":"Grogol","transit":false,"i_long":106.788277},{"station_id":"PSG","time":2,"is_transit":false,"distance":2036,"station_name":"Pesing","i_lat":-6.161433,"i_long":106.771379,"transit":false,"line":5},{"i_long":106.756522,"station_name":"Taman Kota","line":5,"distance":1614,"is_transit":false,"transit":false,"station_id":"TKO","i_lat":-6.1587309999999995,"time":2},{"station_id":"BOI","line":5,"is_transit":false,"i_lat":-6.159876,"time":2,"transit":false,"i_long":106.737035,"station_name":"Bojongindah","distance":2334},{"station_id":"RW","line":5,"time":4,"distance":1152,"transit":false,"i_lat":-6.162758,"i_long":106.723064,"is_transit":false,"station_name":"Rawa Buaya"},{"distance":2504,"time":3,"is_transit":false,"station_id":"KDS","station_name":"Kalideres","i_lat":-6.166068,"i_long":106.701612,"line":5,"transit":false},{"line":5,"i_long":106.679458,"i_lat":-6.169933,"station_name":"Poris","time":3,"is_transit":false,"distance":2548,"transit":false,"station_id":"PI"},{"is_transit":false,"transit":false,"line":5,"i_lat":-6.171811,"station_id":"BPR","time":3,"distance":1834,"station_name":"Batuceper","i_long":106.665036}],[{"distance":0,"is_transit":false,"station_id":"TLM","line":1,"i_long":107.093313,"transit":false,"station_name":"Metland Telaga Murni","i_lat":-6.262938,"time":0},{"line":1,"station_id":"CIT","time":2,"station_name":"Cibitung","transit":false,"distance":2800,"is_transit":false,"i_lat":-6.261877,"i_long":107.083084},{"is_transit":false,"i_lat":-6.258864,"station_name":"Tambun","station_id":"TB","time":3,"line":1,"distance":3420,"transit":false,"i_long":107.055722},{"distance":4460,"line":1,"is_transit":false,"i_long":107.016735,"transit":false,"station_name":"Bekasi Timur","i_lat":-6.248029,"time":7,"station_id":"BKST"},{"line":1,"is_transit":false,"i_lat":-6.236616,"distance":2368,"station_name":"Bekasi","i_long":106.997013,"time":2,"transit":false,"station_id":"BKS"},{"is_transit":false,"distance":2520,"i_lat":-6.224515,"transit":false,"time":4,"station_id":"KRI","i_long":106.977657,"station_name":"Kranji","line":1},{"is_transit":false,"distance":3097,"i_lat":-6.219053,"transit":false,"station_name":"Cakung","station_id":"CUK","i_long":106.951283,"time":3,"line":1},{"i_lat":-6.217455,"time":8,"line":1,"i_long":106.939679,"transit":false,"station_id":"KLDB","distance":1385,"is_transit":false,"station_name":"Klenderbaru"},{"transit":false,"i_long":106.922662,"line":1,"station_name":"Buaran","is_transit":false,"time":1,"distance":1305,"station_id":"BUA","i_lat":-6.215568},{"i_lat":-6.2135,"time":2,"is_transit":false,"station_id":"KLD","transit":false,"i_long":106.899548,"distance":3100,"line":1,"station_name":"Klender"},{"line":1,"time":3,"i_lat":-6.215091,"transit":true,"station_name":"Jatinegara","station_id":"JNG","i_long":106.86807400000001,"is_transit":true,"distance":3395},{"time":2,"line":11,"is_transit":false,"distance":1236,"transit":false,"station_name":"Pondok Jati","station_id":"POK","i_lat":-6.209188,"i_long":106.861737},{"transit":false,"i_lat":-6.193792,"i_long":106.855437,"station_name":"Kramat","is_transit":false,"distance":1829,"station_id":"KMT","line":11,"time":2},{"time":1,"station_id":"GST","distance":973,"station_name":"Gang Sentiong","i_long":106.850107,"line":11,"transit":false,"is_transit":false,"i_lat":-6.185975},{"transit":false,"line":11,"station_name":"Pasar Senen","time":8,"station_id":"PSE","i_lat":-6.174784,"is_transit":false,"i_long":106.84368,"distance":1567},{"i_lat":-6.161728,"line":11,"station_id":"KMO","i_long":106.839204,"is_transit":false,"distance":1436,"transit":false,"station_name":"Kemayoran","time":4},{"line":11,"time":5,"i_long":106.836569,"i_lat":-6.14505,"distance":1901,"station_id":"RJW","station_name":"Rajawali","transit":false,"is_transit":false},{"is_transit":true,"line":4,"i_lat":-6.132549,"distance":1444,"time":3,"station_id":"KPB","transit":true,"station_name":"Kampung Bandan","i_long":106.826365},{"i_lat":-6.144674,"line":1,"time":9,"is_transit":false,"station_id":"AK","station_name":"Angke","i_long":106.79867,"distance":4102,"transit":false},{"i_lat":-6.155215,"line":1,"distance":1230,"station_id":"DU","i_long":106.800832,"transit":true,"time":4,"is_transit":true,"station_name":"Duri"},{"is_transit":false,"transit":false,"station_id":"GRG","station_name":"Grogol","i_lat":-6.162021,"i_long":106.788277,"distance":1700,"time":3,"line":5},{"transit":false,"is_transit":false,"line":5,"i_lat":-6.161433,"station_name":"Pesing","i_long":106.771379,"time":2,"station_id":"PSG","distance":2036},{"transit":false,"i_long":106.756522,"station_id":"TKO","line":5,"is_transit":false,"station_name":"Taman Kota","time":2,"i_lat":-6.1587309999999995,"distance":1614},{"i_long":106.737035,"line":5,"time":2,"is_transit":false,"transit":false,"station_id":"BOI","i_lat":-6.159876,"distance":2334,"station_name":"Bojongindah"},{"distance":1152,"time":4,"i_lat":-6.162758,"station_id":"RW","i_long":106.723064,"line":5,"is_transit":false,"station_name":"Rawa Buaya","transit":false},{"line":5,"time":3,"is_transit":false,"i_lat":-6.166068,"distance":2504,"transit":false,"station_name":"Kalideres","i_long":106.701612,"station_id":"KDS"},{"station_name":"Poris","is_transit":false,"i_lat":-6.169933,"transit":false,"line":5,"distance":2548,"time":3,"i_long":106.679458,"station_id":"PI"},{"station_id":"BPR","station_name":"Batuceper","transit":false,"is_transit":false,"distance":1834,"i_long":106.665036,"i_lat":-6.171811,"line":5,"time":3}],[{"time":0,"distance":0,"transit":false,"station_id":"TLM","station_name":"Metland Telaga Murni","line":1,"is_transit":false,"i_long":107.093313,"i_lat":-6.262938},{"transit":false,"station_id":"CIT","is_transit":false,"station_name":"Cibitung","i_lat":-6.261877,"time":2,"i_long":107.083084,"line":1,"distance":2800},{"is_transit":false,"station_name":"Tambun","distance":3420,"transit":false,"time":3,"i_lat":-6.258864,"i_long":107.055722,"line":1,"station_id":"TB"},{"station_name":"Bekasi Timur","i_lat":-6.248029,"station_id":"BKST","is_transit":false,"i_long":107.016735,"time":7,"transit":false,"line":1,"distance":4460},{"station_name":"Bekasi","i_lat":-6.236616,"line":1,"station_id":"BKS","transit":false,"i_long":106.997013,"time":2,"is_transit":false,"distance":2368},{"distance":2520,"transit":false,"time":4,"station_name":"Kranji","line":1,"i_lat":-6.224515,"station_id":"KRI","is_transit":false,"i_long":106.977657},{"is_transit":false,"i_long":106.951283,"station_name":"Cakung","distance":3097,"line":1,"transit":false,"i_lat":-6.219053,"time":3,"station_id":"CUK"},{"i_lat":-6.217455,"time":8,"transit":false,"distance":1385,"station_id":"KLDB","station_name":"Klenderbaru","line":1,"is_transit":false,"i_long":106.939679},{"station_id":"BUA","distance":1305,"is_transit":false,"i_lat":-6.215568,"line":1,"i_long":106.922662,"station_name":"Buaran","transit":false,"time":1},{"i_long":106.899548,"is_transit":false,"distance":3100,"station_name":"Klender","time":2,"i_lat":-6.2135,"transit":false,"station_id":"KLD","line":1},{"station_name":"Jatinegara","time":3,"i_long":106.86807400000001,"i_lat":-6.215091,"line":1,"distance":3395,"transit":false,"is_transit":false,"station_id":"JNG"},{"is_transit":false,"distance":1377,"i_lat":-6.212485,"time":2,"line":1,"station_name":"Matraman","transit":false,"station_id":"MTR","i_long":106.858896},{"line":2,"station_id":"MRI","i_long":106.84912,"time":2,"transit":true,"station_name":"Manggarai","distance":1275,"is_transit":true,"i_lat":-6.209883},{"is_transit":false,"time":4,"station_name":"Cikini","line":2,"transit":false,"i_long":106.840169,"i_lat":-6.198556,"distance":1590,"station_id":"CKI"},{"station_id":"GDD","i_long":106.832183,"time":3,"transit":false,"i_lat":-6.186295,"distance":1750,"line":2,"is_transit":false,"station_name":"Gondangdia"},{"transit":false,"time":4,"is_transit":false,"station_name":"Juanda","i_lat":-6.166716,"station_id":"JUA","distance":2015,"i_long":106.828284,"line":2},{"time":2,"station_name":"Sawah Besar","i_lat":-6.160725,"line":2,"transit":false,"station_id":"SW","is_transit":false,"i_long":106.827103,"distance":1149},{"distance":906,"station_name":"Manggabesar","time":2,"line":2,"is_transit":false,"i_lat":-6.149769,"transit":false,"station_id":"MGB","i_long":106.82482},{"station_id":"JAY","distance":1080,"i_long":106.820901,"is_transit":false,"line":2,"station_name":"Jayakarta","transit":false,"time":2,"i_lat":-6.141205},{"i_lat":-6.137569,"time":4,"is_transit":true,"line":2,"station_id":"JAKK","transit":true,"station_name":"Jakarta Kota","distance":1264,"i_long":106.812439},{"time":3,"station_id":"KPB","distance":1364,"is_transit":true,"i_long":106.826365,"transit":true,"line":4,"station_name":"Kampung Bandan","i_lat":-6.132549},{"line":1,"transit":false,"time":9,"station_name":"Angke","station_id":"AK","i_lat":-6.144674,"i_long":106.79867,"is_transit":false,"distance":4102},{"transit":true,"is_transit":true,"station_name":"Duri","i_lat":-6.155215,"time":4,"station_id":"DU","distance":1230,"i_long":106.800832,"line":1},{"station_id":"GRG","i_long":106.788277,"is_transit":false,"station_name":"Grogol","time":3,"i_lat":-6.162021,"line":5,"transit":false,"distance":1700},{"time":2,"station_name":"Pesing","is_transit":false,"i_long":106.771379,"distance":2036,"i_lat":-6.161433,"line":5,"transit":false,"station_id":"PSG"},{"i_lat":-6.1587309999999995,"is_transit":false,"station_name":"Taman Kota","station_id":"TKO","i_long":106.756522,"line":5,"transit":false,"time":2,"distance":1614},{"station_id":"BOI","line":5,"station_name":"Bojongindah","time":2,"is_transit":false,"i_lat":-6.159876,"transit":false,"distance":2334,"i_long":106.737035},{"distance":1152,"transit":false,"time":4,"is_transit":false,"i_lat":-6.162758,"station_id":"RW","station_name":"Rawa Buaya","i_long":106.723064,"line":5},{"is_transit":false,"i_lat":-6.166068,"i_long":106.701612,"transit":false,"time":3,"station_name":"Kalideres","line":5,"station_id":"KDS","distance":2504},{"transit":false,"i_lat":-6.169933,"time":3,"station_id":"PI","is_transit":false,"i_long":106.679458,"line":5,"station_name":"Poris","distance":2548},{"transit":false,"i_lat":-6.171811,"line":5,"distance":1834,"time":3,"station_name":"Batuceper","i_long":106.665036,"station_id":"BPR","is_transit":false}],[{"distance":0,"time":0,"is_transit":false,"transit":false,"i_lat":-6.262938,"station_id":"TLM","station_name":"Metland Telaga Murni","i_long":107.093313,"line":1},{"station_id":"CIT","line":1,"distance":2800,"i_long":107.083084,"is_transit":false,"time":2,"transit":false,"station_name":"Cibitung","i_lat":-6.261877},{"i_lat":-6.258864,"transit":false,"line":1,"distance":3420,"station_id":"TB","is_transit":false,"time":3,"i_long":107.055722,"station_name":"Tambun"},{"transit":false,"is_transit":false,"station_id":"BKST","i_lat":-6.248029,"i_long":107.016735,"line":1,"time":7,"station_name":"Bekasi Timur","distance":4460},{"is_transit":false,"i_lat":-6.236616,"i_long":106.997013,"station_id":"BKS","line":1,"time":2,"distance":2368,"transit":false,"station_name":"Bekasi"},{"station_name":"Kranji","is_transit":false,"distance":2520,"time":4,"i_lat":-6.224515,"i_long":106.977657,"transit":false,"line":1,"station_id":"KRI"},{"i_long":106.951283,"line":1,"station_name":"Cakung","is_transit":false,"station_id":"CUK","i_lat":-6.219053,"transit":false,"distance":3097,"time":3},{"line":1,"time":8,"i_long":106.939679,"transit":false,"distance":1385,"station_id":"KLDB","station_name":"Klenderbaru","i_lat":-6.217455,"is_transit":false},{"is_transit":false,"distance":1305,"transit":false,"time":1,"i_lat":-6.215568,"line":1,"i_long":106.922662,"station_id":"BUA","station_name":"Buaran"},{"is_transit":false,"i_lat":-6.2135,"line":1,"i_long":106.899548,"transit":false,"distance":3100,"station_name":"Klender","time":2,"station_id":"KLD"},{"transit":true,"is_transit":true,"station_id":"JNG","distance":3395,"i_lat":-6.215091,"line":1,"station_name":"Jatinegara","time":3,"i_long":106.86807400000001},{"transit":false,"distance":1236,"station_id":"POK","station_name":"Pondok Jati","i_long":106.861737,"i_lat":-6.209188,"is_transit":false,"line":11,"time":2},{"line":11,"distance":1829,"station_id":"KMT","time":2,"transit":false,"is_transit":false,"i_lat":-6.193792,"i_long":106.855437,"station_name":"Kramat"},{"i_lat":-6.185975,"i_long":106.850107,"line":11,"distance":973,"station_id":"GST","is_transit":false,"station_name":"Gang Sentiong","time":1,"transit":false},{"is_transit":false,"station_name":"Pasar Senen","i_long":106.84368,"distance":1567,"transit":false,"line":11,"time":8,"station_id":"PSE","i_lat":-6.174784},{"i_lat":-6.161728,"distance":1436,"station_name":"Kemayoran","time":4,"is_transit":false,"i_long":106.839204,"line":11,"station_id":"KMO","transit":false},{"is_transit":false,"i_long":106.836569,"i_lat":-6.14505,"station_id":"RJW","distance":1901,"time":5,"transit":false,"line":11,"station_name":"Rajawali"},{"line":4,"is_transit":true,"i_long":106.826365,"distance":1444,"station_name":"Kampung Bandan","time":3,"i_lat":-6.132549,"station_id":"KPB","transit":true},{"transit":true,"distance":1364,"station_id":"JAKK","line":2,"i_long":106.812439,"i_lat":-6.137569,"time":3,"station_name":"Jakarta Kota","is_transit":true},{"station_name":"Jayakarta","line":2,"time":4,"station_id":"JAY","is_transit":false,"distance":1264,"transit":false,"i_lat":-6.141205,"i_long":106.820901},{"distance":1080,"transit":false,"is_transit":false,"station_name":"Manggabesar","time":2,"i_long":106.82482,"station_id":"MGB","i_lat":-6.149769,"line":2},{"station_name":"Sawah Besar","line":2,"station_id":"SW","is_transit":false,"transit":false,"i_lat":-6.160725,"time":2,"i_long":106.827103,"distance":906},{"is_transit":false,"i_long":106.828284,"line":2,"distance":1149,"transit":false,"station_id":"JUA","station_name":"Juanda","i_lat":-6.166716,"time":2},{"i_long":106.832183,"distance":2015,"transit":false,"station_name":"Gondangdia","station_id":"GDD","line":2,"is_transit":false,"time":4,"i_lat":-6.186295},{"transit":false,"is_transit":false,"i_lat":-6.198556,"line":2,"time":3,"i_long":106.840169,"station_name":"Cikini","station_id":"CKI","distance":1750},{"station_id":"MRI","station_name":"Manggarai","time":4,"i_long":106.84912,"line":2,"transit":true,"distance":1590,"is_transit":true,"i_lat":-6.209883},{"transit":false,"time":4,"station_id":"SUD","station_name":"Sudirman","i_long":106.822649,"line":1,"i_lat":-6.202263,"distance":3186,"is_transit":false},{"station_name":"Sudirman Baru","time":1,"i_lat":-6.201433,"distance":280,"is_transit":false,"line":1,"transit":false,"i_long":106.819881,"station_id":"SUDB"},{"line":1,"transit":false,"distance":471,"station_name":"Karet","i_long":106.816351,"i_lat":-6.20132,"station_id":"KAT","is_transit":false,"time":1},{"station_name":"Tanah Abang","i_long":106.811091,"line":1,"distance":2029,"transit":false,"i_lat":-6.185545,"is_transit":false,"time":5,"station_id":"THB"},{"is_transit":true,"line":1,"transit":true,"i_long":106.800832,"station_id":"DU","distance":3632,"time":8,"station_name":"Duri","i_lat":-6.155215},{"time":3,"distance":1700,"station_id":"GRG","i_long":106.788277,"line":5,"i_lat":-6.162021,"transit":false,"is_transit":false,"station_name":"Grogol"},{"line":5,"station_id":"PSG","time":2,"i_lat":-6.161433,"i_long":106.771379,"distance":2036,"transit":false,"is_transit":false,"station_name":"Pesing"},{"i_lat":-6.1587309999999995,"line":5,"station_id":"TKO","time":2,"i_long":106.756522,"distance":1614,"station_name":"Taman Kota","is_transit":false,"transit":false},{"is_transit":false,"transit":false,"station_id":"BOI","distance":2334,"i_lat":-6.159876,"station_name":"Bojongindah","i_long":106.737035,"line":5,"time":2},{"transit":false,"is_transit":false,"distance":1152,"i_long":106.723064,"station_id":"RW","time":4,"station_name":"Rawa Buaya","line":5,"i_lat":-6.162758},{"station_id":"KDS","time":3,"line":5,"is_transit":false,"distance":2504,"transit":false,"station_name":"Kalideres","i_lat":-6.166068,"i_long":106.701612},{"i_long":106.679458,"distance":2548,"transit":false,"line":5,"station_id":"PI","is_transit":false,"time":3,"station_name":"Poris","i_lat":-6.169933},{"i_lat":-6.171811,"i_long":106.665036,"line":5,"time":3,"station_id":"BPR","distance":1834,"is_transit":false,"station_name":"Batuceper","transit":false}]]}