{"data":[[{"time":0,"line":1,"station_id":"TLM","transit":false,"station_name":"Metland Telaga Murni","is_transit":false,"distance":0,"i_long":107.093313,"i_lat":-6.262938},{"is_transit":false,"distance":2800,"i_lat":-6.261877,"i_long":107.083084,"station_id":"CIT","transit":false,"line":1,"time":2,"station_name":"Cibitung"},{"i_lat":-6.258864,"transit":false,"distance":3420,"station_id":"TB","line":1,"time":3,"is_transit":false,"station_name":"Tambun","i_long":107.055722},{"station_id":"BKST","i_long":107.016735,"station_name":"Bekasi Timur","transit":false,"line":1,"time":7,"distance":4460,"is_transit":false,"i_lat":-6.248029},{"i_lat":-6.236616,"i_long":106.997013,"station_id":"BKS","is_transit":false,"distance":2368,"station_name":"Bekasi","time":2,"transit":false,"line":1},{"line":1,"distance":2520,"station_id":"KRI","is_transit":false,"i_long":106.977657,"i_lat":-6.224515,"station_name":"Kranji","transit":false,"time":4},{"transit":false,"time":3,"distance":3097,"i_lat":-6.219053,"station_id":"CUK","i_long":106.951283,"is_transit":false,"line":1,"station_name":"Cakung"},{"distance":1385,"i_lat":-6.217455,"transit":false,"is_transit":false,"time":8,"line":1,"i_long":106.939679,"station_id":"KLDB","station_name":"Klenderbaru"}]]}