{"data":[[{"i_lat":-6.262938,"distance":0,"station_name":"Metland Telaga Murni","i_long":107.093313,"time":0,"is_transit":false,"line":1,"station_id":"TLM","transit":false},{"line":0,"station_id":"CIT","is_transit":false,"i_long":107.083084,"time":2,"i_lat":-6.261877,"distance":2800,"transit":false,"station_name":"Cibitung"},{"i_long":107.055722,"i_lat":-6.258864,"station_id":"TB","line":1,"transit":false,"station_name":"Tambun","distance":3420,"is_transit":false,"time":3},{"distance":4460,"i_lat":-6.248029,"line":0,"is_transit":false,"i_long":107.016735,"time":7,"transit":false,"station_id":"BKST","station_name":"Bekasi Timur"},{"distance":2368,"i_long":106.997013,"is_transit":false,"i_lat":-6.236616,"station_id":"BKS","station_name":"Bekasi","line":0,"time":2,"transit":false},{"is_transit":false,"station_name":"Kranji","time":4,"line":1,"i_long":106.977657,"transit":false,"station_id":"KRI","i_lat":-6.224515,"distance":2520},{"distance":3097,"transit":false,"i_long":106.951283,"line":0,"i_lat":-6.219053,"is_transit":false,"station_id":"CUK","station_name":"Cakung","time":3},{"time":8,"line":1,"i_long":106.939679,"i_lat":-6.217455,"station_name":"Klenderbaru","is_transit":false,"transit":false,"distance":1385,"station_id":"KLDB"},{"line":0,"i_lat":-6.215568,"station_name":"Buaran","transit":false,"time":1,"station_id":"BUA","i_long":106.922662,"is_transit":false,"distance":1305},{"time":2,"station_id":"KLD","is_transit":false,"i_long":106.899548,"distance":3100,"i_lat":-6.2135,"transit":false,"line":1,"station_name":"Klender"},{"distance":3395,"line":0,"is_transit":true,"i_long":106.86807400000001,"station_name":"Jatinegara","station_id":"JNG","time":3,"i_lat":-6.215091,"transit":false},{"i_lat":-6.212485,"station_id":"MTR","station_name":"Matraman","transit":false,"line":1,"time":2,"i_long":106.858896,"is_transit":false,"distance":1377},{"is_transit":true,"station_id":"MRI","distance":1275,"station_name":"Manggarai","transit":false,"i_long":106.84912,"line":0,"i_lat":-6.209883,"time":2},{"distance":3186,"station_name":"Sudirman","is_transit":false,"time":4,"transit":false,"i_lat":-6.202263,"i_long":106.822649,"line":1,"station_id":"SUD"},{"time":1,"station_id":"SUDB","station_name":"Sudirman Baru","is_transit":false,"distance":280,"transit":false,"i_long":106.819881,"line":1,"i_lat":-6.201433},{"line":1,"station_id":"KAT","station_name":"Karet","distance":471,"i_long":106.816351,"is_transit":false,"time":1,"i_lat":-6.20132,"transit":false},{"station_name":"Tanah Abang","line":1,"time":5,"i_long":106.811091,"distance":2029,"transit":true,"is_transit":true,"i_lat":-6.185545,"station_id":"THB"},{"time":6,"line":6,"transit":false,"station_name":"Palmerah","distance":3191,"i_lat":-6.207404,"i_long":106.79689,"station_id":"PLM","is_transit":false},{"is_transit":false,"line":6,"station_name":"Kebayoran","distance":3737,"i_lat":-6.237242,"station_id":"KBY","time":7,"i_long":106.780334,"transit":false},{"is_transit":false,"station_name":"Pondokranji","line":6,"i_lat":-6.276362,"distance":6218,"transit":false,"station_id":"PDJ","i_long":106.74273,"time":8},{"time":3,"transit":false,"i_long":106.728916,"is_transit":false,"i_lat":-6.288927,"line":6,"station_name":"Jurangmangu","distance":2179,"station_id":"JMU"},{"station_name":"Sudimara","station_id":"SDM","i_lat":-6.296963,"i_long":106.712277,"time":4,"distance":1994,"line":6,"is_transit":false,"transit":false},{"distance":4566,"is_transit":false,"transit":false,"time":6,"i_long":106.675475,"line":6,"i_lat":-6.314823,"station_name":"Rawa Buntu","station_id":"RU"},{"i_lat":-6.319871,"transit":false,"time":4,"i_long":106.66566,"line":6,"station_id":"SRP","station_name":"Serpong","is_transit":false,"distance":2413},{"transit":false,"i_lat":-6.32484,"is_transit":false,"time":4,"distance":1784,"line":0,"station_id":"CSK","i_long":106.640411,"station_name":"Cisauk"}],[{"time":0,"is_transit":false,"station_name":"Metland Telaga Murni","distance":0,"transit":false,"i_lat":-6.262938,"i_long":107.093313,"station_id":"TLM","line":1},{"line":0,"distance":2800,"transit":false,"i_long":107.083084,"station_id":"CIT","is_transit":false,"time":2,"station_name":"Cibitung","i_lat":-6.261877},{"i_long":107.055722,"line":1,"time":3,"transit":false,"station_id":"TB","distance":3420,"station_name":"Tambun","is_transit":false,"i_lat":-6.258864},{"i_long":107.016735,"distance":4460,"is_transit":false,"transit":false,"i_lat":-6.248029,"line":0,"station_id":"BKST","time":7,"station_name":"Bekasi Timur"},{"distance":2368,"line":0,"station_id":"BKS","station_name":"Bekasi","transit":false,"i_long":106.997013,"time":2,"is_transit":false,"i_lat":-6.236616},{"transit":false,"line":1,"i_lat":-6.224515,"distance":2520,"station_id":"KRI","is_transit":false,"time":4,"station_name":"Kranji","i_long":106.977657},{"time":3,"is_transit":false,"station_name":"Cakung","station_id":"CUK","i_lat":-6.219053,"transit":false,"distance":3097,"i_long":106.951283,"line":0},{"time":8,"transit":false,"i_lat":-6.217455,"station_name":"Klenderbaru","is_transit":false,"line":1,"distance":1385,"station_id":"KLDB","i_long":106.939679},{"station_name":"Buaran","i_long":106.922662,"distance":1305,"line":0,"time":1,"is_transit":false,"transit":false,"i_lat":-6.215568,"station_id":"BUA"},{"station_id":"KLD","distance":3100,"transit":false,"is_transit":false,"line":1,"station_name":"Klender","time":2,"i_lat":-6.2135,"i_long":106.899548},{"distance":3395,"station_id":"JNG","line":0,"i_long":106.86807400000001,"station_name":"Jatinegara","time":3,"transit":true,"is_transit":true,"i_lat":-6.215091},{"i_lat":-6.209188,"transit":false,"is_transit":false,"distance":1236,"station_name":"Pondok Jati","station_id":"POK","time":2,"i_long":106.861737,"line":11},{"time":2,"station_id":"KMT","i_lat":-6.193792,"i_long":106.855437,"is_transit":false,"distance":1829,"transit":false,"line":11,"station_name":"Kramat"},{"station_name":"Gang Sentiong","transit":false,"i_lat":-6.185975,"distance":973,"i_long":106.850107,"line":11,"time":1,"station_id":"GST","is_transit":false},{"is_transit":false,"distance":1567,"transit":false,"i_lat":-6.174784,"station_name":"Pasar Senen","line":11,"time":8,"i_long":106.84368,"station_id":"PSE"},{"is_transit":false,"line":11,"transit":false,"i_lat":-6.161728,"station_name":"Kemayoran","i_long":106.839204,"distance":1436,"station_id":"KMO","time":4},{"station_id":"RJW","station_name":"Rajawali","is_transit":false,"transit":false,"i_lat":-6.14505,"line":11,"time":5,"distance":1901,"i_long":106.836569},{"station_name":"Kampung Bandan","transit":true,"is_transit":true,"i_long":106.826365,"time":3,"station_id":"KPB","distance":1444,"i_lat":-6.132549,"line":0},{"i_long":106.79867,"station_id":"AK","time":9,"distance":4102,"line":0,"station_name":"Angke","is_transit":false,"i_lat":-6.144674,"transit":false},{"i_long":106.800832,"time":4,"station_name":"Duri","transit":true,"i_lat":-6.155215,"line":1,"station_id":"DU","distance":1230,"is_transit":true},{"line":1,"time":8,"i_lat":-6.185545,"station_id":"THB","is_transit":true,"station_name":"Tanah Abang","distance":3632,"transit":true,"i_long":106.811091},{"is_transit":false,"i_lat":-6.207404,"transit":false,"distance":3191,"station_name":"Palmerah","station_id":"PLM","i_long":106.79689,"line":6,"time":6},{"distance":3737,"transit":false,"time":7,"station_id":"KBY","i_lat":-6.237242,"station_name":"Kebayoran","i_long":106.780334,"line":6,"is_transit":false},{"line":6,"transit":false,"i_lat":-6.276362,"is_transit":false,"distance":6218,"station_id":"PDJ","i_long":106.74273,"station_name":"Pondokranji","time":8},{"time":3,"is_transit":false,"station_name":"Jurangmangu","transit":false,"i_long":106.728916,"i_lat":-6.288927,"distance":2179,"line":6,"station_id":"JMU"},{"is_transit":false,"time":4,"line":6,"distance":1994,"station_id":"SDM","station_name":"Sudimara","i_lat":-6.296963,"i_long":106.712277,"transit":false},{"station_name":"Rawa Buntu","station_id":"RU","time":6,"i_long":106.675475,"i_lat":-6.314823,"distance":4566,"transit":false,"line":6,"is_transit":false},{"station_id":"SRP","i_long":106.66566,"transit":false,"line":6,"time":4,"is_transit":false,"distance":2413,"i_lat":-6.319871,"station_name":"Serpong"},{"distance":1784,"i_lat":-6.32484,"station_name":"Cisauk","time":4,"i_long":106.640411,"station_id":"CSK","is_transit":false,"transit":false,"line":0}],[{"transit":false,"is_transit":false,"distance":0,"time":0,"i_lat":-6.262938,"station_id":"TLM","i_long":107.093313,"line":1,"station_name":"Metland Telaga Murni"},{"station_id":"CIT","i_lat":-6.261877,"transit":false,"station_name":"Cibitung","is_transit":false,"line":0,"i_long":107.083084,"time":2,"distance":2800},{"time":3,"line":1,"i_lat":-6.258864,"distance":3420,"transit":false,"station_name":"Tambun","i_long":107.055722,"station_id":"TB","is_transit":false},{"i_long":107.016735,"station_name":"Bekasi Timur","transit":false,"is_transit":false,"station_id":"BKST","i_lat":-6.248029,"line":0,"time":7,"distance":4460},{"i_long":106.997013,"line":0,"station_id":"BKS","i_lat":-6.236616,"transit":false,"distance":2368,"time":2,"is_transit":false,"station_name":"Bekasi"},{"i_lat":-6.224515,"time":4,"station_name":"Kranji","i_long":106.977657,"station_id":"KRI","transit":false,"distance":2520,"is_transit":false,"line":1},{"distance":3097,"line":0,"i_lat":-6.219053,"transit":false,"is_transit":false,"station_name":"Cakung","i_long":106.951283,"time":3,"station_id":"CUK"},{"station_id":"KLDB","distance":1385,"time":8,"i_lat":-6.217455,"line":1,"is_transit":false,"transit":false,"station_name":"Klenderbaru","i_long":106.939679},{"distance":1305,"is_transit":false,"time":1,"line":0,"station_name":"Buaran","transit":false,"station_id":"BUA","i_long":106.922662,"i_lat":-6.215568},{"line":1,"is_transit":false,"time":2,"transit":false,"i_long":106.899548,"distance":3100,"station_id":"KLD","station_name":"Klender","i_lat":-6.2135},{"i_lat":-6.215091,"transit":false,"time":3,"i_long":106.86807400000001,"station_name":"Jatinegara","is_transit":true,"distance":3395,"line":0,"station_id":"JNG"},{"distance":1377,"is_transit":false,"time":2,"transit":false,"station_name":"Matraman","i_lat":-6.212485,"line":1,"station_id":"MTR","i_long":106.858896},{"is_transit":true,"i_long":106.84912,"i_lat":-6.209883,"station_name":"Manggarai","line":0,"time":2,"transit":true,"distance":1275,"station_id":"MRI"},{"station_id":"CKI","i_long":106.840169,"transit":false,"line":0,"i_lat":-6.198556,"station_name":"Cikini","is_transit":false,"distance":1590,"time":4},{"time":3,"is_transit":false,"i_lat":-6.186295,"i_long":106.832183,"line":2,"transit":false,"station_id":"GDD","station_name":"Gondangdia","distance":1750},{"time":4,"distance":2015,"station_id":"JUA","transit":false,"i_lat":-6.166716,"station_name":"Juanda","i_long":106.828284,"is_transit":false,"line":2},{"i_long":106.827103,"station_name":"Sawah Besar","i_lat":-6.160725,"station_id":"SW","distance":1149,"line":2,"time":2,"is_transit":false,"transit":false},{"is_transit":false,"distance":906,"station_id":"MGB","transit":false,"station_name":"Manggabesar","time":2,"i_lat":-6.149769,"i_long":106.82482,"line":2},{"station_id":"JAY","is_transit":false,"time":2,"transit":false,"line":7,"station_name":"Jayakarta","distance":1080,"i_lat":-6.141205,"i_long":106.820901},{"is_transit":true,"time":4,"station_id":"JAKK","transit":true,"station_name":"Jakarta Kota","distance":1264,"line":0,"i_lat":-6.137569,"i_long":106.812439},{"is_transit":true,"time":3,"i_long":106.826365,"i_lat":-6.132549,"line":0,"transit":false,"distance":1364,"station_name":"Kampung Bandan","station_id":"KPB"},{"i_long":106.79867,"time":9,"distance":4102,"is_transit":false,"station_name":"Angke","i_lat":-6.144674,"line":0,"transit":false,"station_id":"AK"},{"transit":true,"distance":1230,"i_long":106.800832,"i_lat":-6.155215,"is_transit":true,"station_name":"Duri","line":1,"station_id":"DU","time":4},{"i_lat":-6.185545,"is_transit":true,"time":8,"distance":3632,"transit":true,"i_long":106.811091,"station_name":"Tanah Abang","station_id":"THB","line":1},{"distance":3191,"station_name":"Palmerah","is_transit":false,"transit":false,"station_id":"PLM","time":6,"i_long":106.79689,"i_lat":-6.207404,"line":6},{"i_long":106.780334,"i_lat":-6.237242,"station_id":"KBY","line":6,"is_transit":false,"station_name":"Kebayoran","time":7,"distance":3737,"transit":false},{"station_name":"Pondokranji","transit":false,"i_long":106.74273,"is_transit":false,"station_id":"PDJ","line":6,"i_lat":-6.276362,"time":8,"distance":6218},{"distance":2179,"station_name":"Jurangmangu","transit":false,"i_long":106.728916,"line":6,"station_id":"JMU","time":3,"i_lat":-6.288927,"is_transit":false},{"distance":1994,"line":6,"station_id":"SDM","is_transit":false,"transit":false,"i_long":106.712277,"time":4,"station_name":"Sudimara","i_lat":-6.296963},{"line":6,"time":6,"station_id":"RU","station_name":"Rawa Buntu","i_long":106.675475,"transit":false,"is_transit":false,"i_lat":-6.314823,"distance":4566},{"station_name":"Serpong","is_transit":false,"station_id":"SRP","transit":false,"distance":2413,"time":4,"i_long":106.66566,"line":6,"i_lat":-6.319871},{"line":0,"is_transit":false,"time":4,"transit":false,"i_lat":-6.32484,"i_long":106.640411,"station_name":"Cisauk","station_id":"CSK","distance":1784}],[{"station_name":"Metland Telaga Murni","i_long":107.093313,"time":0,"is_transit":false,"station_id":"TLM","i_lat":-6.262938,"transit":false,"line":1,"distance":0},{"transit":false,"station_name":"Cibitung","line":0,"distance":2800,"station_id":"CIT","time":2,"i_lat":-6.261877,"i_long":107.083084,"is_transit":false},{"station_name":"Tambun","is_transit":false,"transit":false,"line":1,"distance":3420,"i_lat":-6.258864,"time":3,"station_id":"TB","i_long":107.055722},{"is_transit":false,"transit":false,"station_id":"BKST","line":0,"distance":4460,"time":7,"i_long":107.016735,"i_lat":-6.248029,"station_name":"Bekasi Timur"},{"line":0,"transit":false,"time":2,"is_transit":false,"i_lat":-6.236616,"distance":2368,"station_name":"Bekasi","station_id":"BKS","i_long":106.997013},{"station_id":"KRI","distance":2520,"i_long":106.977657,"time":4,"line":1,"station_name":"Kranji","is_transit":false,"transit":false,"i_lat":-6.224515},{"distance":3097,"i_long":106.951283,"station_id":"CUK","transit":false,"line":0,"i_lat":-6.219053,"station_name":"Cakung","is_transit":false,"time":3},{"line":1,"distance":1385,"i_lat":-6.217455,"station_name":"Klenderbaru","i_long":106.939679,"transit":false,"station_id":"KLDB","is_transit":false,"time":8},{"is_transit":false,"i_lat":-6.215568,"transit":false,"line":0,"distance":1305,"station_id":"BUA","station_name":"Buaran","i_long":106.922662,"time":1},{"i_long":106.899548,"transit":false,"station_name":"Klender","line":1,"is_transit":false,"i_lat":-6.2135,"station_id":"KLD","time":2,"distance":3100},{"i_lat":-6.215091,"line":0,"time":3,"transit":true,"station_id":"JNG","station_name":"Jatinegara","distance":3395,"i_long":106.86807400000001,"is_transit":true},{"station_name":"Pondok Jati","is_transit":false,"i_long":106.861737,"station_id":"POK","i_lat":-6.209188,"time":2,"distance":1236,"line":11,"transit":false},{"time":2,"i_long":106.855437,"distance":1829,"station_name":"Kramat","i_lat":-6.193792,"station_id":"KMT","is_transit":false,"transit":false,"line":11},{"station_id":"GST","line":11,"distance":973,"station_name":"Gang Sentiong","time":1,"transit":false,"i_lat":-6.185975,"i_long":106.850107,"is_transit":false},{"distance":1567,"is_transit":false,"transit":false,"i_long":106.84368,"line":11,"i_lat":-6.174784,"station_name":"Pasar Senen","station_id":"PSE","time":8},{"time":4,"is_transit":false,"distance":1436,"station_id":"KMO","station_name":"Kemayoran","i_long":106.839204,"i_lat":-6.161728,"transit":false,"line":11},{"station_id":"RJW","transit":false,"station_name":"Rajawali","is_transit":false,"time":5,"distance":1901,"i_long":106.836569,"i_lat":-6.14505,"line":11},{"is_transit":true,"distance":1444,"i_lat":-6.132549,"station_id":"KPB","station_name":"Kampung Bandan","time":3,"line":0,"i_long":106.826365,"transit":true},{"transit":true,"i_long":106.812439,"line":0,"time":3,"station_name":"Jakarta Kota","distance":1364,"is_transit":true,"station_id":"JAKK","i_lat":-6.137569},{"line":7,"is_transit":false,"i_lat":-6.141205,"transit":false,"station_id":"JAY","station_name":"Jayakarta","time":4,"distance":1264,"i_long":106.820901},{"transit":false,"station_name":"Manggabesar","line":2,"station_id":"MGB","i_lat":-6.149769,"time":2,"is_transit":false,"i_long":106.82482,"distance":1080},{"station_name":"Sawah Besar","is_transit":false,"transit":false,"station_id":"SW","i_lat":-6.160725,"time":2,"i_long":106.827103,"line":2,"distance":906},{"i_long":106.828284,"time":2,"i_lat":-6.166716,"line":2,"transit":false,"distance":1149,"is_transit":false,"station_id":"JUA","station_name":"Juanda"},{"transit":false,"distance":2015,"is_transit":false,"line":2,"time":4,"station_name":"Gondangdia","i_long":106.832183,"station_id":"GDD","i_lat":-6.186295},{"time":3,"i_long":106.840169,"i_lat":-6.198556,"line":0,"station_name":"Cikini","is_transit":false,"station_id":"CKI","distance":1750,"transit":false},{"transit":true,"is_transit":true,"i_lat":-6.209883,"station_name":"Manggarai","station_id":"MRI","time":4,"line":0,"distance":1590,"i_long":106.84912},{"transit":false,"station_id":"SUD","distance":3186,"i_long":106.822649,"station_name":"Sudirman","is_transit":false,"time":4,"i_lat":-6.202263,"line":1},{"line":1,"station_name":"Sudirman Baru","i_lat":-6.201433,"i_long":106.819881,"time":1,"is_transit":false,"transit":false,"distance":280,"station_id":"SUDB"},{"station_id":"KAT","i_lat":-6.20132,"is_transit":false,"line":1,"i_long":106.816351,"time":1,"distance":471,"station_name":"Karet","transit":false},{"station_id":"THB","line":1,"i_lat":-6.185545,"station_name":"Tanah Abang","distance":2029,"is_transit":true,"time":5,"transit":true,"i_long":106.811091},{"transit":false,"distance":3191,"i_lat":-6.207404,"is_transit":false,"line":6,"station_name":"Palmerah","time":6,"station_id":"PLM","i_long":106.79689},{"is_transit":false,"time":7,"distance":3737,"station_id":"KBY","station_name":"Kebayoran","transit":false,"i_long":106.780334,"line":6,"i_lat":-6.237242},{"i_lat":-6.276362,"is_transit":false,"i_long":106.74273,"distance":6218,"station_name":"Pondokranji","transit":false,"line":6,"station_id":"PDJ","time":8},{"i_lat":-6.288927,"station_id":"JMU","i_long":106.728916,"transit":false,"line":6,"distance":2179,"station_name":"Jurangmangu","is_transit":false,"time":3},{"distance":1994,"transit":false,"i_lat":-6.296963,"line":6,"station_id":"SDM","is_transit":false,"i_long":106.712277,"station_name":"Sudimara","time":4},{"distance":4566,"is_transit":false,"i_long":106.675475,"line":6,"i_lat":-6.314823,"station_id":"RU","station_name":"Rawa Buntu","transit":false,"time":6},{"i_long":106.66566,"station_name":"Serpong","i_lat":-6.319871,"time":4,"station_id":"SRP","line":6,"transit":false,"is_transit":false,"distance":2413},{"is_transit":false,"transit":false,"i_lat":-6.32484,"station_name":"Cisauk","distance":1784,"station_id":"CSK","i_long":106.640411,"time":4,"line":0}]]}