{"data":[[{"distance":0,"line":1,"transit":false,"i_lat":-6.262938,"time":0,"station_id":"TLM","station_name":"Metland Telaga Murni","is_transit":false,"i_long":107.093313},{"time":2,"transit":false,"is_transit":false,"distance":2800,"i_long":107.083084,"i_lat":-6.261877,"station_name":"Cibitung","line":1,"station_id":"CIT"},{"distance":3420,"station_name":"Tambun","i_lat":-6.258864,"line":1,"is_transit":false,"time":3,"transit":false,"i_long":107.055722,"station_id":"TB"},{"time":7,"i_long":107.016735,"station_name":"Bekasi Timur","line":1,"station_id":"BKST","distance":4460,"i_lat":-6.248029,"is_transit":false,"transit":false},{"distance":2368,"station_name":"Bekasi","i_lat":-6.236616,"is_transit":false,"i_long":106.997013,"time":2,"station_id":"BKS","line":1,"transit":false},{"i_long":106.977657,"is_transit":false,"distance":2520,"i_lat":-6.224515,"station_id":"KRI","line":1,"station_name":"Kranji","transit":false,"time":4},{"transit":false,"i_lat":-6.219053,"is_transit":false,"station_name":"Cakung","line":1,"time":3,"station_id":"CUK","distance":3097,"i_long":106.951283},{"station_id":"KLDB","transit":false,"time":8,"distance":1385,"line":1,"i_lat":-6.217455,"i_long":106.939679,"station_name":"Klenderbaru","is_transit":false},{"time":1,"i_long":106.922662,"station_id":"BUA","line":1,"distance":1305,"i_lat":-6.215568,"station_name":"Buaran","transit":false,"is_transit":false},{"distance":3100,"line":1,"time":2,"i_lat":-6.2135,"i_long":106.899548,"station_name":"Klender","is_transit":false,"transit":false,"station_id":"KLD"},{"station_name":"Jatinegara","time":3,"transit":false,"i_lat":-6.215091,"i_long":106.86807400000001,"station_id":"JNG","is_transit":false,"line":1,"distance":3395},{"station_id":"MTR","transit":false,"is_transit":false,"i_long":106.858896,"time":2,"line":1,"station_name":"Matraman","i_lat":-6.212485,"distance":1377},{"line":2,"station_id":"MRI","station_name":"Manggarai","i_lat":-6.209883,"transit":false,"distance":1275,"i_long":106.84912,"is_transit":false,"time":2},{"station_id":"SUD","transit":false,"distance":3186,"i_lat":-6.202263,"i_long":106.822649,"station_name":"Sudirman","time":4,"line":1,"is_transit":false},{"station_id":"SUDB","transit":false,"time":1,"distance":280,"i_long":106.819881,"station_name":"Sudirman Baru","is_transit":false,"i_lat":-6.201433,"line":1},{"station_id":"KAT","transit":false,"distance":471,"time":1,"i_lat":-6.20132,"is_transit":false,"station_name":"Karet","line":1,"i_long":106.816351},{"i_lat":-6.185545,"station_id":"THB","time":5,"station_name":"Tanah Abang","i_long":106.811091,"transit":true,"is_transit":true,"distance":2029,"line":1},{"is_transit":false,"station_id":"PLM","i_long":106.79689,"transit":false,"line":6,"time":6,"distance":3191,"station_name":"Palmerah","i_lat":-6.207404},{"distance":3737,"line":6,"is_transit":false,"transit":false,"station_name":"Kebayoran","i_lat":-6.237242,"time":7,"station_id":"KBY","i_long":106.780334},{"i_lat":-6.276362,"transit":false,"i_long":106.74273,"station_id":"PDJ","distance":6218,"is_transit":false,"time":8,"station_name":"Pondokranji","line":6},{"transit":false,"distance":2179,"i_long":106.728916,"station_id":"JMU","is_transit":false,"i_lat":-6.288927,"station_name":"Jurangmangu","time":3,"line":6},{"station_id":"SDM","station_name":"Sudimara","is_transit":false,"distance":1994,"i_lat":-6.296963,"line":6,"i_long":106.712277,"transit":false,"time":4},{"station_id":"RU","transit":false,"i_long":106.675475,"line":6,"is_transit":false,"time":6,"station_name":"Rawa Buntu","i_lat":-6.314823,"distance":4566},{"time":4,"station_name":"Serpong","i_long":106.66566,"i_lat":-6.319871,"transit":false,"is_transit":false,"distance":2413,"station_id":"SRP","line":6},{"transit":false,"station_id":"CSK","line":3,"distance":1784,"station_name":"Cisauk","time":4,"i_long":106.640411,"is_transit":false,"i_lat":-6.32484}],[{"station_name":"Metland Telaga Murni","station_id":"TLM","distance":0,"i_lat":-6.262938,"i_long":107.093313,"is_transit":false,"line":1,"transit":false,"time":0},{"time":2,"line":1,"station_id":"CIT","i_long":107.083084,"i_lat":-6.261877,"transit":false,"distance":2800,"station_name":"Cibitung","is_transit":false},{"line":1,"transit":false,"distance":3420,"i_long":107.055722,"station_id":"TB","is_transit":false,"i_lat":-6.258864,"time":3,"station_name":"Tambun"},{"station_name":"Bekasi Timur","time":7,"station_id":"BKST","is_transit":false,"i_lat":-6.248029,"line":1,"transit":false,"distance":4460,"i_long":107.016735},{"i_lat":-6.236616,"transit":false,"station_name":"Bekasi","i_long":106.997013,"line":1,"distance":2368,"station_id":"BKS","time":2,"is_transit":false},{"i_lat":-6.224515,"is_transit":false,"station_id":"KRI","i_long":106.977657,"station_name":"Kranji","time":4,"line":1,"transit":false,"distance":2520},{"station_name":"Cakung","time":3,"i_long":106.951283,"distance":3097,"is_transit":false,"transit":false,"station_id":"CUK","i_lat":-6.219053,"line":1},{"distance":1385,"transit":false,"station_id":"KLDB","time":8,"is_transit":false,"line":1,"i_lat":-6.217455,"i_long":106.939679,"station_name":"Klenderbaru"},{"i_long":106.922662,"time":1,"is_transit":false,"station_id":"BUA","transit":false,"station_name":"Buaran","distance":1305,"i_lat":-6.215568,"line":1},{"station_id":"KLD","station_name":"Klender","distance":3100,"transit":false,"line":1,"time":2,"i_lat":-6.2135,"i_long":106.899548,"is_transit":false},{"station_name":"Jatinegara","is_transit":true,"station_id":"JNG","distance":3395,"line":1,"transit":true,"i_lat":-6.215091,"time":3,"i_long":106.86807400000001},{"station_name":"Pondok Jati","i_lat":-6.209188,"i_long":106.861737,"transit":false,"distance":1236,"line":11,"is_transit":false,"time":2,"station_id":"POK"},{"is_transit":false,"i_lat":-6.193792,"i_long":106.855437,"time":2,"transit":false,"distance":1829,"station_id":"KMT","station_name":"Kramat","line":11},{"line":11,"distance":973,"station_id":"GST","i_lat":-6.185975,"time":1,"is_transit":false,"i_long":106.850107,"transit":false,"station_name":"Gang Sentiong"},{"station_id":"PSE","distance":1567,"i_long":106.84368,"station_name":"Pasar Senen","transit":false,"time":8,"i_lat":-6.174784,"line":11,"is_transit":false},{"i_lat":-6.161728,"transit":false,"station_id":"KMO","time":4,"station_name":"Kemayoran","i_long":106.839204,"line":11,"distance":1436,"is_transit":false},{"distance":1901,"transit":false,"station_id":"RJW","i_lat":-6.14505,"line":11,"is_transit":false,"i_long":106.836569,"station_name":"Rajawali","time":5},{"transit":true,"is_transit":true,"i_lat":-6.132549,"time":3,"i_long":106.826365,"station_name":"Kampung Bandan","distance":1444,"line":4,"station_id":"KPB"},{"station_name":"Angke","transit":false,"time":9,"station_id":"AK","is_transit":false,"distance":4102,"i_long":106.79867,"line":1,"i_lat":-6.144674},{"station_name":"Duri","is_transit":false,"transit":false,"i_lat":-6.155215,"i_long":106.800832,"station_id":"DU","distance":1230,"time":4,"line":1},{"station_id":"THB","distance":3632,"transit":true,"is_transit":true,"station_name":"Tanah Abang","line":1,"time":8,"i_long":106.811091,"i_lat":-6.185545},{"line":6,"station_id":"PLM","time":6,"station_name":"Palmerah","i_lat":-6.207404,"i_long":106.79689,"distance":3191,"transit":false,"is_transit":false},{"is_transit":false,"i_lat":-6.237242,"line":6,"distance":3737,"station_id":"KBY","station_name":"Kebayoran","transit":false,"i_long":106.780334,"time":7},{"i_long":106.74273,"distance":6218,"transit":false,"station_name":"Pondokranji","i_lat":-6.276362,"line":6,"station_id":"PDJ","time":8,"is_transit":false},{"distance":2179,"is_transit":false,"i_lat":-6.288927,"i_long":106.728916,"station_id":"JMU","station_name":"Jurangmangu","line":6,"time":3,"transit":false},{"time":4,"transit":false,"station_name":"Sudimara","is_transit":false,"distance":1994,"i_lat":-6.296963,"i_long":106.712277,"line":6,"station_id":"SDM"},{"is_transit":false,"distance":4566,"i_lat":-6.314823,"time":6,"transit":false,"line":6,"i_long":106.675475,"station_name":"Rawa Buntu","station_id":"RU"},{"line":6,"transit":false,"time":4,"station_id":"SRP","i_long":106.66566,"station_name":"Serpong","is_transit":false,"i_lat":-6.319871,"distance":2413},{"station_id":"CSK","i_lat":-6.32484,"station_name":"Cisauk","i_long":106.640411,"line":3,"time":4,"distance":1784,"is_transit":false,"transit":false}],[{"i_long":107.093313,"station_name":"Metland Telaga Murni","line":1,"transit":false,"is_transit":false,"i_lat":-6.262938,"time":0,"distance":0,"station_id":"TLM"},{"is_transit":false,"station_id":"CIT","station_name":"Cibitung","i_lat":-6.261877,"line":1,"time":2,"i_long":107.083084,"distance":2800,"transit":false},{"i_lat":-6.258864,"time":3,"station_id":"TB","station_name":"Tambun","i_long":107.055722,"distance":3420,"is_transit":false,"line":1,"transit":false},{"line":1,"time":7,"is_transit":false,"i_lat":-6.248029,"i_long":107.016735,"transit":false,"distance":4460,"station_name":"Bekasi Timur","station_id":"BKST"},{"station_id":"BKS","i_long":106.997013,"time":2,"transit":false,"line":1,"distance":2368,"station_name":"Bekasi","i_lat":-6.236616,"is_transit":false},{"station_name":"Kranji","line":1,"is_transit":false,"transit":false,"i_long":106.977657,"station_id":"KRI","time":4,"i_lat":-6.224515,"distance":2520},{"time":3,"station_id":"CUK","i_lat":-6.219053,"distance":3097,"i_long":106.951283,"station_name":"Cakung","transit":false,"line":1,"is_transit":false},{"station_name":"Klenderbaru","i_lat":-6.217455,"distance":1385,"is_transit":false,"station_id":"KLDB","transit":false,"time":8,"i_long":106.939679,"line":1},{"i_lat":-6.215568,"station_id":"BUA","i_long":106.922662,"distance":1305,"line":1,"is_transit":false,"time":1,"transit":false,"station_name":"Buaran"},{"i_lat":-6.2135,"distance":3100,"station_id":"KLD","i_long":106.899548,"station_name":"Klender","line":1,"transit":false,"time":2,"is_transit":false},{"i_long":106.86807400000001,"distance":3395,"transit":false,"time":3,"station_id":"JNG","station_name":"Jatinegara","i_lat":-6.215091,"line":1,"is_transit":false},{"station_id":"MTR","station_name":"Matraman","distance":1377,"transit":false,"time":2,"i_long":106.858896,"is_transit":false,"i_lat":-6.212485,"line":1},{"is_transit":true,"time":2,"i_lat":-6.209883,"i_long":106.84912,"transit":true,"station_name":"Manggarai","line":2,"distance":1275,"station_id":"MRI"},{"i_lat":-6.198556,"station_id":"CKI","i_long":106.840169,"station_name":"Cikini","transit":false,"is_transit":false,"distance":1590,"time":4,"line":2},{"distance":1750,"time":3,"line":2,"transit":false,"i_lat":-6.186295,"i_long":106.832183,"station_id":"GDD","station_name":"Gondangdia","is_transit":false},{"i_long":106.828284,"transit":false,"station_id":"JUA","line":2,"station_name":"Juanda","i_lat":-6.166716,"time":4,"is_transit":false,"distance":2015},{"station_name":"Sawah Besar","line":2,"i_lat":-6.160725,"transit":false,"time":2,"i_long":106.827103,"distance":1149,"station_id":"SW","is_transit":false},{"station_id":"MGB","distance":906,"i_lat":-6.149769,"i_long":106.82482,"station_name":"Manggabesar","time":2,"is_transit":false,"transit":false,"line":2},{"station_id":"JAY","transit":false,"line":2,"distance":1080,"is_transit":false,"time":2,"i_long":106.820901,"station_name":"Jayakarta","i_lat":-6.141205},{"is_transit":true,"distance":1264,"i_lat":-6.137569,"station_id":"JAKK","transit":true,"time":4,"station_name":"Jakarta Kota","i_long":106.812439,"line":2},{"is_transit":true,"line":4,"station_id":"KPB","time":3,"i_long":106.826365,"distance":1364,"station_name":"Kampung Bandan","i_lat":-6.132549,"transit":true},{"is_transit":false,"i_lat":-6.144674,"line":1,"station_id":"AK","station_name":"Angke","transit":false,"i_long":106.79867,"time":9,"distance":4102},{"station_id":"DU","i_long":106.800832,"i_lat":-6.155215,"transit":false,"station_name":"Duri","line":1,"time":4,"distance":1230,"is_transit":false},{"distance":3632,"transit":true,"station_name":"Tanah Abang","station_id":"THB","is_transit":true,"i_long":106.811091,"time":8,"line":1,"i_lat":-6.185545},{"i_lat":-6.207404,"distance":3191,"time":6,"i_long":106.79689,"line":6,"station_id":"PLM","station_name":"Palmerah","is_transit":false,"transit":false},{"i_long":106.780334,"time":7,"transit":false,"station_id":"KBY","line":6,"distance":3737,"station_name":"Kebayoran","i_lat":-6.237242,"is_transit":false},{"station_id":"PDJ","i_long":106.74273,"transit":false,"is_transit":false,"line":6,"i_lat":-6.276362,"distance":6218,"time":8,"station_name":"Pondokranji"},{"i_lat":-6.288927,"station_id":"JMU","distance":2179,"station_name":"Jurangmangu","line":6,"transit":false,"time":3,"is_transit":false,"i_long":106.728916},{"time":4,"distance":1994,"station_name":"Sudimara","transit":false,"station_id":"SDM","line":6,"i_lat":-6.296963,"i_long":106.712277,"is_transit":false},{"time":6,"station_id":"RU","line":6,"i_long":106.675475,"is_transit":false,"station_name":"Rawa Buntu","transit":false,"i_lat":-6.314823,"distance":4566},{"time":4,"i_lat":-6.319871,"line":6,"i_long":106.66566,"station_name":"Serpong","is_transit":false,"transit":false,"distance":2413,"station_id":"SRP"},{"is_transit":false,"time":4,"distance":1784,"station_id":"CSK","transit":false,"i_lat":-6.32484,"i_long":106.640411,"line":3,"station_name":"Cisauk"}],[{"transit":false,"station_id":"TLM","station_name":"Metland Telaga Murni","line":1,"i_long":107.093313,"distance":0,"is_transit":false,"i_lat":-6.262938,"time":0},{"i_lat":-6.261877,"i_long":107.083084,"station_name":"Cibitung","station_id":"CIT","is_transit":false,"line":1,"distance":2800,"transit":false,"time":2},{"i_long":107.055722,"i_lat":-6.258864,"distance":3420,"line":1,"is_transit":false,"time":3,"station_id":"TB","transit":false,"station_name":"Tambun"},{"station_name":"Bekasi Timur","station_id":"BKST","distance":4460,"is_transit":false,"line":1,"time":7,"transit":false,"i_lat":-6.248029,"i_long":107.016735},{"distance":2368,"is_transit":false,"i_long":106.997013,"station_name":"Bekasi","station_id":"BKS","transit":false,"time":2,"i_lat":-6.236616,"line":1},{"station_name":"Kranji","transit":false,"i_long":106.977657,"i_lat":-6.224515,"line":1,"time":4,"station_id":"KRI","is_transit":false,"distance":2520},{"transit":false,"line":1,"i_long":106.951283,"station_id":"CUK","time":3,"is_transit":false,"distance":3097,"i_lat":-6.219053,"station_name":"Cakung"},{"i_long":106.939679,"i_lat":-6.217455,"station_id":"KLDB","is_transit":false,"time":8,"distance":1385,"station_name":"Klenderbaru","line":1,"transit":false},{"transit":false,"is_transit":false,"station_name":"Buaran","i_long":106.922662,"i_lat":-6.215568,"station_id":"BUA","distance":1305,"time":1,"line":1},{"station_name":"Klender","transit":false,"i_long":106.899548,"time":2,"distance":3100,"station_id":"KLD","i_lat":-6.2135,"is_transit":false,"line":1},{"line":1,"i_lat":-6.215091,"i_long":106.86807400000001,"distance":3395,"time":3,"station_id":"JNG","is_transit":true,"transit":true,"station_name":"Jatinegara"},{"transit":false,"station_id":"POK","distance":1236,"i_long":106.861737,"i_lat":-6.209188,"is_transit":false,"line":11,"time":2,"station_name":"Pondok Jati"},{"is_transit":false,"station_name":"Kramat","i_long":106.855437,"i_lat":-6.193792,"line":11,"distance":1829,"transit":false,"station_id":"KMT","time":2},{"station_id":"GST","distance":973,"station_name":"Gang Sentiong","is_transit":false,"transit":false,"i_lat":-6.185975,"line":11,"i_long":106.850107,"time":1},{"time":8,"i_long":106.84368,"station_id":"PSE","line":11,"i_lat":-6.174784,"station_name":"Pasar Senen","is_transit":false,"transit":false,"distance":1567},{"station_id":"KMO","is_transit":false,"time":4,"distance":1436,"transit":false,"station_name":"Kemayoran","i_lat":-6.161728,"i_long":106.839204,"line":11},{"i_long":106.836569,"line":11,"is_transit":false,"transit":false,"station_name":"Rajawali","i_lat":-6.14505,"time":5,"distance":1901,"station_id":"RJW"},{"station_id":"KPB","transit":true,"i_long":106.826365,"distance":1444,"station_name":"Kampung Bandan","i_lat":-6.132549,"time":3,"line":4,"is_transit":true},{"transit":true,"time":3,"station_name":"Jakarta Kota","is_transit":true,"i_long":106.812439,"station_id":"JAKK","i_lat":-6.137569,"line":2,"distance":1364},{"station_name":"Jayakarta","i_lat":-6.141205,"distance":1264,"transit":false,"station_id":"JAY","is_transit":false,"line":2,"time":4,"i_long":106.820901},{"is_transit":false,"line":2,"station_id":"MGB","i_lat":-6.149769,"i_long":106.82482,"distance":1080,"transit":false,"time":2,"station_name":"Manggabesar"},{"distance":906,"station_id":"SW","i_long":106.827103,"time":2,"transit":false,"station_name":"Sawah Besar","is_transit":false,"line":2,"i_lat":-6.160725},{"distance":1149,"station_name":"Juanda","time":2,"station_id":"JUA","is_transit":false,"transit":false,"i_long":106.828284,"i_lat":-6.166716,"line":2},{"transit":false,"i_lat":-6.186295,"distance":2015,"line":2,"time":4,"station_id":"GDD","station_name":"Gondangdia","i_long":106.832183,"is_transit":false},{"is_transit":false,"time":3,"station_id":"CKI","i_lat":-6.198556,"transit":false,"station_name":"Cikini","distance":1750,"i_long":106.840169,"line":2},{"distance":1590,"time":4,"station_id":"MRI","station_name":"Manggarai","is_transit":true,"i_lat":-6.209883,"transit":true,"i_long":106.84912,"line":2},{"station_name":"Sudirman","transit":false,"time":4,"distance":3186,"is_transit":false,"station_id":"SUD","i_lat":-6.202263,"i_long":106.822649,"line":1},{"station_id":"SUDB","is_transit":false,"station_name":"Sudirman Baru","transit":false,"i_lat":-6.201433,"line":1,"i_long":106.819881,"distance":280,"time":1},{"station_id":"KAT","time":1,"i_lat":-6.20132,"distance":471,"line":1,"i_long":106.816351,"is_transit":false,"transit":false,"station_name":"Karet"},{"station_id":"THB","line":1,"transit":true,"is_transit":true,"distance":2029,"station_name":"Tanah Abang","i_lat":-6.185545,"i_long":106.811091,"time":5},{"station_id":"PLM","station_name":"Palmerah","i_long":106.79689,"time":6,"is_transit":false,"line":6,"distance":3191,"i_lat":-6.207404,"transit":false},{"time":7,"station_name":"Kebayoran","i_lat":-6.237242,"transit":false,"station_id":"KBY","distance":3737,"i_long":106.780334,"line":6,"is_transit":false},{"is_transit":false,"station_name":"Pondokranji","distance":6218,"station_id":"PDJ","transit":false,"i_lat":-6.276362,"time":8,"line":6,"i_long":106.74273},{"station_name":"Jurangmangu","distance":2179,"i_long":106.728916,"station_id":"JMU","transit":false,"is_transit":false,"time":3,"i_lat":-6.288927,"line":6},{"is_transit":false,"i_lat":-6.296963,"line":6,"distance":1994,"i_long":106.712277,"station_name":"Sudimara","time":4,"station_id":"SDM","transit":false},{"station_name":"Rawa Buntu","i_lat":-6.314823,"station_id":"RU","is_transit":false,"time":6,"transit":false,"i_long":106.675475,"line":6,"distance":4566},{"i_lat":-6.319871,"transit":false,"time":4,"i_long":106.66566,"line":6,"station_id":"SRP","distance":2413,"is_transit":false,"station_name":"Serpong"},{"line":3,"time":4,"i_lat":-6.32484,"station_id":"CSK","transit":false,"i_long":106.640411,"distance":1784,"is_transit":false,"station_name":"Cisauk"}]]}