{"data":[[{"time":0,"station_name":"Metland Telaga Murni","transit":false,"i_lat":-6.262938,"i_long":107.093313,"distance":0,"is_transit":false,"station_id":"TLM","line":1},{"i_long":107.083084,"station_id":"CIT","time":2,"line":1,"distance":2800,"is_transit":false,"i_lat":-6.261877,"station_name":"Cibitung","transit":false},{"station_name":"Tambun","distance":3420,"time":3,"line":1,"is_transit":false,"i_lat":-6.258864,"transit":false,"i_long":107.055722,"station_id":"TB"},{"is_transit":false,"line":1,"time":7,"i_long":107.016735,"distance":4460,"station_id":"BKST","station_name":"Bekasi Timur","i_lat":-6.248029,"transit":false},{"time":2,"i_lat":-6.236616,"transit":false,"i_long":106.997013,"station_name":"Bekasi","station_id":"BKS","is_transit":false,"distance":2368,"line":1},{"station_id":"KRI","i_lat":-6.224515,"station_name":"Kranji","time":4,"is_transit":false,"line":1,"transit":false,"i_long":106.977657,"distance":2520},{"line":1,"time":3,"is_transit":false,"i_long":106.951283,"transit":false,"i_lat":-6.219053,"station_name":"Cakung","distance":3097,"station_id":"CUK"},{"station_name":"Klenderbaru","i_lat":-6.217455,"is_transit":false,"i_long":106.939679,"station_id":"KLDB","transit":false,"distance":1385,"time":8,"line":1},{"line":1,"station_name":"Buaran","i_long":106.922662,"distance":1305,"station_id":"BUA","i_lat":-6.215568,"transit":false,"time":1,"is_transit":false},{"is_transit":false,"transit":false,"time":2,"distance":3100,"station_id":"KLD","i_long":106.899548,"line":1,"station_name":"Klender","i_lat":-6.2135},{"i_lat":-6.215091,"i_long":106.86807400000001,"time":3,"transit":false,"is_transit":false,"line":1,"station_name":"Jatinegara","station_id":"JNG","distance":3395},{"transit":false,"station_id":"MTR","i_lat":-6.212485,"i_long":106.858896,"time":2,"line":1,"station_name":"Matraman","distance":1377,"is_transit":false},{"is_transit":false,"station_id":"MRI","station_name":"Manggarai","time":2,"distance":1275,"i_lat":-6.209883,"line":2,"transit":false,"i_long":106.84912},{"distance":3186,"i_long":106.822649,"station_id":"SUD","time":4,"transit":false,"station_name":"Sudirman","is_transit":false,"i_lat":-6.202263,"line":1},{"i_lat":-6.201433,"transit":false,"distance":280,"station_name":"Sudirman Baru","station_id":"SUDB","time":1,"is_transit":false,"line":1,"i_long":106.819881},{"i_lat":-6.20132,"transit":false,"is_transit":false,"i_long":106.816351,"station_id":"KAT","distance":471,"station_name":"Karet","time":1,"line":1},{"line":1,"i_lat":-6.185545,"is_transit":false,"station_id":"THB","i_long":106.811091,"time":5,"transit":false,"distance":2029,"station_name":"Tanah Abang"},{"station_id":"DU","distance":3632,"transit":true,"line":1,"i_lat":-6.155215,"i_long":106.800832,"is_transit":true,"station_name":"Duri","time":8},{"time":3,"line":5,"is_transit":false,"transit":false,"station_id":"GGL","station_name":"Grogol","distance":1700,"i_long":106.788277,"i_lat":-6.162021},{"i_lat":-6.161433,"i_long":106.771379,"transit":false,"is_transit":false,"time":2,"line":5,"station_name":"Pesing","distance":2036,"station_id":"PSG"},{"i_lat":-6.1587309999999995,"distance":1614,"time":2,"station_id":"TKO","station_name":"Taman Kota","is_transit":false,"i_long":106.756522,"transit":false,"line":5},{"i_long":106.737035,"station_name":"Bojongindah","station_id":"BOI","transit":false,"is_transit":false,"i_lat":-6.159876,"time":2,"line":5,"distance":2334},{"station_id":"RW","i_long":106.723064,"transit":false,"distance":1152,"time":4,"i_lat":-6.162758,"station_name":"Rawa Buaya","is_transit":false,"line":5},{"time":3,"distance":2504,"station_name":"Kalideres","line":5,"station_id":"KDS","i_lat":-6.166068,"is_transit":false,"i_long":106.701612,"transit":false},{"distance":2548,"station_name":"Poris","station_id":"PI","is_transit":false,"line":5,"i_lat":-6.169933,"i_long":106.679458,"time":3,"transit":false},{"distance":1834,"line":5,"transit":false,"is_transit":false,"station_name":"Batuceper","i_long":106.665036,"time":3,"i_lat":-6.171811,"station_id":"BPR"}],[{"station_name":"Metland Telaga Murni","is_transit":false,"i_lat":-6.262938,"transit":false,"time":0,"line":1,"i_long":107.093313,"distance":0,"station_id":"TLM"},{"station_id":"CIT","is_transit":false,"time":2,"transit":false,"line":1,"distance":2800,"i_lat":-6.261877,"i_long":107.083084,"station_name":"Cibitung"},{"time":3,"i_lat":-6.258864,"station_name":"Tambun","line":1,"distance":3420,"station_id":"TB","transit":false,"is_transit":false,"i_long":107.055722},{"station_name":"Bekasi Timur","station_id":"BKST","i_lat":-6.248029,"transit":false,"is_transit":false,"i_long":107.016735,"line":1,"distance":4460,"time":7},{"is_transit":false,"station_id":"BKS","i_long":106.997013,"time":2,"station_name":"Bekasi","i_lat":-6.236616,"transit":false,"distance":2368,"line":1},{"i_lat":-6.224515,"distance":2520,"line":1,"transit":false,"is_transit":false,"station_name":"Kranji","time":4,"station_id":"KRI","i_long":106.977657},{"distance":3097,"line":1,"i_long":106.951283,"transit":false,"time":3,"station_id":"CUK","i_lat":-6.219053,"is_transit":false,"station_name":"Cakung"},{"transit":false,"station_id":"KLDB","line":1,"time":8,"i_lat":-6.217455,"is_transit":false,"station_name":"Klenderbaru","distance":1385,"i_long":106.939679},{"time":1,"distance":1305,"i_long":106.922662,"transit":false,"is_transit":false,"station_name":"Buaran","i_lat":-6.215568,"line":1,"station_id":"BUA"},{"i_long":106.899548,"is_transit":false,"time":2,"distance":3100,"i_lat":-6.2135,"line":1,"transit":false,"station_name":"Klender","station_id":"KLD"},{"time":3,"i_long":106.86807400000001,"transit":true,"distance":3395,"i_lat":-6.215091,"station_name":"Jatinegara","line":1,"station_id":"JNG","is_transit":true},{"distance":1236,"line":11,"i_lat":-6.209188,"time":2,"i_long":106.861737,"is_transit":false,"station_name":"Pondok Jati","transit":false,"station_id":"POK"},{"line":11,"i_lat":-6.193792,"station_id":"KMT","i_long":106.855437,"station_name":"Kramat","distance":1829,"time":2,"transit":false,"is_transit":false},{"i_long":106.850107,"station_id":"GST","distance":973,"is_transit":false,"time":1,"station_name":"Gang Sentiong","line":11,"transit":false,"i_lat":-6.185975},{"is_transit":false,"i_long":106.84368,"transit":false,"distance":1567,"i_lat":-6.174784,"station_name":"Pasar Senen","time":8,"line":11,"station_id":"PSE"},{"station_name":"Kemayoran","is_transit":false,"time":4,"station_id":"KMO","i_lat":-6.161728,"i_long":106.839204,"distance":1436,"transit":false,"line":11},{"transit":false,"is_transit":false,"station_name":"Rajawali","station_id":"RJW","i_long":106.836569,"line":11,"i_lat":-6.14505,"distance":1901,"time":5},{"line":4,"transit":true,"i_lat":-6.132549,"station_id":"KPB","time":3,"station_name":"Kampung Bandan","distance":1444,"is_transit":true,"i_long":106.826365},{"distance":4102,"is_transit":false,"time":9,"i_long":106.79867,"line":1,"station_name":"Angke","i_lat":-6.144674,"transit":false,"station_id":"AK"},{"i_long":106.800832,"distance":1230,"station_id":"DU","transit":true,"station_name":"Duri","time":4,"i_lat":-6.155215,"is_transit":true,"line":1},{"i_long":106.788277,"i_lat":-6.162021,"line":5,"distance":1700,"time":3,"station_name":"Grogol","station_id":"GGL","is_transit":false,"transit":false},{"distance":2036,"is_transit":false,"time":2,"i_lat":-6.161433,"i_long":106.771379,"line":5,"station_name":"Pesing","station_id":"PSG","transit":false},{"station_name":"Taman Kota","is_transit":false,"time":2,"station_id":"TKO","distance":1614,"i_long":106.756522,"transit":false,"i_lat":-6.1587309999999995,"line":5},{"transit":false,"i_lat":-6.159876,"line":5,"is_transit":false,"time":2,"i_long":106.737035,"station_id":"BOI","station_name":"Bojongindah","distance":2334},{"i_lat":-6.162758,"i_long":106.723064,"is_transit":false,"station_name":"Rawa Buaya","transit":false,"line":5,"station_id":"RW","time":4,"distance":1152},{"i_lat":-6.166068,"is_transit":false,"distance":2504,"station_id":"KDS","line":5,"station_name":"Kalideres","transit":false,"i_long":106.701612,"time":3},{"i_long":106.679458,"is_transit":false,"distance":2548,"i_lat":-6.169933,"line":5,"time":3,"station_name":"Poris","station_id":"PI","transit":false},{"station_name":"Batuceper","i_lat":-6.171811,"is_transit":false,"station_id":"BPR","i_long":106.665036,"time":3,"distance":1834,"transit":false,"line":5}],[{"time":0,"transit":false,"station_name":"Metland Telaga Murni","is_transit":false,"line":1,"station_id":"TLM","i_long":107.093313,"distance":0,"i_lat":-6.262938},{"station_name":"Cibitung","time":2,"i_long":107.083084,"i_lat":-6.261877,"transit":false,"station_id":"CIT","distance":2800,"is_transit":false,"line":1},{"i_lat":-6.258864,"distance":3420,"transit":false,"station_name":"Tambun","time":3,"i_long":107.055722,"line":1,"is_transit":false,"station_id":"TB"},{"i_long":107.016735,"i_lat":-6.248029,"station_name":"Bekasi Timur","transit":false,"station_id":"BKST","line":1,"time":7,"distance":4460,"is_transit":false},{"is_transit":false,"i_long":106.997013,"station_name":"Bekasi","transit":false,"distance":2368,"i_lat":-6.236616,"station_id":"BKS","time":2,"line":1},{"is_transit":false,"time":4,"distance":2520,"i_long":106.977657,"line":1,"station_id":"KRI","i_lat":-6.224515,"transit":false,"station_name":"Kranji"},{"station_name":"Cakung","station_id":"CUK","is_transit":false,"time":3,"i_long":106.951283,"i_lat":-6.219053,"distance":3097,"transit":false,"line":1},{"line":1,"i_lat":-6.217455,"is_transit":false,"station_name":"Klenderbaru","station_id":"KLDB","distance":1385,"transit":false,"time":8,"i_long":106.939679},{"station_name":"Buaran","is_transit":false,"line":1,"time":1,"station_id":"BUA","distance":1305,"i_lat":-6.215568,"i_long":106.922662,"transit":false},{"i_long":106.899548,"i_lat":-6.2135,"line":1,"time":2,"station_name":"Klender","transit":false,"station_id":"KLD","is_transit":false,"distance":3100},{"distance":3395,"i_long":106.86807400000001,"transit":false,"is_transit":false,"station_id":"JNG","station_name":"Jatinegara","time":3,"i_lat":-6.215091,"line":1},{"time":2,"i_long":106.858896,"station_name":"Matraman","line":1,"i_lat":-6.212485,"is_transit":false,"distance":1377,"transit":false,"station_id":"MTR"},{"distance":1275,"i_long":106.84912,"i_lat":-6.209883,"is_transit":true,"station_id":"MRI","line":2,"transit":true,"station_name":"Manggarai","time":2},{"is_transit":false,"distance":1590,"i_lat":-6.198556,"transit":false,"time":4,"i_long":106.840169,"line":2,"station_id":"CKI","station_name":"Cikini"},{"is_transit":false,"time":3,"i_lat":-6.186295,"station_id":"GDD","line":2,"distance":1750,"station_name":"Gondangdia","transit":false,"i_long":106.832183},{"time":4,"transit":false,"line":2,"station_name":"Juanda","distance":2015,"is_transit":false,"i_lat":-6.166716,"station_id":"JUA","i_long":106.828284},{"is_transit":false,"station_name":"Sawah Besar","time":2,"distance":1149,"i_lat":-6.160725,"line":2,"i_long":106.827103,"transit":false,"station_id":"SW"},{"station_id":"MGB","station_name":"Manggabesar","i_lat":-6.149769,"line":2,"i_long":106.82482,"transit":false,"distance":906,"is_transit":false,"time":2},{"distance":1080,"time":2,"i_lat":-6.141205,"station_id":"JAY","is_transit":false,"line":2,"i_long":106.820901,"transit":false,"station_name":"Jayakarta"},{"transit":true,"distance":1264,"line":2,"is_transit":true,"station_id":"JAKK","i_lat":-6.137569,"time":4,"station_name":"Jakarta Kota","i_long":106.812439},{"distance":1364,"i_lat":-6.132549,"station_id":"KPB","line":4,"i_long":106.826365,"is_transit":true,"time":3,"transit":true,"station_name":"Kampung Bandan"},{"time":9,"station_id":"AK","transit":false,"is_transit":false,"station_name":"Angke","i_lat":-6.144674,"line":1,"i_long":106.79867,"distance":4102},{"distance":1230,"transit":true,"station_id":"DU","is_transit":true,"i_lat":-6.155215,"i_long":106.800832,"station_name":"Duri","time":4,"line":1},{"station_id":"GGL","line":5,"station_name":"Grogol","distance":1700,"i_lat":-6.162021,"transit":false,"is_transit":false,"time":3,"i_long":106.788277},{"line":5,"station_id":"PSG","distance":2036,"station_name":"Pesing","transit":false,"time":2,"i_lat":-6.161433,"i_long":106.771379,"is_transit":false},{"is_transit":false,"time":2,"station_name":"Taman Kota","i_long":106.756522,"transit":false,"line":5,"station_id":"TKO","i_lat":-6.1587309999999995,"distance":1614},{"station_name":"Bojongindah","time":2,"station_id":"BOI","i_lat":-6.159876,"line":5,"distance":2334,"is_transit":false,"transit":false,"i_long":106.737035},{"i_long":106.723064,"line":5,"time":4,"is_transit":false,"station_name":"Rawa Buaya","transit":false,"station_id":"RW","distance":1152,"i_lat":-6.162758},{"i_long":106.701612,"transit":false,"station_id":"KDS","distance":2504,"line":5,"is_transit":false,"station_name":"Kalideres","time":3,"i_lat":-6.166068},{"i_long":106.679458,"is_transit":false,"distance":2548,"time":3,"i_lat":-6.169933,"transit":false,"station_id":"PI","station_name":"Poris","line":5},{"i_lat":-6.171811,"station_name":"Batuceper","station_id":"BPR","line":5,"distance":1834,"transit":false,"is_transit":false,"time":3,"i_long":106.665036}],[{"line":1,"is_transit":false,"i_lat":-6.262938,"station_name":"Metland Telaga Murni","station_id":"TLM","time":0,"i_long":107.093313,"distance":0,"transit":false},{"i_lat":-6.261877,"is_transit":false,"distance":2800,"i_long":107.083084,"transit":false,"line":1,"station_id":"CIT","station_name":"Cibitung","time":2},{"station_name":"Tambun","distance":3420,"time":3,"i_long":107.055722,"line":1,"i_lat":-6.258864,"transit":false,"station_id":"TB","is_transit":false},{"station_name":"Bekasi Timur","time":7,"distance":4460,"is_transit":false,"i_long":107.016735,"line":1,"transit":false,"i_lat":-6.248029,"station_id":"BKST"},{"transit":false,"station_name":"Bekasi","time":2,"i_lat":-6.236616,"i_long":106.997013,"is_transit":false,"line":1,"station_id":"BKS","distance":2368},{"station_name":"Kranji","i_long":106.977657,"transit":false,"time":4,"station_id":"KRI","i_lat":-6.224515,"distance":2520,"line":1,"is_transit":false},{"i_lat":-6.219053,"station_name":"Cakung","is_transit":false,"transit":false,"distance":3097,"time":3,"station_id":"CUK","i_long":106.951283,"line":1},{"transit":false,"i_lat":-6.217455,"line":1,"i_long":106.939679,"station_id":"KLDB","station_name":"Klenderbaru","distance":1385,"is_transit":false,"time":8},{"i_long":106.922662,"time":1,"transit":false,"station_id":"BUA","line":1,"distance":1305,"station_name":"Buaran","is_transit":false,"i_lat":-6.215568},{"i_long":106.899548,"line":1,"is_transit":false,"station_name":"Klender","distance":3100,"station_id":"KLD","time":2,"i_lat":-6.2135,"transit":false},{"is_transit":true,"station_name":"Jatinegara","distance":3395,"i_long":106.86807400000001,"line":1,"time":3,"station_id":"JNG","transit":true,"i_lat":-6.215091},{"distance":1236,"i_long":106.861737,"line":11,"station_id":"POK","time":2,"is_transit":false,"transit":false,"station_name":"Pondok Jati","i_lat":-6.209188},{"i_lat":-6.193792,"station_id":"KMT","station_name":"Kramat","i_long":106.855437,"time":2,"is_transit":false,"line":11,"distance":1829,"transit":false},{"station_id":"GST","line":11,"i_long":106.850107,"time":1,"transit":false,"station_name":"Gang Sentiong","distance":973,"i_lat":-6.185975,"is_transit":false},{"line":11,"distance":1567,"is_transit":false,"transit":false,"station_name":"Pasar Senen","station_id":"PSE","i_long":106.84368,"time":8,"i_lat":-6.174784},{"transit":false,"station_id":"KMO","i_long":106.839204,"time":4,"distance":1436,"i_lat":-6.161728,"line":11,"is_transit":false,"station_name":"Kemayoran"},{"i_long":106.836569,"transit":false,"i_lat":-6.14505,"time":5,"station_id":"RJW","is_transit":false,"station_name":"Rajawali","line":11,"distance":1901},{"i_lat":-6.132549,"transit":true,"station_name":"Kampung Bandan","line":4,"is_transit":true,"distance":1444,"i_long":106.826365,"station_id":"KPB","time":3},{"line":2,"transit":true,"time":3,"station_name":"Jakarta Kota","station_id":"JAKK","i_lat":-6.137569,"distance":1364,"is_transit":true,"i_long":106.812439},{"transit":false,"station_name":"Jayakarta","station_id":"JAY","time":4,"i_lat":-6.141205,"i_long":106.820901,"distance":1264,"line":2,"is_transit":false},{"is_transit":false,"time":2,"transit":false,"i_long":106.82482,"distance":1080,"line":2,"i_lat":-6.149769,"station_id":"MGB","station_name":"Manggabesar"},{"transit":false,"is_transit":false,"time":2,"station_id":"SW","distance":906,"i_lat":-6.160725,"i_long":106.827103,"station_name":"Sawah Besar","line":2},{"transit":false,"station_id":"JUA","i_long":106.828284,"time":2,"line":2,"i_lat":-6.166716,"distance":1149,"station_name":"Juanda","is_transit":false},{"time":4,"is_transit":false,"transit":false,"i_long":106.832183,"line":2,"distance":2015,"i_lat":-6.186295,"station_id":"GDD","station_name":"Gondangdia"},{"i_lat":-6.198556,"station_name":"Cikini","time":3,"transit":false,"distance":1750,"line":2,"i_long":106.840169,"station_id":"CKI","is_transit":false},{"i_lat":-6.209883,"time":4,"line":2,"station_id":"MRI","distance":1590,"transit":true,"is_transit":true,"i_long":106.84912,"station_name":"Manggarai"},{"station_name":"Sudirman","station_id":"SUD","is_transit":false,"i_lat":-6.202263,"transit":false,"distance":3186,"time":4,"i_long":106.822649,"line":1},{"station_name":"Sudirman Baru","is_transit":false,"i_lat":-6.201433,"station_id":"SUDB","distance":280,"time":1,"i_long":106.819881,"line":1,"transit":false},{"station_name":"Karet","i_long":106.816351,"is_transit":false,"time":1,"station_id":"KAT","transit":false,"line":1,"i_lat":-6.20132,"distance":471},{"transit":false,"station_name":"Tanah Abang","i_lat":-6.185545,"distance":2029,"time":5,"i_long":106.811091,"is_transit":false,"line":1,"station_id":"THB"},{"station_name":"Duri","station_id":"DU","line":1,"time":8,"i_long":106.800832,"transit":true,"distance":3632,"i_lat":-6.155215,"is_transit":true},{"line":5,"time":3,"station_id":"GGL","distance":1700,"transit":false,"station_name":"Grogol","is_transit":false,"i_lat":-6.162021,"i_long":106.788277},{"i_lat":-6.161433,"time":2,"station_id":"PSG","distance":2036,"i_long":106.771379,"station_name":"Pesing","transit":false,"is_transit":false,"line":5},{"time":2,"i_long":106.756522,"transit":false,"station_name":"Taman Kota","station_id":"TKO","distance":1614,"is_transit":false,"i_lat":-6.1587309999999995,"line":5},{"transit":false,"is_transit":false,"i_lat":-6.159876,"line":5,"station_name":"Bojongindah","distance":2334,"i_long":106.737035,"time":2,"station_id":"BOI"},{"station_id":"RW","is_transit":false,"i_long":106.723064,"transit":false,"distance":1152,"station_name":"Rawa Buaya","i_lat":-6.162758,"time":4,"line":5},{"station_name":"Kalideres","i_long":106.701612,"time":3,"i_lat":-6.166068,"station_id":"KDS","is_transit":false,"transit":false,"distance":2504,"line":5},{"i_lat":-6.169933,"station_id":"PI","is_transit":false,"station_name":"Poris","distance":2548,"i_long":106.679458,"line":5,"time":3,"transit":false},{"distance":1834,"time":3,"station_id":"BPR","transit":false,"is_transit":false,"station_name":"Batuceper","i_long":106.665036,"line":5,"i_lat":-6.171811}]]}