{"data":[[{"time":0,"station_name":"Metland Telaga Murni","distance":0,"transit":false,"station_id":"TLM","is_transit":false,"i_long":107.093313,"line":1,"i_lat":-6.262938},{"i_lat":-6.261877,"distance":2800,"station_id":"CIT","i_long":107.083084,"line":0,"time":2,"transit":false,"station_name":"Cibitung","is_transit":false},{"transit":false,"line":1,"i_lat":-6.258864,"i_long":107.055722,"station_id":"TB","time":3,"distance":3420,"station_name":"Tambun","is_transit":false},{"i_long":107.016735,"line":0,"time":7,"station_name":"Bekasi Timur","is_transit":false,"i_lat":-6.248029,"distance":4460,"station_id":"BKST","transit":false},{"i_lat":-6.236616,"distance":2368,"line":0,"station_name":"Bekasi","transit":false,"station_id":"BKS","time":2,"i_long":106.997013,"is_transit":false},{"station_id":"KRI","is_transit":false,"i_long":106.977657,"station_name":"Kranji","time":4,"distance":2520,"i_lat":-6.224515,"transit":false,"line":1},{"transit":false,"is_transit":false,"station_name":"Cakung","i_long":106.951283,"line":0,"i_lat":-6.219053,"distance":3097,"time":3,"station_id":"CUK"},{"is_transit":false,"i_lat":-6.217455,"i_long":106.939679,"time":8,"distance":1385,"line":1,"station_name":"Klenderbaru","transit":false,"station_id":"KLDB"},{"station_name":"Buaran","station_id":"BUA","time":1,"distance":1305,"i_lat":-6.215568,"i_long":106.922662,"line":0,"transit":false,"is_transit":false},{"is_transit":false,"distance":3100,"station_name":"Klender","station_id":"KLD","transit":false,"time":2,"i_lat":-6.2135,"i_long":106.899548,"line":1},{"distance":3395,"is_transit":true,"station_name":"Jatinegara","station_id":"JNG","i_lat":-6.215091,"i_long":106.86807400000001,"time":3,"transit":false,"line":0},{"line":1,"station_name":"Matraman","i_long":106.858896,"transit":false,"i_lat":-6.212485,"is_transit":false,"station_id":"MTR","time":2,"distance":1377},{"distance":1275,"station_id":"MRI","is_transit":true,"transit":false,"i_lat":-6.209883,"time":2,"station_name":"Manggarai","i_long":106.84912,"line":0},{"time":4,"station_id":"SUD","i_long":106.822649,"line":1,"is_transit":false,"transit":false,"distance":3186,"i_lat":-6.202263,"station_name":"Sudirman"},{"i_long":106.819881,"station_name":"Sudirman Baru","line":1,"time":1,"distance":280,"station_id":"SUDB","i_lat":-6.201433,"is_transit":false,"transit":false},{"is_transit":false,"station_id":"KAT","i_lat":-6.20132,"i_long":106.816351,"distance":471,"transit":false,"station_name":"Karet","line":1,"time":1},{"distance":2029,"transit":false,"i_lat":-6.185545,"station_id":"THB","i_long":106.811091,"line":1,"station_name":"Tanah Abang","time":5,"is_transit":true}],[{"i_lat":-6.262938,"distance":0,"station_id":"TLM","transit":false,"time":0,"is_transit":false,"line":1,"station_name":"Metland Telaga Murni","i_long":107.093313},{"distance":2800,"station_id":"CIT","line":0,"is_transit":false,"time":2,"station_name":"Cibitung","transit":false,"i_lat":-6.261877,"i_long":107.083084},{"i_lat":-6.258864,"time":3,"i_long":107.055722,"station_id":"TB","is_transit":false,"station_name":"Tambun","transit":false,"distance":3420,"line":1},{"line":0,"i_long":107.016735,"time":7,"i_lat":-6.248029,"distance":4460,"is_transit":false,"transit":false,"station_name":"Bekasi Timur","station_id":"BKST"},{"station_id":"BKS","is_transit":false,"transit":false,"distance":2368,"station_name":"Bekasi","i_long":106.997013,"i_lat":-6.236616,"line":0,"time":2},{"time":4,"i_long":106.977657,"station_id":"KRI","line":1,"distance":2520,"transit":false,"i_lat":-6.224515,"is_transit":false,"station_name":"Kranji"},{"i_long":106.951283,"time":3,"distance":3097,"is_transit":false,"station_name":"Cakung","transit":false,"station_id":"CUK","i_lat":-6.219053,"line":0},{"i_long":106.939679,"station_id":"KLDB","time":8,"distance":1385,"is_transit":false,"line":1,"i_lat":-6.217455,"station_name":"Klenderbaru","transit":false},{"i_long":106.922662,"i_lat":-6.215568,"station_id":"BUA","distance":1305,"is_transit":false,"time":1,"transit":false,"line":0,"station_name":"Buaran"},{"i_long":106.899548,"station_id":"KLD","line":1,"transit":false,"i_lat":-6.2135,"station_name":"Klender","is_transit":false,"time":2,"distance":3100},{"transit":true,"time":3,"is_transit":true,"distance":3395,"line":0,"station_id":"JNG","i_lat":-6.215091,"station_name":"Jatinegara","i_long":106.86807400000001},{"is_transit":false,"station_name":"Pondok Jati","station_id":"POK","time":2,"i_lat":-6.209188,"i_long":106.861737,"line":11,"transit":false,"distance":1236},{"time":2,"i_long":106.855437,"i_lat":-6.193792,"line":11,"distance":1829,"station_name":"Kramat","station_id":"KMT","transit":false,"is_transit":false},{"station_id":"GST","transit":false,"i_lat":-6.185975,"time":1,"i_long":106.850107,"is_transit":false,"line":11,"station_name":"Gang Sentiong","distance":973},{"i_lat":-6.174784,"i_long":106.84368,"line":11,"is_transit":false,"transit":false,"distance":1567,"time":8,"station_id":"PSE","station_name":"Pasar Senen"},{"i_lat":-6.161728,"line":11,"station_name":"Kemayoran","transit":false,"i_long":106.839204,"time":4,"distance":1436,"is_transit":false,"station_id":"KMO"},{"line":11,"station_id":"RJW","transit":false,"i_lat":-6.14505,"i_long":106.836569,"station_name":"Rajawali","distance":1901,"time":5,"is_transit":false},{"time":3,"station_name":"Kampung Bandan","distance":1444,"transit":true,"i_lat":-6.132549,"line":0,"is_transit":true,"station_id":"KPB","i_long":106.826365},{"transit":false,"station_name":"Angke","i_lat":-6.144674,"line":0,"time":9,"station_id":"AK","i_long":106.79867,"is_transit":false,"distance":4102},{"distance":1230,"station_id":"DU","transit":true,"line":1,"is_transit":true,"time":4,"i_lat":-6.155215,"i_long":106.800832,"station_name":"Duri"},{"station_name":"Tanah Abang","i_long":106.811091,"i_lat":-6.185545,"transit":false,"distance":3632,"time":8,"is_transit":true,"station_id":"THB","line":1}],[{"i_lat":-6.262938,"line":1,"i_long":107.093313,"distance":0,"transit":false,"time":0,"station_name":"Metland Telaga Murni","station_id":"TLM","is_transit":false},{"i_lat":-6.261877,"time":2,"line":0,"station_id":"CIT","transit":false,"i_long":107.083084,"distance":2800,"is_transit":false,"station_name":"Cibitung"},{"time":3,"i_lat":-6.258864,"is_transit":false,"line":1,"station_id":"TB","distance":3420,"station_name":"Tambun","transit":false,"i_long":107.055722},{"is_transit":false,"transit":false,"station_id":"BKST","i_lat":-6.248029,"distance":4460,"line":0,"i_long":107.016735,"time":7,"station_name":"Bekasi Timur"},{"i_lat":-6.236616,"line":0,"station_name":"Bekasi","time":2,"distance":2368,"station_id":"BKS","i_long":106.997013,"transit":false,"is_transit":false},{"station_id":"KRI","distance":2520,"line":1,"is_transit":false,"i_long":106.977657,"transit":false,"time":4,"station_name":"Kranji","i_lat":-6.224515},{"station_id":"CUK","distance":3097,"transit":false,"i_lat":-6.219053,"i_long":106.951283,"is_transit":false,"station_name":"Cakung","time":3,"line":0},{"time":8,"station_id":"KLDB","distance":1385,"transit":false,"i_lat":-6.217455,"station_name":"Klenderbaru","line":1,"is_transit":false,"i_long":106.939679},{"is_transit":false,"i_lat":-6.215568,"distance":1305,"i_long":106.922662,"transit":false,"station_name":"Buaran","line":0,"station_id":"BUA","time":1},{"transit":false,"station_id":"KLD","i_long":106.899548,"station_name":"Klender","time":2,"i_lat":-6.2135,"distance":3100,"line":1,"is_transit":false},{"i_lat":-6.215091,"i_long":106.86807400000001,"time":3,"station_id":"JNG","line":0,"is_transit":true,"station_name":"Jatinegara","transit":false,"distance":3395},{"station_id":"MTR","distance":1377,"i_long":106.858896,"line":1,"station_name":"Matraman","time":2,"transit":false,"i_lat":-6.212485,"is_transit":false},{"station_id":"MRI","is_transit":true,"time":2,"distance":1275,"line":0,"i_lat":-6.209883,"station_name":"Manggarai","transit":true,"i_long":106.84912},{"i_lat":-6.198556,"distance":1590,"station_id":"CKI","is_transit":false,"line":0,"station_name":"Cikini","transit":false,"i_long":106.840169,"time":4},{"station_id":"GDD","station_name":"Gondangdia","time":3,"distance":1750,"i_lat":-6.186295,"is_transit":false,"i_long":106.832183,"transit":false,"line":2},{"time":4,"is_transit":false,"i_lat":-6.166716,"i_long":106.828284,"station_name":"Juanda","transit":false,"distance":2015,"station_id":"JUA","line":2},{"transit":false,"is_transit":false,"station_id":"SW","line":2,"distance":1149,"time":2,"station_name":"Sawah Besar","i_lat":-6.160725,"i_long":106.827103},{"i_lat":-6.149769,"i_long":106.82482,"station_name":"Manggabesar","time":2,"distance":906,"station_id":"MGB","transit":false,"is_transit":false,"line":2},{"line":7,"transit":false,"time":2,"i_lat":-6.141205,"station_id":"JAY","distance":1080,"station_name":"Jayakarta","is_transit":false,"i_long":106.820901},{"i_long":106.812439,"time":4,"station_name":"Jakarta Kota","distance":1264,"transit":true,"i_lat":-6.137569,"is_transit":true,"line":0,"station_id":"JAKK"},{"i_lat":-6.132549,"i_long":106.826365,"time":3,"station_name":"Kampung Bandan","is_transit":true,"transit":false,"line":0,"distance":1364,"station_id":"KPB"},{"station_name":"Angke","is_transit":false,"time":9,"line":0,"distance":4102,"transit":false,"i_long":106.79867,"i_lat":-6.144674,"station_id":"AK"},{"i_lat":-6.155215,"station_name":"Duri","i_long":106.800832,"is_transit":true,"station_id":"DU","time":4,"line":1,"distance":1230,"transit":true},{"i_lat":-6.185545,"station_id":"THB","distance":3632,"transit":false,"station_name":"Tanah Abang","time":8,"is_transit":true,"line":1,"i_long":106.811091}],[{"time":0,"station_name":"Metland Telaga Murni","is_transit":false,"station_id":"TLM","distance":0,"i_lat":-6.262938,"transit":false,"i_long":107.093313,"line":1},{"station_name":"Cibitung","distance":2800,"station_id":"CIT","line":0,"is_transit":false,"transit":false,"time":2,"i_lat":-6.261877,"i_long":107.083084},{"distance":3420,"station_id":"TB","i_lat":-6.258864,"time":3,"transit":false,"line":1,"is_transit":false,"station_name":"Tambun","i_long":107.055722},{"i_lat":-6.248029,"time":7,"station_name":"Bekasi Timur","is_transit":false,"line":0,"distance":4460,"station_id":"BKST","transit":false,"i_long":107.016735},{"i_long":106.997013,"line":0,"distance":2368,"time":2,"is_transit":false,"transit":false,"station_name":"Bekasi","station_id":"BKS","i_lat":-6.236616},{"i_long":106.977657,"is_transit":false,"station_id":"KRI","line":1,"time":4,"transit":false,"station_name":"Kranji","i_lat":-6.224515,"distance":2520},{"station_name":"Cakung","is_transit":false,"i_lat":-6.219053,"time":3,"distance":3097,"transit":false,"i_long":106.951283,"station_id":"CUK","line":0},{"i_lat":-6.217455,"line":1,"distance":1385,"station_id":"KLDB","station_name":"Klenderbaru","is_transit":false,"i_long":106.939679,"time":8,"transit":false},{"line":0,"i_long":106.922662,"station_name":"Buaran","station_id":"BUA","is_transit":false,"i_lat":-6.215568,"distance":1305,"transit":false,"time":1},{"time":2,"station_id":"KLD","i_long":106.899548,"station_name":"Klender","is_transit":false,"transit":false,"distance":3100,"line":1,"i_lat":-6.2135},{"line":0,"station_name":"Jatinegara","is_transit":true,"transit":true,"distance":3395,"station_id":"JNG","i_lat":-6.215091,"i_long":106.86807400000001,"time":3},{"station_name":"Pondok Jati","time":2,"is_transit":false,"transit":false,"i_lat":-6.209188,"i_long":106.861737,"distance":1236,"line":11,"station_id":"POK"},{"transit":false,"i_lat":-6.193792,"distance":1829,"station_name":"Kramat","time":2,"i_long":106.855437,"line":11,"is_transit":false,"station_id":"KMT"},{"station_id":"GST","i_lat":-6.185975,"i_long":106.850107,"line":11,"distance":973,"station_name":"Gang Sentiong","transit":false,"time":1,"is_transit":false},{"transit":false,"distance":1567,"is_transit":false,"i_long":106.84368,"station_name":"Pasar Senen","line":11,"i_lat":-6.174784,"station_id":"PSE","time":8},{"station_id":"KMO","distance":1436,"i_long":106.839204,"time":4,"i_lat":-6.161728,"transit":false,"line":11,"station_name":"Kemayoran","is_transit":false},{"station_id":"RJW","time":5,"transit":false,"i_lat":-6.14505,"line":11,"i_long":106.836569,"station_name":"Rajawali","distance":1901,"is_transit":false},{"distance":1444,"station_name":"Kampung Bandan","is_transit":true,"station_id":"KPB","transit":true,"i_lat":-6.132549,"time":3,"i_long":106.826365,"line":0},{"is_transit":true,"station_id":"JAKK","transit":true,"time":3,"i_lat":-6.137569,"distance":1364,"station_name":"Jakarta Kota","i_long":106.812439,"line":0},{"i_lat":-6.141205,"is_transit":false,"transit":false,"time":4,"station_name":"Jayakarta","i_long":106.820901,"line":7,"station_id":"JAY","distance":1264},{"transit":false,"time":2,"is_transit":false,"i_long":106.82482,"station_name":"Manggabesar","distance":1080,"line":2,"i_lat":-6.149769,"station_id":"MGB"},{"time":2,"is_transit":false,"transit":false,"station_id":"SW","i_long":106.827103,"line":2,"i_lat":-6.160725,"station_name":"Sawah Besar","distance":906},{"is_transit":false,"station_id":"JUA","transit":false,"distance":1149,"line":2,"station_name":"Juanda","time":2,"i_lat":-6.166716,"i_long":106.828284},{"transit":false,"time":4,"i_long":106.832183,"distance":2015,"station_name":"Gondangdia","is_transit":false,"station_id":"GDD","i_lat":-6.186295,"line":2},{"station_id":"CKI","station_name":"Cikini","i_lat":-6.198556,"time":3,"distance":1750,"i_long":106.840169,"transit":false,"is_transit":false,"line":0},{"line":0,"time":4,"transit":true,"distance":1590,"i_lat":-6.209883,"station_id":"MRI","i_long":106.84912,"station_name":"Manggarai","is_transit":true},{"is_transit":false,"i_lat":-6.202263,"i_long":106.822649,"station_name":"Sudirman","line":1,"transit":false,"station_id":"SUD","time":4,"distance":3186},{"is_transit":false,"transit":false,"i_long":106.819881,"station_name":"Sudirman Baru","i_lat":-6.201433,"line":1,"station_id":"SUDB","distance":280,"time":1},{"transit":false,"is_transit":false,"distance":471,"station_id":"KAT","i_lat":-6.20132,"i_long":106.816351,"line":1,"station_name":"Karet","time":1},{"line":1,"i_lat":-6.185545,"station_name":"Tanah Abang","time":5,"station_id":"THB","is_transit":true,"distance":2029,"transit":false,"i_long":106.811091}]]}