{"data":[[{"i_lat":-6.262938,"is_transit":false,"time":0,"transit":false,"line":1,"station_id":"TLM","i_long":107.093313,"station_name":"Metland Telaga Murni","distance":0},{"station_name":"Cibitung","transit":false,"is_transit":false,"time":2,"i_lat":-6.261877,"station_id":"CIT","i_long":107.083084,"distance":2800,"line":1},{"station_id":"TB","station_name":"Tambun","i_lat":-6.258864,"i_long":107.055722,"transit":false,"line":1,"time":3,"distance":3420,"is_transit":false},{"transit":false,"distance":4460,"is_transit":false,"time":7,"i_lat":-6.248029,"station_id":"BKST","station_name":"Bekasi Timur","i_long":107.016735,"line":1},{"is_transit":false,"station_name":"Bekasi","time":2,"i_lat":-6.236616,"distance":2368,"i_long":106.997013,"line":1,"transit":false,"station_id":"BKS"},{"station_name":"Kranji","i_lat":-6.224515,"station_id":"KRI","time":4,"is_transit":false,"transit":false,"line":1,"i_long":106.977657,"distance":2520},{"transit":false,"distance":3097,"station_id":"CUK","time":3,"station_name":"Cakung","is_transit":false,"i_lat":-6.219053,"i_long":106.951283,"line":1},{"transit":false,"station_id":"KLDB","time":8,"i_long":106.939679,"is_transit":false,"i_lat":-6.217455,"distance":1385,"station_name":"Klenderbaru","line":1},{"i_lat":-6.215568,"transit":false,"distance":1305,"station_id":"BUA","i_long":106.922662,"time":1,"station_name":"Buaran","is_transit":false,"line":1},{"station_id":"KLD","line":1,"is_transit":false,"time":2,"station_name":"Klender","distance":3100,"i_lat":-6.2135,"transit":false,"i_long":106.899548},{"station_name":"Jatinegara","station_id":"JNG","i_lat":-6.215091,"transit":false,"is_transit":false,"distance":3395,"i_long":106.86807400000001,"time":3,"line":1},{"station_id":"MTR","station_name":"Matraman","line":1,"i_lat":-6.212485,"transit":false,"distance":1377,"i_long":106.858896,"is_transit":false,"time":2},{"is_transit":false,"line":2,"i_lat":-6.209883,"distance":1275,"i_long":106.84912,"transit":false,"station_id":"MRI","time":2,"station_name":"Manggarai"},{"distance":3186,"transit":false,"i_long":106.822649,"i_lat":-6.202263,"station_id":"SUD","station_name":"Sudirman","line":1,"is_transit":false,"time":4},{"station_id":"SUDB","is_transit":false,"station_name":"Sudirman Baru","i_long":106.819881,"transit":false,"distance":280,"time":1,"i_lat":-6.201433,"line":1},{"distance":471,"i_long":106.816351,"i_lat":-6.20132,"station_id":"KAT","is_transit":false,"transit":false,"time":1,"station_name":"Karet","line":1},{"i_long":106.811091,"station_name":"Tanah Abang","i_lat":-6.185545,"distance":2029,"station_id":"THB","transit":false,"is_transit":false,"time":5,"line":1},{"distance":3632,"i_lat":-6.155215,"time":8,"station_name":"Duri","transit":true,"station_id":"DU","is_transit":true,"i_long":106.800832,"line":1},{"transit":false,"station_id":"GRG","line":5,"is_transit":false,"station_name":"Grogol","time":3,"distance":1700,"i_lat":-6.162021,"i_long":106.788277},{"transit":false,"distance":2036,"station_id":"PSG","time":2,"is_transit":false,"i_long":106.771379,"line":5,"station_name":"Pesing","i_lat":-6.161433},{"i_long":106.756522,"time":2,"is_transit":false,"transit":false,"distance":1614,"station_name":"Taman Kota","station_id":"TKO","line":5,"i_lat":-6.1587309999999995},{"distance":2334,"line":5,"transit":false,"is_transit":false,"time":2,"station_id":"BOI","station_name":"Bojongindah","i_lat":-6.159876,"i_long":106.737035},{"i_long":106.723064,"transit":false,"time":4,"line":5,"station_id":"RW","i_lat":-6.162758,"distance":1152,"is_transit":false,"station_name":"Rawa Buaya"},{"station_id":"KDS","distance":2504,"i_lat":-6.166068,"line":5,"station_name":"Kalideres","is_transit":false,"transit":false,"time":3,"i_long":106.701612},{"transit":false,"is_transit":false,"time":3,"i_lat":-6.169933,"station_id":"PI","station_name":"Poris","line":5,"distance":2548,"i_long":106.679458},{"station_name":"Batuceper","station_id":"BPR","i_long":106.665036,"line":5,"time":3,"transit":false,"is_transit":false,"i_lat":-6.171811,"distance":1834},{"is_transit":false,"distance":2028,"station_name":"Tanah Tinggi","i_long":106.64657,"line":5,"station_id":"THI","time":3,"i_lat":-6.17331,"transit":false}],[{"line":1,"time":0,"transit":false,"station_id":"TLM","i_lat":-6.262938,"is_transit":false,"station_name":"Metland Telaga Murni","i_long":107.093313,"distance":0},{"i_long":107.083084,"distance":2800,"line":1,"station_id":"CIT","station_name":"Cibitung","i_lat":-6.261877,"transit":false,"is_transit":false,"time":2},{"is_transit":false,"transit":false,"time":3,"distance":3420,"station_name":"Tambun","station_id":"TB","i_lat":-6.258864,"i_long":107.055722,"line":1},{"line":1,"transit":false,"station_id":"BKST","station_name":"Bekasi Timur","distance":4460,"is_transit":false,"time":7,"i_lat":-6.248029,"i_long":107.016735},{"i_lat":-6.236616,"distance":2368,"time":2,"i_long":106.997013,"transit":false,"station_name":"Bekasi","line":1,"station_id":"BKS","is_transit":false},{"station_id":"KRI","is_transit":false,"time":4,"line":1,"station_name":"Kranji","distance":2520,"i_lat":-6.224515,"i_long":106.977657,"transit":false},{"transit":false,"i_long":106.951283,"station_id":"CUK","i_lat":-6.219053,"is_transit":false,"time":3,"distance":3097,"station_name":"Cakung","line":1},{"station_name":"Klenderbaru","transit":false,"i_lat":-6.217455,"distance":1385,"line":1,"is_transit":false,"time":8,"i_long":106.939679,"station_id":"KLDB"},{"i_lat":-6.215568,"i_long":106.922662,"transit":false,"station_name":"Buaran","line":1,"is_transit":false,"distance":1305,"station_id":"BUA","time":1},{"i_long":106.899548,"i_lat":-6.2135,"is_transit":false,"station_id":"KLD","station_name":"Klender","line":1,"transit":false,"distance":3100,"time":2},{"is_transit":true,"i_long":106.86807400000001,"station_id":"JNG","distance":3395,"i_lat":-6.215091,"line":1,"station_name":"Jatinegara","time":3,"transit":true},{"distance":1236,"i_lat":-6.209188,"station_id":"POK","time":2,"transit":false,"is_transit":false,"station_name":"Pondok Jati","line":11,"i_long":106.861737},{"time":2,"i_long":106.855437,"is_transit":false,"station_id":"KMT","i_lat":-6.193792,"station_name":"Kramat","line":11,"distance":1829,"transit":false},{"transit":false,"station_name":"Gang Sentiong","i_lat":-6.185975,"i_long":106.850107,"is_transit":false,"time":1,"line":11,"distance":973,"station_id":"GST"},{"line":11,"i_lat":-6.174784,"transit":false,"is_transit":false,"station_id":"PSE","station_name":"Pasar Senen","time":8,"i_long":106.84368,"distance":1567},{"i_lat":-6.161728,"is_transit":false,"i_long":106.839204,"time":4,"station_name":"Kemayoran","transit":false,"line":11,"distance":1436,"station_id":"KMO"},{"line":11,"station_id":"RJW","is_transit":false,"station_name":"Rajawali","i_lat":-6.14505,"distance":1901,"time":5,"i_long":106.836569,"transit":false},{"line":4,"station_id":"KPB","distance":1444,"is_transit":true,"i_lat":-6.132549,"transit":true,"time":3,"station_name":"Kampung Bandan","i_long":106.826365},{"i_lat":-6.144674,"is_transit":false,"i_long":106.79867,"line":1,"station_id":"AK","time":9,"station_name":"Angke","transit":false,"distance":4102},{"i_lat":-6.155215,"is_transit":true,"station_id":"DU","distance":1230,"station_name":"Duri","i_long":106.800832,"time":4,"transit":true,"line":1},{"is_transit":false,"i_lat":-6.162021,"station_name":"Grogol","i_long":106.788277,"distance":1700,"line":5,"station_id":"GRG","time":3,"transit":false},{"distance":2036,"transit":false,"station_name":"Pesing","i_lat":-6.161433,"time":2,"i_long":106.771379,"line":5,"is_transit":false,"station_id":"PSG"},{"station_name":"Taman Kota","i_long":106.756522,"distance":1614,"is_transit":false,"i_lat":-6.1587309999999995,"time":2,"station_id":"TKO","line":5,"transit":false},{"is_transit":false,"distance":2334,"station_id":"BOI","time":2,"i_long":106.737035,"station_name":"Bojongindah","i_lat":-6.159876,"line":5,"transit":false},{"i_lat":-6.162758,"distance":1152,"line":5,"time":4,"transit":false,"i_long":106.723064,"is_transit":false,"station_id":"RW","station_name":"Rawa Buaya"},{"station_name":"Kalideres","is_transit":false,"i_lat":-6.166068,"distance":2504,"line":5,"i_long":106.701612,"station_id":"KDS","time":3,"transit":false},{"line":5,"time":3,"distance":2548,"i_lat":-6.169933,"is_transit":false,"station_name":"Poris","i_long":106.679458,"transit":false,"station_id":"PI"},{"i_lat":-6.171811,"transit":false,"i_long":106.665036,"distance":1834,"is_transit":false,"time":3,"line":5,"station_name":"Batuceper","station_id":"BPR"},{"is_transit":false,"i_long":106.64657,"time":3,"station_id":"THI","station_name":"Tanah Tinggi","transit":false,"distance":2028,"i_lat":-6.17331,"line":5}],[{"station_id":"TLM","i_lat":-6.262938,"station_name":"Metland Telaga Murni","transit":false,"distance":0,"i_long":107.093313,"time":0,"line":1,"is_transit":false},{"is_transit":false,"distance":2800,"station_name":"Cibitung","i_lat":-6.261877,"station_id":"CIT","time":2,"i_long":107.083084,"line":1,"transit":false},{"i_long":107.055722,"is_transit":false,"station_id":"TB","line":1,"i_lat":-6.258864,"distance":3420,"time":3,"station_name":"Tambun","transit":false},{"distance":4460,"line":1,"transit":false,"is_transit":false,"time":7,"station_id":"BKST","station_name":"Bekasi Timur","i_lat":-6.248029,"i_long":107.016735},{"station_id":"BKS","transit":false,"is_transit":false,"time":2,"line":1,"i_lat":-6.236616,"i_long":106.997013,"distance":2368,"station_name":"Bekasi"},{"is_transit":false,"transit":false,"time":4,"i_lat":-6.224515,"i_long":106.977657,"distance":2520,"station_id":"KRI","line":1,"station_name":"Kranji"},{"is_transit":false,"station_name":"Cakung","transit":false,"station_id":"CUK","distance":3097,"i_lat":-6.219053,"i_long":106.951283,"line":1,"time":3},{"is_transit":false,"station_id":"KLDB","station_name":"Klenderbaru","time":8,"line":1,"distance":1385,"transit":false,"i_long":106.939679,"i_lat":-6.217455},{"distance":1305,"station_id":"BUA","is_transit":false,"i_long":106.922662,"i_lat":-6.215568,"line":1,"transit":false,"station_name":"Buaran","time":1},{"distance":3100,"i_long":106.899548,"i_lat":-6.2135,"station_name":"Klender","time":2,"station_id":"KLD","is_transit":false,"transit":false,"line":1},{"station_name":"Jatinegara","line":1,"i_lat":-6.215091,"transit":false,"distance":3395,"station_id":"JNG","time":3,"is_transit":false,"i_long":106.86807400000001},{"distance":1377,"station_id":"MTR","line":1,"station_name":"Matraman","i_long":106.858896,"transit":false,"time":2,"i_lat":-6.212485,"is_transit":false},{"station_name":"Manggarai","is_transit":true,"i_long":106.84912,"line":2,"distance":1275,"station_id":"MRI","time":2,"transit":true,"i_lat":-6.209883},{"is_transit":false,"station_name":"Cikini","i_lat":-6.198556,"time":4,"line":2,"i_long":106.840169,"transit":false,"distance":1590,"station_id":"CKI"},{"distance":1750,"is_transit":false,"time":3,"line":2,"transit":false,"station_id":"GDD","station_name":"Gondangdia","i_lat":-6.186295,"i_long":106.832183},{"station_id":"JUA","is_transit":false,"station_name":"Juanda","i_long":106.828284,"distance":2015,"time":4,"line":2,"i_lat":-6.166716,"transit":false},{"transit":false,"station_id":"SW","distance":1149,"is_transit":false,"station_name":"Sawah Besar","i_lat":-6.160725,"line":2,"time":2,"i_long":106.827103},{"station_name":"Manggabesar","i_lat":-6.149769,"i_long":106.82482,"line":2,"distance":906,"station_id":"MGB","transit":false,"time":2,"is_transit":false},{"station_id":"JAY","distance":1080,"time":2,"station_name":"Jayakarta","i_lat":-6.141205,"is_transit":false,"transit":false,"line":2,"i_long":106.820901},{"is_transit":true,"line":2,"station_id":"JAKK","transit":true,"time":4,"distance":1264,"station_name":"Jakarta Kota","i_lat":-6.137569,"i_long":106.812439},{"i_long":106.826365,"line":4,"transit":true,"distance":1364,"i_lat":-6.132549,"time":3,"station_name":"Kampung Bandan","station_id":"KPB","is_transit":true},{"station_id":"AK","line":1,"i_lat":-6.144674,"is_transit":false,"station_name":"Angke","distance":4102,"transit":false,"time":9,"i_long":106.79867},{"station_id":"DU","is_transit":true,"i_lat":-6.155215,"transit":true,"line":1,"time":4,"station_name":"Duri","i_long":106.800832,"distance":1230},{"distance":1700,"station_id":"GRG","is_transit":false,"station_name":"Grogol","i_long":106.788277,"transit":false,"line":5,"time":3,"i_lat":-6.162021},{"i_lat":-6.161433,"distance":2036,"is_transit":false,"station_id":"PSG","transit":false,"time":2,"i_long":106.771379,"line":5,"station_name":"Pesing"},{"i_long":106.756522,"distance":1614,"station_id":"TKO","time":2,"station_name":"Taman Kota","i_lat":-6.1587309999999995,"transit":false,"line":5,"is_transit":false},{"station_name":"Bojongindah","i_lat":-6.159876,"time":2,"is_transit":false,"i_long":106.737035,"distance":2334,"transit":false,"station_id":"BOI","line":5},{"time":4,"line":5,"station_name":"Rawa Buaya","i_long":106.723064,"distance":1152,"station_id":"RW","is_transit":false,"transit":false,"i_lat":-6.162758},{"time":3,"station_name":"Kalideres","i_lat":-6.166068,"station_id":"KDS","i_long":106.701612,"line":5,"distance":2504,"is_transit":false,"transit":false},{"station_id":"PI","is_transit":false,"transit":false,"time":3,"i_lat":-6.169933,"i_long":106.679458,"distance":2548,"station_name":"Poris","line":5},{"distance":1834,"station_id":"BPR","station_name":"Batuceper","i_lat":-6.171811,"i_long":106.665036,"transit":false,"is_transit":false,"time":3,"line":5},{"transit":false,"is_transit":false,"line":5,"station_name":"Tanah Tinggi","i_lat":-6.17331,"time":3,"distance":2028,"i_long":106.64657,"station_id":"THI"}],[{"station_name":"Metland Telaga Murni","i_long":107.093313,"line":1,"i_lat":-6.262938,"time":0,"station_id":"TLM","distance":0,"is_transit":false,"transit":false},{"i_lat":-6.261877,"i_long":107.083084,"line":1,"station_name":"Cibitung","transit":false,"distance":2800,"station_id":"CIT","time":2,"is_transit":false},{"distance":3420,"i_long":107.055722,"line":1,"i_lat":-6.258864,"station_name":"Tambun","transit":false,"station_id":"TB","is_transit":false,"time":3},{"distance":4460,"station_id":"BKST","transit":false,"station_name":"Bekasi Timur","i_long":107.016735,"i_lat":-6.248029,"line":1,"time":7,"is_transit":false},{"line":1,"station_id":"BKS","time":2,"station_name":"Bekasi","i_lat":-6.236616,"is_transit":false,"i_long":106.997013,"distance":2368,"transit":false},{"distance":2520,"station_name":"Kranji","i_long":106.977657,"line":1,"is_transit":false,"station_id":"KRI","time":4,"i_lat":-6.224515,"transit":false},{"time":3,"station_id":"CUK","transit":false,"i_lat":-6.219053,"distance":3097,"line":1,"station_name":"Cakung","i_long":106.951283,"is_transit":false},{"station_id":"KLDB","time":8,"station_name":"Klenderbaru","i_long":106.939679,"i_lat":-6.217455,"transit":false,"line":1,"is_transit":false,"distance":1385},{"distance":1305,"station_id":"BUA","time":1,"is_transit":false,"station_name":"Buaran","transit":false,"i_lat":-6.215568,"i_long":106.922662,"line":1},{"is_transit":false,"i_lat":-6.2135,"distance":3100,"station_name":"Klender","transit":false,"i_long":106.899548,"line":1,"time":2,"station_id":"KLD"},{"time":3,"distance":3395,"station_name":"Jatinegara","line":1,"transit":true,"i_long":106.86807400000001,"is_transit":true,"i_lat":-6.215091,"station_id":"JNG"},{"distance":1236,"time":2,"transit":false,"station_name":"Pondok Jati","i_lat":-6.209188,"i_long":106.861737,"line":11,"station_id":"POK","is_transit":false},{"i_long":106.855437,"station_name":"Kramat","distance":1829,"line":11,"station_id":"KMT","is_transit":false,"time":2,"transit":false,"i_lat":-6.193792},{"transit":false,"station_name":"Gang Sentiong","distance":973,"time":1,"station_id":"GST","i_lat":-6.185975,"i_long":106.850107,"line":11,"is_transit":false},{"distance":1567,"time":8,"is_transit":false,"line":11,"i_long":106.84368,"i_lat":-6.174784,"station_id":"PSE","station_name":"Pasar Senen","transit":false},{"i_long":106.839204,"line":11,"i_lat":-6.161728,"distance":1436,"station_id":"KMO","time":4,"station_name":"Kemayoran","is_transit":false,"transit":false},{"transit":false,"line":11,"i_lat":-6.14505,"i_long":106.836569,"station_name":"Rajawali","distance":1901,"is_transit":false,"time":5,"station_id":"RJW"},{"is_transit":true,"distance":1444,"i_lat":-6.132549,"transit":true,"station_name":"Kampung Bandan","station_id":"KPB","time":3,"line":4,"i_long":106.826365},{"distance":1364,"transit":true,"i_lat":-6.137569,"time":3,"line":2,"station_name":"Jakarta Kota","i_long":106.812439,"station_id":"JAKK","is_transit":true},{"i_lat":-6.141205,"line":2,"transit":false,"station_name":"Jayakarta","distance":1264,"i_long":106.820901,"time":4,"is_transit":false,"station_id":"JAY"},{"distance":1080,"is_transit":false,"station_id":"MGB","time":2,"i_lat":-6.149769,"i_long":106.82482,"line":2,"station_name":"Manggabesar","transit":false},{"distance":906,"station_name":"Sawah Besar","time":2,"i_long":106.827103,"is_transit":false,"transit":false,"line":2,"i_lat":-6.160725,"station_id":"SW"},{"i_long":106.828284,"time":2,"station_name":"Juanda","line":2,"transit":false,"is_transit":false,"distance":1149,"i_lat":-6.166716,"station_id":"JUA"},{"station_id":"GDD","distance":2015,"station_name":"Gondangdia","i_lat":-6.186295,"transit":false,"is_transit":false,"i_long":106.832183,"line":2,"time":4},{"is_transit":false,"station_id":"CKI","line":2,"i_lat":-6.198556,"i_long":106.840169,"time":3,"station_name":"Cikini","transit":false,"distance":1750},{"distance":1590,"time":4,"i_lat":-6.209883,"line":2,"transit":true,"i_long":106.84912,"station_id":"MRI","is_transit":true,"station_name":"Manggarai"},{"i_lat":-6.202263,"line":1,"i_long":106.822649,"is_transit":false,"distance":3186,"station_id":"SUD","time":4,"station_name":"Sudirman","transit":false},{"station_id":"SUDB","transit":false,"distance":280,"is_transit":false,"i_lat":-6.201433,"station_name":"Sudirman Baru","i_long":106.819881,"line":1,"time":1},{"i_long":106.816351,"station_name":"Karet","station_id":"KAT","is_transit":false,"transit":false,"line":1,"distance":471,"time":1,"i_lat":-6.20132},{"i_lat":-6.185545,"i_long":106.811091,"line":1,"transit":false,"is_transit":false,"station_id":"THB","distance":2029,"time":5,"station_name":"Tanah Abang"},{"time":8,"i_lat":-6.155215,"transit":true,"is_transit":true,"distance":3632,"station_name":"Duri","station_id":"DU","i_long":106.800832,"line":1},{"station_id":"GRG","distance":1700,"transit":false,"i_long":106.788277,"i_lat":-6.162021,"is_transit":false,"station_name":"Grogol","time":3,"line":5},{"station_id":"PSG","i_long":106.771379,"is_transit":false,"i_lat":-6.161433,"transit":false,"station_name":"Pesing","time":2,"line":5,"distance":2036},{"station_id":"TKO","time":2,"station_name":"Taman Kota","i_long":106.756522,"distance":1614,"is_transit":false,"transit":false,"i_lat":-6.1587309999999995,"line":5},{"time":2,"i_long":106.737035,"i_lat":-6.159876,"transit":false,"is_transit":false,"station_name":"Bojongindah","line":5,"distance":2334,"station_id":"BOI"},{"station_id":"RW","is_transit":false,"station_name":"Rawa Buaya","i_lat":-6.162758,"distance":1152,"time":4,"i_long":106.723064,"line":5,"transit":false},{"station_name":"Kalideres","line":5,"station_id":"KDS","transit":false,"time":3,"distance":2504,"is_transit":false,"i_lat":-6.166068,"i_long":106.701612},{"time":3,"is_transit":false,"distance":2548,"i_lat":-6.169933,"station_name":"Poris","i_long":106.679458,"transit":false,"station_id":"PI","line":5},{"line":5,"i_long":106.665036,"is_transit":false,"i_lat":-6.171811,"transit":false,"distance":1834,"time":3,"station_name":"Batuceper","station_id":"BPR"},{"distance":2028,"time":3,"station_id":"THI","station_name":"Tanah Tinggi","transit":false,"i_lat":-6.17331,"is_transit":false,"i_long":106.64657,"line":5}]]}