{"data":[[{"i_lat":-6.262938,"i_long":107.093313,"line":1,"is_transit":false,"time":0,"transit":false,"station_name":"Metland Telaga Murni","station_id":"TLM","distance":0},{"is_transit":false,"i_lat":-6.261877,"time":2,"distance":2800,"i_long":107.083084,"line":0,"station_id":"CIT","transit":false,"station_name":"Cibitung"},{"distance":3420,"i_long":107.055722,"station_name":"Tambun","station_id":"TB","is_transit":false,"time":3,"transit":false,"line":1,"i_lat":-6.258864},{"is_transit":false,"distance":4460,"i_long":107.016735,"i_lat":-6.248029,"time":7,"transit":false,"line":0,"station_id":"BKST","station_name":"Bekasi Timur"},{"distance":2368,"time":2,"transit":false,"i_long":106.997013,"station_name":"Bekasi","is_transit":false,"line":0,"station_id":"BKS","i_lat":-6.236616},{"is_transit":false,"distance":2520,"i_long":106.977657,"line":1,"i_lat":-6.224515,"transit":false,"station_name":"Kranji","time":4,"station_id":"KRI"},{"station_name":"Cakung","line":0,"transit":false,"i_long":106.951283,"is_transit":false,"i_lat":-6.219053,"station_id":"CUK","time":3,"distance":3097},{"distance":1385,"station_name":"Klenderbaru","time":8,"is_transit":false,"line":1,"transit":false,"station_id":"KLDB","i_lat":-6.217455,"i_long":106.939679},{"i_long":106.922662,"transit":false,"station_id":"BUA","line":0,"station_name":"Buaran","time":1,"i_lat":-6.215568,"is_transit":false,"distance":1305},{"is_transit":false,"time":2,"distance":3100,"i_lat":-6.2135,"i_long":106.899548,"transit":false,"line":1,"station_id":"KLD","station_name":"Klender"},{"distance":3395,"transit":true,"is_transit":true,"i_lat":-6.215091,"station_name":"Jatinegara","i_long":106.86807400000001,"line":0,"time":3,"station_id":"JNG"},{"is_transit":false,"time":2,"distance":1236,"i_lat":-6.209188,"line":11,"station_id":"POK","station_name":"Pondok Jati","transit":false,"i_long":106.861737},{"distance":1829,"is_transit":false,"i_lat":-6.193792,"i_long":106.855437,"time":2,"station_id":"KMT","station_name":"Kramat","line":11,"transit":false}],[{"time":0,"station_name":"Metland Telaga Murni","i_lat":-6.262938,"station_id":"TLM","distance":0,"line":1,"i_long":107.093313,"transit":false,"is_transit":false},{"distance":2800,"station_id":"CIT","i_lat":-6.261877,"i_long":107.083084,"transit":false,"station_name":"Cibitung","is_transit":false,"time":2,"line":0},{"station_id":"TB","time":3,"distance":3420,"i_long":107.055722,"line":1,"station_name":"Tambun","is_transit":false,"i_lat":-6.258864,"transit":false},{"time":7,"station_name":"Bekasi Timur","distance":4460,"is_transit":false,"station_id":"BKST","transit":false,"i_lat":-6.248029,"line":0,"i_long":107.016735},{"i_long":106.997013,"time":2,"i_lat":-6.236616,"transit":false,"line":0,"station_name":"Bekasi","is_transit":false,"station_id":"BKS","distance":2368},{"station_id":"KRI","is_transit":false,"distance":2520,"station_name":"Kranji","transit":false,"i_lat":-6.224515,"i_long":106.977657,"line":1,"time":4},{"is_transit":false,"station_name":"Cakung","transit":false,"distance":3097,"time":3,"station_id":"CUK","i_long":106.951283,"i_lat":-6.219053,"line":0},{"i_lat":-6.217455,"line":1,"station_id":"KLDB","is_transit":false,"station_name":"Klenderbaru","distance":1385,"time":8,"transit":false,"i_long":106.939679},{"i_long":106.922662,"is_transit":false,"time":1,"i_lat":-6.215568,"line":0,"distance":1305,"transit":false,"station_name":"Buaran","station_id":"BUA"},{"line":1,"is_transit":false,"transit":false,"time":2,"i_lat":-6.2135,"station_id":"KLD","station_name":"Klender","distance":3100,"i_long":106.899548},{"station_name":"Jatinegara","transit":false,"i_long":106.86807400000001,"distance":3395,"i_lat":-6.215091,"station_id":"JNG","is_transit":true,"line":0,"time":3},{"transit":false,"station_id":"MTR","is_transit":false,"station_name":"Matraman","distance":1377,"i_lat":-6.212485,"i_long":106.858896,"line":1,"time":2},{"i_lat":-6.209883,"station_id":"MRI","station_name":"Manggarai","distance":1275,"i_long":106.84912,"time":2,"is_transit":true,"transit":false,"line":0},{"distance":3186,"is_transit":false,"station_name":"Sudirman","time":4,"i_lat":-6.202263,"line":1,"station_id":"SUD","transit":false,"i_long":106.822649},{"is_transit":false,"i_long":106.819881,"line":1,"time":1,"transit":false,"i_lat":-6.201433,"station_name":"Sudirman Baru","station_id":"SUDB","distance":280},{"line":1,"distance":471,"transit":false,"i_long":106.816351,"station_name":"Karet","i_lat":-6.20132,"station_id":"KAT","is_transit":false,"time":1},{"transit":false,"i_lat":-6.185545,"i_long":106.811091,"station_id":"THB","is_transit":true,"distance":2029,"line":1,"time":5,"station_name":"Tanah Abang"},{"station_id":"DU","is_transit":true,"station_name":"Duri","i_long":106.800832,"time":8,"transit":true,"i_lat":-6.155215,"line":1,"distance":3632},{"distance":1230,"time":4,"station_name":"Angke","station_id":"AK","i_lat":-6.144674,"i_long":106.79867,"line":0,"is_transit":false,"transit":false},{"time":9,"station_name":"Kampung Bandan","distance":4102,"is_transit":true,"line":0,"station_id":"KPB","i_long":106.826365,"transit":true,"i_lat":-6.132549},{"station_name":"Rajawali","distance":1444,"transit":false,"i_lat":-6.14505,"line":11,"station_id":"RJW","is_transit":false,"time":3,"i_long":106.836569},{"is_transit":false,"i_long":106.839204,"line":11,"transit":false,"distance":1901,"i_lat":-6.161728,"time":5,"station_id":"KMO","station_name":"Kemayoran"},{"distance":1436,"station_name":"Pasar Senen","time":4,"is_transit":false,"transit":false,"i_lat":-6.174784,"line":11,"station_id":"PSE","i_long":106.84368},{"is_transit":false,"transit":false,"station_name":"Gang Sentiong","station_id":"GST","distance":1567,"line":11,"i_long":106.850107,"time":8,"i_lat":-6.185975},{"line":11,"i_long":106.855437,"time":1,"station_id":"KMT","distance":973,"i_lat":-6.193792,"station_name":"Kramat","is_transit":false,"transit":false}],[{"transit":false,"is_transit":false,"time":0,"station_name":"Metland Telaga Murni","line":1,"station_id":"TLM","i_long":107.093313,"distance":0,"i_lat":-6.262938},{"time":2,"line":0,"station_name":"Cibitung","i_lat":-6.261877,"i_long":107.083084,"station_id":"CIT","transit":false,"is_transit":false,"distance":2800},{"station_name":"Tambun","i_long":107.055722,"station_id":"TB","time":3,"i_lat":-6.258864,"transit":false,"line":1,"is_transit":false,"distance":3420},{"station_name":"Bekasi Timur","i_long":107.016735,"distance":4460,"station_id":"BKST","line":0,"is_transit":false,"time":7,"transit":false,"i_lat":-6.248029},{"time":2,"station_id":"BKS","i_long":106.997013,"station_name":"Bekasi","i_lat":-6.236616,"transit":false,"is_transit":false,"distance":2368,"line":0},{"station_id":"KRI","station_name":"Kranji","is_transit":false,"i_lat":-6.224515,"i_long":106.977657,"time":4,"line":1,"distance":2520,"transit":false},{"transit":false,"i_lat":-6.219053,"time":3,"line":0,"station_name":"Cakung","i_long":106.951283,"is_transit":false,"station_id":"CUK","distance":3097},{"station_id":"KLDB","transit":false,"line":1,"is_transit":false,"time":8,"i_lat":-6.217455,"i_long":106.939679,"distance":1385,"station_name":"Klenderbaru"},{"time":1,"station_id":"BUA","i_long":106.922662,"i_lat":-6.215568,"distance":1305,"station_name":"Buaran","is_transit":false,"transit":false,"line":0},{"station_id":"KLD","distance":3100,"station_name":"Klender","transit":false,"i_lat":-6.2135,"line":1,"i_long":106.899548,"time":2,"is_transit":false},{"i_lat":-6.215091,"station_name":"Jatinegara","is_transit":true,"time":3,"distance":3395,"transit":false,"i_long":106.86807400000001,"station_id":"JNG","line":0},{"station_id":"MTR","time":2,"i_lat":-6.212485,"line":1,"distance":1377,"station_name":"Matraman","is_transit":false,"i_long":106.858896,"transit":false},{"i_lat":-6.209883,"i_long":106.84912,"station_name":"Manggarai","time":2,"transit":true,"station_id":"MRI","is_transit":true,"line":0,"distance":1275},{"transit":false,"time":4,"i_lat":-6.198556,"distance":1590,"station_name":"Cikini","i_long":106.840169,"line":0,"station_id":"CKI","is_transit":false},{"line":2,"station_name":"Gondangdia","is_transit":false,"time":3,"station_id":"GDD","transit":false,"i_lat":-6.186295,"distance":1750,"i_long":106.832183},{"line":2,"station_id":"JUA","transit":false,"distance":2015,"time":4,"i_lat":-6.166716,"i_long":106.828284,"station_name":"Juanda","is_transit":false},{"i_long":106.827103,"station_id":"SW","distance":1149,"i_lat":-6.160725,"is_transit":false,"transit":false,"line":2,"station_name":"Sawah Besar","time":2},{"transit":false,"time":2,"line":2,"station_id":"MGB","station_name":"Manggabesar","i_long":106.82482,"i_lat":-6.149769,"is_transit":false,"distance":906},{"is_transit":false,"time":2,"station_name":"Jayakarta","distance":1080,"i_long":106.820901,"line":7,"i_lat":-6.141205,"station_id":"JAY","transit":false},{"is_transit":true,"time":4,"transit":true,"station_name":"Jakarta Kota","i_lat":-6.137569,"line":0,"distance":1264,"i_long":106.812439,"station_id":"JAKK"},{"station_name":"Kampung Bandan","i_long":106.826365,"distance":1364,"time":3,"i_lat":-6.132549,"is_transit":true,"station_id":"KPB","line":0,"transit":true},{"line":11,"i_long":106.836569,"time":3,"transit":false,"distance":1444,"i_lat":-6.14505,"station_id":"RJW","station_name":"Rajawali","is_transit":false},{"distance":1901,"station_name":"Kemayoran","is_transit":false,"transit":false,"line":11,"time":5,"station_id":"KMO","i_lat":-6.161728,"i_long":106.839204},{"distance":1436,"station_id":"PSE","time":4,"i_lat":-6.174784,"transit":false,"station_name":"Pasar Senen","line":11,"is_transit":false,"i_long":106.84368},{"is_transit":false,"i_lat":-6.185975,"station_id":"GST","time":8,"distance":1567,"transit":false,"i_long":106.850107,"station_name":"Gang Sentiong","line":11},{"station_id":"KMT","line":11,"station_name":"Kramat","i_lat":-6.193792,"is_transit":false,"time":1,"i_long":106.855437,"transit":false,"distance":973}]]}