{"data":[[{"distance":0,"i_lat":-6.262938,"i_long":107.093313,"station_id":"TLM","station_name":"Metland Telaga Murni","line":1,"transit":false,"is_transit":false,"time":0},{"station_name":"Cibitung","i_lat":-6.261877,"distance":2800,"line":0,"i_long":107.083084,"station_id":"CIT","is_transit":false,"time":2,"transit":false},{"station_id":"TB","i_long":107.055722,"transit":false,"is_transit":false,"i_lat":-6.258864,"distance":3420,"station_name":"Tambun","time":3,"line":1},{"transit":false,"i_long":107.016735,"station_id":"BKST","line":0,"distance":4460,"is_transit":false,"station_name":"Bekasi Timur","time":7,"i_lat":-6.248029},{"time":2,"distance":2368,"i_long":106.997013,"i_lat":-6.236616,"station_name":"Bekasi","is_transit":false,"transit":false,"station_id":"BKS","line":0},{"is_transit":false,"time":4,"distance":2520,"station_name":"Kranji","i_long":106.977657,"transit":false,"station_id":"KRI","i_lat":-6.224515,"line":1},{"distance":3097,"i_long":106.951283,"line":0,"is_transit":false,"i_lat":-6.219053,"station_name":"Cakung","time":3,"transit":false,"station_id":"CUK"},{"is_transit":false,"i_lat":-6.217455,"time":8,"station_id":"KLDB","station_name":"Klenderbaru","distance":1385,"transit":false,"line":1,"i_long":106.939679},{"i_lat":-6.215568,"i_long":106.922662,"line":0,"is_transit":false,"transit":false,"time":1,"station_name":"Buaran","distance":1305,"station_id":"BUA"},{"time":2,"transit":false,"line":1,"station_name":"Klender","i_long":106.899548,"distance":3100,"station_id":"KLD","is_transit":false,"i_lat":-6.2135},{"station_name":"Jatinegara","transit":false,"i_lat":-6.215091,"time":3,"station_id":"JNG","distance":3395,"i_long":106.86807400000001,"is_transit":true,"line":0},{"is_transit":false,"transit":false,"distance":1377,"i_lat":-6.212485,"station_id":"MTR","station_name":"Matraman","i_long":106.858896,"line":1,"time":2},{"is_transit":true,"i_long":106.84912,"station_name":"Manggarai","distance":1275,"line":0,"station_id":"MRI","i_lat":-6.209883,"transit":false,"time":2},{"station_id":"SUD","i_long":106.822649,"transit":false,"distance":3186,"station_name":"Sudirman","is_transit":false,"i_lat":-6.202263,"line":1,"time":4},{"distance":280,"station_id":"SUDB","is_transit":false,"line":1,"i_lat":-6.201433,"transit":false,"station_name":"Sudirman Baru","time":1,"i_long":106.819881},{"i_long":106.816351,"station_name":"Karet","distance":471,"is_transit":false,"transit":false,"station_id":"KAT","i_lat":-6.20132,"line":1,"time":1},{"line":1,"transit":false,"i_long":106.811091,"time":5,"station_id":"THB","distance":2029,"is_transit":true,"i_lat":-6.185545,"station_name":"Tanah Abang"},{"line":1,"i_long":106.800832,"is_transit":true,"i_lat":-6.155215,"distance":3632,"station_name":"Duri","time":8,"station_id":"DU","transit":true},{"line":5,"station_name":"Grogol","transit":false,"is_transit":false,"distance":1700,"i_lat":-6.162021,"station_id":"GGL","time":3,"i_long":106.788277},{"distance":2036,"transit":false,"is_transit":false,"station_name":"Pesing","i_lat":-6.161433,"i_long":106.771379,"line":5,"station_id":"PSG","time":2},{"time":2,"is_transit":false,"transit":false,"line":5,"station_name":"Taman Kota","i_long":106.756522,"station_id":"TKO","distance":1614,"i_lat":-6.1587309999999995},{"station_name":"Bojongindah","is_transit":false,"line":0,"i_lat":-6.159876,"distance":2334,"time":2,"transit":false,"i_long":106.737035,"station_id":"BOI"}],[{"i_lat":-6.262938,"i_long":107.093313,"station_name":"Metland Telaga Murni","line":1,"station_id":"TLM","is_transit":false,"transit":false,"time":0,"distance":0},{"i_long":107.083084,"time":2,"station_id":"CIT","is_transit":false,"line":0,"distance":2800,"transit":false,"i_lat":-6.261877,"station_name":"Cibitung"},{"station_name":"Tambun","transit":false,"distance":3420,"time":3,"i_lat":-6.258864,"i_long":107.055722,"station_id":"TB","is_transit":false,"line":1},{"distance":4460,"i_long":107.016735,"is_transit":false,"line":0,"station_id":"BKST","station_name":"Bekasi Timur","transit":false,"i_lat":-6.248029,"time":7},{"line":0,"i_long":106.997013,"is_transit":false,"station_id":"BKS","transit":false,"station_name":"Bekasi","time":2,"i_lat":-6.236616,"distance":2368},{"transit":false,"i_lat":-6.224515,"station_id":"KRI","station_name":"Kranji","is_transit":false,"time":4,"line":1,"distance":2520,"i_long":106.977657},{"i_lat":-6.219053,"time":3,"is_transit":false,"station_name":"Cakung","transit":false,"station_id":"CUK","distance":3097,"line":0,"i_long":106.951283},{"i_lat":-6.217455,"transit":false,"station_id":"KLDB","station_name":"Klenderbaru","distance":1385,"time":8,"i_long":106.939679,"is_transit":false,"line":1},{"distance":1305,"transit":false,"station_id":"BUA","station_name":"Buaran","is_transit":false,"time":1,"line":0,"i_long":106.922662,"i_lat":-6.215568},{"distance":3100,"time":2,"transit":false,"station_id":"KLD","is_transit":false,"i_long":106.899548,"line":1,"station_name":"Klender","i_lat":-6.2135},{"i_long":106.86807400000001,"station_id":"JNG","time":3,"i_lat":-6.215091,"station_name":"Jatinegara","line":0,"transit":true,"is_transit":true,"distance":3395},{"line":11,"time":2,"station_id":"POK","i_lat":-6.209188,"station_name":"Pondok Jati","i_long":106.861737,"is_transit":false,"distance":1236,"transit":false},{"is_transit":false,"station_id":"KMT","time":2,"distance":1829,"line":11,"station_name":"Kramat","transit":false,"i_long":106.855437,"i_lat":-6.193792},{"time":1,"i_long":106.850107,"station_id":"GST","distance":973,"transit":false,"i_lat":-6.185975,"line":11,"is_transit":false,"station_name":"Gang Sentiong"},{"i_lat":-6.174784,"distance":1567,"i_long":106.84368,"station_id":"PSE","is_transit":false,"time":8,"transit":false,"station_name":"Pasar Senen","line":11},{"distance":1436,"time":4,"line":11,"i_long":106.839204,"transit":false,"station_name":"Kemayoran","is_transit":false,"i_lat":-6.161728,"station_id":"KMO"},{"is_transit":false,"time":5,"distance":1901,"station_id":"RJW","station_name":"Rajawali","transit":false,"i_long":106.836569,"line":11,"i_lat":-6.14505},{"time":3,"i_long":106.826365,"is_transit":true,"station_name":"Kampung Bandan","i_lat":-6.132549,"distance":1444,"transit":true,"station_id":"KPB","line":0},{"is_transit":false,"station_id":"AK","i_long":106.79867,"line":0,"time":9,"transit":false,"distance":4102,"i_lat":-6.144674,"station_name":"Angke"},{"i_lat":-6.155215,"station_name":"Duri","line":1,"distance":1230,"is_transit":true,"time":4,"transit":true,"i_long":106.800832,"station_id":"DU"},{"line":5,"station_name":"Grogol","time":3,"i_long":106.788277,"station_id":"GGL","distance":1700,"is_transit":false,"transit":false,"i_lat":-6.162021},{"station_id":"PSG","station_name":"Pesing","transit":false,"distance":2036,"line":5,"i_lat":-6.161433,"is_transit":false,"i_long":106.771379,"time":2},{"station_id":"TKO","is_transit":false,"line":5,"station_name":"Taman Kota","distance":1614,"transit":false,"time":2,"i_long":106.756522,"i_lat":-6.1587309999999995},{"transit":false,"station_name":"Bojongindah","i_long":106.737035,"distance":2334,"i_lat":-6.159876,"station_id":"BOI","is_transit":false,"time":2,"line":0}],[{"line":1,"distance":0,"i_long":107.093313,"station_id":"TLM","station_name":"Metland Telaga Murni","i_lat":-6.262938,"time":0,"transit":false,"is_transit":false},{"is_transit":false,"station_name":"Cibitung","time":2,"distance":2800,"i_long":107.083084,"line":0,"station_id":"CIT","i_lat":-6.261877,"transit":false},{"transit":false,"i_lat":-6.258864,"i_long":107.055722,"station_id":"TB","line":1,"is_transit":false,"time":3,"distance":3420,"station_name":"Tambun"},{"time":7,"is_transit":false,"i_lat":-6.248029,"station_id":"BKST","i_long":107.016735,"station_name":"Bekasi Timur","line":0,"transit":false,"distance":4460},{"transit":false,"station_id":"BKS","time":2,"distance":2368,"i_lat":-6.236616,"line":0,"is_transit":false,"station_name":"Bekasi","i_long":106.997013},{"time":4,"i_long":106.977657,"station_name":"Kranji","distance":2520,"transit":false,"is_transit":false,"station_id":"KRI","i_lat":-6.224515,"line":1},{"i_lat":-6.219053,"i_long":106.951283,"station_name":"Cakung","is_transit":false,"line":0,"time":3,"station_id":"CUK","distance":3097,"transit":false},{"line":1,"transit":false,"time":8,"station_name":"Klenderbaru","station_id":"KLDB","distance":1385,"is_transit":false,"i_long":106.939679,"i_lat":-6.217455},{"station_name":"Buaran","i_lat":-6.215568,"i_long":106.922662,"station_id":"BUA","transit":false,"line":0,"distance":1305,"time":1,"is_transit":false},{"station_id":"KLD","transit":false,"time":2,"distance":3100,"i_long":106.899548,"station_name":"Klender","is_transit":false,"i_lat":-6.2135,"line":1},{"time":3,"distance":3395,"is_transit":true,"line":0,"station_id":"JNG","station_name":"Jatinegara","i_lat":-6.215091,"i_long":106.86807400000001,"transit":false},{"distance":1377,"station_name":"Matraman","is_transit":false,"transit":false,"i_lat":-6.212485,"i_long":106.858896,"line":1,"station_id":"MTR","time":2},{"time":2,"station_name":"Manggarai","distance":1275,"transit":true,"i_long":106.84912,"line":0,"station_id":"MRI","is_transit":true,"i_lat":-6.209883},{"transit":false,"station_id":"CKI","station_name":"Cikini","distance":1590,"i_long":106.840169,"line":0,"is_transit":false,"time":4,"i_lat":-6.198556},{"is_transit":false,"station_id":"GDD","i_lat":-6.186295,"i_long":106.832183,"line":2,"station_name":"Gondangdia","distance":1750,"transit":false,"time":3},{"time":4,"transit":false,"line":2,"i_long":106.828284,"station_name":"Juanda","distance":2015,"i_lat":-6.166716,"station_id":"JUA","is_transit":false},{"time":2,"distance":1149,"station_name":"Sawah Besar","transit":false,"i_lat":-6.160725,"station_id":"SW","i_long":106.827103,"line":2,"is_transit":false},{"transit":false,"station_name":"Manggabesar","station_id":"MGB","i_long":106.82482,"distance":906,"line":2,"time":2,"is_transit":false,"i_lat":-6.149769},{"i_long":106.820901,"time":2,"station_id":"JAY","is_transit":false,"distance":1080,"transit":false,"station_name":"Jayakarta","i_lat":-6.141205,"line":7},{"line":0,"is_transit":true,"transit":true,"i_lat":-6.137569,"distance":1264,"time":4,"station_name":"Jakarta Kota","i_long":106.812439,"station_id":"JAKK"},{"station_id":"KPB","transit":false,"is_transit":true,"distance":1364,"i_lat":-6.132549,"time":3,"i_long":106.826365,"line":0,"station_name":"Kampung Bandan"},{"station_id":"AK","line":0,"is_transit":false,"distance":4102,"i_lat":-6.144674,"i_long":106.79867,"station_name":"Angke","time":9,"transit":false},{"i_lat":-6.155215,"line":1,"transit":true,"time":4,"is_transit":true,"station_name":"Duri","station_id":"DU","distance":1230,"i_long":106.800832},{"is_transit":false,"distance":1700,"i_long":106.788277,"station_id":"GGL","time":3,"station_name":"Grogol","transit":false,"line":5,"i_lat":-6.162021},{"time":2,"i_lat":-6.161433,"station_name":"Pesing","station_id":"PSG","transit":false,"is_transit":false,"distance":2036,"i_long":106.771379,"line":5},{"is_transit":false,"i_lat":-6.1587309999999995,"station_id":"TKO","transit":false,"line":5,"station_name":"Taman Kota","time":2,"distance":1614,"i_long":106.756522},{"distance":2334,"is_transit":false,"line":0,"station_id":"BOI","time":2,"transit":false,"station_name":"Bojongindah","i_long":106.737035,"i_lat":-6.159876}],[{"transit":false,"station_id":"TLM","line":1,"is_transit":false,"i_lat":-6.262938,"station_name":"Metland Telaga Murni","distance":0,"time":0,"i_long":107.093313},{"station_id":"CIT","line":0,"station_name":"Cibitung","distance":2800,"transit":false,"is_transit":false,"i_lat":-6.261877,"i_long":107.083084,"time":2},{"station_id":"TB","i_lat":-6.258864,"line":1,"is_transit":false,"time":3,"transit":false,"distance":3420,"station_name":"Tambun","i_long":107.055722},{"i_long":107.016735,"is_transit":false,"distance":4460,"station_name":"Bekasi Timur","station_id":"BKST","i_lat":-6.248029,"line":0,"time":7,"transit":false},{"i_long":106.997013,"is_transit":false,"i_lat":-6.236616,"station_id":"BKS","distance":2368,"transit":false,"station_name":"Bekasi","line":0,"time":2},{"line":1,"station_id":"KRI","station_name":"Kranji","i_long":106.977657,"is_transit":false,"time":4,"transit":false,"i_lat":-6.224515,"distance":2520},{"station_name":"Cakung","is_transit":false,"time":3,"distance":3097,"station_id":"CUK","i_long":106.951283,"line":0,"i_lat":-6.219053,"transit":false},{"time":8,"is_transit":false,"station_id":"KLDB","station_name":"Klenderbaru","transit":false,"i_lat":-6.217455,"i_long":106.939679,"line":1,"distance":1385},{"station_id":"BUA","time":1,"is_transit":false,"distance":1305,"line":0,"station_name":"Buaran","i_lat":-6.215568,"transit":false,"i_long":106.922662},{"i_long":106.899548,"distance":3100,"i_lat":-6.2135,"station_name":"Klender","is_transit":false,"transit":false,"line":1,"station_id":"KLD","time":2},{"i_lat":-6.215091,"i_long":106.86807400000001,"station_id":"JNG","distance":3395,"line":0,"time":3,"station_name":"Jatinegara","is_transit":true,"transit":true},{"distance":1236,"station_id":"POK","i_lat":-6.209188,"time":2,"i_long":106.861737,"is_transit":false,"transit":false,"line":11,"station_name":"Pondok Jati"},{"is_transit":false,"distance":1829,"i_lat":-6.193792,"station_name":"Kramat","i_long":106.855437,"time":2,"transit":false,"line":11,"station_id":"KMT"},{"transit":false,"i_lat":-6.185975,"is_transit":false,"time":1,"station_id":"GST","i_long":106.850107,"station_name":"Gang Sentiong","distance":973,"line":11},{"station_id":"PSE","station_name":"Pasar Senen","distance":1567,"i_lat":-6.174784,"i_long":106.84368,"line":11,"is_transit":false,"transit":false,"time":8},{"is_transit":false,"i_lat":-6.161728,"distance":1436,"station_name":"Kemayoran","transit":false,"i_long":106.839204,"line":11,"station_id":"KMO","time":4},{"station_name":"Rajawali","distance":1901,"station_id":"RJW","time":5,"i_lat":-6.14505,"transit":false,"is_transit":false,"line":11,"i_long":106.836569},{"is_transit":true,"station_name":"Kampung Bandan","i_lat":-6.132549,"line":0,"time":3,"distance":1444,"station_id":"KPB","transit":true,"i_long":106.826365},{"line":0,"time":3,"distance":1364,"station_name":"Jakarta Kota","i_long":106.812439,"station_id":"JAKK","transit":true,"i_lat":-6.137569,"is_transit":true},{"i_long":106.820901,"station_id":"JAY","station_name":"Jayakarta","is_transit":false,"line":7,"time":4,"distance":1264,"i_lat":-6.141205,"transit":false},{"time":2,"station_id":"MGB","station_name":"Manggabesar","is_transit":false,"distance":1080,"transit":false,"i_lat":-6.149769,"i_long":106.82482,"line":2},{"line":2,"distance":906,"is_transit":false,"time":2,"station_name":"Sawah Besar","station_id":"SW","transit":false,"i_lat":-6.160725,"i_long":106.827103},{"station_name":"Juanda","line":2,"is_transit":false,"distance":1149,"i_lat":-6.166716,"transit":false,"station_id":"JUA","time":2,"i_long":106.828284},{"i_lat":-6.186295,"time":4,"distance":2015,"line":2,"transit":false,"station_id":"GDD","i_long":106.832183,"station_name":"Gondangdia","is_transit":false},{"line":0,"transit":false,"i_long":106.840169,"station_name":"Cikini","time":3,"station_id":"CKI","distance":1750,"is_transit":false,"i_lat":-6.198556},{"is_transit":true,"distance":1590,"i_lat":-6.209883,"line":0,"transit":true,"station_name":"Manggarai","i_long":106.84912,"time":4,"station_id":"MRI"},{"station_id":"SUD","time":4,"i_lat":-6.202263,"station_name":"Sudirman","transit":false,"is_transit":false,"distance":3186,"line":1,"i_long":106.822649},{"station_name":"Sudirman Baru","i_long":106.819881,"station_id":"SUDB","line":1,"is_transit":false,"time":1,"distance":280,"transit":false,"i_lat":-6.201433},{"distance":471,"i_lat":-6.20132,"i_long":106.816351,"line":1,"is_transit":false,"station_name":"Karet","transit":false,"time":1,"station_id":"KAT"},{"station_id":"THB","time":5,"station_name":"Tanah Abang","transit":false,"i_long":106.811091,"is_transit":true,"i_lat":-6.185545,"line":1,"distance":2029},{"station_id":"DU","transit":true,"i_long":106.800832,"line":1,"i_lat":-6.155215,"time":8,"is_transit":true,"distance":3632,"station_name":"Duri"},{"time":3,"is_transit":false,"line":5,"station_name":"Grogol","distance":1700,"i_lat":-6.162021,"i_long":106.788277,"transit":false,"station_id":"GGL"},{"station_id":"PSG","station_name":"Pesing","distance":2036,"i_lat":-6.161433,"line":5,"transit":false,"time":2,"is_transit":false,"i_long":106.771379},{"distance":1614,"station_name":"Taman Kota","is_transit":false,"transit":false,"line":5,"time":2,"station_id":"TKO","i_lat":-6.1587309999999995,"i_long":106.756522},{"distance":2334,"station_id":"BOI","time":2,"i_lat":-6.159876,"transit":false,"station_name":"Bojongindah","line":0,"is_transit":false,"i_long":106.737035}]]}