{"data":[[{"station_id":"TLM","time":0,"i_long":107.093313,"station_name":"Metland Telaga Murni","i_lat":-6.262938,"is_transit":false,"distance":0,"transit":false,"line":1},{"time":2,"distance":2800,"i_long":107.083084,"transit":false,"station_name":"Cibitung","station_id":"CIT","i_lat":-6.261877,"line":1,"is_transit":false},{"is_transit":false,"station_name":"Tambun","time":3,"i_lat":-6.258864,"transit":false,"distance":3420,"i_long":107.055722,"line":1,"station_id":"TB"},{"i_lat":-6.248029,"time":7,"is_transit":false,"i_long":107.016735,"station_id":"BKST","transit":false,"line":1,"station_name":"Bekasi Timur","distance":4460},{"station_name":"Bekasi","i_lat":-6.236616,"i_long":106.997013,"line":1,"distance":2368,"time":2,"is_transit":false,"station_id":"BKS","transit":false},{"distance":2520,"is_transit":false,"time":4,"i_long":106.977657,"transit":false,"i_lat":-6.224515,"station_id":"KRI","line":1,"station_name":"Kranji"},{"line":1,"i_long":106.951283,"distance":3097,"station_name":"Cakung","is_transit":false,"station_id":"CUK","transit":false,"time":3,"i_lat":-6.219053},{"station_id":"KLDB","transit":false,"line":1,"i_lat":-6.217455,"distance":1385,"is_transit":false,"station_name":"Klenderbaru","time":8,"i_long":106.939679},{"distance":1305,"station_name":"Buaran","i_long":106.922662,"station_id":"BUA","transit":false,"is_transit":false,"time":1,"i_lat":-6.215568,"line":1},{"time":2,"station_name":"Klender","i_lat":-6.2135,"transit":false,"is_transit":false,"station_id":"KLD","distance":3100,"line":1,"i_long":106.899548},{"station_id":"JNG","is_transit":false,"distance":3395,"station_name":"Jatinegara","i_long":106.86807400000001,"line":1,"i_lat":-6.215091,"time":3,"transit":false},{"line":1,"time":2,"distance":1377,"station_name":"Matraman","i_lat":-6.212485,"station_id":"MTR","is_transit":false,"transit":false,"i_long":106.858896},{"distance":1275,"line":2,"i_lat":-6.209883,"time":2,"i_long":106.84912,"transit":false,"station_name":"Manggarai","is_transit":false,"station_id":"MRI"},{"station_id":"SUD","is_transit":false,"distance":3186,"line":1,"time":4,"i_long":106.822649,"transit":false,"i_lat":-6.202263,"station_name":"Sudirman"},{"station_name":"Sudirman Baru","distance":280,"transit":false,"i_long":106.819881,"time":1,"i_lat":-6.201433,"station_id":"SUDB","line":1,"is_transit":false},{"station_id":"KAT","is_transit":false,"distance":471,"i_lat":-6.20132,"transit":false,"i_long":106.816351,"time":1,"station_name":"Karet","line":1},{"i_long":106.811091,"line":1,"station_name":"Tanah Abang","station_id":"THB","distance":2029,"is_transit":false,"transit":false,"i_lat":-6.185545,"time":5},{"i_long":106.800832,"station_name":"Duri","time":8,"i_lat":-6.155215,"station_id":"DU","is_transit":true,"transit":true,"distance":3632,"line":1},{"station_id":"GRG","i_lat":-6.162021,"transit":false,"line":5,"i_long":106.788277,"time":3,"distance":1700,"station_name":"Grogol","is_transit":false},{"transit":false,"distance":2036,"is_transit":false,"i_lat":-6.161433,"station_id":"PSG","i_long":106.771379,"line":5,"station_name":"Pesing","time":2},{"station_id":"TKO","is_transit":false,"distance":1614,"i_lat":-6.1587309999999995,"transit":false,"station_name":"Taman Kota","i_long":106.756522,"line":5,"time":2},{"time":2,"distance":2334,"i_lat":-6.159876,"station_name":"Bojongindah","station_id":"BOI","i_long":106.737035,"transit":false,"is_transit":false,"line":5}],[{"i_long":107.093313,"transit":false,"line":1,"i_lat":-6.262938,"station_id":"TLM","station_name":"Metland Telaga Murni","is_transit":false,"distance":0,"time":0},{"time":2,"line":1,"station_id":"CIT","station_name":"Cibitung","transit":false,"i_long":107.083084,"distance":2800,"i_lat":-6.261877,"is_transit":false},{"i_lat":-6.258864,"transit":false,"station_name":"Tambun","is_transit":false,"i_long":107.055722,"line":1,"time":3,"distance":3420,"station_id":"TB"},{"transit":false,"is_transit":false,"time":7,"distance":4460,"station_name":"Bekasi Timur","line":1,"i_long":107.016735,"station_id":"BKST","i_lat":-6.248029},{"transit":false,"i_long":106.997013,"i_lat":-6.236616,"time":2,"station_id":"BKS","is_transit":false,"distance":2368,"station_name":"Bekasi","line":1},{"station_id":"KRI","is_transit":false,"transit":false,"i_lat":-6.224515,"distance":2520,"station_name":"Kranji","line":1,"time":4,"i_long":106.977657},{"line":1,"time":3,"i_lat":-6.219053,"station_name":"Cakung","is_transit":false,"station_id":"CUK","distance":3097,"i_long":106.951283,"transit":false},{"i_lat":-6.217455,"i_long":106.939679,"time":8,"distance":1385,"station_name":"Klenderbaru","is_transit":false,"transit":false,"station_id":"KLDB","line":1},{"is_transit":false,"distance":1305,"station_id":"BUA","i_long":106.922662,"line":1,"time":1,"transit":false,"i_lat":-6.215568,"station_name":"Buaran"},{"time":2,"station_id":"KLD","is_transit":false,"i_lat":-6.2135,"i_long":106.899548,"distance":3100,"station_name":"Klender","line":1,"transit":false},{"transit":true,"i_lat":-6.215091,"station_id":"JNG","line":1,"time":3,"is_transit":true,"distance":3395,"i_long":106.86807400000001,"station_name":"Jatinegara"},{"station_id":"POK","distance":1236,"is_transit":false,"line":11,"time":2,"station_name":"Pondok Jati","i_long":106.861737,"i_lat":-6.209188,"transit":false},{"is_transit":false,"i_lat":-6.193792,"station_name":"Kramat","distance":1829,"line":11,"transit":false,"station_id":"KMT","time":2,"i_long":106.855437},{"i_long":106.850107,"line":11,"station_name":"Gang Sentiong","station_id":"GST","is_transit":false,"time":1,"transit":false,"distance":973,"i_lat":-6.185975},{"distance":1567,"i_lat":-6.174784,"is_transit":false,"station_name":"Pasar Senen","i_long":106.84368,"transit":false,"station_id":"PSE","time":8,"line":11},{"time":4,"station_name":"Kemayoran","line":11,"i_lat":-6.161728,"distance":1436,"station_id":"KMO","transit":false,"is_transit":false,"i_long":106.839204},{"i_lat":-6.14505,"distance":1901,"line":11,"is_transit":false,"station_id":"RJW","transit":false,"station_name":"Rajawali","i_long":106.836569,"time":5},{"is_transit":true,"i_long":106.826365,"station_id":"KPB","i_lat":-6.132549,"transit":true,"time":3,"distance":1444,"station_name":"Kampung Bandan","line":4},{"distance":4102,"i_lat":-6.144674,"transit":false,"line":1,"i_long":106.79867,"station_id":"AK","time":9,"station_name":"Angke","is_transit":false},{"line":1,"station_id":"DU","transit":true,"is_transit":true,"i_lat":-6.155215,"distance":1230,"time":4,"i_long":106.800832,"station_name":"Duri"},{"is_transit":false,"station_name":"Grogol","i_long":106.788277,"i_lat":-6.162021,"line":5,"station_id":"GRG","time":3,"transit":false,"distance":1700},{"is_transit":false,"i_lat":-6.161433,"distance":2036,"station_name":"Pesing","time":2,"transit":false,"station_id":"PSG","line":5,"i_long":106.771379},{"station_name":"Taman Kota","distance":1614,"time":2,"i_long":106.756522,"i_lat":-6.1587309999999995,"station_id":"TKO","is_transit":false,"transit":false,"line":5},{"distance":2334,"i_lat":-6.159876,"transit":false,"station_id":"BOI","i_long":106.737035,"is_transit":false,"line":5,"time":2,"station_name":"Bojongindah"}],[{"i_lat":-6.262938,"station_name":"Metland Telaga Murni","transit":false,"i_long":107.093313,"time":0,"is_transit":false,"station_id":"TLM","line":1,"distance":0},{"i_long":107.083084,"station_name":"Cibitung","station_id":"CIT","transit":false,"is_transit":false,"time":2,"line":1,"distance":2800,"i_lat":-6.261877},{"line":1,"i_lat":-6.258864,"station_id":"TB","is_transit":false,"distance":3420,"i_long":107.055722,"transit":false,"station_name":"Tambun","time":3},{"i_lat":-6.248029,"time":7,"station_id":"BKST","station_name":"Bekasi Timur","i_long":107.016735,"is_transit":false,"distance":4460,"transit":false,"line":1},{"distance":2368,"transit":false,"time":2,"i_lat":-6.236616,"i_long":106.997013,"is_transit":false,"line":1,"station_name":"Bekasi","station_id":"BKS"},{"i_long":106.977657,"distance":2520,"is_transit":false,"time":4,"line":1,"station_id":"KRI","transit":false,"i_lat":-6.224515,"station_name":"Kranji"},{"transit":false,"is_transit":false,"line":1,"station_name":"Cakung","time":3,"station_id":"CUK","distance":3097,"i_long":106.951283,"i_lat":-6.219053},{"line":1,"i_lat":-6.217455,"station_id":"KLDB","transit":false,"is_transit":false,"distance":1385,"i_long":106.939679,"time":8,"station_name":"Klenderbaru"},{"transit":false,"i_long":106.922662,"station_id":"BUA","line":1,"is_transit":false,"distance":1305,"station_name":"Buaran","time":1,"i_lat":-6.215568},{"transit":false,"station_name":"Klender","is_transit":false,"line":1,"i_lat":-6.2135,"i_long":106.899548,"time":2,"station_id":"KLD","distance":3100},{"transit":false,"time":3,"distance":3395,"i_lat":-6.215091,"station_id":"JNG","is_transit":false,"station_name":"Jatinegara","line":1,"i_long":106.86807400000001},{"i_lat":-6.212485,"station_id":"MTR","line":1,"transit":false,"i_long":106.858896,"distance":1377,"is_transit":false,"station_name":"Matraman","time":2},{"station_name":"Manggarai","i_lat":-6.209883,"transit":true,"line":2,"time":2,"i_long":106.84912,"distance":1275,"is_transit":true,"station_id":"MRI"},{"i_lat":-6.198556,"station_id":"CKI","transit":false,"i_long":106.840169,"distance":1590,"station_name":"Cikini","time":4,"line":2,"is_transit":false},{"station_name":"Gondangdia","line":2,"transit":false,"station_id":"GDD","is_transit":false,"i_lat":-6.186295,"i_long":106.832183,"distance":1750,"time":3},{"station_id":"JUA","time":4,"i_long":106.828284,"is_transit":false,"transit":false,"line":2,"i_lat":-6.166716,"station_name":"Juanda","distance":2015},{"distance":1149,"transit":false,"is_transit":false,"line":2,"time":2,"station_id":"SW","station_name":"Sawah Besar","i_lat":-6.160725,"i_long":106.827103},{"i_long":106.82482,"distance":906,"station_name":"Manggabesar","i_lat":-6.149769,"time":2,"station_id":"MGB","is_transit":false,"line":2,"transit":false},{"station_name":"Jayakarta","i_long":106.820901,"i_lat":-6.141205,"transit":false,"distance":1080,"is_transit":false,"station_id":"JAY","line":2,"time":2},{"transit":true,"i_long":106.812439,"time":4,"distance":1264,"station_id":"JAKK","station_name":"Jakarta Kota","is_transit":true,"i_lat":-6.137569,"line":2},{"time":3,"i_lat":-6.132549,"station_name":"Kampung Bandan","i_long":106.826365,"station_id":"KPB","distance":1364,"transit":true,"is_transit":true,"line":4},{"is_transit":false,"station_id":"AK","station_name":"Angke","transit":false,"distance":4102,"i_long":106.79867,"i_lat":-6.144674,"line":1,"time":9},{"is_transit":true,"station_id":"DU","transit":true,"time":4,"distance":1230,"station_name":"Duri","line":1,"i_lat":-6.155215,"i_long":106.800832},{"time":3,"i_lat":-6.162021,"line":5,"i_long":106.788277,"is_transit":false,"station_id":"GRG","transit":false,"station_name":"Grogol","distance":1700},{"i_long":106.771379,"station_id":"PSG","distance":2036,"transit":false,"i_lat":-6.161433,"line":5,"station_name":"Pesing","time":2,"is_transit":false},{"station_name":"Taman Kota","time":2,"transit":false,"line":5,"i_lat":-6.1587309999999995,"i_long":106.756522,"distance":1614,"is_transit":false,"station_id":"TKO"},{"transit":false,"distance":2334,"station_id":"BOI","i_long":106.737035,"time":2,"station_name":"Bojongindah","is_transit":false,"line":5,"i_lat":-6.159876}],[{"station_id":"TLM","distance":0,"time":0,"station_name":"Metland Telaga Murni","transit":false,"i_lat":-6.262938,"i_long":107.093313,"line":1,"is_transit":false},{"station_name":"Cibitung","distance":2800,"transit":false,"i_lat":-6.261877,"is_transit":false,"time":2,"i_long":107.083084,"line":1,"station_id":"CIT"},{"is_transit":false,"transit":false,"i_lat":-6.258864,"i_long":107.055722,"distance":3420,"line":1,"time":3,"station_id":"TB","station_name":"Tambun"},{"station_name":"Bekasi Timur","transit":false,"i_lat":-6.248029,"line":1,"is_transit":false,"time":7,"distance":4460,"station_id":"BKST","i_long":107.016735},{"i_lat":-6.236616,"is_transit":false,"i_long":106.997013,"station_name":"Bekasi","station_id":"BKS","line":1,"transit":false,"time":2,"distance":2368},{"station_name":"Kranji","is_transit":false,"distance":2520,"transit":false,"time":4,"i_long":106.977657,"line":1,"station_id":"KRI","i_lat":-6.224515},{"transit":false,"i_lat":-6.219053,"line":1,"time":3,"is_transit":false,"station_name":"Cakung","station_id":"CUK","i_long":106.951283,"distance":3097},{"station_id":"KLDB","i_long":106.939679,"distance":1385,"line":1,"time":8,"station_name":"Klenderbaru","is_transit":false,"i_lat":-6.217455,"transit":false},{"line":1,"i_lat":-6.215568,"station_id":"BUA","transit":false,"distance":1305,"is_transit":false,"station_name":"Buaran","i_long":106.922662,"time":1},{"i_lat":-6.2135,"i_long":106.899548,"time":2,"is_transit":false,"station_id":"KLD","station_name":"Klender","line":1,"distance":3100,"transit":false},{"i_long":106.86807400000001,"station_id":"JNG","line":1,"station_name":"Jatinegara","time":3,"distance":3395,"is_transit":true,"i_lat":-6.215091,"transit":true},{"station_id":"POK","line":11,"i_long":106.861737,"transit":false,"time":2,"is_transit":false,"i_lat":-6.209188,"station_name":"Pondok Jati","distance":1236},{"station_id":"KMT","time":2,"station_name":"Kramat","i_lat":-6.193792,"i_long":106.855437,"line":11,"is_transit":false,"transit":false,"distance":1829},{"transit":false,"is_transit":false,"station_id":"GST","line":11,"distance":973,"i_lat":-6.185975,"i_long":106.850107,"station_name":"Gang Sentiong","time":1},{"line":11,"is_transit":false,"station_id":"PSE","station_name":"Pasar Senen","distance":1567,"transit":false,"i_lat":-6.174784,"i_long":106.84368,"time":8},{"i_long":106.839204,"distance":1436,"time":4,"station_name":"Kemayoran","transit":false,"i_lat":-6.161728,"station_id":"KMO","is_transit":false,"line":11},{"i_long":106.836569,"time":5,"is_transit":false,"i_lat":-6.14505,"line":11,"station_id":"RJW","transit":false,"distance":1901,"station_name":"Rajawali"},{"is_transit":true,"station_name":"Kampung Bandan","time":3,"distance":1444,"line":4,"station_id":"KPB","i_long":106.826365,"i_lat":-6.132549,"transit":true},{"i_long":106.812439,"station_id":"JAKK","time":3,"distance":1364,"station_name":"Jakarta Kota","is_transit":true,"transit":true,"line":2,"i_lat":-6.137569},{"station_name":"Jayakarta","station_id":"JAY","i_lat":-6.141205,"line":2,"distance":1264,"transit":false,"i_long":106.820901,"time":4,"is_transit":false},{"distance":1080,"station_id":"MGB","station_name":"Manggabesar","is_transit":false,"i_lat":-6.149769,"i_long":106.82482,"line":2,"time":2,"transit":false},{"transit":false,"is_transit":false,"i_lat":-6.160725,"distance":906,"time":2,"i_long":106.827103,"line":2,"station_name":"Sawah Besar","station_id":"SW"},{"station_name":"Juanda","i_lat":-6.166716,"station_id":"JUA","line":2,"is_transit":false,"i_long":106.828284,"time":2,"distance":1149,"transit":false},{"transit":false,"i_long":106.832183,"line":2,"station_id":"GDD","station_name":"Gondangdia","is_transit":false,"time":4,"distance":2015,"i_lat":-6.186295},{"i_long":106.840169,"distance":1750,"transit":false,"is_transit":false,"i_lat":-6.198556,"station_name":"Cikini","line":2,"station_id":"CKI","time":3},{"transit":true,"distance":1590,"i_lat":-6.209883,"line":2,"i_long":106.84912,"time":4,"station_id":"MRI","station_name":"Manggarai","is_transit":true},{"i_long":106.822649,"i_lat":-6.202263,"distance":3186,"station_id":"SUD","time":4,"is_transit":false,"station_name":"Sudirman","line":1,"transit":false},{"station_name":"Sudirman Baru","i_long":106.819881,"time":1,"station_id":"SUDB","line":1,"is_transit":false,"i_lat":-6.201433,"distance":280,"transit":false},{"i_long":106.816351,"station_id":"KAT","time":1,"distance":471,"is_transit":false,"station_name":"Karet","transit":false,"i_lat":-6.20132,"line":1},{"is_transit":false,"line":1,"transit":false,"distance":2029,"station_id":"THB","i_lat":-6.185545,"station_name":"Tanah Abang","time":5,"i_long":106.811091},{"time":8,"i_lat":-6.155215,"i_long":106.800832,"station_id":"DU","line":1,"transit":true,"distance":3632,"station_name":"Duri","is_transit":true},{"transit":false,"time":3,"station_id":"GRG","distance":1700,"i_long":106.788277,"is_transit":false,"i_lat":-6.162021,"line":5,"station_name":"Grogol"},{"station_name":"Pesing","i_long":106.771379,"station_id":"PSG","line":5,"distance":2036,"is_transit":false,"i_lat":-6.161433,"transit":false,"time":2},{"i_long":106.756522,"distance":1614,"line":5,"station_id":"TKO","station_name":"Taman Kota","i_lat":-6.1587309999999995,"transit":false,"is_transit":false,"time":2},{"time":2,"i_long":106.737035,"distance":2334,"station_id":"BOI","transit":false,"station_name":"Bojongindah","i_lat":-6.159876,"is_transit":false,"line":5}]]}