{"data":[[{"station_id":"TNG","time":0,"station_name":"Tangerang","i_long":106.632761,"is_transit":false,"distance":0,"transit":false,"line":5,"i_lat":-6.176583},{"transit":false,"line":5,"station_id":"TTI","station_name":"Tanah Tinggi","is_transit":false,"time":3,"i_lat":-6.17331,"i_long":106.64657,"distance":1547},{"station_id":"BPR","i_lat":-6.171811,"is_transit":false,"i_long":106.665036,"station_name":"Batuceper","time":3,"distance":2028,"line":5,"transit":false},{"i_long":106.679458,"i_lat":-6.169933,"time":3,"is_transit":false,"transit":false,"station_id":"PI","station_name":"Poris","distance":1834,"line":5},{"i_lat":-6.166068,"time":3,"station_id":"KDS","distance":2548,"transit":false,"is_transit":false,"i_long":106.701612,"line":5,"station_name":"Kalideres"},{"is_transit":false,"distance":2504,"i_lat":-6.162758,"time":3,"station_name":"Rawa Buaya","line":5,"transit":false,"i_long":106.723064,"station_id":"RW"},{"station_name":"Bojongindah","distance":1152,"time":4,"is_transit":false,"i_lat":-6.159876,"line":5,"station_id":"BOI","transit":false,"i_long":106.737035},{"station_name":"Taman Kota","distance":2334,"is_transit":false,"i_lat":-6.1587309999999995,"station_id":"TKO","time":2,"transit":false,"line":5,"i_long":106.756522},{"i_lat":-6.161433,"i_long":106.771379,"transit":false,"station_id":"PSG","is_transit":false,"time":2,"line":5,"station_name":"Pesing","distance":1614},{"station_name":"Grogol","transit":false,"distance":2036,"is_transit":false,"station_id":"GGL","i_long":106.788277,"time":2,"line":5,"i_lat":-6.162021},{"station_name":"Duri","i_lat":-6.155215,"station_id":"DU","time":3,"transit":true,"is_transit":true,"i_long":106.800832,"line":1,"distance":1700},{"station_id":"AK","distance":1230,"time":4,"line":1,"transit":false,"i_long":106.79867,"station_name":"Angke","is_transit":false,"i_lat":-6.144674},{"station_name":"Kampung Bandan","time":9,"line":4,"distance":4102,"transit":true,"is_transit":true,"i_long":106.826365,"i_lat":-6.132549,"station_id":"KPB"},{"time":3,"station_name":"Jakarta Kota","transit":true,"station_id":"JAKK","i_lat":-6.137569,"is_transit":true,"line":2,"distance":1364,"i_long":106.812439},{"time":4,"is_transit":false,"distance":1264,"station_id":"JAY","line":2,"i_long":106.820901,"station_name":"Jayakarta","i_lat":-6.141205,"transit":false}],[{"distance":0,"station_id":"TNG","i_long":106.632761,"transit":false,"station_name":"Tangerang","line":5,"i_lat":-6.176583,"time":0,"is_transit":false},{"i_long":106.64657,"station_name":"Tanah Tinggi","distance":1547,"station_id":"TTI","is_transit":false,"time":3,"transit":false,"line":5,"i_lat":-6.17331},{"time":3,"station_id":"BPR","i_long":106.665036,"i_lat":-6.171811,"is_transit":false,"station_name":"Batuceper","distance":2028,"transit":false,"line":5},{"time":3,"distance":1834,"station_id":"PI","is_transit":false,"transit":false,"i_lat":-6.169933,"i_long":106.679458,"line":5,"station_name":"Poris"},{"time":3,"is_transit":false,"station_name":"Kalideres","i_long":106.701612,"station_id":"KDS","transit":false,"line":5,"distance":2548,"i_lat":-6.166068},{"i_long":106.723064,"distance":2504,"line":5,"station_name":"Rawa Buaya","transit":false,"is_transit":false,"time":3,"station_id":"RW","i_lat":-6.162758},{"transit":false,"station_name":"Bojongindah","i_long":106.737035,"line":5,"station_id":"BOI","is_transit":false,"time":4,"i_lat":-6.159876,"distance":1152},{"is_transit":false,"time":2,"i_long":106.756522,"station_id":"TKO","i_lat":-6.1587309999999995,"line":5,"transit":false,"distance":2334,"station_name":"Taman Kota"},{"i_lat":-6.161433,"station_name":"Pesing","transit":false,"line":5,"is_transit":false,"time":2,"i_long":106.771379,"distance":1614,"station_id":"PSG"},{"is_transit":false,"time":2,"i_lat":-6.162021,"distance":2036,"i_long":106.788277,"line":5,"station_id":"GGL","station_name":"Grogol","transit":false},{"line":1,"station_name":"Duri","station_id":"DU","is_transit":true,"time":3,"i_lat":-6.155215,"distance":1700,"i_long":106.800832,"transit":true},{"time":8,"i_long":106.811091,"i_lat":-6.185545,"distance":3632,"station_name":"Tanah Abang","is_transit":false,"transit":false,"line":1,"station_id":"THB"},{"is_transit":false,"line":1,"station_name":"Karet","distance":2029,"station_id":"KAT","transit":false,"time":5,"i_long":106.816351,"i_lat":-6.20132},{"station_name":"Sudirman Baru","time":1,"line":1,"is_transit":false,"station_id":"SUDB","distance":471,"i_lat":-6.201433,"transit":false,"i_long":106.819881},{"station_id":"SUD","line":1,"station_name":"Sudirman","distance":280,"is_transit":false,"time":1,"i_lat":-6.202263,"i_long":106.822649,"transit":false},{"station_id":"MRI","transit":true,"distance":3186,"is_transit":true,"time":4,"i_lat":-6.209883,"station_name":"Manggarai","i_long":106.84912,"line":2},{"i_long":106.840169,"station_name":"Cikini","line":2,"time":4,"station_id":"CKI","distance":1590,"is_transit":false,"transit":false,"i_lat":-6.198556},{"is_transit":false,"transit":false,"time":3,"i_long":106.832183,"distance":1750,"station_name":"Gondangdia","i_lat":-6.186295,"line":2,"station_id":"GDD"},{"time":4,"transit":false,"is_transit":false,"distance":2015,"i_lat":-6.166716,"i_long":106.828284,"station_id":"JUA","station_name":"Juanda","line":2},{"i_long":106.827103,"station_id":"SW","station_name":"Sawah Besar","time":2,"is_transit":false,"distance":1149,"i_lat":-6.160725,"line":2,"transit":false},{"transit":false,"i_long":106.82482,"i_lat":-6.149769,"time":2,"station_id":"MGB","is_transit":false,"station_name":"Manggabesar","distance":906,"line":2},{"i_lat":-6.141205,"is_transit":false,"i_long":106.820901,"line":2,"station_id":"JAY","station_name":"Jayakarta","transit":false,"distance":1080,"time":2}],[{"i_lat":-6.176583,"station_id":"TNG","i_long":106.632761,"station_name":"Tangerang","distance":0,"time":0,"transit":false,"is_transit":false,"line":5},{"i_long":106.64657,"time":3,"line":5,"station_name":"Tanah Tinggi","distance":1547,"station_id":"TTI","transit":false,"i_lat":-6.17331,"is_transit":false},{"time":3,"distance":2028,"station_name":"Batuceper","i_lat":-6.171811,"is_transit":false,"transit":false,"station_id":"BPR","line":5,"i_long":106.665036},{"station_id":"PI","station_name":"Poris","distance":1834,"transit":false,"i_lat":-6.169933,"line":5,"is_transit":false,"time":3,"i_long":106.679458},{"station_name":"Kalideres","distance":2548,"time":3,"is_transit":false,"line":5,"station_id":"KDS","i_lat":-6.166068,"transit":false,"i_long":106.701612},{"station_name":"Rawa Buaya","is_transit":false,"time":3,"distance":2504,"line":5,"station_id":"RW","transit":false,"i_lat":-6.162758,"i_long":106.723064},{"station_id":"BOI","i_long":106.737035,"is_transit":false,"i_lat":-6.159876,"time":4,"line":5,"distance":1152,"station_name":"Bojongindah","transit":false},{"station_id":"TKO","transit":false,"line":5,"i_lat":-6.1587309999999995,"time":2,"is_transit":false,"station_name":"Taman Kota","i_long":106.756522,"distance":2334},{"transit":false,"i_lat":-6.161433,"station_name":"Pesing","is_transit":false,"line":5,"station_id":"PSG","i_long":106.771379,"distance":1614,"time":2},{"station_name":"Grogol","line":5,"i_lat":-6.162021,"i_long":106.788277,"distance":2036,"is_transit":false,"time":2,"transit":false,"station_id":"GGL"},{"i_long":106.800832,"station_name":"Duri","line":1,"is_transit":true,"transit":true,"time":3,"i_lat":-6.155215,"station_id":"DU","distance":1700},{"transit":false,"time":8,"station_id":"THB","i_lat":-6.185545,"line":1,"distance":3632,"i_long":106.811091,"station_name":"Tanah Abang","is_transit":false},{"is_transit":false,"time":5,"transit":false,"station_name":"Karet","i_long":106.816351,"distance":2029,"i_lat":-6.20132,"line":1,"station_id":"KAT"},{"station_name":"Sudirman Baru","time":1,"transit":false,"station_id":"SUDB","distance":471,"is_transit":false,"line":1,"i_long":106.819881,"i_lat":-6.201433},{"station_id":"SUD","time":1,"station_name":"Sudirman","transit":false,"is_transit":false,"i_lat":-6.202263,"i_long":106.822649,"line":1,"distance":280},{"distance":3186,"line":2,"time":4,"station_name":"Manggarai","is_transit":false,"station_id":"MRI","i_lat":-6.209883,"i_long":106.84912,"transit":false},{"station_id":"MTR","is_transit":false,"time":2,"distance":1275,"transit":false,"line":1,"station_name":"Matraman","i_lat":-6.212485,"i_long":106.858896},{"distance":1377,"is_transit":true,"time":8,"i_long":106.86807400000001,"station_name":"Jatinegara","line":1,"transit":true,"i_lat":-6.215091,"station_id":"JNG"},{"line":11,"station_name":"Pondok Jati","station_id":"POK","i_lat":-6.209188,"transit":false,"distance":1236,"is_transit":false,"time":2,"i_long":106.861737},{"is_transit":false,"i_lat":-6.193792,"line":11,"time":2,"station_name":"Kramat","station_id":"KMT","transit":false,"i_long":106.855437,"distance":1829},{"i_lat":-6.185975,"transit":false,"is_transit":false,"time":1,"i_long":106.850107,"station_name":"Gang Sentiong","station_id":"GST","line":11,"distance":973},{"line":11,"is_transit":false,"station_name":"Pasar Senen","distance":1567,"time":8,"i_long":106.84368,"station_id":"PSE","i_lat":-6.174784,"transit":false},{"is_transit":false,"i_lat":-6.161728,"transit":false,"station_id":"KMO","station_name":"Kemayoran","line":11,"time":4,"distance":1436,"i_long":106.839204},{"time":5,"station_id":"RJW","is_transit":false,"i_long":106.836569,"line":11,"i_lat":-6.14505,"station_name":"Rajawali","transit":false,"distance":1901},{"time":3,"station_id":"KPB","station_name":"Kampung Bandan","i_long":106.826365,"distance":1444,"is_transit":true,"line":4,"transit":true,"i_lat":-6.132549},{"distance":1364,"time":3,"station_id":"JAKK","i_lat":-6.137569,"is_transit":true,"i_long":106.812439,"transit":true,"line":2,"station_name":"Jakarta Kota"},{"distance":1264,"station_name":"Jayakarta","station_id":"JAY","is_transit":false,"line":2,"i_lat":-6.141205,"transit":false,"i_long":106.820901,"time":4}],[{"transit":false,"distance":0,"time":0,"station_name":"Tangerang","is_transit":false,"i_long":106.632761,"station_id":"TNG","line":5,"i_lat":-6.176583},{"distance":1547,"time":3,"i_lat":-6.17331,"is_transit":false,"i_long":106.64657,"station_id":"TTI","station_name":"Tanah Tinggi","transit":false,"line":5},{"distance":2028,"is_transit":false,"time":3,"transit":false,"station_id":"BPR","station_name":"Batuceper","i_lat":-6.171811,"i_long":106.665036,"line":5},{"time":3,"station_name":"Poris","distance":1834,"i_lat":-6.169933,"line":5,"transit":false,"station_id":"PI","i_long":106.679458,"is_transit":false},{"time":3,"station_name":"Kalideres","transit":false,"i_long":106.701612,"line":5,"station_id":"KDS","is_transit":false,"i_lat":-6.166068,"distance":2548},{"station_id":"RW","is_transit":false,"distance":2504,"station_name":"Rawa Buaya","time":3,"transit":false,"i_lat":-6.162758,"i_long":106.723064,"line":5},{"is_transit":false,"i_long":106.737035,"station_id":"BOI","station_name":"Bojongindah","i_lat":-6.159876,"line":5,"distance":1152,"time":4,"transit":false},{"time":2,"transit":false,"i_lat":-6.1587309999999995,"line":5,"i_long":106.756522,"distance":2334,"is_transit":false,"station_name":"Taman Kota","station_id":"TKO"},{"distance":1614,"time":2,"i_long":106.771379,"station_name":"Pesing","station_id":"PSG","line":5,"i_lat":-6.161433,"transit":false,"is_transit":false},{"time":2,"station_id":"GGL","station_name":"Grogol","distance":2036,"i_long":106.788277,"is_transit":false,"i_lat":-6.162021,"transit":false,"line":5},{"transit":true,"station_name":"Duri","i_lat":-6.155215,"time":3,"is_transit":true,"i_long":106.800832,"distance":1700,"station_id":"DU","line":1},{"time":4,"station_id":"AK","distance":1230,"i_long":106.79867,"line":1,"transit":false,"station_name":"Angke","i_lat":-6.144674,"is_transit":false},{"i_long":106.826365,"line":4,"time":9,"station_id":"KPB","is_transit":true,"station_name":"Kampung Bandan","distance":4102,"i_lat":-6.132549,"transit":true},{"station_name":"Rajawali","transit":false,"i_lat":-6.14505,"i_long":106.836569,"distance":1444,"time":3,"line":11,"is_transit":false,"station_id":"RJW"},{"station_id":"KMO","time":5,"distance":1901,"is_transit":false,"i_lat":-6.161728,"i_long":106.839204,"station_name":"Kemayoran","line":11,"transit":false},{"station_name":"Pasar Senen","is_transit":false,"line":11,"time":4,"i_long":106.84368,"distance":1436,"station_id":"PSE","i_lat":-6.174784,"transit":false},{"i_long":106.850107,"time":8,"transit":false,"is_transit":false,"station_name":"Gang Sentiong","distance":1567,"line":11,"i_lat":-6.185975,"station_id":"GST"},{"station_id":"KMT","distance":973,"i_lat":-6.193792,"i_long":106.855437,"line":11,"station_name":"Kramat","is_transit":false,"time":1,"transit":false},{"station_id":"POK","transit":false,"distance":1829,"is_transit":false,"time":2,"i_lat":-6.209188,"station_name":"Pondok Jati","i_long":106.861737,"line":11},{"station_id":"JNG","is_transit":true,"line":1,"transit":true,"i_long":106.86807400000001,"distance":1236,"station_name":"Jatinegara","time":9,"i_lat":-6.215091},{"time":2,"transit":false,"distance":1377,"is_transit":false,"station_name":"Matraman","station_id":"MTR","i_lat":-6.212485,"i_long":106.858896,"line":1},{"i_long":106.84912,"distance":1275,"station_name":"Manggarai","line":2,"i_lat":-6.209883,"time":2,"station_id":"MRI","is_transit":true,"transit":true},{"station_name":"Cikini","station_id":"CKI","is_transit":false,"transit":false,"i_long":106.840169,"i_lat":-6.198556,"line":2,"distance":1590,"time":4},{"time":3,"i_long":106.832183,"station_name":"Gondangdia","line":2,"distance":1750,"is_transit":false,"transit":false,"i_lat":-6.186295,"station_id":"GDD"},{"transit":false,"i_lat":-6.166716,"station_id":"JUA","line":2,"is_transit":false,"distance":2015,"time":4,"i_long":106.828284,"station_name":"Juanda"},{"is_transit":false,"time":2,"transit":false,"line":2,"station_id":"SW","i_long":106.827103,"distance":1149,"station_name":"Sawah Besar","i_lat":-6.160725},{"is_transit":false,"time":2,"distance":906,"line":2,"transit":false,"i_long":106.82482,"station_id":"MGB","i_lat":-6.149769,"station_name":"Manggabesar"},{"i_lat":-6.141205,"time":2,"is_transit":false,"i_long":106.820901,"station_name":"Jayakarta","transit":false,"line":2,"distance":1080,"station_id":"JAY"}]]}