{"data":[[{"distance":0,"is_transit":false,"station_id":"TNG","time":0,"i_long":106.632761,"transit":false,"i_lat":-6.176583,"line":5,"station_name":"Tangerang"},{"time":3,"i_long":106.64657,"station_id":"THI","station_name":"Tanah Tinggi","is_transit":false,"transit":false,"distance":1547,"line":5,"i_lat":-6.17331},{"station_name":"Batuceper","is_transit":false,"transit":false,"i_lat":-6.171811,"i_long":106.665036,"time":3,"station_id":"BPR","distance":2028,"line":5},{"is_transit":false,"distance":1834,"i_lat":-6.169933,"station_name":"Poris","transit":false,"i_long":106.679458,"line":5,"time":3,"station_id":"PI"},{"station_name":"Kalideres","is_transit":false,"time":3,"i_long":106.701612,"i_lat":-6.166068,"line":5,"station_id":"KDS","transit":false,"distance":2548},{"is_transit":false,"station_name":"Rawa Buaya","time":3,"station_id":"RW","i_long":106.723064,"line":5,"transit":false,"distance":2504,"i_lat":-6.162758},{"i_long":106.737035,"station_name":"Bojongindah","time":4,"is_transit":false,"line":5,"station_id":"BOI","i_lat":-6.159876,"transit":false,"distance":1152},{"distance":2334,"transit":false,"i_lat":-6.1587309999999995,"i_long":106.756522,"time":2,"is_transit":false,"line":5,"station_id":"TKO","station_name":"Taman Kota"},{"i_long":106.771379,"station_id":"PSG","i_lat":-6.161433,"is_transit":false,"transit":false,"time":2,"station_name":"Pesing","line":5,"distance":1614},{"station_name":"Grogol","is_transit":false,"i_lat":-6.162021,"line":5,"time":2,"transit":false,"distance":2036,"station_id":"GRG","i_long":106.788277},{"time":3,"distance":1700,"is_transit":true,"line":1,"i_lat":-6.155215,"station_name":"Duri","station_id":"DU","transit":true,"i_long":106.800832},{"distance":1230,"line":1,"is_transit":false,"i_lat":-6.144674,"transit":false,"station_id":"AK","station_name":"Angke","i_long":106.79867,"time":4},{"i_long":106.826365,"time":9,"distance":4102,"station_id":"KPB","is_transit":true,"station_name":"Kampung Bandan","i_lat":-6.132549,"line":4,"transit":true},{"i_lat":-6.14505,"is_transit":false,"transit":false,"station_id":"RJW","line":11,"time":3,"distance":1444,"i_long":106.836569,"station_name":"Rajawali"},{"distance":1901,"i_long":106.839204,"station_name":"Kemayoran","time":5,"is_transit":false,"transit":false,"i_lat":-6.161728,"line":11,"station_id":"KMO"},{"is_transit":false,"i_lat":-6.174784,"time":4,"transit":false,"line":11,"i_long":106.84368,"station_id":"PSE","distance":1436,"station_name":"Pasar Senen"},{"line":11,"i_long":106.850107,"time":8,"transit":false,"i_lat":-6.185975,"distance":1567,"station_id":"GST","station_name":"Gang Sentiong","is_transit":false},{"distance":973,"station_name":"Kramat","transit":false,"station_id":"KMT","i_lat":-6.193792,"i_long":106.855437,"line":11,"is_transit":false,"time":1},{"time":2,"i_lat":-6.209188,"transit":false,"station_name":"Pondok Jati","i_long":106.861737,"line":11,"distance":1829,"is_transit":false,"station_id":"POK"}],[{"i_long":106.632761,"line":5,"i_lat":-6.176583,"transit":false,"station_name":"Tangerang","station_id":"TNG","distance":0,"time":0,"is_transit":false},{"transit":false,"is_transit":false,"line":5,"time":3,"station_name":"Tanah Tinggi","distance":1547,"station_id":"THI","i_lat":-6.17331,"i_long":106.64657},{"is_transit":false,"i_long":106.665036,"time":3,"line":5,"station_name":"Batuceper","station_id":"BPR","transit":false,"i_lat":-6.171811,"distance":2028},{"i_lat":-6.169933,"distance":1834,"line":5,"i_long":106.679458,"is_transit":false,"station_id":"PI","time":3,"transit":false,"station_name":"Poris"},{"line":5,"time":3,"i_long":106.701612,"is_transit":false,"i_lat":-6.166068,"transit":false,"station_id":"KDS","distance":2548,"station_name":"Kalideres"},{"i_lat":-6.162758,"time":3,"station_id":"RW","i_long":106.723064,"station_name":"Rawa Buaya","is_transit":false,"line":5,"transit":false,"distance":2504},{"transit":false,"i_lat":-6.159876,"i_long":106.737035,"station_name":"Bojongindah","distance":1152,"is_transit":false,"time":4,"line":5,"station_id":"BOI"},{"station_name":"Taman Kota","time":2,"distance":2334,"is_transit":false,"transit":false,"i_long":106.756522,"line":5,"station_id":"TKO","i_lat":-6.1587309999999995},{"line":5,"distance":1614,"time":2,"station_id":"PSG","i_long":106.771379,"station_name":"Pesing","transit":false,"i_lat":-6.161433,"is_transit":false},{"distance":2036,"station_id":"GRG","i_long":106.788277,"station_name":"Grogol","time":2,"transit":false,"i_lat":-6.162021,"is_transit":false,"line":5},{"time":3,"transit":true,"i_lat":-6.155215,"line":1,"distance":1700,"station_name":"Duri","i_long":106.800832,"station_id":"DU","is_transit":true},{"station_id":"THB","i_lat":-6.185545,"station_name":"Tanah Abang","i_long":106.811091,"distance":3632,"time":8,"is_transit":false,"line":1,"transit":false},{"distance":2029,"i_lat":-6.20132,"is_transit":false,"station_id":"KAT","station_name":"Karet","transit":false,"line":1,"i_long":106.816351,"time":5},{"station_name":"Sudirman Baru","i_long":106.819881,"time":1,"distance":471,"is_transit":false,"station_id":"SUDB","line":1,"i_lat":-6.201433,"transit":false},{"i_long":106.822649,"time":1,"is_transit":false,"i_lat":-6.202263,"station_name":"Sudirman","station_id":"SUD","line":1,"distance":280,"transit":false},{"line":2,"station_name":"Manggarai","i_long":106.84912,"time":4,"is_transit":false,"station_id":"MRI","i_lat":-6.209883,"transit":false,"distance":3186},{"is_transit":false,"station_name":"Matraman","line":1,"distance":1275,"i_lat":-6.212485,"time":2,"station_id":"MTR","transit":false,"i_long":106.858896},{"transit":true,"time":8,"i_lat":-6.215091,"station_name":"Jatinegara","distance":1377,"station_id":"JNG","i_long":106.86807400000001,"is_transit":true,"line":1},{"i_long":106.861737,"distance":1236,"station_id":"POK","station_name":"Pondok Jati","transit":false,"is_transit":false,"line":11,"time":2,"i_lat":-6.209188}],[{"transit":false,"station_name":"Tangerang","station_id":"TNG","time":0,"is_transit":false,"i_long":106.632761,"distance":0,"i_lat":-6.176583,"line":5},{"i_lat":-6.17331,"time":3,"transit":false,"station_id":"THI","i_long":106.64657,"distance":1547,"is_transit":false,"station_name":"Tanah Tinggi","line":5},{"distance":2028,"transit":false,"time":3,"i_lat":-6.171811,"i_long":106.665036,"station_id":"BPR","line":5,"is_transit":false,"station_name":"Batuceper"},{"is_transit":false,"i_long":106.679458,"station_name":"Poris","i_lat":-6.169933,"line":5,"station_id":"PI","transit":false,"time":3,"distance":1834},{"station_id":"KDS","is_transit":false,"time":3,"distance":2548,"i_lat":-6.166068,"station_name":"Kalideres","i_long":106.701612,"line":5,"transit":false},{"transit":false,"station_id":"RW","is_transit":false,"i_long":106.723064,"time":3,"line":5,"station_name":"Rawa Buaya","distance":2504,"i_lat":-6.162758},{"i_long":106.737035,"station_id":"BOI","station_name":"Bojongindah","is_transit":false,"line":5,"time":4,"i_lat":-6.159876,"distance":1152,"transit":false},{"station_name":"Taman Kota","i_lat":-6.1587309999999995,"i_long":106.756522,"is_transit":false,"time":2,"transit":false,"distance":2334,"line":5,"station_id":"TKO"},{"is_transit":false,"i_lat":-6.161433,"time":2,"distance":1614,"transit":false,"i_long":106.771379,"station_id":"PSG","station_name":"Pesing","line":5},{"time":2,"i_long":106.788277,"distance":2036,"line":5,"station_id":"GRG","i_lat":-6.162021,"station_name":"Grogol","is_transit":false,"transit":false},{"station_id":"DU","station_name":"Duri","transit":true,"distance":1700,"line":1,"i_lat":-6.155215,"i_long":106.800832,"time":3,"is_transit":true},{"transit":false,"distance":1230,"station_name":"Angke","i_lat":-6.144674,"time":4,"line":1,"is_transit":false,"i_long":106.79867,"station_id":"AK"},{"distance":4102,"is_transit":true,"i_lat":-6.132549,"station_name":"Kampung Bandan","line":4,"transit":true,"station_id":"KPB","i_long":106.826365,"time":9},{"transit":true,"i_lat":-6.137569,"station_id":"JAKK","station_name":"Jakarta Kota","is_transit":true,"time":3,"line":2,"i_long":106.812439,"distance":1364},{"is_transit":false,"i_long":106.820901,"time":4,"line":2,"station_name":"Jayakarta","i_lat":-6.141205,"transit":false,"station_id":"JAY","distance":1264},{"transit":false,"is_transit":false,"line":2,"time":2,"i_lat":-6.149769,"i_long":106.82482,"station_name":"Manggabesar","distance":1080,"station_id":"MGB"},{"station_id":"SW","transit":false,"i_long":106.827103,"is_transit":false,"station_name":"Sawah Besar","line":2,"time":2,"distance":906,"i_lat":-6.160725},{"station_id":"JUA","time":2,"i_long":106.828284,"line":2,"is_transit":false,"transit":false,"station_name":"Juanda","distance":1149,"i_lat":-6.166716},{"i_lat":-6.186295,"station_id":"GDD","transit":false,"line":2,"i_long":106.832183,"station_name":"Gondangdia","distance":2015,"time":4,"is_transit":false},{"line":2,"station_name":"Cikini","transit":false,"time":3,"station_id":"CKI","is_transit":false,"distance":1750,"i_lat":-6.198556,"i_long":106.840169},{"distance":1590,"station_id":"MRI","transit":true,"time":4,"station_name":"Manggarai","i_lat":-6.209883,"line":2,"i_long":106.84912,"is_transit":true},{"line":1,"station_name":"Matraman","is_transit":false,"station_id":"MTR","transit":false,"i_lat":-6.212485,"distance":1275,"time":2,"i_long":106.858896},{"station_name":"Jatinegara","i_long":106.86807400000001,"transit":true,"station_id":"JNG","distance":1377,"time":8,"is_transit":true,"line":1,"i_lat":-6.215091},{"distance":1236,"time":2,"transit":false,"station_name":"Pondok Jati","station_id":"POK","line":11,"is_transit":false,"i_long":106.861737,"i_lat":-6.209188}],[{"transit":false,"time":0,"station_name":"Tangerang","is_transit":false,"station_id":"TNG","i_lat":-6.176583,"distance":0,"i_long":106.632761,"line":5},{"time":3,"distance":1547,"i_lat":-6.17331,"station_name":"Tanah Tinggi","is_transit":false,"transit":false,"station_id":"THI","i_long":106.64657,"line":5},{"i_long":106.665036,"line":5,"station_name":"Batuceper","station_id":"BPR","is_transit":false,"distance":2028,"transit":false,"time":3,"i_lat":-6.171811},{"distance":1834,"station_id":"PI","time":3,"i_lat":-6.169933,"station_name":"Poris","transit":false,"is_transit":false,"i_long":106.679458,"line":5},{"i_lat":-6.166068,"line":5,"transit":false,"time":3,"station_id":"KDS","distance":2548,"i_long":106.701612,"station_name":"Kalideres","is_transit":false},{"station_name":"Rawa Buaya","transit":false,"distance":2504,"is_transit":false,"i_lat":-6.162758,"line":5,"station_id":"RW","i_long":106.723064,"time":3},{"time":4,"i_lat":-6.159876,"transit":false,"station_id":"BOI","line":5,"i_long":106.737035,"station_name":"Bojongindah","is_transit":false,"distance":1152},{"time":2,"distance":2334,"station_id":"TKO","is_transit":false,"i_long":106.756522,"station_name":"Taman Kota","i_lat":-6.1587309999999995,"transit":false,"line":5},{"is_transit":false,"i_long":106.771379,"i_lat":-6.161433,"station_id":"PSG","station_name":"Pesing","distance":1614,"line":5,"transit":false,"time":2},{"line":5,"station_id":"GRG","transit":false,"distance":2036,"i_long":106.788277,"station_name":"Grogol","is_transit":false,"time":2,"i_lat":-6.162021},{"distance":1700,"line":1,"time":3,"is_transit":true,"station_id":"DU","station_name":"Duri","transit":true,"i_lat":-6.155215,"i_long":106.800832},{"line":1,"transit":false,"time":8,"distance":3632,"i_long":106.811091,"is_transit":false,"i_lat":-6.185545,"station_id":"THB","station_name":"Tanah Abang"},{"is_transit":false,"transit":false,"i_lat":-6.20132,"time":5,"distance":2029,"line":1,"station_id":"KAT","station_name":"Karet","i_long":106.816351},{"is_transit":false,"line":1,"i_long":106.819881,"time":1,"transit":false,"station_id":"SUDB","station_name":"Sudirman Baru","distance":471,"i_lat":-6.201433},{"line":1,"station_name":"Sudirman","station_id":"SUD","time":1,"transit":false,"distance":280,"i_lat":-6.202263,"is_transit":false,"i_long":106.822649},{"transit":true,"time":4,"line":2,"is_transit":true,"i_long":106.84912,"i_lat":-6.209883,"station_id":"MRI","distance":3186,"station_name":"Manggarai"},{"is_transit":false,"i_lat":-6.198556,"station_name":"Cikini","time":4,"distance":1590,"i_long":106.840169,"transit":false,"line":2,"station_id":"CKI"},{"line":2,"station_id":"GDD","distance":1750,"is_transit":false,"i_lat":-6.186295,"transit":false,"time":3,"station_name":"Gondangdia","i_long":106.832183},{"distance":2015,"i_long":106.828284,"i_lat":-6.166716,"line":2,"is_transit":false,"station_id":"JUA","transit":false,"station_name":"Juanda","time":4},{"time":2,"station_id":"SW","station_name":"Sawah Besar","transit":false,"distance":1149,"is_transit":false,"i_long":106.827103,"line":2,"i_lat":-6.160725},{"station_id":"MGB","is_transit":false,"i_lat":-6.149769,"station_name":"Manggabesar","time":2,"distance":906,"line":2,"i_long":106.82482,"transit":false},{"distance":1080,"time":2,"i_lat":-6.141205,"station_name":"Jayakarta","station_id":"JAY","transit":false,"is_transit":false,"i_long":106.820901,"line":2},{"station_name":"Jakarta Kota","station_id":"JAKK","line":2,"i_long":106.812439,"transit":true,"time":4,"is_transit":true,"i_lat":-6.137569,"distance":1264},{"distance":1364,"transit":true,"is_transit":true,"i_long":106.826365,"time":3,"i_lat":-6.132549,"station_id":"KPB","station_name":"Kampung Bandan","line":4},{"station_name":"Rajawali","is_transit":false,"time":3,"station_id":"RJW","distance":1444,"line":11,"i_long":106.836569,"i_lat":-6.14505,"transit":false},{"distance":1901,"i_lat":-6.161728,"transit":false,"line":11,"is_transit":false,"station_name":"Kemayoran","i_long":106.839204,"time":5,"station_id":"KMO"},{"line":11,"transit":false,"i_long":106.84368,"station_name":"Pasar Senen","distance":1436,"i_lat":-6.174784,"station_id":"PSE","is_transit":false,"time":4},{"time":8,"i_lat":-6.185975,"i_long":106.850107,"station_name":"Gang Sentiong","transit":false,"distance":1567,"line":11,"station_id":"GST","is_transit":false},{"station_name":"Kramat","transit":false,"is_transit":false,"time":1,"line":11,"distance":973,"i_lat":-6.193792,"i_long":106.855437,"station_id":"KMT"},{"station_name":"Pondok Jati","time":2,"line":11,"station_id":"POK","distance":1829,"i_lat":-6.209188,"i_long":106.861737,"is_transit":false,"transit":false}]]}