{"data":[[{"i_lat":-6.176583,"time":0,"i_long":106.632761,"station_id":"TNG","transit":false,"station_name":"Tangerang","line":5,"is_transit":false,"distance":0},{"time":3,"station_name":"Tanah Tinggi","transit":false,"station_id":"TTI","i_long":106.64657,"distance":1547,"is_transit":false,"line":5,"i_lat":-6.17331},{"station_id":"BPR","i_long":106.665036,"line":0,"is_transit":false,"station_name":"Batuceper","distance":2028,"i_lat":-6.171811,"time":3,"transit":false},{"transit":false,"station_id":"PI","station_name":"Poris","is_transit":false,"distance":1834,"time":3,"i_lat":-6.169933,"line":5,"i_long":106.679458},{"station_name":"Kalideres","i_lat":-6.166068,"time":3,"distance":2548,"i_long":106.701612,"is_transit":false,"line":5,"transit":false,"station_id":"KDS"},{"is_transit":false,"i_long":106.723064,"station_id":"RW","station_name":"Rawa Buaya","distance":2504,"time":3,"line":5,"transit":false,"i_lat":-6.162758},{"station_id":"BOI","time":4,"transit":false,"line":0,"i_lat":-6.159876,"station_name":"Bojongindah","is_transit":false,"i_long":106.737035,"distance":1152},{"transit":false,"is_transit":false,"line":5,"time":2,"station_id":"TKO","i_lat":-6.1587309999999995,"i_long":106.756522,"station_name":"Taman Kota","distance":2334},{"time":2,"station_name":"Pesing","line":5,"transit":false,"i_long":106.771379,"is_transit":false,"station_id":"PSG","distance":1614,"i_lat":-6.161433},{"transit":false,"i_lat":-6.162021,"line":5,"i_long":106.788277,"station_id":"GGL","station_name":"Grogol","time":2,"is_transit":false,"distance":2036},{"distance":1700,"i_lat":-6.155215,"i_long":106.800832,"line":1,"is_transit":true,"station_name":"Duri","time":3,"transit":true,"station_id":"DU"},{"i_lat":-6.185545,"time":8,"distance":3632,"station_id":"THB","i_long":106.811091,"line":1,"is_transit":true,"station_name":"Tanah Abang","transit":false},{"station_name":"Karet","station_id":"KAT","time":5,"is_transit":false,"distance":2029,"transit":false,"i_lat":-6.20132,"i_long":106.816351,"line":1},{"is_transit":false,"time":1,"station_name":"Sudirman Baru","distance":471,"i_long":106.819881,"line":1,"transit":false,"i_lat":-6.201433,"station_id":"SUDB"},{"distance":280,"is_transit":false,"i_long":106.822649,"line":1,"station_name":"Sudirman","transit":false,"i_lat":-6.202263,"station_id":"SUD","time":1},{"i_lat":-6.209883,"i_long":106.84912,"line":0,"distance":3186,"time":4,"station_name":"Manggarai","transit":true,"is_transit":true,"station_id":"MRI"},{"i_long":106.857948,"line":2,"station_id":"TEB","time":4,"is_transit":false,"station_name":"Tebet","transit":false,"distance":2610,"i_lat":-6.226659},{"i_long":106.856607,"time":2,"line":0,"transit":false,"distance":1230,"i_lat":-6.242512,"station_name":"Cawang","station_id":"CW","is_transit":false},{"transit":false,"station_id":"DRN","station_name":"Duren Kalibata","time":3,"distance":1546,"i_long":106.85449,"is_transit":false,"line":0,"i_lat":-6.255332},{"i_long":106.851577,"time":2,"line":2,"station_id":"PSMB","distance":824,"station_name":"Pasar Minggu Baru","transit":false,"i_lat":-6.263214,"is_transit":false},{"i_lat":-6.2842400000000005,"transit":false,"i_long":106.843999,"time":2,"is_transit":false,"distance":2380,"station_name":"Pasar Minggu","line":2,"station_id":"PSM"},{"station_name":"Tanjung Barat","station_id":"TNT","distance":2820,"time":4,"i_lat":-6.3080680000000005,"is_transit":false,"transit":false,"i_long":106.838896,"line":2},{"station_id":"LNA","distance":2671,"transit":false,"time":3,"station_name":"Lenteng Agung","i_long":106.832616,"line":2,"i_lat":-6.330363,"is_transit":false},{"station_id":"UP","time":2,"line":2,"i_long":106.834175,"station_name":"Univ. Pancasila","transit":false,"distance":1029,"is_transit":false,"i_lat":-6.339291},{"station_name":"Univ. Indonesia","i_lat":-6.360749,"is_transit":false,"time":3,"distance":2264,"station_id":"UI","line":2,"transit":false,"i_long":106.831474},{"distance":1109,"line":2,"station_name":"Pondok Cina","time":2,"transit":false,"station_id":"POC","is_transit":false,"i_lat":-6.369073,"i_long":106.831114},{"station_id":"DPB","is_transit":false,"i_long":106.819451,"distance":2727,"time":4,"i_lat":-6.391065,"station_name":"Depokbaru","transit":false,"line":0}],[{"distance":0,"transit":false,"is_transit":false,"i_long":106.632761,"station_name":"Tangerang","time":0,"i_lat":-6.176583,"line":5,"station_id":"TNG"},{"line":5,"distance":1547,"transit":false,"station_name":"Tanah Tinggi","station_id":"TTI","i_lat":-6.17331,"is_transit":false,"i_long":106.64657,"time":3},{"i_lat":-6.171811,"line":0,"is_transit":false,"transit":false,"time":3,"station_id":"BPR","i_long":106.665036,"distance":2028,"station_name":"Batuceper"},{"time":3,"station_id":"PI","station_name":"Poris","distance":1834,"is_transit":false,"i_long":106.679458,"line":5,"transit":false,"i_lat":-6.169933},{"distance":2548,"station_name":"Kalideres","i_lat":-6.166068,"time":3,"is_transit":false,"i_long":106.701612,"line":5,"station_id":"KDS","transit":false},{"station_name":"Rawa Buaya","time":3,"station_id":"RW","line":5,"i_long":106.723064,"is_transit":false,"distance":2504,"transit":false,"i_lat":-6.162758},{"station_id":"BOI","transit":false,"is_transit":false,"i_long":106.737035,"i_lat":-6.159876,"line":0,"time":4,"station_name":"Bojongindah","distance":1152},{"time":2,"station_id":"TKO","i_long":106.756522,"line":5,"distance":2334,"transit":false,"is_transit":false,"i_lat":-6.1587309999999995,"station_name":"Taman Kota"},{"is_transit":false,"station_name":"Pesing","distance":1614,"i_long":106.771379,"line":5,"i_lat":-6.161433,"transit":false,"station_id":"PSG","time":2},{"line":5,"i_long":106.788277,"transit":false,"station_id":"GGL","is_transit":false,"station_name":"Grogol","time":2,"i_lat":-6.162021,"distance":2036},{"i_lat":-6.155215,"line":1,"transit":true,"distance":1700,"time":3,"station_name":"Duri","i_long":106.800832,"station_id":"DU","is_transit":true},{"is_transit":false,"i_long":106.79867,"station_id":"AK","transit":false,"station_name":"Angke","distance":1230,"i_lat":-6.144674,"line":0,"time":4},{"i_lat":-6.132549,"i_long":106.826365,"station_id":"KPB","time":9,"is_transit":true,"line":0,"distance":4102,"transit":false,"station_name":"Kampung Bandan"},{"distance":1364,"line":0,"i_lat":-6.137569,"is_transit":true,"time":3,"i_long":106.812439,"transit":true,"station_name":"Jakarta Kota","station_id":"JAKK"},{"station_id":"JAY","station_name":"Jayakarta","is_transit":false,"transit":false,"distance":1264,"i_lat":-6.141205,"i_long":106.820901,"line":7,"time":4},{"transit":false,"station_name":"Manggabesar","line":2,"station_id":"MGB","i_long":106.82482,"is_transit":false,"time":2,"distance":1080,"i_lat":-6.149769},{"line":2,"time":2,"i_lat":-6.160725,"distance":906,"station_id":"SW","transit":false,"is_transit":false,"i_long":106.827103,"station_name":"Sawah Besar"},{"is_transit":false,"station_name":"Juanda","station_id":"JUA","distance":1149,"time":2,"i_lat":-6.166716,"transit":false,"i_long":106.828284,"line":2},{"station_name":"Gondangdia","i_long":106.832183,"transit":false,"line":2,"station_id":"GDD","time":4,"is_transit":false,"distance":2015,"i_lat":-6.186295},{"time":3,"distance":1750,"i_lat":-6.198556,"transit":false,"station_name":"Cikini","is_transit":false,"line":0,"station_id":"CKI","i_long":106.840169},{"station_id":"MRI","is_transit":true,"i_long":106.84912,"line":0,"transit":true,"time":4,"distance":1590,"i_lat":-6.209883,"station_name":"Manggarai"},{"time":4,"station_name":"Tebet","i_long":106.857948,"i_lat":-6.226659,"station_id":"TEB","line":2,"transit":false,"is_transit":false,"distance":2610},{"transit":false,"is_transit":false,"i_long":106.856607,"i_lat":-6.242512,"line":0,"time":2,"station_name":"Cawang","station_id":"CW","distance":1230},{"is_transit":false,"time":3,"i_lat":-6.255332,"transit":false,"line":0,"station_name":"Duren Kalibata","distance":1546,"i_long":106.85449,"station_id":"DRN"},{"time":2,"i_lat":-6.263214,"is_transit":false,"distance":824,"i_long":106.851577,"station_id":"PSMB","station_name":"Pasar Minggu Baru","line":2,"transit":false},{"time":2,"is_transit":false,"distance":2380,"i_long":106.843999,"line":2,"station_id":"PSM","station_name":"Pasar Minggu","transit":false,"i_lat":-6.2842400000000005},{"transit":false,"station_name":"Tanjung Barat","distance":2820,"i_long":106.838896,"station_id":"TNT","is_transit":false,"line":2,"i_lat":-6.3080680000000005,"time":4},{"time":3,"station_id":"LNA","line":2,"station_name":"Lenteng Agung","i_lat":-6.330363,"i_long":106.832616,"transit":false,"is_transit":false,"distance":2671},{"distance":1029,"i_lat":-6.339291,"station_name":"Univ. Pancasila","time":2,"transit":false,"i_long":106.834175,"line":2,"station_id":"UP","is_transit":false},{"line":2,"i_lat":-6.360749,"transit":false,"i_long":106.831474,"is_transit":false,"station_name":"Univ. Indonesia","time":3,"distance":2264,"station_id":"UI"},{"time":2,"distance":1109,"i_lat":-6.369073,"line":2,"station_name":"Pondok Cina","station_id":"POC","i_long":106.831114,"is_transit":false,"transit":false},{"line":0,"is_transit":false,"transit":false,"time":4,"station_name":"Depokbaru","i_long":106.819451,"i_lat":-6.391065,"station_id":"DPB","distance":2727}],[{"i_long":106.632761,"is_transit":false,"station_name":"Tangerang","time":0,"i_lat":-6.176583,"line":5,"distance":0,"transit":false,"station_id":"TNG"},{"i_lat":-6.17331,"i_long":106.64657,"time":3,"distance":1547,"station_id":"TTI","transit":false,"is_transit":false,"line":5,"station_name":"Tanah Tinggi"},{"station_name":"Batuceper","i_lat":-6.171811,"time":3,"station_id":"BPR","i_long":106.665036,"line":0,"transit":false,"is_transit":false,"distance":2028},{"transit":false,"i_long":106.679458,"station_name":"Poris","i_lat":-6.169933,"line":5,"is_transit":false,"station_id":"PI","distance":1834,"time":3},{"station_id":"KDS","distance":2548,"time":3,"transit":false,"is_transit":false,"station_name":"Kalideres","i_lat":-6.166068,"line":5,"i_long":106.701612},{"time":3,"i_lat":-6.162758,"station_id":"RW","i_long":106.723064,"line":5,"distance":2504,"transit":false,"station_name":"Rawa Buaya","is_transit":false},{"i_long":106.737035,"station_id":"BOI","distance":1152,"i_lat":-6.159876,"station_name":"Bojongindah","is_transit":false,"line":0,"time":4,"transit":false},{"is_transit":false,"transit":false,"station_name":"Taman Kota","i_lat":-6.1587309999999995,"time":2,"station_id":"TKO","distance":2334,"i_long":106.756522,"line":5},{"time":2,"station_name":"Pesing","transit":false,"i_long":106.771379,"is_transit":false,"distance":1614,"line":5,"station_id":"PSG","i_lat":-6.161433},{"transit":false,"line":5,"distance":2036,"i_long":106.788277,"is_transit":false,"station_id":"GGL","i_lat":-6.162021,"station_name":"Grogol","time":2},{"time":3,"station_id":"DU","i_lat":-6.155215,"transit":true,"i_long":106.800832,"line":1,"distance":1700,"station_name":"Duri","is_transit":true},{"i_lat":-6.144674,"i_long":106.79867,"distance":1230,"line":0,"is_transit":false,"station_name":"Angke","time":4,"transit":false,"station_id":"AK"},{"station_name":"Kampung Bandan","time":9,"i_lat":-6.132549,"line":0,"i_long":106.826365,"transit":true,"station_id":"KPB","distance":4102,"is_transit":true},{"station_id":"RJW","i_lat":-6.14505,"time":3,"line":11,"is_transit":false,"i_long":106.836569,"distance":1444,"station_name":"Rajawali","transit":false},{"i_lat":-6.161728,"transit":false,"is_transit":false,"distance":1901,"line":11,"time":5,"station_id":"KMO","station_name":"Kemayoran","i_long":106.839204},{"station_id":"PSE","station_name":"Pasar Senen","transit":false,"i_long":106.84368,"time":4,"is_transit":false,"distance":1436,"i_lat":-6.174784,"line":11},{"distance":1567,"time":8,"station_name":"Gang Sentiong","is_transit":false,"transit":false,"station_id":"GST","line":11,"i_long":106.850107,"i_lat":-6.185975},{"distance":973,"station_name":"Kramat","i_lat":-6.193792,"line":11,"transit":false,"i_long":106.855437,"time":1,"is_transit":false,"station_id":"KMT"},{"time":2,"is_transit":false,"line":11,"transit":false,"station_name":"Pondok Jati","i_lat":-6.209188,"i_long":106.861737,"distance":1829,"station_id":"POK"},{"station_id":"JNG","time":9,"is_transit":true,"i_lat":-6.215091,"transit":true,"i_long":106.86807400000001,"distance":1236,"line":0,"station_name":"Jatinegara"},{"transit":false,"is_transit":false,"distance":1377,"station_name":"Matraman","station_id":"MTR","i_lat":-6.212485,"i_long":106.858896,"time":2,"line":1},{"station_name":"Manggarai","distance":1275,"transit":true,"i_long":106.84912,"is_transit":true,"i_lat":-6.209883,"line":0,"time":2,"station_id":"MRI"},{"i_lat":-6.226659,"transit":false,"distance":2610,"i_long":106.857948,"station_name":"Tebet","time":4,"is_transit":false,"line":2,"station_id":"TEB"},{"time":2,"distance":1230,"i_long":106.856607,"station_name":"Cawang","i_lat":-6.242512,"transit":false,"line":0,"station_id":"CW","is_transit":false},{"is_transit":false,"i_long":106.85449,"i_lat":-6.255332,"station_id":"DRN","time":3,"transit":false,"distance":1546,"station_name":"Duren Kalibata","line":0},{"station_id":"PSMB","is_transit":false,"time":2,"i_lat":-6.263214,"line":2,"transit":false,"station_name":"Pasar Minggu Baru","distance":824,"i_long":106.851577},{"transit":false,"station_id":"PSM","i_lat":-6.2842400000000005,"i_long":106.843999,"is_transit":false,"time":2,"distance":2380,"station_name":"Pasar Minggu","line":2},{"station_name":"Tanjung Barat","distance":2820,"transit":false,"line":2,"time":4,"i_long":106.838896,"is_transit":false,"i_lat":-6.3080680000000005,"station_id":"TNT"},{"transit":false,"is_transit":false,"line":2,"i_long":106.832616,"i_lat":-6.330363,"station_name":"Lenteng Agung","time":3,"distance":2671,"station_id":"LNA"},{"station_id":"UP","i_long":106.834175,"is_transit":false,"station_name":"Univ. Pancasila","line":2,"time":2,"transit":false,"distance":1029,"i_lat":-6.339291},{"station_name":"Univ. Indonesia","transit":false,"time":3,"distance":2264,"i_lat":-6.360749,"station_id":"UI","i_long":106.831474,"is_transit":false,"line":2},{"distance":1109,"i_long":106.831114,"transit":false,"station_name":"Pondok Cina","i_lat":-6.369073,"station_id":"POC","is_transit":false,"time":2,"line":2},{"distance":2727,"line":0,"station_id":"DPB","i_long":106.819451,"time":4,"station_name":"Depokbaru","transit":false,"is_transit":false,"i_lat":-6.391065}]]}