{"data":[[{"i_lat":-6.176583,"i_long":106.632761,"station_name":"Tangerang","station_id":"TNG","transit":false,"is_transit":false,"line":5,"distance":0,"time":0},{"i_lat":-6.17331,"is_transit":false,"time":3,"station_name":"Tanah Tinggi","distance":1547,"i_long":106.64657,"transit":false,"station_id":"TTI","line":5},{"station_id":"BPR","transit":false,"time":3,"station_name":"Batuceper","i_long":106.665036,"i_lat":-6.171811,"line":5,"is_transit":false,"distance":2028},{"distance":1834,"station_id":"PI","is_transit":false,"transit":false,"i_long":106.679458,"i_lat":-6.169933,"time":3,"station_name":"Poris","line":5},{"transit":false,"station_id":"KDS","time":3,"distance":2548,"line":5,"station_name":"Kalideres","is_transit":false,"i_long":106.701612,"i_lat":-6.166068},{"time":3,"i_lat":-6.162758,"distance":2504,"i_long":106.723064,"station_id":"RW","is_transit":false,"line":5,"transit":false,"station_name":"Rawa Buaya"},{"line":5,"i_long":106.737035,"transit":false,"is_transit":false,"station_id":"BOI","distance":1152,"i_lat":-6.159876,"station_name":"Bojongindah","time":4},{"time":2,"distance":2334,"i_long":106.756522,"transit":false,"line":5,"i_lat":-6.1587309999999995,"station_name":"Taman Kota","station_id":"TKO","is_transit":false},{"station_name":"Pesing","is_transit":false,"i_lat":-6.161433,"distance":1614,"station_id":"PSG","transit":false,"line":5,"time":2,"i_long":106.771379},{"is_transit":false,"i_lat":-6.162021,"transit":false,"station_name":"Grogol","distance":2036,"station_id":"GGL","i_long":106.788277,"line":5,"time":2},{"transit":true,"distance":1700,"line":1,"i_lat":-6.155215,"station_id":"DU","i_long":106.800832,"is_transit":true,"station_name":"Duri","time":3},{"station_id":"THB","is_transit":true,"i_long":106.811091,"line":1,"time":8,"distance":3632,"station_name":"Tanah Abang","transit":true,"i_lat":-6.185545},{"line":6,"time":6,"station_id":"PLM","is_transit":false,"distance":3191,"i_lat":-6.207404,"i_long":106.79689,"station_name":"Palmerah","transit":false},{"i_lat":-6.237242,"transit":false,"line":6,"time":7,"distance":3737,"station_id":"KBY","is_transit":false,"station_name":"Kebayoran","i_long":106.780334},{"i_lat":-6.276362,"time":8,"distance":6218,"line":6,"transit":false,"station_name":"Pondokranji","i_long":106.74273,"station_id":"PDJ","is_transit":false},{"i_long":106.728916,"station_name":"Jurangmangu","station_id":"JMU","transit":false,"i_lat":-6.288927,"is_transit":false,"time":3,"distance":2179,"line":6},{"time":4,"distance":1994,"station_name":"Sudimara","transit":false,"is_transit":false,"station_id":"SDM","i_lat":-6.296963,"i_long":106.712277,"line":6},{"is_transit":false,"line":6,"i_lat":-6.314823,"i_long":106.675475,"station_name":"Rawa Buntu","transit":false,"station_id":"RU","time":6,"distance":4566},{"station_name":"Serpong","station_id":"SRP","is_transit":false,"i_long":106.66566,"line":6,"transit":false,"i_lat":-6.319871,"distance":2413,"time":4},{"i_long":106.640411,"station_id":"CSK","time":4,"is_transit":false,"i_lat":-6.32484,"transit":false,"line":3,"distance":1784,"station_name":"Cisauk"}],[{"line":5,"station_name":"Tangerang","transit":false,"is_transit":false,"station_id":"TNG","time":0,"distance":0,"i_lat":-6.176583,"i_long":106.632761},{"is_transit":false,"transit":false,"station_id":"TTI","distance":1547,"time":3,"i_lat":-6.17331,"i_long":106.64657,"line":5,"station_name":"Tanah Tinggi"},{"station_name":"Batuceper","station_id":"BPR","distance":2028,"line":5,"i_long":106.665036,"i_lat":-6.171811,"is_transit":false,"transit":false,"time":3},{"i_lat":-6.169933,"station_name":"Poris","is_transit":false,"transit":false,"time":3,"station_id":"PI","distance":1834,"i_long":106.679458,"line":5},{"station_name":"Kalideres","station_id":"KDS","is_transit":false,"time":3,"transit":false,"distance":2548,"i_lat":-6.166068,"i_long":106.701612,"line":5},{"transit":false,"is_transit":false,"line":5,"distance":2504,"time":3,"station_id":"RW","i_lat":-6.162758,"station_name":"Rawa Buaya","i_long":106.723064},{"transit":false,"station_name":"Bojongindah","i_lat":-6.159876,"time":4,"is_transit":false,"distance":1152,"i_long":106.737035,"line":5,"station_id":"BOI"},{"i_lat":-6.1587309999999995,"station_name":"Taman Kota","transit":false,"station_id":"TKO","is_transit":false,"time":2,"distance":2334,"i_long":106.756522,"line":5},{"transit":false,"station_name":"Pesing","line":5,"time":2,"station_id":"PSG","distance":1614,"i_long":106.771379,"is_transit":false,"i_lat":-6.161433},{"time":2,"line":5,"i_long":106.788277,"transit":false,"i_lat":-6.162021,"station_id":"GGL","is_transit":false,"distance":2036,"station_name":"Grogol"},{"line":1,"i_long":106.800832,"time":3,"station_id":"DU","transit":true,"station_name":"Duri","distance":1700,"is_transit":true,"i_lat":-6.155215},{"i_lat":-6.144674,"station_name":"Angke","station_id":"AK","is_transit":false,"time":4,"line":1,"i_long":106.79867,"distance":1230,"transit":false},{"line":4,"station_id":"KPB","transit":true,"time":9,"i_lat":-6.132549,"i_long":106.826365,"distance":4102,"station_name":"Kampung Bandan","is_transit":true},{"i_lat":-6.137569,"i_long":106.812439,"line":2,"time":3,"transit":true,"is_transit":true,"distance":1364,"station_name":"Jakarta Kota","station_id":"JAKK"},{"distance":1264,"station_id":"JAY","line":2,"time":4,"i_lat":-6.141205,"transit":false,"is_transit":false,"station_name":"Jayakarta","i_long":106.820901},{"station_name":"Manggabesar","station_id":"MGB","line":2,"i_lat":-6.149769,"transit":false,"time":2,"distance":1080,"i_long":106.82482,"is_transit":false},{"transit":false,"distance":906,"i_lat":-6.160725,"station_id":"SW","is_transit":false,"time":2,"station_name":"Sawah Besar","line":2,"i_long":106.827103},{"transit":false,"i_long":106.828284,"line":2,"station_id":"JUA","i_lat":-6.166716,"station_name":"Juanda","distance":1149,"time":2,"is_transit":false},{"line":2,"station_id":"GDD","time":4,"is_transit":false,"transit":false,"i_lat":-6.186295,"station_name":"Gondangdia","i_long":106.832183,"distance":2015},{"time":3,"transit":false,"distance":1750,"is_transit":false,"line":2,"i_long":106.840169,"i_lat":-6.198556,"station_name":"Cikini","station_id":"CKI"},{"transit":true,"station_name":"Manggarai","i_lat":-6.209883,"i_long":106.84912,"station_id":"MRI","distance":1590,"time":4,"line":2,"is_transit":true},{"station_name":"Sudirman","is_transit":false,"station_id":"SUD","time":4,"i_lat":-6.202263,"i_long":106.822649,"distance":3186,"transit":false,"line":1},{"transit":false,"station_name":"Sudirman Baru","time":1,"distance":280,"i_long":106.819881,"line":1,"is_transit":false,"station_id":"SUDB","i_lat":-6.201433},{"transit":false,"time":1,"i_long":106.816351,"i_lat":-6.20132,"line":1,"station_name":"Karet","station_id":"KAT","distance":471,"is_transit":false},{"is_transit":true,"line":1,"distance":2029,"i_lat":-6.185545,"station_id":"THB","i_long":106.811091,"time":5,"station_name":"Tanah Abang","transit":true},{"distance":3191,"time":6,"i_long":106.79689,"transit":false,"is_transit":false,"station_name":"Palmerah","line":6,"i_lat":-6.207404,"station_id":"PLM"},{"i_lat":-6.237242,"time":7,"is_transit":false,"station_name":"Kebayoran","station_id":"KBY","transit":false,"distance":3737,"i_long":106.780334,"line":6},{"i_lat":-6.276362,"time":8,"line":6,"station_name":"Pondokranji","station_id":"PDJ","i_long":106.74273,"transit":false,"is_transit":false,"distance":6218},{"i_long":106.728916,"distance":2179,"station_id":"JMU","transit":false,"station_name":"Jurangmangu","is_transit":false,"time":3,"i_lat":-6.288927,"line":6},{"line":6,"i_lat":-6.296963,"station_name":"Sudimara","is_transit":false,"time":4,"i_long":106.712277,"station_id":"SDM","transit":false,"distance":1994},{"station_name":"Rawa Buntu","distance":4566,"i_lat":-6.314823,"line":6,"transit":false,"is_transit":false,"time":6,"i_long":106.675475,"station_id":"RU"},{"is_transit":false,"time":4,"station_id":"SRP","distance":2413,"i_lat":-6.319871,"line":6,"transit":false,"i_long":106.66566,"station_name":"Serpong"},{"i_long":106.640411,"distance":1784,"transit":false,"station_id":"CSK","time":4,"station_name":"Cisauk","is_transit":false,"i_lat":-6.32484,"line":3}],[{"station_name":"Tangerang","time":0,"line":5,"distance":0,"station_id":"TNG","is_transit":false,"i_lat":-6.176583,"transit":false,"i_long":106.632761},{"line":5,"transit":false,"station_name":"Tanah Tinggi","is_transit":false,"station_id":"TTI","time":3,"distance":1547,"i_lat":-6.17331,"i_long":106.64657},{"transit":false,"station_name":"Batuceper","time":3,"line":5,"is_transit":false,"station_id":"BPR","distance":2028,"i_long":106.665036,"i_lat":-6.171811},{"station_id":"PI","time":3,"station_name":"Poris","distance":1834,"transit":false,"i_lat":-6.169933,"line":5,"i_long":106.679458,"is_transit":false},{"station_id":"KDS","time":3,"distance":2548,"i_lat":-6.166068,"line":5,"i_long":106.701612,"transit":false,"station_name":"Kalideres","is_transit":false},{"line":5,"time":3,"transit":false,"station_id":"RW","distance":2504,"i_long":106.723064,"station_name":"Rawa Buaya","is_transit":false,"i_lat":-6.162758},{"i_lat":-6.159876,"station_name":"Bojongindah","i_long":106.737035,"station_id":"BOI","line":5,"transit":false,"is_transit":false,"distance":1152,"time":4},{"distance":2334,"time":2,"line":5,"i_lat":-6.1587309999999995,"station_name":"Taman Kota","is_transit":false,"transit":false,"station_id":"TKO","i_long":106.756522},{"i_long":106.771379,"line":5,"time":2,"is_transit":false,"distance":1614,"i_lat":-6.161433,"transit":false,"station_name":"Pesing","station_id":"PSG"},{"transit":false,"is_transit":false,"station_name":"Grogol","line":5,"i_long":106.788277,"time":2,"station_id":"GGL","distance":2036,"i_lat":-6.162021},{"station_id":"DU","station_name":"Duri","time":3,"is_transit":true,"i_lat":-6.155215,"i_long":106.800832,"transit":true,"distance":1700,"line":1},{"distance":1230,"i_lat":-6.144674,"transit":false,"station_name":"Angke","is_transit":false,"line":1,"station_id":"AK","time":4,"i_long":106.79867},{"distance":4102,"i_long":106.826365,"station_name":"Kampung Bandan","station_id":"KPB","is_transit":true,"i_lat":-6.132549,"transit":true,"line":4,"time":9},{"i_long":106.836569,"time":3,"station_name":"Rajawali","line":11,"station_id":"RJW","distance":1444,"i_lat":-6.14505,"is_transit":false,"transit":false},{"station_name":"Kemayoran","i_long":106.839204,"station_id":"KMO","transit":false,"i_lat":-6.161728,"line":11,"is_transit":false,"time":5,"distance":1901},{"i_long":106.84368,"line":11,"station_name":"Pasar Senen","is_transit":false,"distance":1436,"transit":false,"time":4,"station_id":"PSE","i_lat":-6.174784},{"time":8,"station_name":"Gang Sentiong","i_long":106.850107,"is_transit":false,"line":11,"distance":1567,"transit":false,"station_id":"GST","i_lat":-6.185975},{"is_transit":false,"line":11,"i_long":106.855437,"distance":973,"time":1,"station_name":"Kramat","transit":false,"station_id":"KMT","i_lat":-6.193792},{"station_name":"Pondok Jati","i_lat":-6.209188,"is_transit":false,"distance":1829,"station_id":"POK","time":2,"line":11,"i_long":106.861737,"transit":false},{"i_long":106.86807400000001,"distance":1236,"time":9,"transit":true,"i_lat":-6.215091,"line":1,"station_name":"Jatinegara","station_id":"JNG","is_transit":true},{"transit":false,"time":2,"i_lat":-6.212485,"i_long":106.858896,"station_id":"MTR","distance":1377,"line":1,"station_name":"Matraman","is_transit":false},{"distance":1275,"station_name":"Manggarai","line":2,"time":2,"transit":false,"station_id":"MRI","i_long":106.84912,"is_transit":false,"i_lat":-6.209883},{"transit":false,"is_transit":false,"station_id":"SUD","i_long":106.822649,"i_lat":-6.202263,"distance":3186,"station_name":"Sudirman","line":1,"time":4},{"transit":false,"station_name":"Sudirman Baru","time":1,"is_transit":false,"distance":280,"line":1,"i_lat":-6.201433,"station_id":"SUDB","i_long":106.819881},{"distance":471,"station_name":"Karet","time":1,"i_long":106.816351,"transit":false,"station_id":"KAT","line":1,"i_lat":-6.20132,"is_transit":false},{"station_name":"Tanah Abang","station_id":"THB","time":5,"i_long":106.811091,"i_lat":-6.185545,"distance":2029,"line":1,"transit":true,"is_transit":true},{"distance":3191,"i_lat":-6.207404,"i_long":106.79689,"station_id":"PLM","is_transit":false,"station_name":"Palmerah","time":6,"transit":false,"line":6},{"i_long":106.780334,"is_transit":false,"i_lat":-6.237242,"station_id":"KBY","transit":false,"distance":3737,"station_name":"Kebayoran","time":7,"line":6},{"i_lat":-6.276362,"distance":6218,"transit":false,"is_transit":false,"station_name":"Pondokranji","line":6,"station_id":"PDJ","time":8,"i_long":106.74273},{"i_long":106.728916,"is_transit":false,"distance":2179,"line":6,"transit":false,"time":3,"station_id":"JMU","i_lat":-6.288927,"station_name":"Jurangmangu"},{"time":4,"i_lat":-6.296963,"station_id":"SDM","is_transit":false,"distance":1994,"i_long":106.712277,"station_name":"Sudimara","line":6,"transit":false},{"distance":4566,"line":6,"i_lat":-6.314823,"transit":false,"station_name":"Rawa Buntu","is_transit":false,"station_id":"RU","time":6,"i_long":106.675475},{"is_transit":false,"transit":false,"i_lat":-6.319871,"i_long":106.66566,"line":6,"station_id":"SRP","time":4,"distance":2413,"station_name":"Serpong"},{"station_name":"Cisauk","distance":1784,"is_transit":false,"line":3,"transit":false,"i_lat":-6.32484,"time":4,"station_id":"CSK","i_long":106.640411}]]}