{"data":[[{"station_id":"TNG","time":0,"distance":0,"transit":false,"station_name":"Tangerang","i_long":106.632761,"line":5,"i_lat":-6.176583,"is_transit":false},{"transit":false,"is_transit":false,"i_lat":-6.17331,"station_name":"Tanah Tinggi","station_id":"TTI","i_long":106.64657,"distance":1547,"time":3,"line":5},{"i_lat":-6.171811,"i_long":106.665036,"station_name":"Batuceper","line":5,"is_transit":false,"time":3,"transit":false,"station_id":"BPR","distance":2028},{"time":3,"station_id":"PI","distance":1834,"i_lat":-6.169933,"station_name":"Poris","i_long":106.679458,"is_transit":false,"line":5,"transit":false},{"time":3,"transit":false,"station_name":"Kalideres","i_lat":-6.166068,"station_id":"KDS","is_transit":false,"i_long":106.701612,"line":5,"distance":2548},{"i_lat":-6.162758,"transit":false,"is_transit":false,"station_id":"RW","distance":2504,"station_name":"Rawa Buaya","line":5,"i_long":106.723064,"time":3},{"station_name":"Bojongindah","i_lat":-6.159876,"is_transit":false,"distance":1152,"i_long":106.737035,"transit":false,"line":5,"time":4,"station_id":"BOI"},{"line":5,"transit":false,"i_long":106.756522,"station_name":"Taman Kota","time":2,"i_lat":-6.1587309999999995,"station_id":"TKO","is_transit":false,"distance":2334},{"station_id":"PSG","i_lat":-6.161433,"line":5,"transit":false,"station_name":"Pesing","distance":1614,"is_transit":false,"time":2,"i_long":106.771379},{"transit":false,"station_name":"Grogol","station_id":"GGL","is_transit":false,"distance":2036,"i_lat":-6.162021,"i_long":106.788277,"line":5,"time":2},{"time":3,"station_id":"DU","distance":1700,"i_lat":-6.155215,"is_transit":true,"i_long":106.800832,"station_name":"Duri","transit":true,"line":1},{"i_lat":-6.185545,"transit":false,"i_long":106.811091,"distance":3632,"station_id":"THB","time":8,"is_transit":false,"line":1,"station_name":"Tanah Abang"},{"time":5,"i_long":106.816351,"i_lat":-6.20132,"distance":2029,"transit":false,"station_id":"KAT","station_name":"Karet","line":1,"is_transit":false},{"transit":false,"time":1,"i_long":106.819881,"i_lat":-6.201433,"line":1,"station_name":"Sudirman Baru","is_transit":false,"distance":471,"station_id":"SUDB"},{"transit":false,"i_long":106.822649,"is_transit":false,"line":1,"station_id":"SUD","time":1,"station_name":"Sudirman","i_lat":-6.202263,"distance":280},{"line":2,"is_transit":true,"time":4,"transit":true,"i_long":106.84912,"station_name":"Manggarai","station_id":"MRI","i_lat":-6.209883,"distance":3186},{"time":4,"station_name":"Tebet","line":2,"is_transit":false,"i_lat":-6.226659,"transit":false,"station_id":"TEB","distance":2610,"i_long":106.857948},{"is_transit":false,"distance":1230,"i_long":106.856607,"station_name":"Cawang","i_lat":-6.242512,"line":2,"time":2,"transit":false,"station_id":"CW"},{"is_transit":false,"i_long":106.85449,"line":2,"station_id":"DRN","time":3,"distance":1546,"i_lat":-6.255332,"station_name":"Duren Kalibata","transit":false},{"i_lat":-6.263214,"station_id":"PSMB","transit":false,"station_name":"Pasar Minggu Baru","is_transit":false,"distance":824,"i_long":106.851577,"time":2,"line":2},{"transit":false,"line":2,"is_transit":false,"station_name":"Pasar Minggu","i_long":106.843999,"station_id":"PSM","distance":2380,"time":2,"i_lat":-6.2842400000000005}],[{"distance":0,"station_name":"Tangerang","is_transit":false,"transit":false,"i_lat":-6.176583,"station_id":"TNG","i_long":106.632761,"line":5,"time":0},{"station_id":"TTI","i_lat":-6.17331,"distance":1547,"station_name":"Tanah Tinggi","i_long":106.64657,"time":3,"line":5,"transit":false,"is_transit":false},{"line":5,"station_id":"BPR","time":3,"station_name":"Batuceper","i_lat":-6.171811,"is_transit":false,"distance":2028,"i_long":106.665036,"transit":false},{"i_lat":-6.169933,"station_id":"PI","transit":false,"i_long":106.679458,"line":5,"time":3,"distance":1834,"is_transit":false,"station_name":"Poris"},{"station_id":"KDS","is_transit":false,"i_long":106.701612,"distance":2548,"transit":false,"time":3,"i_lat":-6.166068,"line":5,"station_name":"Kalideres"},{"transit":false,"is_transit":false,"time":3,"line":5,"distance":2504,"station_id":"RW","i_long":106.723064,"station_name":"Rawa Buaya","i_lat":-6.162758},{"line":5,"is_transit":false,"time":4,"distance":1152,"i_long":106.737035,"transit":false,"i_lat":-6.159876,"station_name":"Bojongindah","station_id":"BOI"},{"is_transit":false,"i_lat":-6.1587309999999995,"distance":2334,"transit":false,"station_name":"Taman Kota","time":2,"i_long":106.756522,"line":5,"station_id":"TKO"},{"line":5,"is_transit":false,"distance":1614,"i_lat":-6.161433,"station_name":"Pesing","station_id":"PSG","i_long":106.771379,"time":2,"transit":false},{"station_name":"Grogol","transit":false,"is_transit":false,"distance":2036,"station_id":"GGL","i_long":106.788277,"time":2,"line":5,"i_lat":-6.162021},{"distance":1700,"line":1,"i_long":106.800832,"time":3,"transit":true,"station_name":"Duri","is_transit":true,"i_lat":-6.155215,"station_id":"DU"},{"station_id":"AK","is_transit":false,"i_long":106.79867,"line":1,"station_name":"Angke","distance":1230,"transit":false,"i_lat":-6.144674,"time":4},{"is_transit":true,"time":9,"line":4,"station_id":"KPB","i_lat":-6.132549,"distance":4102,"i_long":106.826365,"station_name":"Kampung Bandan","transit":true},{"i_long":106.812439,"line":2,"station_name":"Jakarta Kota","is_transit":true,"time":3,"station_id":"JAKK","distance":1364,"i_lat":-6.137569,"transit":true},{"station_id":"JAY","time":4,"is_transit":false,"distance":1264,"station_name":"Jayakarta","i_lat":-6.141205,"i_long":106.820901,"transit":false,"line":2},{"distance":1080,"transit":false,"i_long":106.82482,"time":2,"i_lat":-6.149769,"station_name":"Manggabesar","station_id":"MGB","is_transit":false,"line":2},{"i_long":106.827103,"i_lat":-6.160725,"is_transit":false,"station_id":"SW","transit":false,"station_name":"Sawah Besar","time":2,"distance":906,"line":2},{"line":2,"station_name":"Juanda","transit":false,"station_id":"JUA","time":2,"distance":1149,"i_lat":-6.166716,"i_long":106.828284,"is_transit":false},{"i_lat":-6.186295,"i_long":106.832183,"station_id":"GDD","station_name":"Gondangdia","line":2,"transit":false,"distance":2015,"is_transit":false,"time":4},{"station_name":"Cikini","transit":false,"i_long":106.840169,"distance":1750,"station_id":"CKI","i_lat":-6.198556,"line":2,"is_transit":false,"time":3},{"station_name":"Manggarai","station_id":"MRI","time":4,"transit":false,"i_lat":-6.209883,"i_long":106.84912,"line":2,"distance":1590,"is_transit":false},{"is_transit":false,"station_id":"TEB","i_lat":-6.226659,"transit":false,"i_long":106.857948,"time":4,"station_name":"Tebet","line":2,"distance":2610},{"is_transit":false,"i_long":106.856607,"station_name":"Cawang","station_id":"CW","line":2,"transit":false,"distance":1230,"i_lat":-6.242512,"time":2},{"transit":false,"i_lat":-6.255332,"station_name":"Duren Kalibata","is_transit":false,"station_id":"DRN","time":3,"line":2,"i_long":106.85449,"distance":1546},{"i_lat":-6.263214,"station_id":"PSMB","distance":824,"station_name":"Pasar Minggu Baru","time":2,"line":2,"is_transit":false,"i_long":106.851577,"transit":false},{"i_lat":-6.2842400000000005,"time":2,"line":2,"transit":false,"station_id":"PSM","is_transit":false,"i_long":106.843999,"distance":2380,"station_name":"Pasar Minggu"}],[{"line":5,"i_lat":-6.176583,"i_long":106.632761,"distance":0,"station_name":"Tangerang","time":0,"station_id":"TNG","transit":false,"is_transit":false},{"time":3,"distance":1547,"i_lat":-6.17331,"transit":false,"i_long":106.64657,"station_name":"Tanah Tinggi","is_transit":false,"station_id":"TTI","line":5},{"distance":2028,"i_long":106.665036,"line":5,"station_id":"BPR","is_transit":false,"station_name":"Batuceper","transit":false,"time":3,"i_lat":-6.171811},{"i_long":106.679458,"line":5,"is_transit":false,"transit":false,"i_lat":-6.169933,"station_id":"PI","time":3,"distance":1834,"station_name":"Poris"},{"line":5,"distance":2548,"station_name":"Kalideres","transit":false,"i_lat":-6.166068,"time":3,"is_transit":false,"i_long":106.701612,"station_id":"KDS"},{"station_id":"RW","is_transit":false,"station_name":"Rawa Buaya","i_lat":-6.162758,"i_long":106.723064,"distance":2504,"line":5,"transit":false,"time":3},{"is_transit":false,"i_lat":-6.159876,"station_name":"Bojongindah","distance":1152,"line":5,"transit":false,"time":4,"i_long":106.737035,"station_id":"BOI"},{"i_lat":-6.1587309999999995,"transit":false,"i_long":106.756522,"is_transit":false,"station_id":"TKO","time":2,"distance":2334,"line":5,"station_name":"Taman Kota"},{"i_lat":-6.161433,"is_transit":false,"transit":false,"time":2,"distance":1614,"i_long":106.771379,"station_name":"Pesing","station_id":"PSG","line":5},{"station_name":"Grogol","station_id":"GGL","time":2,"i_lat":-6.162021,"line":5,"is_transit":false,"transit":false,"distance":2036,"i_long":106.788277},{"line":1,"station_name":"Duri","time":3,"i_long":106.800832,"transit":true,"is_transit":true,"station_id":"DU","i_lat":-6.155215,"distance":1700},{"time":4,"line":1,"i_long":106.79867,"transit":false,"i_lat":-6.144674,"station_name":"Angke","station_id":"AK","is_transit":false,"distance":1230},{"station_name":"Kampung Bandan","line":4,"distance":4102,"i_lat":-6.132549,"is_transit":true,"station_id":"KPB","i_long":106.826365,"time":9,"transit":true},{"i_lat":-6.14505,"i_long":106.836569,"line":11,"is_transit":false,"transit":false,"distance":1444,"station_name":"Rajawali","time":3,"station_id":"RJW"},{"distance":1901,"is_transit":false,"i_lat":-6.161728,"i_long":106.839204,"time":5,"line":11,"station_name":"Kemayoran","transit":false,"station_id":"KMO"},{"time":4,"i_lat":-6.174784,"i_long":106.84368,"station_name":"Pasar Senen","line":11,"distance":1436,"station_id":"PSE","transit":false,"is_transit":false},{"line":11,"distance":1567,"station_name":"Gang Sentiong","time":8,"station_id":"GST","transit":false,"i_lat":-6.185975,"is_transit":false,"i_long":106.850107},{"transit":false,"is_transit":false,"i_long":106.855437,"line":11,"distance":973,"i_lat":-6.193792,"station_name":"Kramat","time":1,"station_id":"KMT"},{"is_transit":false,"i_long":106.861737,"transit":false,"distance":1829,"station_name":"Pondok Jati","i_lat":-6.209188,"line":11,"station_id":"POK","time":2},{"is_transit":true,"distance":1236,"transit":true,"station_name":"Jatinegara","station_id":"JNG","time":9,"line":1,"i_lat":-6.215091,"i_long":106.86807400000001},{"is_transit":false,"line":1,"i_lat":-6.212485,"station_name":"Matraman","distance":1377,"time":2,"transit":false,"station_id":"MTR","i_long":106.858896},{"time":2,"station_id":"MRI","i_long":106.84912,"station_name":"Manggarai","transit":true,"distance":1275,"line":2,"i_lat":-6.209883,"is_transit":true},{"station_id":"TEB","is_transit":false,"i_lat":-6.226659,"station_name":"Tebet","transit":false,"distance":2610,"i_long":106.857948,"line":2,"time":4},{"i_long":106.856607,"distance":1230,"station_id":"CW","is_transit":false,"i_lat":-6.242512,"station_name":"Cawang","transit":false,"time":2,"line":2},{"transit":false,"station_name":"Duren Kalibata","station_id":"DRN","i_lat":-6.255332,"line":2,"i_long":106.85449,"is_transit":false,"distance":1546,"time":3},{"station_id":"PSMB","transit":false,"station_name":"Pasar Minggu Baru","distance":824,"i_long":106.851577,"is_transit":false,"time":2,"i_lat":-6.263214,"line":2},{"time":2,"station_name":"Pasar Minggu","line":2,"station_id":"PSM","i_long":106.843999,"distance":2380,"i_lat":-6.2842400000000005,"is_transit":false,"transit":false}]]}