{"data":[[{"time":0,"line":5,"station_id":"TNG","transit":false,"station_name":"Tangerang","is_transit":false,"i_long":106.632761,"distance":0,"i_lat":-6.176583},{"i_lat":-6.17331,"time":3,"i_long":106.64657,"line":5,"station_id":"TTI","distance":1547,"is_transit":false,"station_name":"Tanah Tinggi","transit":false},{"distance":2028,"i_long":106.665036,"station_name":"Batuceper","station_id":"BPR","i_lat":-6.171811,"transit":false,"line":5,"time":3,"is_transit":false},{"station_name":"Poris","is_transit":false,"time":3,"i_lat":-6.169933,"station_id":"PI","distance":1834,"i_long":106.679458,"line":5,"transit":false},{"i_lat":-6.166068,"i_long":106.701612,"line":5,"station_name":"Kalideres","distance":2548,"is_transit":false,"time":3,"transit":false,"station_id":"KDS"},{"i_long":106.723064,"station_name":"Rawa Buaya","i_lat":-6.162758,"is_transit":false,"distance":2504,"line":5,"transit":false,"station_id":"RW","time":3},{"i_long":106.737035,"is_transit":false,"i_lat":-6.159876,"transit":false,"line":5,"station_name":"Bojongindah","station_id":"BOI","distance":1152,"time":4},{"line":5,"station_name":"Taman Kota","is_transit":false,"station_id":"TKO","i_long":106.756522,"distance":2334,"transit":false,"time":2,"i_lat":-6.1587309999999995},{"i_lat":-6.161433,"station_name":"Pesing","i_long":106.771379,"is_transit":false,"distance":1614,"transit":false,"line":5,"station_id":"PSG","time":2},{"i_lat":-6.162021,"is_transit":false,"line":5,"station_name":"Grogol","distance":2036,"station_id":"GGL","i_long":106.788277,"time":2,"transit":false},{"transit":true,"time":3,"i_lat":-6.155215,"station_name":"Duri","i_long":106.800832,"station_id":"DU","is_transit":true,"line":1,"distance":1700},{"transit":true,"station_id":"THB","is_transit":true,"line":1,"i_lat":-6.185545,"station_name":"Tanah Abang","time":8,"i_long":106.811091,"distance":3632},{"i_long":106.79689,"station_name":"Palmerah","transit":false,"station_id":"PLM","is_transit":false,"distance":3191,"time":6,"i_lat":-6.207404,"line":6},{"i_lat":-6.237242,"i_long":106.780334,"line":6,"transit":false,"is_transit":false,"station_id":"KBY","station_name":"Kebayoran","time":7,"distance":3737},{"transit":false,"station_name":"Pondokranji","is_transit":false,"time":8,"line":6,"station_id":"PDJ","i_lat":-6.276362,"distance":6218,"i_long":106.74273},{"transit":false,"is_transit":false,"station_id":"JMU","i_lat":-6.288927,"station_name":"Jurangmangu","distance":2179,"time":3,"i_long":106.728916,"line":6},{"time":4,"line":6,"i_long":106.712277,"transit":false,"i_lat":-6.296963,"station_id":"SDM","station_name":"Sudimara","is_transit":false,"distance":1994},{"is_transit":false,"i_long":106.675475,"distance":4566,"line":6,"time":6,"transit":false,"station_name":"Rawa Buntu","station_id":"RU","i_lat":-6.314823},{"i_long":106.66566,"transit":false,"station_id":"SRP","time":4,"is_transit":false,"distance":2413,"i_lat":-6.319871,"line":6,"station_name":"Serpong"},{"distance":1784,"i_long":106.640411,"station_id":"CSK","time":4,"line":3,"station_name":"Cisauk","is_transit":false,"i_lat":-6.32484,"transit":false},{"station_name":"Cicayur","i_lat":-6.329547,"station_id":"CC","distance":2519,"i_long":106.617853,"transit":false,"is_transit":false,"line":3,"time":4},{"station_id":"PRP","time":8,"line":6,"station_name":"Parung Panjang","i_long":106.568863,"is_transit":false,"distance":5968,"transit":false,"i_lat":-6.3441410000000005},{"transit":false,"line":3,"distance":7025,"i_lat":-6.354349,"station_name":"Cilejit","i_long":106.508482,"time":9,"station_id":"CJT","is_transit":false}],[{"station_id":"TNG","line":5,"i_long":106.632761,"time":0,"distance":0,"i_lat":-6.176583,"is_transit":false,"station_name":"Tangerang","transit":false},{"is_transit":false,"station_id":"TTI","distance":1547,"time":3,"transit":false,"i_lat":-6.17331,"line":5,"station_name":"Tanah Tinggi","i_long":106.64657},{"is_transit":false,"time":3,"transit":false,"distance":2028,"station_id":"BPR","i_long":106.665036,"i_lat":-6.171811,"station_name":"Batuceper","line":5},{"time":3,"station_id":"PI","station_name":"Poris","transit":false,"i_long":106.679458,"is_transit":false,"line":5,"i_lat":-6.169933,"distance":1834},{"station_name":"Kalideres","distance":2548,"transit":false,"station_id":"KDS","i_lat":-6.166068,"time":3,"is_transit":false,"i_long":106.701612,"line":5},{"time":3,"is_transit":false,"transit":false,"station_name":"Rawa Buaya","distance":2504,"i_long":106.723064,"line":5,"station_id":"RW","i_lat":-6.162758},{"station_id":"BOI","i_lat":-6.159876,"time":4,"station_name":"Bojongindah","line":5,"is_transit":false,"distance":1152,"transit":false,"i_long":106.737035},{"station_name":"Taman Kota","i_long":106.756522,"i_lat":-6.1587309999999995,"station_id":"TKO","is_transit":false,"distance":2334,"transit":false,"time":2,"line":5},{"station_id":"PSG","distance":1614,"line":5,"time":2,"i_long":106.771379,"station_name":"Pesing","is_transit":false,"transit":false,"i_lat":-6.161433},{"line":5,"transit":false,"is_transit":false,"i_lat":-6.162021,"time":2,"i_long":106.788277,"station_name":"Grogol","station_id":"GGL","distance":2036},{"station_name":"Duri","station_id":"DU","is_transit":true,"i_long":106.800832,"line":1,"i_lat":-6.155215,"time":3,"distance":1700,"transit":true},{"station_id":"AK","i_lat":-6.144674,"distance":1230,"transit":false,"i_long":106.79867,"line":1,"is_transit":false,"station_name":"Angke","time":4},{"i_long":106.826365,"distance":4102,"i_lat":-6.132549,"station_id":"KPB","is_transit":true,"time":9,"line":4,"station_name":"Kampung Bandan","transit":true},{"station_id":"JAKK","station_name":"Jakarta Kota","distance":1364,"i_long":106.812439,"transit":true,"line":2,"is_transit":true,"time":3,"i_lat":-6.137569},{"time":4,"distance":1264,"i_lat":-6.141205,"transit":false,"station_name":"Jayakarta","line":2,"i_long":106.820901,"station_id":"JAY","is_transit":false},{"i_long":106.82482,"line":2,"station_name":"Manggabesar","station_id":"MGB","i_lat":-6.149769,"time":2,"transit":false,"distance":1080,"is_transit":false},{"station_id":"SW","transit":false,"station_name":"Sawah Besar","time":2,"i_long":106.827103,"distance":906,"is_transit":false,"line":2,"i_lat":-6.160725},{"i_long":106.828284,"station_name":"Juanda","distance":1149,"transit":false,"i_lat":-6.166716,"time":2,"line":2,"is_transit":false,"station_id":"JUA"},{"time":4,"transit":false,"line":2,"station_id":"GDD","station_name":"Gondangdia","is_transit":false,"i_long":106.832183,"distance":2015,"i_lat":-6.186295},{"is_transit":false,"time":3,"i_long":106.840169,"station_id":"CKI","transit":false,"station_name":"Cikini","distance":1750,"i_lat":-6.198556,"line":2},{"line":2,"station_name":"Manggarai","i_lat":-6.209883,"station_id":"MRI","time":4,"distance":1590,"is_transit":true,"i_long":106.84912,"transit":true},{"i_lat":-6.202263,"transit":false,"distance":3186,"is_transit":false,"station_name":"Sudirman","i_long":106.822649,"time":4,"line":1,"station_id":"SUD"},{"line":1,"distance":280,"station_name":"Sudirman Baru","transit":false,"time":1,"station_id":"SUDB","i_long":106.819881,"is_transit":false,"i_lat":-6.201433},{"transit":false,"station_id":"KAT","is_transit":false,"i_lat":-6.20132,"time":1,"line":1,"station_name":"Karet","i_long":106.816351,"distance":471},{"time":5,"transit":true,"station_id":"THB","i_long":106.811091,"line":1,"i_lat":-6.185545,"is_transit":true,"station_name":"Tanah Abang","distance":2029},{"i_long":106.79689,"distance":3191,"is_transit":false,"station_id":"PLM","line":6,"i_lat":-6.207404,"time":6,"station_name":"Palmerah","transit":false},{"time":7,"line":6,"station_id":"KBY","i_lat":-6.237242,"station_name":"Kebayoran","transit":false,"distance":3737,"i_long":106.780334,"is_transit":false},{"time":8,"is_transit":false,"distance":6218,"transit":false,"i_long":106.74273,"station_name":"Pondokranji","station_id":"PDJ","i_lat":-6.276362,"line":6},{"line":6,"is_transit":false,"i_long":106.728916,"i_lat":-6.288927,"station_name":"Jurangmangu","transit":false,"time":3,"station_id":"JMU","distance":2179},{"is_transit":false,"i_long":106.712277,"station_id":"SDM","line":6,"transit":false,"distance":1994,"station_name":"Sudimara","time":4,"i_lat":-6.296963},{"distance":4566,"i_long":106.675475,"station_name":"Rawa Buntu","time":6,"i_lat":-6.314823,"station_id":"RU","line":6,"is_transit":false,"transit":false},{"station_name":"Serpong","time":4,"transit":false,"is_transit":false,"i_lat":-6.319871,"i_long":106.66566,"line":6,"distance":2413,"station_id":"SRP"},{"line":3,"transit":false,"distance":1784,"station_name":"Cisauk","i_long":106.640411,"station_id":"CSK","is_transit":false,"time":4,"i_lat":-6.32484},{"is_transit":false,"transit":false,"time":4,"i_lat":-6.329547,"station_id":"CC","station_name":"Cicayur","i_long":106.617853,"line":3,"distance":2519},{"is_transit":false,"distance":5968,"line":6,"transit":false,"time":8,"i_lat":-6.3441410000000005,"i_long":106.568863,"station_name":"Parung Panjang","station_id":"PRP"},{"i_lat":-6.354349,"i_long":106.508482,"station_name":"Cilejit","line":3,"transit":false,"is_transit":false,"distance":7025,"station_id":"CJT","time":9}],[{"station_id":"TNG","distance":0,"line":5,"station_name":"Tangerang","transit":false,"time":0,"i_lat":-6.176583,"is_transit":false,"i_long":106.632761},{"i_lat":-6.17331,"transit":false,"station_name":"Tanah Tinggi","distance":1547,"station_id":"TTI","i_long":106.64657,"line":5,"is_transit":false,"time":3},{"i_lat":-6.171811,"line":5,"station_id":"BPR","distance":2028,"i_long":106.665036,"is_transit":false,"station_name":"Batuceper","transit":false,"time":3},{"i_long":106.679458,"transit":false,"line":5,"time":3,"station_id":"PI","is_transit":false,"i_lat":-6.169933,"distance":1834,"station_name":"Poris"},{"station_id":"KDS","time":3,"distance":2548,"i_long":106.701612,"transit":false,"station_name":"Kalideres","is_transit":false,"i_lat":-6.166068,"line":5},{"distance":2504,"station_id":"RW","station_name":"Rawa Buaya","i_long":106.723064,"transit":false,"i_lat":-6.162758,"is_transit":false,"time":3,"line":5},{"i_long":106.737035,"station_name":"Bojongindah","distance":1152,"i_lat":-6.159876,"is_transit":false,"time":4,"line":5,"transit":false,"station_id":"BOI"},{"line":5,"i_lat":-6.1587309999999995,"station_name":"Taman Kota","station_id":"TKO","is_transit":false,"i_long":106.756522,"transit":false,"distance":2334,"time":2},{"time":2,"station_name":"Pesing","transit":false,"station_id":"PSG","i_lat":-6.161433,"distance":1614,"is_transit":false,"i_long":106.771379,"line":5},{"station_name":"Grogol","i_long":106.788277,"station_id":"GGL","transit":false,"is_transit":false,"line":5,"distance":2036,"time":2,"i_lat":-6.162021},{"i_lat":-6.155215,"time":3,"is_transit":true,"station_id":"DU","i_long":106.800832,"line":1,"station_name":"Duri","transit":true,"distance":1700},{"line":1,"time":4,"distance":1230,"i_lat":-6.144674,"i_long":106.79867,"station_name":"Angke","station_id":"AK","is_transit":false,"transit":false},{"time":9,"i_long":106.826365,"station_id":"KPB","transit":true,"is_transit":true,"line":4,"station_name":"Kampung Bandan","distance":4102,"i_lat":-6.132549},{"line":11,"i_long":106.836569,"transit":false,"time":3,"i_lat":-6.14505,"station_id":"RJW","is_transit":false,"station_name":"Rajawali","distance":1444},{"is_transit":false,"distance":1901,"station_name":"Kemayoran","transit":false,"time":5,"i_lat":-6.161728,"line":11,"station_id":"KMO","i_long":106.839204},{"distance":1436,"station_id":"PSE","time":4,"is_transit":false,"i_lat":-6.174784,"i_long":106.84368,"transit":false,"station_name":"Pasar Senen","line":11},{"i_long":106.850107,"station_id":"GST","i_lat":-6.185975,"distance":1567,"station_name":"Gang Sentiong","time":8,"transit":false,"is_transit":false,"line":11},{"i_lat":-6.193792,"station_id":"KMT","time":1,"station_name":"Kramat","line":11,"is_transit":false,"transit":false,"distance":973,"i_long":106.855437},{"transit":false,"is_transit":false,"distance":1829,"station_name":"Pondok Jati","line":11,"i_lat":-6.209188,"station_id":"POK","time":2,"i_long":106.861737},{"distance":1236,"station_name":"Jatinegara","i_long":106.86807400000001,"station_id":"JNG","is_transit":true,"time":9,"line":1,"i_lat":-6.215091,"transit":true},{"line":1,"transit":false,"station_name":"Matraman","station_id":"MTR","is_transit":false,"time":2,"distance":1377,"i_long":106.858896,"i_lat":-6.212485},{"distance":1275,"i_lat":-6.209883,"is_transit":false,"i_long":106.84912,"time":2,"transit":false,"line":2,"station_name":"Manggarai","station_id":"MRI"},{"line":1,"station_name":"Sudirman","is_transit":false,"distance":3186,"i_lat":-6.202263,"time":4,"i_long":106.822649,"transit":false,"station_id":"SUD"},{"station_name":"Sudirman Baru","station_id":"SUDB","line":1,"i_lat":-6.201433,"time":1,"i_long":106.819881,"is_transit":false,"transit":false,"distance":280},{"i_lat":-6.20132,"station_name":"Karet","is_transit":false,"transit":false,"station_id":"KAT","distance":471,"i_long":106.816351,"line":1,"time":1},{"station_name":"Tanah Abang","distance":2029,"station_id":"THB","transit":true,"time":5,"i_lat":-6.185545,"i_long":106.811091,"is_transit":true,"line":1},{"is_transit":false,"distance":3191,"line":6,"station_id":"PLM","transit":false,"time":6,"i_long":106.79689,"station_name":"Palmerah","i_lat":-6.207404},{"line":6,"i_lat":-6.237242,"station_id":"KBY","transit":false,"is_transit":false,"distance":3737,"time":7,"i_long":106.780334,"station_name":"Kebayoran"},{"i_lat":-6.276362,"station_id":"PDJ","i_long":106.74273,"transit":false,"is_transit":false,"distance":6218,"station_name":"Pondokranji","line":6,"time":8},{"station_name":"Jurangmangu","station_id":"JMU","is_transit":false,"distance":2179,"line":6,"i_long":106.728916,"transit":false,"i_lat":-6.288927,"time":3},{"i_long":106.712277,"line":6,"station_id":"SDM","i_lat":-6.296963,"transit":false,"is_transit":false,"distance":1994,"time":4,"station_name":"Sudimara"},{"transit":false,"station_name":"Rawa Buntu","distance":4566,"is_transit":false,"i_lat":-6.314823,"line":6,"station_id":"RU","i_long":106.675475,"time":6},{"distance":2413,"station_name":"Serpong","i_lat":-6.319871,"i_long":106.66566,"line":6,"transit":false,"station_id":"SRP","is_transit":false,"time":4},{"time":4,"line":3,"distance":1784,"transit":false,"station_name":"Cisauk","is_transit":false,"i_lat":-6.32484,"station_id":"CSK","i_long":106.640411},{"transit":false,"station_name":"Cicayur","is_transit":false,"station_id":"CC","line":3,"i_long":106.617853,"time":4,"distance":2519,"i_lat":-6.329547},{"time":8,"station_name":"Parung Panjang","distance":5968,"station_id":"PRP","line":6,"i_long":106.568863,"is_transit":false,"transit":false,"i_lat":-6.3441410000000005},{"transit":false,"is_transit":false,"distance":7025,"i_lat":-6.354349,"station_id":"CJT","i_long":106.508482,"line":3,"station_name":"Cilejit","time":9}]]}