{"data":[[{"i_long":106.632761,"transit":false,"station_id":"TNG","time":0,"is_transit":false,"distance":0,"i_lat":-6.176583,"line":5,"station_name":"Tangerang"},{"distance":1547,"i_long":106.64657,"station_id":"TTI","time":3,"line":5,"station_name":"Tanah Tinggi","is_transit":false,"i_lat":-6.17331,"transit":false},{"station_name":"Batuceper","i_lat":-6.171811,"station_id":"BPR","distance":2028,"i_long":106.665036,"transit":false,"is_transit":false,"line":5,"time":3},{"station_id":"PI","time":3,"line":5,"station_name":"Poris","i_long":106.679458,"is_transit":false,"distance":1834,"transit":false,"i_lat":-6.169933},{"transit":false,"line":5,"distance":2548,"i_lat":-6.166068,"station_name":"Kalideres","i_long":106.701612,"time":3,"station_id":"KDS","is_transit":false},{"station_id":"RW","line":5,"i_long":106.723064,"time":3,"distance":2504,"i_lat":-6.162758,"is_transit":false,"station_name":"Rawa Buaya","transit":false},{"is_transit":false,"station_id":"BOI","distance":1152,"time":4,"transit":false,"i_lat":-6.159876,"line":5,"station_name":"Bojongindah","i_long":106.737035},{"is_transit":false,"time":2,"transit":false,"distance":2334,"station_id":"TKO","i_long":106.756522,"i_lat":-6.1587309999999995,"station_name":"Taman Kota","line":5},{"time":2,"station_id":"PSG","station_name":"Pesing","transit":false,"i_long":106.771379,"is_transit":false,"line":5,"i_lat":-6.161433,"distance":1614},{"station_name":"Grogol","distance":2036,"transit":false,"station_id":"GGL","i_lat":-6.162021,"time":2,"is_transit":false,"i_long":106.788277,"line":5},{"time":3,"is_transit":true,"transit":true,"station_name":"Duri","distance":1700,"i_long":106.800832,"line":1,"station_id":"DU","i_lat":-6.155215},{"station_id":"THB","i_lat":-6.185545,"time":8,"station_name":"Tanah Abang","line":1,"is_transit":false,"distance":3632,"transit":false,"i_long":106.811091},{"station_name":"Karet","i_long":106.816351,"i_lat":-6.20132,"station_id":"KAT","is_transit":false,"distance":2029,"transit":false,"time":5,"line":1},{"station_id":"SUDB","distance":471,"line":1,"time":1,"i_long":106.819881,"station_name":"Sudirman Baru","is_transit":false,"transit":false,"i_lat":-6.201433},{"line":1,"transit":false,"is_transit":false,"i_lat":-6.202263,"time":1,"i_long":106.822649,"station_name":"Sudirman","station_id":"SUD","distance":280},{"station_name":"Manggarai","station_id":"MRI","is_transit":true,"i_long":106.84912,"line":2,"i_lat":-6.209883,"time":4,"distance":3186,"transit":true},{"station_id":"TEB","i_lat":-6.226659,"distance":2610,"transit":false,"i_long":106.857948,"line":2,"is_transit":false,"station_name":"Tebet","time":4},{"station_name":"Cawang","station_id":"CW","time":2,"i_long":106.856607,"line":2,"transit":false,"is_transit":false,"i_lat":-6.242512,"distance":1230},{"i_long":106.85449,"time":3,"station_id":"DRN","distance":1546,"transit":false,"i_lat":-6.255332,"station_name":"Duren Kalibata","is_transit":false,"line":2},{"station_id":"PSMB","is_transit":false,"i_long":106.851577,"distance":824,"i_lat":-6.263214,"time":2,"line":2,"station_name":"Pasar Minggu Baru","transit":false},{"distance":2380,"line":2,"station_id":"PSM","transit":false,"station_name":"Pasar Minggu","time":2,"is_transit":false,"i_lat":-6.2842400000000005,"i_long":106.843999},{"line":2,"i_lat":-6.3080680000000005,"station_name":"Tanjung Barat","time":4,"transit":false,"distance":2820,"is_transit":false,"i_long":106.838896,"station_id":"TNT"},{"i_long":106.832616,"station_name":"Lenteng Agung","distance":2671,"transit":false,"i_lat":-6.330363,"time":3,"line":2,"is_transit":false,"station_id":"LNA"},{"time":2,"transit":false,"line":2,"station_id":"UP","station_name":"Univ. Pancasila","is_transit":false,"i_long":106.834175,"distance":1029,"i_lat":-6.339291},{"is_transit":false,"time":3,"i_long":106.831474,"station_id":"UI","transit":false,"station_name":"Univ. Indonesia","distance":2264,"i_lat":-6.360749,"line":2},{"line":2,"station_name":"Pondok Cina","i_lat":-6.369073,"station_id":"POC","time":2,"distance":1109,"is_transit":false,"i_long":106.831114,"transit":false},{"i_lat":-6.391065,"transit":false,"distance":2727,"is_transit":false,"station_name":"Depokbaru","i_long":106.819451,"time":4,"line":2,"station_id":"DPB"}],[{"line":5,"distance":0,"station_name":"Tangerang","transit":false,"time":0,"station_id":"TNG","i_long":106.632761,"is_transit":false,"i_lat":-6.176583},{"transit":false,"station_id":"TTI","is_transit":false,"i_lat":-6.17331,"time":3,"line":5,"station_name":"Tanah Tinggi","i_long":106.64657,"distance":1547},{"time":3,"transit":false,"station_id":"BPR","i_long":106.665036,"line":5,"i_lat":-6.171811,"is_transit":false,"station_name":"Batuceper","distance":2028},{"i_long":106.679458,"distance":1834,"is_transit":false,"station_id":"PI","line":5,"i_lat":-6.169933,"time":3,"station_name":"Poris","transit":false},{"time":3,"line":5,"station_id":"KDS","i_lat":-6.166068,"station_name":"Kalideres","transit":false,"distance":2548,"i_long":106.701612,"is_transit":false},{"time":3,"is_transit":false,"distance":2504,"transit":false,"i_long":106.723064,"station_name":"Rawa Buaya","station_id":"RW","i_lat":-6.162758,"line":5},{"line":5,"is_transit":false,"i_long":106.737035,"i_lat":-6.159876,"station_name":"Bojongindah","transit":false,"time":4,"station_id":"BOI","distance":1152},{"is_transit":false,"i_long":106.756522,"station_id":"TKO","line":5,"transit":false,"distance":2334,"station_name":"Taman Kota","time":2,"i_lat":-6.1587309999999995},{"distance":1614,"i_long":106.771379,"station_name":"Pesing","time":2,"i_lat":-6.161433,"station_id":"PSG","line":5,"is_transit":false,"transit":false},{"station_name":"Grogol","time":2,"transit":false,"is_transit":false,"i_lat":-6.162021,"i_long":106.788277,"line":5,"distance":2036,"station_id":"GGL"},{"line":1,"transit":true,"distance":1700,"station_name":"Duri","i_long":106.800832,"station_id":"DU","is_transit":true,"time":3,"i_lat":-6.155215},{"time":4,"i_long":106.79867,"station_id":"AK","transit":false,"station_name":"Angke","distance":1230,"is_transit":false,"i_lat":-6.144674,"line":1},{"time":9,"line":4,"station_name":"Kampung Bandan","distance":4102,"transit":true,"i_long":106.826365,"i_lat":-6.132549,"station_id":"KPB","is_transit":true},{"station_name":"Jakarta Kota","transit":true,"station_id":"JAKK","is_transit":true,"i_lat":-6.137569,"i_long":106.812439,"line":2,"distance":1364,"time":3},{"time":4,"distance":1264,"i_long":106.820901,"i_lat":-6.141205,"transit":false,"line":2,"station_name":"Jayakarta","station_id":"JAY","is_transit":false},{"transit":false,"i_long":106.82482,"is_transit":false,"station_name":"Manggabesar","time":2,"distance":1080,"line":2,"i_lat":-6.149769,"station_id":"MGB"},{"distance":906,"transit":false,"station_name":"Sawah Besar","is_transit":false,"time":2,"i_long":106.827103,"station_id":"SW","i_lat":-6.160725,"line":2},{"time":2,"distance":1149,"station_name":"Juanda","transit":false,"is_transit":false,"i_long":106.828284,"i_lat":-6.166716,"line":2,"station_id":"JUA"},{"is_transit":false,"distance":2015,"time":4,"station_id":"GDD","transit":false,"i_long":106.832183,"station_name":"Gondangdia","i_lat":-6.186295,"line":2},{"line":2,"is_transit":false,"time":3,"transit":false,"distance":1750,"i_lat":-6.198556,"i_long":106.840169,"station_id":"CKI","station_name":"Cikini"},{"transit":false,"i_lat":-6.209883,"time":4,"distance":1590,"station_id":"MRI","i_long":106.84912,"line":2,"is_transit":false,"station_name":"Manggarai"},{"line":2,"distance":2610,"station_id":"TEB","time":4,"transit":false,"is_transit":false,"station_name":"Tebet","i_lat":-6.226659,"i_long":106.857948},{"station_id":"CW","i_long":106.856607,"i_lat":-6.242512,"line":2,"transit":false,"station_name":"Cawang","is_transit":false,"time":2,"distance":1230},{"time":3,"distance":1546,"is_transit":false,"transit":false,"i_long":106.85449,"station_id":"DRN","station_name":"Duren Kalibata","line":2,"i_lat":-6.255332},{"is_transit":false,"i_long":106.851577,"station_name":"Pasar Minggu Baru","line":2,"transit":false,"distance":824,"time":2,"station_id":"PSMB","i_lat":-6.263214},{"transit":false,"i_long":106.843999,"is_transit":false,"distance":2380,"station_name":"Pasar Minggu","time":2,"line":2,"station_id":"PSM","i_lat":-6.2842400000000005},{"station_name":"Tanjung Barat","is_transit":false,"station_id":"TNT","i_lat":-6.3080680000000005,"line":2,"time":4,"distance":2820,"i_long":106.838896,"transit":false},{"is_transit":false,"transit":false,"i_long":106.832616,"line":2,"station_name":"Lenteng Agung","distance":2671,"time":3,"station_id":"LNA","i_lat":-6.330363},{"time":2,"transit":false,"is_transit":false,"station_id":"UP","i_lat":-6.339291,"distance":1029,"line":2,"i_long":106.834175,"station_name":"Univ. Pancasila"},{"time":3,"i_long":106.831474,"line":2,"transit":false,"station_id":"UI","station_name":"Univ. Indonesia","is_transit":false,"distance":2264,"i_lat":-6.360749},{"transit":false,"station_id":"POC","line":2,"i_lat":-6.369073,"station_name":"Pondok Cina","distance":1109,"is_transit":false,"i_long":106.831114,"time":2},{"time":4,"station_id":"DPB","distance":2727,"i_long":106.819451,"transit":false,"i_lat":-6.391065,"line":2,"is_transit":false,"station_name":"Depokbaru"}],[{"station_id":"TNG","transit":false,"time":0,"is_transit":false,"distance":0,"station_name":"Tangerang","i_lat":-6.176583,"i_long":106.632761,"line":5},{"line":5,"is_transit":false,"transit":false,"station_name":"Tanah Tinggi","station_id":"TTI","time":3,"i_lat":-6.17331,"distance":1547,"i_long":106.64657},{"station_name":"Batuceper","transit":false,"line":5,"time":3,"i_long":106.665036,"is_transit":false,"station_id":"BPR","distance":2028,"i_lat":-6.171811},{"i_long":106.679458,"station_name":"Poris","station_id":"PI","is_transit":false,"distance":1834,"i_lat":-6.169933,"line":5,"time":3,"transit":false},{"is_transit":false,"time":3,"station_id":"KDS","distance":2548,"transit":false,"station_name":"Kalideres","line":5,"i_lat":-6.166068,"i_long":106.701612},{"station_name":"Rawa Buaya","time":3,"i_lat":-6.162758,"distance":2504,"station_id":"RW","line":5,"transit":false,"is_transit":false,"i_long":106.723064},{"line":5,"transit":false,"i_lat":-6.159876,"station_name":"Bojongindah","station_id":"BOI","is_transit":false,"distance":1152,"time":4,"i_long":106.737035},{"i_long":106.756522,"transit":false,"is_transit":false,"i_lat":-6.1587309999999995,"time":2,"station_name":"Taman Kota","station_id":"TKO","line":5,"distance":2334},{"is_transit":false,"i_lat":-6.161433,"i_long":106.771379,"station_name":"Pesing","line":5,"transit":false,"distance":1614,"time":2,"station_id":"PSG"},{"station_name":"Grogol","time":2,"i_long":106.788277,"is_transit":false,"line":5,"transit":false,"i_lat":-6.162021,"distance":2036,"station_id":"GGL"},{"transit":true,"time":3,"i_lat":-6.155215,"station_id":"DU","distance":1700,"line":1,"is_transit":true,"station_name":"Duri","i_long":106.800832},{"distance":1230,"line":1,"station_name":"Angke","is_transit":false,"i_lat":-6.144674,"time":4,"transit":false,"i_long":106.79867,"station_id":"AK"},{"station_id":"KPB","i_lat":-6.132549,"line":4,"transit":true,"station_name":"Kampung Bandan","is_transit":true,"time":9,"i_long":106.826365,"distance":4102},{"time":3,"line":11,"is_transit":false,"i_lat":-6.14505,"station_name":"Rajawali","distance":1444,"i_long":106.836569,"station_id":"RJW","transit":false},{"station_id":"KMO","i_long":106.839204,"station_name":"Kemayoran","transit":false,"i_lat":-6.161728,"time":5,"is_transit":false,"line":11,"distance":1901},{"time":4,"is_transit":false,"distance":1436,"i_lat":-6.174784,"line":11,"station_id":"PSE","transit":false,"station_name":"Pasar Senen","i_long":106.84368},{"station_name":"Gang Sentiong","is_transit":false,"distance":1567,"station_id":"GST","transit":false,"time":8,"i_lat":-6.185975,"i_long":106.850107,"line":11},{"station_name":"Kramat","time":1,"i_long":106.855437,"station_id":"KMT","i_lat":-6.193792,"is_transit":false,"distance":973,"transit":false,"line":11},{"is_transit":false,"time":2,"i_lat":-6.209188,"distance":1829,"station_name":"Pondok Jati","i_long":106.861737,"line":11,"station_id":"POK","transit":false},{"distance":1236,"line":1,"transit":true,"is_transit":true,"time":9,"station_name":"Jatinegara","i_lat":-6.215091,"i_long":106.86807400000001,"station_id":"JNG"},{"station_id":"MTR","station_name":"Matraman","time":2,"i_lat":-6.212485,"line":1,"transit":false,"is_transit":false,"i_long":106.858896,"distance":1377},{"transit":true,"station_id":"MRI","line":2,"i_long":106.84912,"station_name":"Manggarai","is_transit":true,"time":2,"distance":1275,"i_lat":-6.209883},{"transit":false,"distance":2610,"station_id":"TEB","time":4,"i_lat":-6.226659,"i_long":106.857948,"station_name":"Tebet","is_transit":false,"line":2},{"station_id":"CW","i_long":106.856607,"line":2,"i_lat":-6.242512,"station_name":"Cawang","distance":1230,"transit":false,"is_transit":false,"time":2},{"station_id":"DRN","is_transit":false,"distance":1546,"station_name":"Duren Kalibata","time":3,"line":2,"i_long":106.85449,"transit":false,"i_lat":-6.255332},{"station_name":"Pasar Minggu Baru","i_long":106.851577,"distance":824,"station_id":"PSMB","time":2,"is_transit":false,"line":2,"transit":false,"i_lat":-6.263214},{"station_id":"PSM","i_long":106.843999,"station_name":"Pasar Minggu","is_transit":false,"line":2,"time":2,"transit":false,"distance":2380,"i_lat":-6.2842400000000005},{"distance":2820,"line":2,"time":4,"station_name":"Tanjung Barat","i_lat":-6.3080680000000005,"is_transit":false,"station_id":"TNT","i_long":106.838896,"transit":false},{"distance":2671,"i_lat":-6.330363,"is_transit":false,"station_id":"LNA","line":2,"station_name":"Lenteng Agung","transit":false,"time":3,"i_long":106.832616},{"is_transit":false,"distance":1029,"station_name":"Univ. Pancasila","time":2,"station_id":"UP","i_long":106.834175,"line":2,"transit":false,"i_lat":-6.339291},{"distance":2264,"transit":false,"station_name":"Univ. Indonesia","is_transit":false,"time":3,"station_id":"UI","i_lat":-6.360749,"i_long":106.831474,"line":2},{"distance":1109,"line":2,"transit":false,"station_name":"Pondok Cina","time":2,"station_id":"POC","is_transit":false,"i_lat":-6.369073,"i_long":106.831114},{"time":4,"station_name":"Depokbaru","station_id":"DPB","is_transit":false,"distance":2727,"i_long":106.819451,"line":2,"transit":false,"i_lat":-6.391065}]]}