{"data":[[{"i_long":106.632761,"station_id":"TNG","i_lat":-6.176583,"time":0,"line":5,"station_name":"Tangerang","is_transit":false,"transit":false,"distance":0},{"distance":1547,"is_transit":false,"station_id":"TTI","transit":false,"i_lat":-6.17331,"time":3,"i_long":106.64657,"line":5,"station_name":"Tanah Tinggi"},{"transit":false,"station_id":"BPR","is_transit":false,"distance":2028,"station_name":"Batuceper","i_lat":-6.171811,"i_long":106.665036,"line":5,"time":3},{"i_long":106.679458,"line":5,"time":3,"is_transit":false,"i_lat":-6.169933,"distance":1834,"transit":false,"station_id":"PI","station_name":"Poris"},{"station_id":"KDS","i_lat":-6.166068,"i_long":106.701612,"line":5,"station_name":"Kalideres","is_transit":false,"time":3,"transit":false,"distance":2548},{"station_name":"Rawa Buaya","is_transit":false,"i_long":106.723064,"distance":2504,"transit":false,"time":3,"i_lat":-6.162758,"station_id":"RW","line":5},{"transit":false,"station_name":"Bojongindah","i_lat":-6.159876,"time":4,"i_long":106.737035,"station_id":"BOI","distance":1152,"line":5,"is_transit":false},{"is_transit":false,"distance":2334,"line":5,"time":2,"station_id":"TKO","station_name":"Taman Kota","i_long":106.756522,"i_lat":-6.1587309999999995,"transit":false},{"distance":1614,"is_transit":false,"line":5,"station_id":"PSG","time":2,"transit":false,"station_name":"Pesing","i_lat":-6.161433,"i_long":106.771379},{"line":5,"is_transit":false,"transit":false,"distance":2036,"time":2,"station_name":"Grogol","station_id":"GGL","i_lat":-6.162021,"i_long":106.788277},{"station_name":"Duri","line":1,"transit":true,"time":3,"is_transit":true,"i_long":106.800832,"station_id":"DU","distance":1700,"i_lat":-6.155215},{"i_long":106.811091,"transit":true,"station_id":"THB","is_transit":true,"distance":3632,"station_name":"Tanah Abang","time":8,"line":1,"i_lat":-6.185545},{"station_name":"Palmerah","transit":false,"station_id":"PLM","line":6,"i_long":106.79689,"is_transit":false,"i_lat":-6.207404,"distance":3191,"time":6},{"i_lat":-6.237242,"station_id":"KBY","is_transit":false,"time":7,"transit":false,"line":6,"station_name":"Kebayoran","distance":3737,"i_long":106.780334},{"transit":false,"station_name":"Pondokranji","i_lat":-6.276362,"is_transit":false,"i_long":106.74273,"line":6,"station_id":"PDJ","distance":6218,"time":8},{"time":3,"transit":false,"station_name":"Jurangmangu","line":6,"distance":2179,"station_id":"JMU","is_transit":false,"i_long":106.728916,"i_lat":-6.288927},{"i_long":106.712277,"distance":1994,"station_id":"SDM","station_name":"Sudimara","is_transit":false,"line":6,"transit":false,"time":4,"i_lat":-6.296963},{"station_id":"RU","transit":false,"is_transit":false,"distance":4566,"i_lat":-6.314823,"i_long":106.675475,"line":6,"station_name":"Rawa Buntu","time":6},{"distance":2413,"time":4,"i_long":106.66566,"line":6,"station_id":"SRP","transit":false,"is_transit":false,"i_lat":-6.319871,"station_name":"Serpong"},{"is_transit":false,"time":4,"transit":false,"line":3,"distance":1784,"i_lat":-6.32484,"i_long":106.640411,"station_id":"CSK","station_name":"Cisauk"}],[{"time":0,"line":5,"transit":false,"i_lat":-6.176583,"i_long":106.632761,"station_name":"Tangerang","distance":0,"is_transit":false,"station_id":"TNG"},{"i_long":106.64657,"station_name":"Tanah Tinggi","i_lat":-6.17331,"distance":1547,"is_transit":false,"transit":false,"line":5,"time":3,"station_id":"TTI"},{"station_name":"Batuceper","time":3,"transit":false,"distance":2028,"is_transit":false,"i_lat":-6.171811,"station_id":"BPR","i_long":106.665036,"line":5},{"station_name":"Poris","is_transit":false,"i_long":106.679458,"distance":1834,"line":5,"transit":false,"station_id":"PI","time":3,"i_lat":-6.169933},{"time":3,"transit":false,"distance":2548,"i_long":106.701612,"station_name":"Kalideres","is_transit":false,"i_lat":-6.166068,"station_id":"KDS","line":5},{"station_name":"Rawa Buaya","distance":2504,"transit":false,"is_transit":false,"station_id":"RW","line":5,"time":3,"i_lat":-6.162758,"i_long":106.723064},{"time":4,"transit":false,"station_name":"Bojongindah","station_id":"BOI","i_lat":-6.159876,"is_transit":false,"line":5,"distance":1152,"i_long":106.737035},{"is_transit":false,"line":5,"i_long":106.756522,"transit":false,"time":2,"i_lat":-6.1587309999999995,"station_name":"Taman Kota","distance":2334,"station_id":"TKO"},{"time":2,"station_name":"Pesing","is_transit":false,"i_long":106.771379,"distance":1614,"line":5,"i_lat":-6.161433,"transit":false,"station_id":"PSG"},{"transit":false,"i_long":106.788277,"station_name":"Grogol","i_lat":-6.162021,"is_transit":false,"distance":2036,"time":2,"line":5,"station_id":"GGL"},{"station_id":"DU","is_transit":true,"transit":true,"station_name":"Duri","time":3,"line":1,"i_lat":-6.155215,"i_long":106.800832,"distance":1700},{"distance":1230,"time":4,"i_lat":-6.144674,"station_name":"Angke","is_transit":false,"transit":false,"line":1,"i_long":106.79867,"station_id":"AK"},{"station_name":"Kampung Bandan","time":9,"line":4,"i_lat":-6.132549,"station_id":"KPB","transit":true,"i_long":106.826365,"is_transit":true,"distance":4102},{"i_lat":-6.137569,"line":2,"time":3,"transit":true,"station_name":"Jakarta Kota","distance":1364,"station_id":"JAKK","is_transit":true,"i_long":106.812439},{"is_transit":false,"i_long":106.820901,"line":2,"time":4,"station_id":"JAY","transit":false,"distance":1264,"i_lat":-6.141205,"station_name":"Jayakarta"},{"is_transit":false,"i_lat":-6.149769,"transit":false,"i_long":106.82482,"distance":1080,"line":2,"time":2,"station_id":"MGB","station_name":"Manggabesar"},{"station_name":"Sawah Besar","is_transit":false,"i_long":106.827103,"distance":906,"transit":false,"station_id":"SW","time":2,"i_lat":-6.160725,"line":2},{"i_long":106.828284,"station_name":"Juanda","line":2,"station_id":"JUA","is_transit":false,"i_lat":-6.166716,"time":2,"distance":1149,"transit":false},{"station_name":"Gondangdia","station_id":"GDD","is_transit":false,"line":2,"i_long":106.832183,"distance":2015,"transit":false,"i_lat":-6.186295,"time":4},{"distance":1750,"line":2,"station_name":"Cikini","is_transit":false,"transit":false,"i_long":106.840169,"i_lat":-6.198556,"time":3,"station_id":"CKI"},{"line":2,"is_transit":true,"i_lat":-6.209883,"i_long":106.84912,"station_name":"Manggarai","time":4,"transit":true,"station_id":"MRI","distance":1590},{"station_id":"SUD","is_transit":false,"line":1,"distance":3186,"time":4,"transit":false,"i_lat":-6.202263,"station_name":"Sudirman","i_long":106.822649},{"i_lat":-6.201433,"i_long":106.819881,"station_id":"SUDB","is_transit":false,"transit":false,"distance":280,"line":1,"station_name":"Sudirman Baru","time":1},{"distance":471,"transit":false,"i_lat":-6.20132,"is_transit":false,"station_id":"KAT","i_long":106.816351,"time":1,"line":1,"station_name":"Karet"},{"i_lat":-6.185545,"distance":2029,"station_id":"THB","time":5,"transit":true,"station_name":"Tanah Abang","i_long":106.811091,"line":1,"is_transit":true},{"transit":false,"station_name":"Palmerah","distance":3191,"line":6,"station_id":"PLM","i_lat":-6.207404,"time":6,"i_long":106.79689,"is_transit":false},{"time":7,"line":6,"distance":3737,"station_name":"Kebayoran","i_long":106.780334,"transit":false,"is_transit":false,"station_id":"KBY","i_lat":-6.237242},{"station_id":"PDJ","is_transit":false,"time":8,"station_name":"Pondokranji","line":6,"distance":6218,"i_lat":-6.276362,"i_long":106.74273,"transit":false},{"station_id":"JMU","is_transit":false,"time":3,"transit":false,"i_long":106.728916,"line":6,"station_name":"Jurangmangu","distance":2179,"i_lat":-6.288927},{"transit":false,"distance":1994,"is_transit":false,"i_lat":-6.296963,"station_id":"SDM","station_name":"Sudimara","line":6,"time":4,"i_long":106.712277},{"station_name":"Rawa Buntu","i_lat":-6.314823,"i_long":106.675475,"is_transit":false,"time":6,"distance":4566,"line":6,"transit":false,"station_id":"RU"},{"time":4,"is_transit":false,"station_name":"Serpong","i_long":106.66566,"i_lat":-6.319871,"transit":false,"line":6,"station_id":"SRP","distance":2413},{"station_name":"Cisauk","i_long":106.640411,"station_id":"CSK","is_transit":false,"time":4,"i_lat":-6.32484,"distance":1784,"line":3,"transit":false}],[{"station_name":"Tangerang","transit":false,"i_long":106.632761,"line":5,"time":0,"station_id":"TNG","i_lat":-6.176583,"is_transit":false,"distance":0},{"station_name":"Tanah Tinggi","is_transit":false,"station_id":"TTI","time":3,"distance":1547,"transit":false,"i_lat":-6.17331,"i_long":106.64657,"line":5},{"station_name":"Batuceper","station_id":"BPR","i_long":106.665036,"transit":false,"line":5,"time":3,"distance":2028,"i_lat":-6.171811,"is_transit":false},{"is_transit":false,"i_long":106.679458,"i_lat":-6.169933,"station_name":"Poris","distance":1834,"time":3,"transit":false,"station_id":"PI","line":5},{"distance":2548,"is_transit":false,"station_id":"KDS","i_lat":-6.166068,"i_long":106.701612,"line":5,"station_name":"Kalideres","transit":false,"time":3},{"distance":2504,"is_transit":false,"station_name":"Rawa Buaya","transit":false,"i_lat":-6.162758,"i_long":106.723064,"time":3,"line":5,"station_id":"RW"},{"transit":false,"is_transit":false,"line":5,"time":4,"i_lat":-6.159876,"distance":1152,"i_long":106.737035,"station_id":"BOI","station_name":"Bojongindah"},{"station_id":"TKO","transit":false,"distance":2334,"station_name":"Taman Kota","line":5,"is_transit":false,"i_lat":-6.1587309999999995,"time":2,"i_long":106.756522},{"distance":1614,"line":5,"i_lat":-6.161433,"is_transit":false,"time":2,"transit":false,"station_name":"Pesing","i_long":106.771379,"station_id":"PSG"},{"distance":2036,"station_name":"Grogol","time":2,"i_lat":-6.162021,"i_long":106.788277,"is_transit":false,"transit":false,"line":5,"station_id":"GGL"},{"station_id":"DU","is_transit":true,"time":3,"distance":1700,"transit":true,"i_lat":-6.155215,"i_long":106.800832,"line":1,"station_name":"Duri"},{"station_id":"AK","distance":1230,"station_name":"Angke","line":1,"transit":false,"i_long":106.79867,"is_transit":false,"time":4,"i_lat":-6.144674},{"is_transit":true,"distance":4102,"line":4,"time":9,"transit":true,"station_id":"KPB","station_name":"Kampung Bandan","i_long":106.826365,"i_lat":-6.132549},{"line":11,"station_name":"Rajawali","distance":1444,"i_long":106.836569,"time":3,"transit":false,"is_transit":false,"i_lat":-6.14505,"station_id":"RJW"},{"i_long":106.839204,"transit":false,"is_transit":false,"distance":1901,"i_lat":-6.161728,"time":5,"station_name":"Kemayoran","line":11,"station_id":"KMO"},{"station_name":"Pasar Senen","distance":1436,"is_transit":false,"transit":false,"i_lat":-6.174784,"station_id":"PSE","time":4,"i_long":106.84368,"line":11},{"i_lat":-6.185975,"is_transit":false,"time":8,"distance":1567,"transit":false,"line":11,"i_long":106.850107,"station_id":"GST","station_name":"Gang Sentiong"},{"time":1,"line":11,"transit":false,"station_name":"Kramat","is_transit":false,"i_lat":-6.193792,"distance":973,"station_id":"KMT","i_long":106.855437},{"station_id":"POK","time":2,"i_long":106.861737,"distance":1829,"station_name":"Pondok Jati","line":11,"transit":false,"is_transit":false,"i_lat":-6.209188},{"line":1,"station_name":"Jatinegara","time":9,"distance":1236,"i_lat":-6.215091,"i_long":106.86807400000001,"is_transit":true,"station_id":"JNG","transit":true},{"time":2,"i_lat":-6.212485,"i_long":106.858896,"is_transit":false,"line":1,"distance":1377,"station_name":"Matraman","transit":false,"station_id":"MTR"},{"is_transit":false,"i_lat":-6.209883,"station_name":"Manggarai","station_id":"MRI","distance":1275,"transit":false,"time":2,"i_long":106.84912,"line":2},{"station_id":"SUD","is_transit":false,"line":1,"i_lat":-6.202263,"distance":3186,"time":4,"transit":false,"station_name":"Sudirman","i_long":106.822649},{"station_id":"SUDB","distance":280,"i_lat":-6.201433,"station_name":"Sudirman Baru","time":1,"is_transit":false,"transit":false,"i_long":106.819881,"line":1},{"is_transit":false,"i_lat":-6.20132,"time":1,"transit":false,"distance":471,"station_name":"Karet","station_id":"KAT","i_long":106.816351,"line":1},{"is_transit":true,"line":1,"i_long":106.811091,"station_name":"Tanah Abang","transit":true,"time":5,"station_id":"THB","distance":2029,"i_lat":-6.185545},{"station_id":"PLM","time":6,"i_lat":-6.207404,"i_long":106.79689,"station_name":"Palmerah","is_transit":false,"line":6,"distance":3191,"transit":false},{"i_long":106.780334,"line":6,"transit":false,"is_transit":false,"i_lat":-6.237242,"station_id":"KBY","station_name":"Kebayoran","time":7,"distance":3737},{"line":6,"station_id":"PDJ","station_name":"Pondokranji","i_long":106.74273,"time":8,"transit":false,"distance":6218,"i_lat":-6.276362,"is_transit":false},{"station_id":"JMU","station_name":"Jurangmangu","i_long":106.728916,"is_transit":false,"time":3,"distance":2179,"i_lat":-6.288927,"line":6,"transit":false},{"time":4,"distance":1994,"station_name":"Sudimara","i_long":106.712277,"station_id":"SDM","is_transit":false,"i_lat":-6.296963,"line":6,"transit":false},{"station_id":"RU","transit":false,"station_name":"Rawa Buntu","is_transit":false,"i_lat":-6.314823,"i_long":106.675475,"line":6,"distance":4566,"time":6},{"i_lat":-6.319871,"is_transit":false,"time":4,"station_name":"Serpong","i_long":106.66566,"line":6,"station_id":"SRP","transit":false,"distance":2413},{"i_lat":-6.32484,"time":4,"station_id":"CSK","i_long":106.640411,"line":3,"station_name":"Cisauk","is_transit":false,"distance":1784,"transit":false}]]}