{"data":[[{"is_transit":false,"station_name":"Tangerang","i_long":106.632761,"time":0,"i_lat":-6.176583,"line":5,"distance":0,"transit":false,"station_id":"TNG"},{"is_transit":false,"i_lat":-6.17331,"station_id":"TTI","transit":false,"station_name":"Tanah Tinggi","i_long":106.64657,"time":3,"line":5,"distance":1547},{"transit":false,"i_lat":-6.171811,"distance":2028,"station_id":"BPR","line":5,"is_transit":false,"station_name":"Batuceper","i_long":106.665036,"time":3},{"time":3,"is_transit":false,"i_lat":-6.169933,"transit":false,"station_name":"Poris","station_id":"PI","i_long":106.679458,"line":5,"distance":1834},{"is_transit":false,"i_lat":-6.166068,"station_name":"Kalideres","i_long":106.701612,"transit":false,"line":5,"distance":2548,"time":3,"station_id":"KDS"},{"i_long":106.723064,"transit":false,"line":5,"is_transit":false,"station_name":"Rawa Buaya","station_id":"RW","i_lat":-6.162758,"time":3,"distance":2504},{"is_transit":false,"time":4,"distance":1152,"station_id":"BOI","station_name":"Bojongindah","i_long":106.737035,"transit":false,"i_lat":-6.159876,"line":5},{"time":2,"station_id":"TKO","transit":false,"distance":2334,"station_name":"Taman Kota","i_long":106.756522,"line":5,"is_transit":false,"i_lat":-6.1587309999999995},{"station_name":"Pesing","is_transit":false,"transit":false,"distance":1614,"i_lat":-6.161433,"time":2,"i_long":106.771379,"line":5,"station_id":"PSG"},{"line":5,"distance":2036,"i_long":106.788277,"station_id":"GGL","is_transit":false,"station_name":"Grogol","time":2,"transit":false,"i_lat":-6.162021},{"time":3,"station_id":"DU","is_transit":true,"transit":true,"line":1,"distance":1700,"station_name":"Duri","i_long":106.800832,"i_lat":-6.155215},{"is_transit":false,"i_long":106.811091,"time":8,"i_lat":-6.185545,"distance":3632,"line":1,"station_id":"THB","station_name":"Tanah Abang","transit":false},{"is_transit":false,"line":1,"transit":false,"distance":2029,"i_lat":-6.20132,"time":5,"station_name":"Karet","i_long":106.816351,"station_id":"KAT"},{"station_id":"SUDB","transit":false,"is_transit":false,"time":1,"i_lat":-6.201433,"distance":471,"station_name":"Sudirman Baru","i_long":106.819881,"line":1},{"transit":false,"station_name":"Sudirman","i_lat":-6.202263,"distance":280,"is_transit":false,"time":1,"station_id":"SUD","line":1,"i_long":106.822649},{"distance":3186,"station_name":"Manggarai","i_long":106.84912,"is_transit":true,"station_id":"MRI","i_lat":-6.209883,"time":4,"line":2,"transit":true},{"time":4,"is_transit":false,"station_name":"Tebet","i_lat":-6.226659,"station_id":"TEB","i_long":106.857948,"transit":false,"distance":2610,"line":2},{"time":2,"i_long":106.856607,"line":2,"station_id":"CW","is_transit":false,"station_name":"Cawang","transit":false,"distance":1230,"i_lat":-6.242512},{"i_long":106.85449,"station_id":"DRN","i_lat":-6.255332,"time":3,"station_name":"Duren Kalibata","transit":false,"line":2,"is_transit":false,"distance":1546},{"is_transit":false,"station_name":"Pasar Minggu Baru","distance":824,"i_long":106.851577,"transit":false,"i_lat":-6.263214,"station_id":"PSMB","time":2,"line":2},{"time":2,"i_long":106.843999,"line":2,"station_id":"PSM","transit":false,"station_name":"Pasar Minggu","is_transit":false,"distance":2380,"i_lat":-6.2842400000000005},{"distance":2820,"line":2,"i_long":106.838896,"is_transit":false,"transit":false,"time":4,"station_id":"TNT","station_name":"Tanjung Barat","i_lat":-6.3080680000000005},{"i_long":106.832616,"is_transit":false,"distance":2671,"line":2,"transit":false,"i_lat":-6.330363,"station_name":"Lenteng Agung","station_id":"LNA","time":3},{"distance":1029,"station_id":"UP","i_lat":-6.339291,"line":2,"station_name":"Univ. Pancasila","time":2,"is_transit":false,"transit":false,"i_long":106.834175},{"time":3,"is_transit":false,"station_name":"Univ. Indonesia","line":2,"i_lat":-6.360749,"i_long":106.831474,"station_id":"UI","distance":2264,"transit":false},{"i_long":106.831114,"time":2,"station_name":"Pondok Cina","line":2,"station_id":"POC","distance":1109,"is_transit":false,"transit":false,"i_lat":-6.369073},{"station_name":"Depokbaru","distance":2727,"transit":false,"time":4,"i_lat":-6.391065,"station_id":"DPB","i_long":106.819451,"line":2,"is_transit":false}],[{"station_id":"TNG","time":0,"transit":false,"is_transit":false,"line":5,"distance":0,"i_lat":-6.176583,"i_long":106.632761,"station_name":"Tangerang"},{"i_long":106.64657,"time":3,"station_id":"TTI","station_name":"Tanah Tinggi","i_lat":-6.17331,"distance":1547,"line":5,"transit":false,"is_transit":false},{"station_name":"Batuceper","time":3,"distance":2028,"line":5,"i_long":106.665036,"is_transit":false,"i_lat":-6.171811,"transit":false,"station_id":"BPR"},{"line":5,"distance":1834,"station_id":"PI","i_lat":-6.169933,"station_name":"Poris","i_long":106.679458,"is_transit":false,"transit":false,"time":3},{"station_name":"Kalideres","i_long":106.701612,"transit":false,"is_transit":false,"distance":2548,"line":5,"i_lat":-6.166068,"station_id":"KDS","time":3},{"station_name":"Rawa Buaya","transit":false,"time":3,"distance":2504,"is_transit":false,"i_long":106.723064,"station_id":"RW","i_lat":-6.162758,"line":5},{"station_id":"BOI","is_transit":false,"distance":1152,"time":4,"transit":false,"station_name":"Bojongindah","line":5,"i_long":106.737035,"i_lat":-6.159876},{"distance":2334,"i_long":106.756522,"station_name":"Taman Kota","transit":false,"is_transit":false,"station_id":"TKO","time":2,"i_lat":-6.1587309999999995,"line":5},{"time":2,"line":5,"station_id":"PSG","is_transit":false,"i_long":106.771379,"transit":false,"station_name":"Pesing","i_lat":-6.161433,"distance":1614},{"transit":false,"is_transit":false,"i_lat":-6.162021,"i_long":106.788277,"distance":2036,"line":5,"station_name":"Grogol","station_id":"GGL","time":2},{"line":1,"is_transit":true,"time":3,"station_id":"DU","transit":true,"i_lat":-6.155215,"i_long":106.800832,"distance":1700,"station_name":"Duri"},{"line":1,"i_long":106.79867,"time":4,"i_lat":-6.144674,"transit":false,"station_name":"Angke","is_transit":false,"station_id":"AK","distance":1230},{"transit":true,"station_id":"KPB","time":9,"i_long":106.826365,"is_transit":true,"distance":4102,"i_lat":-6.132549,"line":4,"station_name":"Kampung Bandan"},{"line":2,"station_id":"JAKK","is_transit":true,"transit":true,"distance":1364,"station_name":"Jakarta Kota","time":3,"i_long":106.812439,"i_lat":-6.137569},{"i_long":106.820901,"station_id":"JAY","time":4,"distance":1264,"is_transit":false,"i_lat":-6.141205,"transit":false,"station_name":"Jayakarta","line":2},{"transit":false,"station_name":"Manggabesar","time":2,"i_lat":-6.149769,"is_transit":false,"line":2,"station_id":"MGB","i_long":106.82482,"distance":1080},{"line":2,"time":2,"distance":906,"transit":false,"is_transit":false,"station_id":"SW","i_lat":-6.160725,"station_name":"Sawah Besar","i_long":106.827103},{"distance":1149,"station_id":"JUA","time":2,"line":2,"transit":false,"i_long":106.828284,"i_lat":-6.166716,"station_name":"Juanda","is_transit":false},{"i_lat":-6.186295,"transit":false,"distance":2015,"i_long":106.832183,"line":2,"station_name":"Gondangdia","time":4,"station_id":"GDD","is_transit":false},{"distance":1750,"is_transit":false,"i_lat":-6.198556,"line":2,"station_name":"Cikini","time":3,"i_long":106.840169,"transit":false,"station_id":"CKI"},{"station_name":"Manggarai","is_transit":false,"time":4,"i_lat":-6.209883,"line":2,"i_long":106.84912,"station_id":"MRI","transit":false,"distance":1590},{"i_lat":-6.226659,"line":2,"station_name":"Tebet","i_long":106.857948,"is_transit":false,"distance":2610,"station_id":"TEB","transit":false,"time":4},{"station_name":"Cawang","i_long":106.856607,"line":2,"i_lat":-6.242512,"is_transit":false,"transit":false,"time":2,"station_id":"CW","distance":1230},{"is_transit":false,"transit":false,"station_id":"DRN","time":3,"station_name":"Duren Kalibata","i_lat":-6.255332,"i_long":106.85449,"line":2,"distance":1546},{"i_lat":-6.263214,"line":2,"time":2,"transit":false,"i_long":106.851577,"distance":824,"station_name":"Pasar Minggu Baru","is_transit":false,"station_id":"PSMB"},{"transit":false,"i_long":106.843999,"line":2,"time":2,"is_transit":false,"station_name":"Pasar Minggu","distance":2380,"station_id":"PSM","i_lat":-6.2842400000000005},{"time":4,"station_name":"Tanjung Barat","station_id":"TNT","i_lat":-6.3080680000000005,"is_transit":false,"i_long":106.838896,"line":2,"transit":false,"distance":2820},{"i_lat":-6.330363,"time":3,"station_name":"Lenteng Agung","i_long":106.832616,"line":2,"distance":2671,"station_id":"LNA","is_transit":false,"transit":false},{"time":2,"station_id":"UP","station_name":"Univ. Pancasila","line":2,"is_transit":false,"i_lat":-6.339291,"transit":false,"i_long":106.834175,"distance":1029},{"transit":false,"station_name":"Univ. Indonesia","i_lat":-6.360749,"i_long":106.831474,"distance":2264,"line":2,"is_transit":false,"time":3,"station_id":"UI"},{"line":2,"station_id":"POC","distance":1109,"time":2,"station_name":"Pondok Cina","transit":false,"i_long":106.831114,"is_transit":false,"i_lat":-6.369073},{"station_name":"Depokbaru","i_lat":-6.391065,"is_transit":false,"station_id":"DPB","i_long":106.819451,"distance":2727,"line":2,"transit":false,"time":4}],[{"distance":0,"transit":false,"i_long":106.632761,"time":0,"line":5,"is_transit":false,"i_lat":-6.176583,"station_id":"TNG","station_name":"Tangerang"},{"transit":false,"distance":1547,"station_id":"TTI","is_transit":false,"station_name":"Tanah Tinggi","i_long":106.64657,"i_lat":-6.17331,"time":3,"line":5},{"line":5,"i_lat":-6.171811,"station_id":"BPR","is_transit":false,"time":3,"distance":2028,"i_long":106.665036,"transit":false,"station_name":"Batuceper"},{"transit":false,"station_id":"PI","time":3,"distance":1834,"i_lat":-6.169933,"station_name":"Poris","line":5,"i_long":106.679458,"is_transit":false},{"station_id":"KDS","station_name":"Kalideres","is_transit":false,"distance":2548,"i_lat":-6.166068,"line":5,"time":3,"transit":false,"i_long":106.701612},{"distance":2504,"i_long":106.723064,"station_id":"RW","i_lat":-6.162758,"time":3,"is_transit":false,"transit":false,"line":5,"station_name":"Rawa Buaya"},{"transit":false,"time":4,"distance":1152,"station_name":"Bojongindah","i_lat":-6.159876,"station_id":"BOI","is_transit":false,"line":5,"i_long":106.737035},{"line":5,"transit":false,"i_long":106.756522,"station_id":"TKO","time":2,"is_transit":false,"i_lat":-6.1587309999999995,"station_name":"Taman Kota","distance":2334},{"i_lat":-6.161433,"i_long":106.771379,"is_transit":false,"transit":false,"line":5,"station_id":"PSG","station_name":"Pesing","time":2,"distance":1614},{"i_lat":-6.162021,"station_name":"Grogol","i_long":106.788277,"time":2,"line":5,"transit":false,"distance":2036,"station_id":"GGL","is_transit":false},{"time":3,"i_long":106.800832,"distance":1700,"is_transit":true,"station_name":"Duri","station_id":"DU","transit":true,"i_lat":-6.155215,"line":1},{"time":4,"distance":1230,"i_long":106.79867,"station_id":"AK","i_lat":-6.144674,"line":1,"transit":false,"station_name":"Angke","is_transit":false},{"station_id":"KPB","time":9,"i_long":106.826365,"is_transit":true,"distance":4102,"line":4,"transit":true,"station_name":"Kampung Bandan","i_lat":-6.132549},{"transit":false,"i_lat":-6.14505,"time":3,"is_transit":false,"station_id":"RJW","station_name":"Rajawali","i_long":106.836569,"line":11,"distance":1444},{"station_id":"KMO","i_long":106.839204,"line":11,"station_name":"Kemayoran","distance":1901,"transit":false,"is_transit":false,"i_lat":-6.161728,"time":5},{"transit":false,"station_id":"PSE","i_lat":-6.174784,"i_long":106.84368,"line":11,"station_name":"Pasar Senen","time":4,"is_transit":false,"distance":1436},{"distance":1567,"i_long":106.850107,"transit":false,"i_lat":-6.185975,"station_id":"GST","line":11,"station_name":"Gang Sentiong","time":8,"is_transit":false},{"line":11,"distance":973,"station_id":"KMT","is_transit":false,"i_long":106.855437,"i_lat":-6.193792,"time":1,"station_name":"Kramat","transit":false},{"time":2,"station_name":"Pondok Jati","i_lat":-6.209188,"is_transit":false,"distance":1829,"i_long":106.861737,"line":11,"station_id":"POK","transit":false},{"transit":true,"is_transit":true,"distance":1236,"line":1,"i_long":106.86807400000001,"station_id":"JNG","i_lat":-6.215091,"station_name":"Jatinegara","time":9},{"station_name":"Matraman","transit":false,"i_lat":-6.212485,"i_long":106.858896,"distance":1377,"station_id":"MTR","time":2,"is_transit":false,"line":1},{"time":2,"i_lat":-6.209883,"is_transit":true,"distance":1275,"line":2,"i_long":106.84912,"transit":true,"station_name":"Manggarai","station_id":"MRI"},{"i_lat":-6.226659,"time":4,"station_id":"TEB","i_long":106.857948,"line":2,"transit":false,"is_transit":false,"distance":2610,"station_name":"Tebet"},{"station_id":"CW","distance":1230,"line":2,"time":2,"i_lat":-6.242512,"transit":false,"i_long":106.856607,"is_transit":false,"station_name":"Cawang"},{"station_name":"Duren Kalibata","distance":1546,"i_long":106.85449,"transit":false,"line":2,"time":3,"station_id":"DRN","is_transit":false,"i_lat":-6.255332},{"station_id":"PSMB","i_lat":-6.263214,"station_name":"Pasar Minggu Baru","is_transit":false,"line":2,"time":2,"distance":824,"transit":false,"i_long":106.851577},{"time":2,"is_transit":false,"distance":2380,"station_name":"Pasar Minggu","station_id":"PSM","transit":false,"i_lat":-6.2842400000000005,"i_long":106.843999,"line":2},{"distance":2820,"i_long":106.838896,"transit":false,"line":2,"i_lat":-6.3080680000000005,"station_id":"TNT","is_transit":false,"time":4,"station_name":"Tanjung Barat"},{"i_long":106.832616,"station_name":"Lenteng Agung","line":2,"time":3,"station_id":"LNA","is_transit":false,"transit":false,"distance":2671,"i_lat":-6.330363},{"line":2,"time":2,"transit":false,"is_transit":false,"distance":1029,"i_long":106.834175,"station_name":"Univ. Pancasila","i_lat":-6.339291,"station_id":"UP"},{"i_long":106.831474,"is_transit":false,"distance":2264,"transit":false,"time":3,"station_id":"UI","line":2,"station_name":"Univ. Indonesia","i_lat":-6.360749},{"i_long":106.831114,"transit":false,"i_lat":-6.369073,"time":2,"distance":1109,"station_id":"POC","is_transit":false,"station_name":"Pondok Cina","line":2},{"time":4,"i_long":106.819451,"line":2,"distance":2727,"is_transit":false,"station_id":"DPB","transit":false,"station_name":"Depokbaru","i_lat":-6.391065}]]}