{"data":[[{"line":5,"time":0,"transit":false,"i_lat":-6.176583,"is_transit":false,"i_long":106.632761,"station_name":"Tangerang","distance":0,"station_id":"TNG"},{"i_long":106.64657,"time":3,"station_id":"TTI","i_lat":-6.17331,"transit":false,"station_name":"Tanah Tinggi","distance":1547,"line":5,"is_transit":false},{"is_transit":false,"i_lat":-6.171811,"time":3,"station_id":"BPR","transit":false,"i_long":106.665036,"station_name":"Batuceper","distance":2028,"line":5},{"time":3,"station_name":"Poris","station_id":"PI","transit":false,"is_transit":false,"i_long":106.679458,"line":5,"i_lat":-6.169933,"distance":1834},{"i_lat":-6.166068,"station_name":"Kalideres","transit":false,"i_long":106.701612,"is_transit":false,"line":5,"station_id":"KDS","time":3,"distance":2548},{"station_name":"Rawa Buaya","station_id":"RW","transit":false,"distance":2504,"i_lat":-6.162758,"i_long":106.723064,"line":5,"is_transit":false,"time":3},{"time":4,"i_lat":-6.159876,"distance":1152,"transit":false,"station_name":"Bojongindah","is_transit":false,"station_id":"BOI","i_long":106.737035,"line":5},{"i_long":106.756522,"transit":false,"station_name":"Taman Kota","time":2,"i_lat":-6.1587309999999995,"distance":2334,"line":5,"is_transit":false,"station_id":"TKO"},{"time":2,"transit":false,"line":5,"station_id":"PSG","is_transit":false,"station_name":"Pesing","i_lat":-6.161433,"i_long":106.771379,"distance":1614},{"i_long":106.788277,"i_lat":-6.162021,"transit":false,"line":5,"station_id":"GGL","time":2,"distance":2036,"station_name":"Grogol","is_transit":false},{"i_long":106.800832,"station_name":"Duri","transit":true,"time":3,"station_id":"DU","i_lat":-6.155215,"line":1,"is_transit":true,"distance":1700},{"distance":1230,"station_id":"AK","i_lat":-6.144674,"is_transit":false,"station_name":"Angke","line":1,"time":4,"i_long":106.79867,"transit":false},{"i_long":106.826365,"line":4,"station_name":"Kampung Bandan","is_transit":true,"station_id":"KPB","distance":4102,"time":9,"transit":true,"i_lat":-6.132549},{"i_lat":-6.14505,"station_name":"Rajawali","transit":false,"i_long":106.836569,"is_transit":false,"line":11,"distance":1444,"time":3,"station_id":"RJW"},{"transit":false,"line":11,"station_id":"KMO","station_name":"Kemayoran","is_transit":false,"distance":1901,"i_long":106.839204,"time":5,"i_lat":-6.161728},{"is_transit":false,"i_long":106.84368,"line":11,"transit":false,"time":4,"i_lat":-6.174784,"station_name":"Pasar Senen","distance":1436,"station_id":"PSE"},{"distance":1567,"i_lat":-6.185975,"transit":false,"line":11,"is_transit":false,"time":8,"station_id":"GST","i_long":106.850107,"station_name":"Gang Sentiong"},{"station_id":"KMT","is_transit":false,"distance":973,"i_long":106.855437,"time":1,"transit":false,"station_name":"Kramat","line":11,"i_lat":-6.193792},{"station_id":"POK","time":2,"i_long":106.861737,"i_lat":-6.209188,"distance":1829,"station_name":"Pondok Jati","is_transit":false,"transit":false,"line":11}],[{"station_name":"Tangerang","i_lat":-6.176583,"time":0,"is_transit":false,"transit":false,"line":5,"station_id":"TNG","distance":0,"i_long":106.632761},{"line":5,"station_name":"Tanah Tinggi","distance":1547,"time":3,"i_lat":-6.17331,"i_long":106.64657,"transit":false,"station_id":"TTI","is_transit":false},{"transit":false,"distance":2028,"i_long":106.665036,"time":3,"line":5,"is_transit":false,"i_lat":-6.171811,"station_id":"BPR","station_name":"Batuceper"},{"distance":1834,"station_name":"Poris","i_long":106.679458,"station_id":"PI","line":5,"is_transit":false,"i_lat":-6.169933,"transit":false,"time":3},{"is_transit":false,"line":5,"transit":false,"station_name":"Kalideres","distance":2548,"time":3,"i_lat":-6.166068,"station_id":"KDS","i_long":106.701612},{"station_id":"RW","distance":2504,"transit":false,"i_lat":-6.162758,"is_transit":false,"station_name":"Rawa Buaya","i_long":106.723064,"line":5,"time":3},{"is_transit":false,"i_lat":-6.159876,"i_long":106.737035,"line":5,"station_id":"BOI","time":4,"transit":false,"distance":1152,"station_name":"Bojongindah"},{"distance":2334,"station_name":"Taman Kota","i_long":106.756522,"is_transit":false,"time":2,"transit":false,"i_lat":-6.1587309999999995,"line":5,"station_id":"TKO"},{"time":2,"i_lat":-6.161433,"is_transit":false,"station_name":"Pesing","distance":1614,"transit":false,"i_long":106.771379,"line":5,"station_id":"PSG"},{"line":5,"station_id":"GGL","transit":false,"time":2,"i_long":106.788277,"distance":2036,"is_transit":false,"station_name":"Grogol","i_lat":-6.162021},{"i_long":106.800832,"distance":1700,"station_id":"DU","station_name":"Duri","time":3,"transit":true,"line":1,"is_transit":true,"i_lat":-6.155215},{"station_id":"THB","distance":3632,"i_lat":-6.185545,"transit":false,"is_transit":false,"station_name":"Tanah Abang","time":8,"line":1,"i_long":106.811091},{"is_transit":false,"station_id":"KAT","line":1,"transit":false,"i_lat":-6.20132,"distance":2029,"station_name":"Karet","i_long":106.816351,"time":5},{"distance":471,"time":1,"i_lat":-6.201433,"line":1,"i_long":106.819881,"station_name":"Sudirman Baru","is_transit":false,"station_id":"SUDB","transit":false},{"time":1,"transit":false,"distance":280,"line":1,"is_transit":false,"i_lat":-6.202263,"i_long":106.822649,"station_name":"Sudirman","station_id":"SUD"},{"line":2,"i_long":106.84912,"time":4,"is_transit":false,"transit":false,"station_id":"MRI","i_lat":-6.209883,"distance":3186,"station_name":"Manggarai"},{"is_transit":false,"i_lat":-6.212485,"i_long":106.858896,"station_id":"MTR","time":2,"transit":false,"distance":1275,"line":1,"station_name":"Matraman"},{"time":8,"transit":true,"i_long":106.86807400000001,"station_id":"JNG","is_transit":true,"station_name":"Jatinegara","i_lat":-6.215091,"line":1,"distance":1377},{"i_lat":-6.209188,"distance":1236,"station_id":"POK","time":2,"transit":false,"is_transit":false,"station_name":"Pondok Jati","i_long":106.861737,"line":11}],[{"distance":0,"station_id":"TNG","is_transit":false,"station_name":"Tangerang","time":0,"i_long":106.632761,"line":5,"i_lat":-6.176583,"transit":false},{"distance":1547,"time":3,"transit":false,"i_long":106.64657,"i_lat":-6.17331,"line":5,"is_transit":false,"station_id":"TTI","station_name":"Tanah Tinggi"},{"time":3,"station_id":"BPR","i_long":106.665036,"line":5,"station_name":"Batuceper","transit":false,"distance":2028,"i_lat":-6.171811,"is_transit":false},{"distance":1834,"i_lat":-6.169933,"transit":false,"station_id":"PI","i_long":106.679458,"line":5,"station_name":"Poris","is_transit":false,"time":3},{"line":5,"distance":2548,"station_name":"Kalideres","time":3,"is_transit":false,"station_id":"KDS","transit":false,"i_lat":-6.166068,"i_long":106.701612},{"station_name":"Rawa Buaya","transit":false,"is_transit":false,"time":3,"distance":2504,"i_lat":-6.162758,"i_long":106.723064,"line":5,"station_id":"RW"},{"is_transit":false,"time":4,"transit":false,"distance":1152,"line":5,"i_lat":-6.159876,"station_id":"BOI","i_long":106.737035,"station_name":"Bojongindah"},{"station_id":"TKO","distance":2334,"i_long":106.756522,"transit":false,"line":5,"i_lat":-6.1587309999999995,"is_transit":false,"time":2,"station_name":"Taman Kota"},{"transit":false,"time":2,"is_transit":false,"distance":1614,"i_lat":-6.161433,"station_id":"PSG","i_long":106.771379,"line":5,"station_name":"Pesing"},{"transit":false,"is_transit":false,"i_lat":-6.162021,"time":2,"distance":2036,"line":5,"station_name":"Grogol","station_id":"GGL","i_long":106.788277},{"distance":1700,"station_id":"DU","station_name":"Duri","is_transit":true,"transit":true,"time":3,"line":1,"i_long":106.800832,"i_lat":-6.155215},{"transit":false,"station_id":"AK","line":1,"time":4,"i_lat":-6.144674,"distance":1230,"station_name":"Angke","i_long":106.79867,"is_transit":false},{"station_name":"Kampung Bandan","distance":4102,"transit":true,"i_lat":-6.132549,"i_long":106.826365,"station_id":"KPB","time":9,"line":4,"is_transit":true},{"line":2,"is_transit":true,"time":3,"station_name":"Jakarta Kota","transit":true,"distance":1364,"i_lat":-6.137569,"i_long":106.812439,"station_id":"JAKK"},{"i_long":106.820901,"station_id":"JAY","line":2,"transit":false,"time":4,"is_transit":false,"distance":1264,"station_name":"Jayakarta","i_lat":-6.141205},{"i_lat":-6.149769,"line":2,"station_id":"MGB","station_name":"Manggabesar","time":2,"transit":false,"distance":1080,"is_transit":false,"i_long":106.82482},{"i_long":106.827103,"station_id":"SW","station_name":"Sawah Besar","is_transit":false,"time":2,"distance":906,"i_lat":-6.160725,"line":2,"transit":false},{"station_name":"Juanda","line":2,"station_id":"JUA","is_transit":false,"distance":1149,"time":2,"i_lat":-6.166716,"transit":false,"i_long":106.828284},{"time":4,"i_lat":-6.186295,"i_long":106.832183,"line":2,"transit":false,"station_name":"Gondangdia","distance":2015,"is_transit":false,"station_id":"GDD"},{"i_long":106.840169,"station_id":"CKI","transit":false,"time":3,"is_transit":false,"station_name":"Cikini","distance":1750,"line":2,"i_lat":-6.198556},{"is_transit":true,"station_id":"MRI","station_name":"Manggarai","time":4,"distance":1590,"i_lat":-6.209883,"transit":true,"i_long":106.84912,"line":2},{"i_long":106.858896,"is_transit":false,"station_name":"Matraman","line":1,"time":2,"transit":false,"distance":1275,"station_id":"MTR","i_lat":-6.212485},{"line":1,"station_id":"JNG","i_lat":-6.215091,"transit":true,"time":8,"distance":1377,"is_transit":true,"station_name":"Jatinegara","i_long":106.86807400000001},{"i_lat":-6.209188,"line":11,"i_long":106.861737,"distance":1236,"station_name":"Pondok Jati","time":2,"is_transit":false,"station_id":"POK","transit":false}],[{"station_name":"Tangerang","distance":0,"transit":false,"time":0,"line":5,"is_transit":false,"i_long":106.632761,"i_lat":-6.176583,"station_id":"TNG"},{"station_name":"Tanah Tinggi","time":3,"i_long":106.64657,"distance":1547,"is_transit":false,"station_id":"TTI","line":5,"transit":false,"i_lat":-6.17331},{"transit":false,"distance":2028,"time":3,"is_transit":false,"i_long":106.665036,"station_name":"Batuceper","station_id":"BPR","i_lat":-6.171811,"line":5},{"i_lat":-6.169933,"line":5,"is_transit":false,"distance":1834,"transit":false,"i_long":106.679458,"station_id":"PI","time":3,"station_name":"Poris"},{"station_id":"KDS","time":3,"line":5,"i_long":106.701612,"is_transit":false,"transit":false,"i_lat":-6.166068,"distance":2548,"station_name":"Kalideres"},{"distance":2504,"transit":false,"station_name":"Rawa Buaya","time":3,"line":5,"i_long":106.723064,"station_id":"RW","is_transit":false,"i_lat":-6.162758},{"i_long":106.737035,"station_id":"BOI","station_name":"Bojongindah","distance":1152,"i_lat":-6.159876,"line":5,"transit":false,"is_transit":false,"time":4},{"line":5,"transit":false,"time":2,"i_lat":-6.1587309999999995,"station_id":"TKO","i_long":106.756522,"station_name":"Taman Kota","distance":2334,"is_transit":false},{"station_id":"PSG","station_name":"Pesing","i_lat":-6.161433,"transit":false,"line":5,"is_transit":false,"time":2,"distance":1614,"i_long":106.771379},{"transit":false,"station_id":"GGL","is_transit":false,"i_long":106.788277,"station_name":"Grogol","time":2,"i_lat":-6.162021,"line":5,"distance":2036},{"station_id":"DU","i_long":106.800832,"station_name":"Duri","is_transit":true,"time":3,"transit":true,"i_lat":-6.155215,"distance":1700,"line":1},{"station_name":"Tanah Abang","i_long":106.811091,"i_lat":-6.185545,"is_transit":false,"time":8,"line":1,"station_id":"THB","distance":3632,"transit":false},{"distance":2029,"line":1,"station_name":"Karet","transit":false,"i_lat":-6.20132,"station_id":"KAT","i_long":106.816351,"time":5,"is_transit":false},{"station_id":"SUDB","line":1,"is_transit":false,"i_lat":-6.201433,"time":1,"station_name":"Sudirman Baru","transit":false,"distance":471,"i_long":106.819881},{"i_long":106.822649,"transit":false,"station_id":"SUD","line":1,"station_name":"Sudirman","time":1,"distance":280,"is_transit":false,"i_lat":-6.202263},{"is_transit":true,"distance":3186,"station_id":"MRI","i_lat":-6.209883,"time":4,"station_name":"Manggarai","transit":true,"line":2,"i_long":106.84912},{"distance":1590,"transit":false,"time":4,"i_lat":-6.198556,"is_transit":false,"station_id":"CKI","station_name":"Cikini","i_long":106.840169,"line":2},{"transit":false,"time":3,"i_long":106.832183,"distance":1750,"station_name":"Gondangdia","is_transit":false,"station_id":"GDD","line":2,"i_lat":-6.186295},{"i_lat":-6.166716,"i_long":106.828284,"is_transit":false,"time":4,"station_id":"JUA","station_name":"Juanda","transit":false,"distance":2015,"line":2},{"line":2,"distance":1149,"station_id":"SW","is_transit":false,"station_name":"Sawah Besar","time":2,"transit":false,"i_long":106.827103,"i_lat":-6.160725},{"time":2,"line":2,"is_transit":false,"transit":false,"station_id":"MGB","station_name":"Manggabesar","i_lat":-6.149769,"i_long":106.82482,"distance":906},{"transit":false,"line":2,"time":2,"is_transit":false,"station_name":"Jayakarta","distance":1080,"i_long":106.820901,"station_id":"JAY","i_lat":-6.141205},{"i_long":106.812439,"transit":true,"is_transit":true,"station_id":"JAKK","i_lat":-6.137569,"station_name":"Jakarta Kota","distance":1264,"time":4,"line":2},{"i_lat":-6.132549,"time":3,"i_long":106.826365,"distance":1364,"station_name":"Kampung Bandan","line":4,"is_transit":true,"station_id":"KPB","transit":true},{"line":11,"transit":false,"distance":1444,"i_lat":-6.14505,"i_long":106.836569,"time":3,"is_transit":false,"station_id":"RJW","station_name":"Rajawali"},{"is_transit":false,"station_id":"KMO","distance":1901,"station_name":"Kemayoran","i_lat":-6.161728,"i_long":106.839204,"transit":false,"time":5,"line":11},{"time":4,"is_transit":false,"line":11,"i_lat":-6.174784,"distance":1436,"station_name":"Pasar Senen","transit":false,"station_id":"PSE","i_long":106.84368},{"time":8,"is_transit":false,"i_lat":-6.185975,"station_name":"Gang Sentiong","station_id":"GST","distance":1567,"line":11,"transit":false,"i_long":106.850107},{"is_transit":false,"time":1,"i_lat":-6.193792,"line":11,"i_long":106.855437,"station_id":"KMT","distance":973,"station_name":"Kramat","transit":false},{"station_id":"POK","i_long":106.861737,"i_lat":-6.209188,"station_name":"Pondok Jati","time":2,"distance":1829,"transit":false,"is_transit":false,"line":11}]]}