{"data":[[{"time":0,"i_long":106.632761,"transit":false,"station_name":"Tangerang","distance":0,"station_id":"TNG","is_transit":false,"i_lat":-6.176583,"line":5},{"station_id":"TTI","station_name":"Tanah Tinggi","is_transit":false,"time":3,"line":5,"i_long":106.64657,"transit":false,"i_lat":-6.17331,"distance":1547},{"is_transit":false,"i_lat":-6.171811,"line":5,"i_long":106.665036,"station_id":"BPR","time":3,"distance":2028,"station_name":"Batuceper","transit":false},{"i_long":106.679458,"time":3,"transit":false,"line":5,"station_id":"PI","station_name":"Poris","is_transit":false,"i_lat":-6.169933,"distance":1834},{"i_lat":-6.166068,"station_id":"KDS","transit":false,"station_name":"Kalideres","i_long":106.701612,"line":5,"is_transit":false,"distance":2548,"time":3},{"i_long":106.723064,"station_id":"RW","transit":false,"is_transit":false,"line":5,"distance":2504,"station_name":"Rawa Buaya","i_lat":-6.162758,"time":3},{"time":4,"transit":false,"station_id":"BOI","station_name":"Bojongindah","line":5,"is_transit":false,"i_lat":-6.159876,"distance":1152,"i_long":106.737035},{"station_name":"Taman Kota","is_transit":false,"i_lat":-6.1587309999999995,"line":5,"station_id":"TKO","distance":2334,"i_long":106.756522,"time":2,"transit":false},{"i_long":106.771379,"station_name":"Pesing","station_id":"PSG","time":2,"i_lat":-6.161433,"distance":1614,"transit":false,"is_transit":false,"line":5},{"station_name":"Grogol","i_lat":-6.162021,"i_long":106.788277,"is_transit":false,"station_id":"GGL","distance":2036,"transit":false,"line":5,"time":2},{"distance":1700,"i_long":106.800832,"i_lat":-6.155215,"station_name":"Duri","station_id":"DU","line":1,"is_transit":true,"transit":true,"time":3},{"time":8,"station_name":"Tanah Abang","i_lat":-6.185545,"is_transit":true,"line":1,"i_long":106.811091,"transit":true,"distance":3632,"station_id":"THB"},{"is_transit":false,"station_id":"PLM","i_lat":-6.207404,"station_name":"Palmerah","transit":false,"i_long":106.79689,"line":6,"distance":3191,"time":6},{"transit":false,"station_id":"KBY","time":7,"distance":3737,"is_transit":false,"station_name":"Kebayoran","i_long":106.780334,"i_lat":-6.237242,"line":6},{"station_name":"Pondokranji","i_long":106.74273,"station_id":"PDJ","line":6,"distance":6218,"time":8,"i_lat":-6.276362,"is_transit":false,"transit":false},{"time":3,"transit":false,"is_transit":false,"i_long":106.728916,"line":6,"station_id":"JMU","station_name":"Jurangmangu","distance":2179,"i_lat":-6.288927},{"transit":false,"i_lat":-6.296963,"i_long":106.712277,"line":6,"is_transit":false,"time":4,"station_id":"SDM","station_name":"Sudimara","distance":1994},{"transit":false,"station_id":"RU","distance":4566,"i_long":106.675475,"station_name":"Rawa Buntu","i_lat":-6.314823,"line":6,"time":6,"is_transit":false},{"time":4,"i_lat":-6.319871,"transit":false,"station_id":"SRP","station_name":"Serpong","is_transit":false,"line":6,"i_long":106.66566,"distance":2413},{"station_name":"Cisauk","transit":false,"time":4,"distance":1784,"i_lat":-6.32484,"is_transit":false,"line":3,"station_id":"CSK","i_long":106.640411},{"transit":false,"i_lat":-6.329547,"i_long":106.617853,"line":3,"distance":2519,"station_id":"CC","is_transit":false,"time":4,"station_name":"Cicayur"},{"line":6,"station_id":"PRP","transit":false,"time":8,"is_transit":false,"distance":5968,"i_lat":-6.3441410000000005,"station_name":"Parung Panjang","i_long":106.568863}],[{"time":0,"station_name":"Tangerang","station_id":"TNG","i_lat":-6.176583,"i_long":106.632761,"distance":0,"line":5,"is_transit":false,"transit":false},{"transit":false,"station_id":"TTI","distance":1547,"line":5,"is_transit":false,"i_lat":-6.17331,"time":3,"i_long":106.64657,"station_name":"Tanah Tinggi"},{"time":3,"i_lat":-6.171811,"line":5,"station_id":"BPR","is_transit":false,"transit":false,"distance":2028,"station_name":"Batuceper","i_long":106.665036},{"line":5,"distance":1834,"transit":false,"station_id":"PI","is_transit":false,"i_lat":-6.169933,"station_name":"Poris","time":3,"i_long":106.679458},{"station_name":"Kalideres","time":3,"distance":2548,"station_id":"KDS","is_transit":false,"i_long":106.701612,"line":5,"i_lat":-6.166068,"transit":false},{"distance":2504,"is_transit":false,"transit":false,"i_long":106.723064,"station_name":"Rawa Buaya","i_lat":-6.162758,"line":5,"time":3,"station_id":"RW"},{"line":5,"time":4,"distance":1152,"is_transit":false,"i_lat":-6.159876,"transit":false,"station_id":"BOI","i_long":106.737035,"station_name":"Bojongindah"},{"station_id":"TKO","i_lat":-6.1587309999999995,"is_transit":false,"station_name":"Taman Kota","distance":2334,"i_long":106.756522,"transit":false,"time":2,"line":5},{"station_name":"Pesing","distance":1614,"is_transit":false,"line":5,"transit":false,"i_lat":-6.161433,"time":2,"station_id":"PSG","i_long":106.771379},{"distance":2036,"i_long":106.788277,"station_id":"GGL","line":5,"i_lat":-6.162021,"time":2,"transit":false,"station_name":"Grogol","is_transit":false},{"time":3,"line":1,"is_transit":true,"i_lat":-6.155215,"i_long":106.800832,"transit":true,"station_name":"Duri","distance":1700,"station_id":"DU"},{"is_transit":false,"station_name":"Angke","distance":1230,"transit":false,"station_id":"AK","i_long":106.79867,"line":1,"time":4,"i_lat":-6.144674},{"line":4,"i_long":106.826365,"time":9,"is_transit":true,"distance":4102,"station_name":"Kampung Bandan","station_id":"KPB","transit":true,"i_lat":-6.132549},{"i_lat":-6.137569,"line":2,"is_transit":true,"transit":true,"station_id":"JAKK","distance":1364,"station_name":"Jakarta Kota","time":3,"i_long":106.812439},{"time":4,"station_id":"JAY","station_name":"Jayakarta","is_transit":false,"i_lat":-6.141205,"distance":1264,"i_long":106.820901,"line":2,"transit":false},{"is_transit":false,"i_long":106.82482,"station_id":"MGB","transit":false,"time":2,"i_lat":-6.149769,"line":2,"distance":1080,"station_name":"Manggabesar"},{"i_lat":-6.160725,"i_long":106.827103,"time":2,"line":2,"transit":false,"station_name":"Sawah Besar","station_id":"SW","is_transit":false,"distance":906},{"time":2,"i_lat":-6.166716,"transit":false,"station_name":"Juanda","station_id":"JUA","i_long":106.828284,"distance":1149,"line":2,"is_transit":false},{"transit":false,"line":2,"station_id":"GDD","is_transit":false,"time":4,"distance":2015,"i_lat":-6.186295,"i_long":106.832183,"station_name":"Gondangdia"},{"station_name":"Cikini","time":3,"line":2,"transit":false,"i_lat":-6.198556,"is_transit":false,"distance":1750,"i_long":106.840169,"station_id":"CKI"},{"is_transit":true,"time":4,"line":2,"station_name":"Manggarai","i_lat":-6.209883,"transit":true,"distance":1590,"i_long":106.84912,"station_id":"MRI"},{"station_id":"SUD","distance":3186,"transit":false,"is_transit":false,"station_name":"Sudirman","line":1,"i_lat":-6.202263,"i_long":106.822649,"time":4},{"transit":false,"i_long":106.819881,"is_transit":false,"line":1,"i_lat":-6.201433,"distance":280,"time":1,"station_id":"SUDB","station_name":"Sudirman Baru"},{"transit":false,"is_transit":false,"distance":471,"i_lat":-6.20132,"i_long":106.816351,"line":1,"station_name":"Karet","station_id":"KAT","time":1},{"time":5,"transit":true,"is_transit":true,"station_id":"THB","i_lat":-6.185545,"distance":2029,"i_long":106.811091,"line":1,"station_name":"Tanah Abang"},{"distance":3191,"transit":false,"station_name":"Palmerah","i_lat":-6.207404,"i_long":106.79689,"station_id":"PLM","time":6,"line":6,"is_transit":false},{"i_long":106.780334,"distance":3737,"station_id":"KBY","transit":false,"is_transit":false,"time":7,"line":6,"i_lat":-6.237242,"station_name":"Kebayoran"},{"distance":6218,"is_transit":false,"station_id":"PDJ","time":8,"line":6,"i_lat":-6.276362,"transit":false,"station_name":"Pondokranji","i_long":106.74273},{"station_name":"Jurangmangu","transit":false,"line":6,"is_transit":false,"distance":2179,"i_long":106.728916,"time":3,"station_id":"JMU","i_lat":-6.288927},{"station_id":"SDM","i_long":106.712277,"line":6,"station_name":"Sudimara","time":4,"distance":1994,"transit":false,"is_transit":false,"i_lat":-6.296963},{"transit":false,"station_name":"Rawa Buntu","station_id":"RU","i_long":106.675475,"is_transit":false,"line":6,"i_lat":-6.314823,"time":6,"distance":4566},{"line":6,"station_id":"SRP","is_transit":false,"distance":2413,"i_long":106.66566,"transit":false,"i_lat":-6.319871,"station_name":"Serpong","time":4},{"i_lat":-6.32484,"station_name":"Cisauk","distance":1784,"time":4,"i_long":106.640411,"line":3,"is_transit":false,"transit":false,"station_id":"CSK"},{"time":4,"transit":false,"line":3,"station_id":"CC","is_transit":false,"distance":2519,"i_lat":-6.329547,"station_name":"Cicayur","i_long":106.617853},{"transit":false,"station_id":"PRP","distance":5968,"is_transit":false,"station_name":"Parung Panjang","line":6,"i_lat":-6.3441410000000005,"time":8,"i_long":106.568863}],[{"station_name":"Tangerang","line":5,"station_id":"TNG","is_transit":false,"distance":0,"transit":false,"time":0,"i_lat":-6.176583,"i_long":106.632761},{"station_name":"Tanah Tinggi","station_id":"TTI","time":3,"i_long":106.64657,"transit":false,"distance":1547,"line":5,"i_lat":-6.17331,"is_transit":false},{"distance":2028,"transit":false,"time":3,"station_name":"Batuceper","i_lat":-6.171811,"i_long":106.665036,"line":5,"is_transit":false,"station_id":"BPR"},{"line":5,"station_name":"Poris","time":3,"i_long":106.679458,"transit":false,"is_transit":false,"station_id":"PI","i_lat":-6.169933,"distance":1834},{"time":3,"line":5,"i_long":106.701612,"transit":false,"i_lat":-6.166068,"station_name":"Kalideres","station_id":"KDS","is_transit":false,"distance":2548},{"station_name":"Rawa Buaya","line":5,"distance":2504,"i_lat":-6.162758,"is_transit":false,"station_id":"RW","i_long":106.723064,"time":3,"transit":false},{"i_lat":-6.159876,"i_long":106.737035,"line":5,"is_transit":false,"transit":false,"distance":1152,"station_name":"Bojongindah","time":4,"station_id":"BOI"},{"distance":2334,"is_transit":false,"i_lat":-6.1587309999999995,"i_long":106.756522,"time":2,"line":5,"station_name":"Taman Kota","transit":false,"station_id":"TKO"},{"time":2,"i_lat":-6.161433,"i_long":106.771379,"station_name":"Pesing","line":5,"distance":1614,"station_id":"PSG","transit":false,"is_transit":false},{"line":5,"distance":2036,"station_name":"Grogol","time":2,"station_id":"GGL","transit":false,"i_lat":-6.162021,"is_transit":false,"i_long":106.788277},{"distance":1700,"station_name":"Duri","is_transit":true,"line":1,"i_lat":-6.155215,"station_id":"DU","time":3,"transit":true,"i_long":106.800832},{"is_transit":false,"i_lat":-6.144674,"distance":1230,"i_long":106.79867,"transit":false,"station_id":"AK","line":1,"station_name":"Angke","time":4},{"distance":4102,"i_long":106.826365,"is_transit":true,"transit":true,"time":9,"station_name":"Kampung Bandan","station_id":"KPB","i_lat":-6.132549,"line":4},{"station_name":"Rajawali","station_id":"RJW","is_transit":false,"distance":1444,"i_long":106.836569,"i_lat":-6.14505,"line":11,"time":3,"transit":false},{"distance":1901,"transit":false,"station_name":"Kemayoran","is_transit":false,"i_lat":-6.161728,"i_long":106.839204,"time":5,"line":11,"station_id":"KMO"},{"is_transit":false,"station_id":"PSE","i_long":106.84368,"station_name":"Pasar Senen","time":4,"line":11,"transit":false,"i_lat":-6.174784,"distance":1436},{"i_lat":-6.185975,"is_transit":false,"station_id":"GST","line":11,"i_long":106.850107,"transit":false,"station_name":"Gang Sentiong","time":8,"distance":1567},{"i_lat":-6.193792,"distance":973,"time":1,"i_long":106.855437,"line":11,"station_name":"Kramat","station_id":"KMT","is_transit":false,"transit":false},{"is_transit":false,"i_long":106.861737,"station_name":"Pondok Jati","station_id":"POK","time":2,"transit":false,"i_lat":-6.209188,"line":11,"distance":1829},{"transit":true,"i_long":106.86807400000001,"distance":1236,"i_lat":-6.215091,"station_id":"JNG","time":9,"line":1,"station_name":"Jatinegara","is_transit":true},{"station_name":"Matraman","time":2,"is_transit":false,"transit":false,"station_id":"MTR","distance":1377,"i_lat":-6.212485,"i_long":106.858896,"line":1},{"station_name":"Manggarai","time":2,"transit":false,"is_transit":false,"distance":1275,"i_lat":-6.209883,"line":2,"station_id":"MRI","i_long":106.84912},{"line":1,"station_name":"Sudirman","i_lat":-6.202263,"time":4,"is_transit":false,"i_long":106.822649,"distance":3186,"transit":false,"station_id":"SUD"},{"line":1,"station_id":"SUDB","i_lat":-6.201433,"is_transit":false,"station_name":"Sudirman Baru","i_long":106.819881,"distance":280,"transit":false,"time":1},{"station_name":"Karet","is_transit":false,"time":1,"i_lat":-6.20132,"station_id":"KAT","transit":false,"line":1,"i_long":106.816351,"distance":471},{"time":5,"i_long":106.811091,"station_name":"Tanah Abang","is_transit":true,"transit":true,"distance":2029,"line":1,"i_lat":-6.185545,"station_id":"THB"},{"line":6,"distance":3191,"station_name":"Palmerah","transit":false,"is_transit":false,"time":6,"i_lat":-6.207404,"i_long":106.79689,"station_id":"PLM"},{"line":6,"i_lat":-6.237242,"i_long":106.780334,"station_name":"Kebayoran","station_id":"KBY","time":7,"is_transit":false,"transit":false,"distance":3737},{"line":6,"station_id":"PDJ","i_lat":-6.276362,"transit":false,"station_name":"Pondokranji","time":8,"i_long":106.74273,"is_transit":false,"distance":6218},{"is_transit":false,"station_id":"JMU","distance":2179,"station_name":"Jurangmangu","i_lat":-6.288927,"line":6,"transit":false,"time":3,"i_long":106.728916},{"station_id":"SDM","time":4,"distance":1994,"is_transit":false,"i_lat":-6.296963,"line":6,"station_name":"Sudimara","i_long":106.712277,"transit":false},{"is_transit":false,"i_lat":-6.314823,"i_long":106.675475,"transit":false,"station_id":"RU","time":6,"line":6,"distance":4566,"station_name":"Rawa Buntu"},{"is_transit":false,"i_lat":-6.319871,"distance":2413,"transit":false,"line":6,"station_id":"SRP","station_name":"Serpong","time":4,"i_long":106.66566},{"line":3,"transit":false,"station_name":"Cisauk","i_lat":-6.32484,"distance":1784,"i_long":106.640411,"time":4,"station_id":"CSK","is_transit":false},{"i_long":106.617853,"station_name":"Cicayur","distance":2519,"time":4,"transit":false,"station_id":"CC","is_transit":false,"i_lat":-6.329547,"line":3},{"i_long":106.568863,"time":8,"distance":5968,"line":6,"transit":false,"station_id":"PRP","i_lat":-6.3441410000000005,"station_name":"Parung Panjang","is_transit":false}]]}