{"data":[[{"distance":0,"is_transit":false,"i_lat":-6.176583,"transit":false,"time":0,"i_long":106.632761,"line":5,"station_id":"TNG","station_name":"Tangerang"},{"station_id":"TTI","time":3,"i_long":106.64657,"station_name":"Tanah Tinggi","line":5,"distance":1547,"is_transit":false,"transit":false,"i_lat":-6.17331},{"i_long":106.665036,"station_id":"BPR","line":5,"time":3,"is_transit":false,"i_lat":-6.171811,"transit":false,"station_name":"Batuceper","distance":2028},{"transit":false,"i_long":106.679458,"line":5,"station_name":"Poris","distance":1834,"is_transit":false,"i_lat":-6.169933,"time":3,"station_id":"PI"},{"station_name":"Kalideres","i_lat":-6.166068,"i_long":106.701612,"station_id":"KDS","is_transit":false,"line":5,"distance":2548,"transit":false,"time":3},{"i_lat":-6.162758,"line":5,"i_long":106.723064,"time":3,"station_id":"RW","station_name":"Rawa Buaya","is_transit":false,"distance":2504,"transit":false},{"time":4,"station_id":"BOI","i_long":106.737035,"transit":false,"i_lat":-6.159876,"is_transit":false,"station_name":"Bojongindah","distance":1152,"line":5},{"distance":2334,"transit":false,"station_name":"Taman Kota","line":5,"station_id":"TKO","i_long":106.756522,"time":2,"is_transit":false,"i_lat":-6.1587309999999995},{"line":5,"i_lat":-6.161433,"distance":1614,"station_id":"PSG","is_transit":false,"time":2,"station_name":"Pesing","transit":false,"i_long":106.771379},{"station_name":"Grogol","time":2,"i_long":106.788277,"line":5,"station_id":"GGL","transit":false,"is_transit":false,"i_lat":-6.162021,"distance":2036},{"time":3,"distance":1700,"station_id":"DU","is_transit":true,"i_lat":-6.155215,"i_long":106.800832,"station_name":"Duri","transit":true,"line":1},{"i_lat":-6.185545,"station_id":"THB","transit":true,"station_name":"Tanah Abang","i_long":106.811091,"line":1,"time":8,"distance":3632,"is_transit":true},{"station_name":"Palmerah","line":6,"time":6,"distance":3191,"i_lat":-6.207404,"transit":false,"i_long":106.79689,"station_id":"PLM","is_transit":false},{"is_transit":false,"i_lat":-6.237242,"distance":3737,"i_long":106.780334,"station_id":"KBY","time":7,"transit":false,"line":6,"station_name":"Kebayoran"},{"line":6,"distance":6218,"i_lat":-6.276362,"time":8,"is_transit":false,"station_id":"PDJ","transit":false,"i_long":106.74273,"station_name":"Pondokranji"},{"i_long":106.728916,"line":6,"station_id":"JMU","station_name":"Jurangmangu","distance":2179,"time":3,"i_lat":-6.288927,"is_transit":false,"transit":false},{"station_name":"Sudimara","i_lat":-6.296963,"time":4,"station_id":"SDM","distance":1994,"is_transit":false,"transit":false,"line":6,"i_long":106.712277},{"station_id":"RU","i_lat":-6.314823,"station_name":"Rawa Buntu","i_long":106.675475,"line":6,"is_transit":false,"time":6,"distance":4566,"transit":false},{"distance":2413,"i_lat":-6.319871,"is_transit":false,"transit":false,"i_long":106.66566,"line":6,"station_name":"Serpong","station_id":"SRP","time":4},{"line":3,"i_lat":-6.32484,"distance":1784,"i_long":106.640411,"station_id":"CSK","station_name":"Cisauk","is_transit":false,"time":4,"transit":false},{"i_long":106.617853,"transit":false,"station_id":"CC","line":3,"distance":2519,"is_transit":false,"i_lat":-6.329547,"time":4,"station_name":"Cicayur"},{"i_long":106.568863,"station_id":"PRP","distance":5968,"i_lat":-6.3441410000000005,"transit":false,"is_transit":false,"line":6,"time":8,"station_name":"Parung Panjang"},{"time":9,"station_id":"CJT","distance":7025,"station_name":"Cilejit","transit":false,"is_transit":false,"i_long":106.508482,"i_lat":-6.354349,"line":3}],[{"station_id":"TNG","distance":0,"time":0,"is_transit":false,"transit":false,"i_long":106.632761,"line":5,"station_name":"Tangerang","i_lat":-6.176583},{"station_name":"Tanah Tinggi","line":5,"time":3,"distance":1547,"i_lat":-6.17331,"transit":false,"station_id":"TTI","is_transit":false,"i_long":106.64657},{"i_lat":-6.171811,"station_id":"BPR","time":3,"station_name":"Batuceper","distance":2028,"is_transit":false,"transit":false,"i_long":106.665036,"line":5},{"station_id":"PI","transit":false,"line":5,"time":3,"station_name":"Poris","i_long":106.679458,"distance":1834,"is_transit":false,"i_lat":-6.169933},{"transit":false,"line":5,"i_lat":-6.166068,"is_transit":false,"distance":2548,"station_id":"KDS","time":3,"station_name":"Kalideres","i_long":106.701612},{"is_transit":false,"distance":2504,"time":3,"station_id":"RW","transit":false,"station_name":"Rawa Buaya","i_lat":-6.162758,"i_long":106.723064,"line":5},{"is_transit":false,"transit":false,"station_id":"BOI","station_name":"Bojongindah","i_long":106.737035,"line":5,"i_lat":-6.159876,"time":4,"distance":1152},{"is_transit":false,"station_name":"Taman Kota","station_id":"TKO","i_long":106.756522,"line":5,"i_lat":-6.1587309999999995,"distance":2334,"transit":false,"time":2},{"time":2,"line":5,"i_lat":-6.161433,"distance":1614,"station_id":"PSG","transit":false,"station_name":"Pesing","i_long":106.771379,"is_transit":false},{"station_name":"Grogol","transit":false,"distance":2036,"station_id":"GGL","line":5,"time":2,"is_transit":false,"i_lat":-6.162021,"i_long":106.788277},{"is_transit":true,"station_name":"Duri","i_long":106.800832,"time":3,"line":1,"i_lat":-6.155215,"station_id":"DU","transit":true,"distance":1700},{"i_lat":-6.144674,"station_name":"Angke","is_transit":false,"station_id":"AK","line":1,"transit":false,"i_long":106.79867,"time":4,"distance":1230},{"i_lat":-6.132549,"distance":4102,"time":9,"station_id":"KPB","is_transit":true,"i_long":106.826365,"line":4,"transit":true,"station_name":"Kampung Bandan"},{"time":3,"distance":1364,"i_lat":-6.137569,"line":2,"station_id":"JAKK","is_transit":true,"station_name":"Jakarta Kota","i_long":106.812439,"transit":true},{"line":2,"distance":1264,"station_id":"JAY","transit":false,"i_long":106.820901,"time":4,"is_transit":false,"i_lat":-6.141205,"station_name":"Jayakarta"},{"i_long":106.82482,"transit":false,"is_transit":false,"station_id":"MGB","i_lat":-6.149769,"time":2,"station_name":"Manggabesar","line":2,"distance":1080},{"station_name":"Sawah Besar","i_long":106.827103,"distance":906,"time":2,"transit":false,"station_id":"SW","i_lat":-6.160725,"line":2,"is_transit":false},{"station_name":"Juanda","line":2,"transit":false,"i_long":106.828284,"station_id":"JUA","is_transit":false,"i_lat":-6.166716,"distance":1149,"time":2},{"transit":false,"time":4,"is_transit":false,"station_name":"Gondangdia","i_long":106.832183,"line":2,"station_id":"GDD","i_lat":-6.186295,"distance":2015},{"line":2,"is_transit":false,"i_lat":-6.198556,"distance":1750,"i_long":106.840169,"transit":false,"station_id":"CKI","station_name":"Cikini","time":3},{"i_long":106.84912,"distance":1590,"station_id":"MRI","time":4,"transit":true,"i_lat":-6.209883,"station_name":"Manggarai","is_transit":true,"line":2},{"time":4,"is_transit":false,"distance":3186,"transit":false,"i_lat":-6.202263,"line":1,"station_name":"Sudirman","station_id":"SUD","i_long":106.822649},{"station_id":"SUDB","station_name":"Sudirman Baru","is_transit":false,"time":1,"i_long":106.819881,"line":1,"transit":false,"i_lat":-6.201433,"distance":280},{"distance":471,"station_id":"KAT","station_name":"Karet","line":1,"transit":false,"time":1,"i_long":106.816351,"is_transit":false,"i_lat":-6.20132},{"time":5,"transit":true,"station_id":"THB","station_name":"Tanah Abang","line":1,"distance":2029,"i_lat":-6.185545,"is_transit":true,"i_long":106.811091},{"i_long":106.79689,"is_transit":false,"station_id":"PLM","station_name":"Palmerah","line":6,"i_lat":-6.207404,"transit":false,"time":6,"distance":3191},{"i_lat":-6.237242,"distance":3737,"is_transit":false,"time":7,"i_long":106.780334,"station_id":"KBY","line":6,"transit":false,"station_name":"Kebayoran"},{"time":8,"is_transit":false,"i_long":106.74273,"transit":false,"distance":6218,"station_name":"Pondokranji","line":6,"i_lat":-6.276362,"station_id":"PDJ"},{"is_transit":false,"transit":false,"line":6,"time":3,"station_id":"JMU","i_long":106.728916,"distance":2179,"station_name":"Jurangmangu","i_lat":-6.288927},{"station_id":"SDM","i_lat":-6.296963,"time":4,"line":6,"is_transit":false,"station_name":"Sudimara","i_long":106.712277,"transit":false,"distance":1994},{"time":6,"distance":4566,"station_id":"RU","station_name":"Rawa Buntu","i_long":106.675475,"transit":false,"is_transit":false,"i_lat":-6.314823,"line":6},{"distance":2413,"i_long":106.66566,"station_id":"SRP","time":4,"station_name":"Serpong","line":6,"transit":false,"i_lat":-6.319871,"is_transit":false},{"i_lat":-6.32484,"station_id":"CSK","station_name":"Cisauk","is_transit":false,"transit":false,"time":4,"distance":1784,"line":3,"i_long":106.640411},{"i_long":106.617853,"distance":2519,"transit":false,"station_id":"CC","station_name":"Cicayur","is_transit":false,"line":3,"time":4,"i_lat":-6.329547},{"transit":false,"station_name":"Parung Panjang","station_id":"PRP","time":8,"is_transit":false,"i_long":106.568863,"distance":5968,"i_lat":-6.3441410000000005,"line":6},{"i_lat":-6.354349,"time":9,"transit":false,"station_id":"CJT","i_long":106.508482,"distance":7025,"is_transit":false,"station_name":"Cilejit","line":3}],[{"station_name":"Tangerang","transit":false,"time":0,"i_lat":-6.176583,"i_long":106.632761,"station_id":"TNG","line":5,"is_transit":false,"distance":0},{"is_transit":false,"i_long":106.64657,"station_name":"Tanah Tinggi","i_lat":-6.17331,"line":5,"station_id":"TTI","transit":false,"time":3,"distance":1547},{"station_id":"BPR","is_transit":false,"time":3,"distance":2028,"i_lat":-6.171811,"station_name":"Batuceper","i_long":106.665036,"line":5,"transit":false},{"transit":false,"station_id":"PI","is_transit":false,"i_long":106.679458,"time":3,"line":5,"station_name":"Poris","distance":1834,"i_lat":-6.169933},{"i_long":106.701612,"station_id":"KDS","station_name":"Kalideres","is_transit":false,"line":5,"time":3,"i_lat":-6.166068,"distance":2548,"transit":false},{"station_name":"Rawa Buaya","i_lat":-6.162758,"i_long":106.723064,"is_transit":false,"time":3,"transit":false,"distance":2504,"line":5,"station_id":"RW"},{"is_transit":false,"i_lat":-6.159876,"time":4,"distance":1152,"transit":false,"i_long":106.737035,"station_id":"BOI","station_name":"Bojongindah","line":5},{"time":2,"i_long":106.756522,"distance":2334,"line":5,"station_id":"TKO","i_lat":-6.1587309999999995,"station_name":"Taman Kota","is_transit":false,"transit":false},{"transit":false,"distance":1614,"station_id":"PSG","station_name":"Pesing","line":5,"i_lat":-6.161433,"i_long":106.771379,"time":2,"is_transit":false},{"transit":false,"distance":2036,"station_name":"Grogol","i_lat":-6.162021,"time":2,"line":5,"is_transit":false,"i_long":106.788277,"station_id":"GGL"},{"distance":1700,"is_transit":true,"i_lat":-6.155215,"station_name":"Duri","line":1,"transit":true,"station_id":"DU","i_long":106.800832,"time":3},{"transit":false,"i_lat":-6.144674,"station_id":"AK","station_name":"Angke","is_transit":false,"time":4,"line":1,"i_long":106.79867,"distance":1230},{"is_transit":true,"i_long":106.826365,"time":9,"line":4,"station_name":"Kampung Bandan","i_lat":-6.132549,"transit":true,"distance":4102,"station_id":"KPB"},{"station_id":"RJW","is_transit":false,"line":11,"time":3,"i_lat":-6.14505,"i_long":106.836569,"distance":1444,"station_name":"Rajawali","transit":false},{"station_id":"KMO","transit":false,"i_long":106.839204,"is_transit":false,"station_name":"Kemayoran","line":11,"distance":1901,"time":5,"i_lat":-6.161728},{"i_lat":-6.174784,"transit":false,"distance":1436,"i_long":106.84368,"station_id":"PSE","time":4,"station_name":"Pasar Senen","line":11,"is_transit":false},{"i_lat":-6.185975,"station_id":"GST","i_long":106.850107,"is_transit":false,"time":8,"station_name":"Gang Sentiong","distance":1567,"transit":false,"line":11},{"i_long":106.855437,"line":11,"station_name":"Kramat","distance":973,"time":1,"station_id":"KMT","is_transit":false,"i_lat":-6.193792,"transit":false},{"transit":false,"station_id":"POK","i_lat":-6.209188,"distance":1829,"station_name":"Pondok Jati","time":2,"line":11,"is_transit":false,"i_long":106.861737},{"station_id":"JNG","time":9,"is_transit":true,"distance":1236,"i_lat":-6.215091,"i_long":106.86807400000001,"line":1,"transit":true,"station_name":"Jatinegara"},{"transit":false,"is_transit":false,"station_id":"MTR","distance":1377,"i_lat":-6.212485,"time":2,"station_name":"Matraman","i_long":106.858896,"line":1},{"distance":1275,"i_lat":-6.209883,"station_name":"Manggarai","time":2,"line":2,"station_id":"MRI","i_long":106.84912,"transit":false,"is_transit":false},{"transit":false,"is_transit":false,"distance":3186,"station_id":"SUD","station_name":"Sudirman","i_lat":-6.202263,"line":1,"i_long":106.822649,"time":4},{"i_lat":-6.201433,"transit":false,"i_long":106.819881,"distance":280,"station_id":"SUDB","line":1,"time":1,"station_name":"Sudirman Baru","is_transit":false},{"line":1,"i_long":106.816351,"distance":471,"station_name":"Karet","station_id":"KAT","transit":false,"i_lat":-6.20132,"time":1,"is_transit":false},{"transit":true,"distance":2029,"i_lat":-6.185545,"time":5,"station_name":"Tanah Abang","line":1,"station_id":"THB","is_transit":true,"i_long":106.811091},{"station_name":"Palmerah","station_id":"PLM","i_long":106.79689,"is_transit":false,"i_lat":-6.207404,"distance":3191,"time":6,"line":6,"transit":false},{"distance":3737,"transit":false,"i_long":106.780334,"time":7,"line":6,"station_name":"Kebayoran","i_lat":-6.237242,"station_id":"KBY","is_transit":false},{"transit":false,"station_name":"Pondokranji","i_long":106.74273,"station_id":"PDJ","is_transit":false,"i_lat":-6.276362,"distance":6218,"line":6,"time":8},{"station_name":"Jurangmangu","is_transit":false,"transit":false,"i_lat":-6.288927,"station_id":"JMU","time":3,"line":6,"distance":2179,"i_long":106.728916},{"station_id":"SDM","is_transit":false,"i_long":106.712277,"time":4,"line":6,"transit":false,"distance":1994,"i_lat":-6.296963,"station_name":"Sudimara"},{"time":6,"distance":4566,"is_transit":false,"i_lat":-6.314823,"i_long":106.675475,"transit":false,"station_name":"Rawa Buntu","line":6,"station_id":"RU"},{"line":6,"i_long":106.66566,"time":4,"is_transit":false,"transit":false,"station_name":"Serpong","station_id":"SRP","distance":2413,"i_lat":-6.319871},{"transit":false,"i_lat":-6.32484,"distance":1784,"line":3,"i_long":106.640411,"time":4,"station_name":"Cisauk","station_id":"CSK","is_transit":false},{"is_transit":false,"distance":2519,"line":3,"station_name":"Cicayur","transit":false,"i_long":106.617853,"time":4,"i_lat":-6.329547,"station_id":"CC"},{"station_id":"PRP","distance":5968,"is_transit":false,"transit":false,"time":8,"station_name":"Parung Panjang","i_lat":-6.3441410000000005,"line":6,"i_long":106.568863},{"transit":false,"time":9,"is_transit":false,"station_id":"CJT","line":3,"distance":7025,"i_long":106.508482,"station_name":"Cilejit","i_lat":-6.354349}]]}