{"data":[[{"line":5,"time":0,"station_name":"Tangerang","distance":0,"station_id":"TNG","i_lat":-6.176583,"i_long":106.632761,"is_transit":false,"transit":false},{"station_name":"Tanah Tinggi","i_lat":-6.17331,"distance":1547,"i_long":106.64657,"time":3,"line":5,"transit":false,"station_id":"TTI","is_transit":false},{"station_name":"Batuceper","distance":2028,"station_id":"BPR","i_long":106.665036,"time":3,"line":0,"transit":false,"is_transit":false,"i_lat":-6.171811},{"i_long":106.679458,"transit":false,"i_lat":-6.169933,"time":3,"station_id":"PI","station_name":"Poris","distance":1834,"is_transit":false,"line":5},{"distance":2548,"station_id":"KDS","is_transit":false,"station_name":"Kalideres","i_lat":-6.166068,"time":3,"i_long":106.701612,"line":5,"transit":false},{"i_lat":-6.162758,"station_name":"Rawa Buaya","is_transit":false,"line":5,"time":3,"i_long":106.723064,"transit":false,"distance":2504,"station_id":"RW"},{"is_transit":false,"i_lat":-6.159876,"station_name":"Bojongindah","transit":false,"line":0,"station_id":"BOI","distance":1152,"i_long":106.737035,"time":4},{"time":2,"i_lat":-6.1587309999999995,"station_name":"Taman Kota","line":5,"is_transit":false,"distance":2334,"transit":false,"station_id":"TKO","i_long":106.756522},{"station_id":"PSG","line":5,"distance":1614,"transit":false,"i_lat":-6.161433,"time":2,"i_long":106.771379,"is_transit":false,"station_name":"Pesing"},{"distance":2036,"time":2,"station_name":"Grogol","station_id":"GGL","is_transit":false,"i_lat":-6.162021,"i_long":106.788277,"transit":false,"line":5},{"distance":1700,"transit":true,"line":1,"i_lat":-6.155215,"time":3,"station_name":"Duri","i_long":106.800832,"is_transit":true,"station_id":"DU"},{"station_id":"THB","transit":false,"line":1,"i_long":106.811091,"is_transit":true,"distance":3632,"station_name":"Tanah Abang","i_lat":-6.185545,"time":8},{"station_name":"Karet","i_long":106.816351,"i_lat":-6.20132,"line":1,"time":5,"transit":false,"distance":2029,"is_transit":false,"station_id":"KAT"},{"distance":471,"is_transit":false,"station_id":"SUDB","time":1,"station_name":"Sudirman Baru","line":1,"i_long":106.819881,"transit":false,"i_lat":-6.201433},{"station_name":"Sudirman","distance":280,"transit":false,"i_lat":-6.202263,"time":1,"i_long":106.822649,"is_transit":false,"line":1,"station_id":"SUD"},{"transit":true,"i_long":106.84912,"station_id":"MRI","is_transit":true,"distance":3186,"time":4,"i_lat":-6.209883,"station_name":"Manggarai","line":0},{"distance":2610,"time":4,"transit":false,"i_long":106.857948,"station_id":"TEB","is_transit":false,"line":2,"station_name":"Tebet","i_lat":-6.226659},{"i_long":106.856607,"distance":1230,"time":2,"station_id":"CW","station_name":"Cawang","transit":false,"line":0,"is_transit":false,"i_lat":-6.242512},{"i_long":106.85449,"time":3,"transit":false,"station_id":"DRN","is_transit":false,"line":0,"distance":1546,"station_name":"Duren Kalibata","i_lat":-6.255332},{"i_long":106.851577,"distance":824,"transit":false,"time":2,"line":2,"station_id":"PSMB","is_transit":false,"station_name":"Pasar Minggu Baru","i_lat":-6.263214},{"distance":2380,"line":2,"station_id":"PSM","i_lat":-6.2842400000000005,"i_long":106.843999,"is_transit":false,"station_name":"Pasar Minggu","transit":false,"time":2}],[{"time":0,"transit":false,"distance":0,"is_transit":false,"i_lat":-6.176583,"i_long":106.632761,"line":5,"station_id":"TNG","station_name":"Tangerang"},{"i_long":106.64657,"transit":false,"station_id":"TTI","line":5,"distance":1547,"is_transit":false,"station_name":"Tanah Tinggi","time":3,"i_lat":-6.17331},{"is_transit":false,"station_name":"Batuceper","station_id":"BPR","time":3,"transit":false,"i_lat":-6.171811,"i_long":106.665036,"line":0,"distance":2028},{"i_lat":-6.169933,"distance":1834,"line":5,"transit":false,"is_transit":false,"station_name":"Poris","station_id":"PI","time":3,"i_long":106.679458},{"transit":false,"time":3,"line":5,"distance":2548,"station_name":"Kalideres","station_id":"KDS","i_long":106.701612,"is_transit":false,"i_lat":-6.166068},{"distance":2504,"is_transit":false,"station_id":"RW","transit":false,"time":3,"line":5,"i_long":106.723064,"station_name":"Rawa Buaya","i_lat":-6.162758},{"transit":false,"station_id":"BOI","distance":1152,"station_name":"Bojongindah","i_long":106.737035,"is_transit":false,"time":4,"i_lat":-6.159876,"line":0},{"distance":2334,"i_lat":-6.1587309999999995,"time":2,"is_transit":false,"line":5,"station_id":"TKO","station_name":"Taman Kota","transit":false,"i_long":106.756522},{"station_name":"Pesing","transit":false,"i_long":106.771379,"time":2,"line":5,"is_transit":false,"station_id":"PSG","i_lat":-6.161433,"distance":1614},{"line":5,"time":2,"station_id":"GGL","distance":2036,"station_name":"Grogol","transit":false,"i_long":106.788277,"i_lat":-6.162021,"is_transit":false},{"station_name":"Duri","is_transit":true,"time":3,"transit":true,"distance":1700,"line":1,"i_lat":-6.155215,"station_id":"DU","i_long":106.800832},{"i_lat":-6.144674,"station_name":"Angke","distance":1230,"is_transit":false,"station_id":"AK","transit":false,"time":4,"i_long":106.79867,"line":0},{"station_id":"KPB","distance":4102,"is_transit":true,"i_lat":-6.132549,"time":9,"i_long":106.826365,"station_name":"Kampung Bandan","transit":false,"line":0},{"time":3,"transit":true,"i_lat":-6.137569,"line":0,"station_id":"JAKK","i_long":106.812439,"distance":1364,"is_transit":true,"station_name":"Jakarta Kota"},{"i_long":106.820901,"station_id":"JAY","is_transit":false,"time":4,"i_lat":-6.141205,"line":7,"transit":false,"station_name":"Jayakarta","distance":1264},{"line":2,"distance":1080,"time":2,"i_lat":-6.149769,"station_id":"MGB","station_name":"Manggabesar","transit":false,"i_long":106.82482,"is_transit":false},{"transit":false,"i_lat":-6.160725,"station_name":"Sawah Besar","i_long":106.827103,"time":2,"line":2,"station_id":"SW","distance":906,"is_transit":false},{"is_transit":false,"i_lat":-6.166716,"station_name":"Juanda","station_id":"JUA","time":2,"distance":1149,"line":2,"i_long":106.828284,"transit":false},{"transit":false,"i_lat":-6.186295,"is_transit":false,"distance":2015,"station_name":"Gondangdia","i_long":106.832183,"station_id":"GDD","time":4,"line":2},{"is_transit":false,"station_name":"Cikini","station_id":"CKI","transit":false,"time":3,"i_lat":-6.198556,"i_long":106.840169,"line":0,"distance":1750},{"line":0,"transit":true,"time":4,"distance":1590,"i_lat":-6.209883,"is_transit":true,"station_id":"MRI","station_name":"Manggarai","i_long":106.84912},{"distance":2610,"i_lat":-6.226659,"i_long":106.857948,"is_transit":false,"transit":false,"station_name":"Tebet","time":4,"line":2,"station_id":"TEB"},{"transit":false,"i_long":106.856607,"line":0,"time":2,"distance":1230,"is_transit":false,"station_name":"Cawang","station_id":"CW","i_lat":-6.242512},{"line":0,"station_name":"Duren Kalibata","i_long":106.85449,"distance":1546,"i_lat":-6.255332,"is_transit":false,"station_id":"DRN","transit":false,"time":3},{"time":2,"i_lat":-6.263214,"line":2,"is_transit":false,"station_name":"Pasar Minggu Baru","i_long":106.851577,"distance":824,"station_id":"PSMB","transit":false},{"time":2,"is_transit":false,"distance":2380,"i_long":106.843999,"station_name":"Pasar Minggu","line":2,"i_lat":-6.2842400000000005,"station_id":"PSM","transit":false}],[{"i_long":106.632761,"station_name":"Tangerang","time":0,"line":5,"is_transit":false,"transit":false,"i_lat":-6.176583,"station_id":"TNG","distance":0},{"time":3,"distance":1547,"station_name":"Tanah Tinggi","i_lat":-6.17331,"i_long":106.64657,"station_id":"TTI","line":5,"is_transit":false,"transit":false},{"line":0,"is_transit":false,"i_lat":-6.171811,"distance":2028,"station_id":"BPR","i_long":106.665036,"transit":false,"time":3,"station_name":"Batuceper"},{"station_id":"PI","i_lat":-6.169933,"transit":false,"time":3,"line":5,"i_long":106.679458,"distance":1834,"station_name":"Poris","is_transit":false},{"transit":false,"time":3,"station_name":"Kalideres","line":5,"i_lat":-6.166068,"is_transit":false,"station_id":"KDS","distance":2548,"i_long":106.701612},{"station_id":"RW","transit":false,"distance":2504,"i_lat":-6.162758,"line":5,"time":3,"i_long":106.723064,"is_transit":false,"station_name":"Rawa Buaya"},{"station_name":"Bojongindah","i_lat":-6.159876,"line":0,"is_transit":false,"distance":1152,"transit":false,"time":4,"i_long":106.737035,"station_id":"BOI"},{"station_name":"Taman Kota","line":5,"station_id":"TKO","transit":false,"i_lat":-6.1587309999999995,"i_long":106.756522,"distance":2334,"time":2,"is_transit":false},{"station_id":"PSG","line":5,"distance":1614,"i_lat":-6.161433,"i_long":106.771379,"station_name":"Pesing","transit":false,"time":2,"is_transit":false},{"time":2,"i_lat":-6.162021,"line":5,"i_long":106.788277,"is_transit":false,"transit":false,"station_name":"Grogol","distance":2036,"station_id":"GGL"},{"transit":true,"i_long":106.800832,"station_name":"Duri","distance":1700,"station_id":"DU","line":1,"i_lat":-6.155215,"is_transit":true,"time":3},{"station_id":"AK","time":4,"distance":1230,"i_long":106.79867,"line":0,"is_transit":false,"station_name":"Angke","transit":false,"i_lat":-6.144674},{"is_transit":true,"station_id":"KPB","time":9,"i_long":106.826365,"transit":true,"line":0,"distance":4102,"i_lat":-6.132549,"station_name":"Kampung Bandan"},{"line":11,"station_name":"Rajawali","i_lat":-6.14505,"time":3,"i_long":106.836569,"station_id":"RJW","transit":false,"distance":1444,"is_transit":false},{"station_id":"KMO","is_transit":false,"line":11,"time":5,"i_long":106.839204,"station_name":"Kemayoran","distance":1901,"transit":false,"i_lat":-6.161728},{"station_name":"Pasar Senen","transit":false,"is_transit":false,"i_lat":-6.174784,"i_long":106.84368,"line":11,"distance":1436,"station_id":"PSE","time":4},{"time":8,"distance":1567,"i_long":106.850107,"station_id":"GST","station_name":"Gang Sentiong","line":11,"is_transit":false,"i_lat":-6.185975,"transit":false},{"time":1,"i_long":106.855437,"line":11,"is_transit":false,"station_id":"KMT","distance":973,"i_lat":-6.193792,"station_name":"Kramat","transit":false},{"time":2,"station_id":"POK","i_long":106.861737,"line":11,"i_lat":-6.209188,"is_transit":false,"distance":1829,"station_name":"Pondok Jati","transit":false},{"station_name":"Jatinegara","station_id":"JNG","is_transit":true,"transit":true,"i_lat":-6.215091,"distance":1236,"line":0,"time":9,"i_long":106.86807400000001},{"station_id":"MTR","station_name":"Matraman","i_long":106.858896,"distance":1377,"time":2,"i_lat":-6.212485,"line":1,"is_transit":false,"transit":false},{"i_lat":-6.209883,"is_transit":true,"transit":true,"station_id":"MRI","i_long":106.84912,"line":0,"distance":1275,"time":2,"station_name":"Manggarai"},{"is_transit":false,"distance":2610,"time":4,"i_long":106.857948,"line":2,"i_lat":-6.226659,"station_name":"Tebet","transit":false,"station_id":"TEB"},{"station_name":"Cawang","distance":1230,"time":2,"i_long":106.856607,"station_id":"CW","i_lat":-6.242512,"line":0,"transit":false,"is_transit":false},{"station_id":"DRN","line":0,"time":3,"transit":false,"i_lat":-6.255332,"station_name":"Duren Kalibata","is_transit":false,"distance":1546,"i_long":106.85449},{"i_lat":-6.263214,"transit":false,"is_transit":false,"time":2,"i_long":106.851577,"station_name":"Pasar Minggu Baru","station_id":"PSMB","line":2,"distance":824},{"distance":2380,"i_long":106.843999,"is_transit":false,"station_id":"PSM","transit":false,"time":2,"i_lat":-6.2842400000000005,"line":2,"station_name":"Pasar Minggu"}]]}