{"data":[[{"is_transit":false,"i_lat":-6.176583,"station_id":"TNG","station_name":"Tangerang","transit":false,"time":0,"i_long":106.632761,"line":5,"distance":0},{"is_transit":false,"time":3,"transit":false,"i_lat":-6.17331,"line":5,"i_long":106.64657,"station_name":"Tanah Tinggi","station_id":"THI","distance":1547},{"station_id":"BPR","distance":2028,"time":3,"transit":false,"i_lat":-6.171811,"is_transit":false,"i_long":106.665036,"line":5,"station_name":"Batuceper"},{"i_long":106.679458,"time":3,"distance":1834,"station_id":"PI","station_name":"Poris","is_transit":false,"transit":false,"i_lat":-6.169933,"line":5},{"i_long":106.701612,"time":3,"distance":2548,"station_name":"Kalideres","i_lat":-6.166068,"station_id":"KDS","line":5,"transit":false,"is_transit":false},{"is_transit":false,"i_lat":-6.162758,"station_id":"RW","line":5,"transit":false,"distance":2504,"time":3,"station_name":"Rawa Buaya","i_long":106.723064},{"time":4,"i_long":106.737035,"line":5,"i_lat":-6.159876,"is_transit":false,"transit":false,"distance":1152,"station_id":"BOI","station_name":"Bojongindah"},{"time":2,"line":5,"is_transit":false,"distance":2334,"transit":false,"i_long":106.756522,"station_id":"TKO","station_name":"Taman Kota","i_lat":-6.1587309999999995},{"station_name":"Pesing","is_transit":false,"transit":false,"i_long":106.771379,"time":2,"station_id":"PSG","line":5,"i_lat":-6.161433,"distance":1614},{"distance":2036,"station_name":"Grogol","i_long":106.788277,"time":2,"transit":false,"line":5,"i_lat":-6.162021,"station_id":"GRG","is_transit":false},{"station_id":"DU","is_transit":true,"i_long":106.800832,"distance":1700,"line":1,"i_lat":-6.155215,"transit":true,"time":3,"station_name":"Duri"},{"distance":3632,"is_transit":false,"i_long":106.811091,"time":8,"station_name":"Tanah Abang","transit":false,"line":1,"i_lat":-6.185545,"station_id":"THB"},{"is_transit":false,"station_id":"KAT","station_name":"Karet","time":5,"distance":2029,"i_lat":-6.20132,"transit":false,"i_long":106.816351,"line":1},{"is_transit":false,"i_long":106.819881,"station_id":"SUDB","line":1,"station_name":"Sudirman Baru","i_lat":-6.201433,"transit":false,"time":1,"distance":471},{"time":1,"distance":280,"transit":false,"i_lat":-6.202263,"line":1,"is_transit":false,"station_name":"Sudirman","i_long":106.822649,"station_id":"SUD"},{"distance":3186,"i_long":106.84912,"line":2,"is_transit":false,"station_name":"Manggarai","station_id":"MRI","transit":false,"time":4,"i_lat":-6.209883},{"station_name":"Matraman","time":2,"transit":false,"is_transit":false,"i_lat":-6.212485,"line":1,"station_id":"MTR","i_long":106.858896,"distance":1275}],[{"line":5,"transit":false,"is_transit":false,"i_long":106.632761,"time":0,"i_lat":-6.176583,"station_id":"TNG","station_name":"Tangerang","distance":0},{"line":5,"is_transit":false,"time":3,"station_id":"THI","station_name":"Tanah Tinggi","i_lat":-6.17331,"i_long":106.64657,"distance":1547,"transit":false},{"is_transit":false,"i_long":106.665036,"time":3,"distance":2028,"transit":false,"station_name":"Batuceper","station_id":"BPR","line":5,"i_lat":-6.171811},{"station_id":"PI","line":5,"transit":false,"time":3,"is_transit":false,"station_name":"Poris","i_long":106.679458,"i_lat":-6.169933,"distance":1834},{"is_transit":false,"distance":2548,"line":5,"i_lat":-6.166068,"station_name":"Kalideres","transit":false,"time":3,"station_id":"KDS","i_long":106.701612},{"transit":false,"station_name":"Rawa Buaya","line":5,"is_transit":false,"distance":2504,"station_id":"RW","time":3,"i_long":106.723064,"i_lat":-6.162758},{"time":4,"is_transit":false,"transit":false,"station_id":"BOI","distance":1152,"i_lat":-6.159876,"i_long":106.737035,"line":5,"station_name":"Bojongindah"},{"i_lat":-6.1587309999999995,"is_transit":false,"transit":false,"i_long":106.756522,"distance":2334,"time":2,"station_id":"TKO","line":5,"station_name":"Taman Kota"},{"station_id":"PSG","line":5,"transit":false,"i_long":106.771379,"i_lat":-6.161433,"time":2,"distance":1614,"is_transit":false,"station_name":"Pesing"},{"i_lat":-6.162021,"i_long":106.788277,"line":5,"is_transit":false,"station_id":"GRG","time":2,"transit":false,"distance":2036,"station_name":"Grogol"},{"line":1,"time":3,"distance":1700,"i_long":106.800832,"station_name":"Duri","is_transit":true,"station_id":"DU","i_lat":-6.155215,"transit":true},{"time":4,"line":1,"i_lat":-6.144674,"distance":1230,"transit":false,"station_id":"AK","is_transit":false,"i_long":106.79867,"station_name":"Angke"},{"station_name":"Kampung Bandan","is_transit":true,"station_id":"KPB","distance":4102,"transit":true,"i_long":106.826365,"i_lat":-6.132549,"line":4,"time":9},{"station_id":"RJW","i_long":106.836569,"distance":1444,"time":3,"i_lat":-6.14505,"station_name":"Rajawali","line":11,"is_transit":false,"transit":false},{"distance":1901,"time":5,"station_name":"Kemayoran","transit":false,"i_lat":-6.161728,"station_id":"KMO","line":11,"i_long":106.839204,"is_transit":false},{"is_transit":false,"transit":false,"line":11,"station_name":"Pasar Senen","i_long":106.84368,"distance":1436,"station_id":"PSE","time":4,"i_lat":-6.174784},{"station_id":"GST","is_transit":false,"i_long":106.850107,"line":11,"distance":1567,"time":8,"i_lat":-6.185975,"station_name":"Gang Sentiong","transit":false},{"distance":973,"station_id":"KMT","line":11,"station_name":"Kramat","is_transit":false,"i_lat":-6.193792,"i_long":106.855437,"transit":false,"time":1},{"station_name":"Pondok Jati","time":2,"is_transit":false,"transit":false,"i_long":106.861737,"station_id":"POK","line":11,"i_lat":-6.209188,"distance":1829},{"station_name":"Jatinegara","i_long":106.86807400000001,"station_id":"JNG","transit":true,"time":9,"distance":1236,"is_transit":true,"i_lat":-6.215091,"line":1},{"distance":1377,"is_transit":false,"station_id":"MTR","time":2,"transit":false,"i_lat":-6.212485,"station_name":"Matraman","i_long":106.858896,"line":1}],[{"station_name":"Tangerang","is_transit":false,"station_id":"TNG","distance":0,"time":0,"transit":false,"line":5,"i_long":106.632761,"i_lat":-6.176583},{"is_transit":false,"time":3,"line":5,"station_id":"THI","distance":1547,"station_name":"Tanah Tinggi","transit":false,"i_long":106.64657,"i_lat":-6.17331},{"time":3,"i_long":106.665036,"line":5,"transit":false,"is_transit":false,"station_id":"BPR","station_name":"Batuceper","i_lat":-6.171811,"distance":2028},{"line":5,"distance":1834,"is_transit":false,"i_lat":-6.169933,"transit":false,"time":3,"station_id":"PI","station_name":"Poris","i_long":106.679458},{"i_long":106.701612,"line":5,"time":3,"distance":2548,"station_id":"KDS","transit":false,"station_name":"Kalideres","is_transit":false,"i_lat":-6.166068},{"time":3,"distance":2504,"line":5,"station_id":"RW","i_lat":-6.162758,"i_long":106.723064,"station_name":"Rawa Buaya","transit":false,"is_transit":false},{"i_long":106.737035,"station_name":"Bojongindah","i_lat":-6.159876,"time":4,"transit":false,"line":5,"distance":1152,"station_id":"BOI","is_transit":false},{"distance":2334,"station_id":"TKO","i_long":106.756522,"line":5,"is_transit":false,"i_lat":-6.1587309999999995,"time":2,"station_name":"Taman Kota","transit":false},{"i_lat":-6.161433,"time":2,"line":5,"station_id":"PSG","station_name":"Pesing","transit":false,"i_long":106.771379,"is_transit":false,"distance":1614},{"is_transit":false,"transit":false,"i_lat":-6.162021,"line":5,"station_id":"GRG","station_name":"Grogol","time":2,"i_long":106.788277,"distance":2036},{"distance":1700,"transit":true,"station_name":"Duri","station_id":"DU","i_long":106.800832,"time":3,"i_lat":-6.155215,"line":1,"is_transit":true},{"distance":1230,"i_long":106.79867,"is_transit":false,"i_lat":-6.144674,"time":4,"station_name":"Angke","station_id":"AK","transit":false,"line":1},{"is_transit":true,"station_id":"KPB","i_lat":-6.132549,"transit":true,"station_name":"Kampung Bandan","line":4,"time":9,"i_long":106.826365,"distance":4102},{"i_lat":-6.137569,"station_id":"JAKK","i_long":106.812439,"is_transit":true,"time":3,"transit":true,"distance":1364,"station_name":"Jakarta Kota","line":2},{"time":4,"station_name":"Jayakarta","i_long":106.820901,"line":2,"transit":false,"distance":1264,"i_lat":-6.141205,"is_transit":false,"station_id":"JAY"},{"i_long":106.82482,"is_transit":false,"transit":false,"station_id":"MGB","station_name":"Manggabesar","time":2,"i_lat":-6.149769,"line":2,"distance":1080},{"station_id":"SW","distance":906,"i_lat":-6.160725,"i_long":106.827103,"line":2,"time":2,"transit":false,"is_transit":false,"station_name":"Sawah Besar"},{"is_transit":false,"i_long":106.828284,"distance":1149,"transit":false,"i_lat":-6.166716,"station_id":"JUA","time":2,"line":2,"station_name":"Juanda"},{"station_id":"GDD","distance":2015,"station_name":"Gondangdia","time":4,"i_long":106.832183,"transit":false,"line":2,"i_lat":-6.186295,"is_transit":false},{"transit":false,"i_lat":-6.198556,"i_long":106.840169,"station_name":"Cikini","distance":1750,"is_transit":false,"station_id":"CKI","time":3,"line":2},{"time":4,"transit":true,"station_id":"MRI","i_long":106.84912,"is_transit":true,"line":2,"i_lat":-6.209883,"distance":1590,"station_name":"Manggarai"},{"station_id":"MTR","station_name":"Matraman","line":1,"distance":1275,"i_lat":-6.212485,"i_long":106.858896,"transit":false,"is_transit":false,"time":2}],[{"distance":0,"transit":false,"i_lat":-6.176583,"station_id":"TNG","i_long":106.632761,"time":0,"is_transit":false,"line":5,"station_name":"Tangerang"},{"is_transit":false,"time":3,"distance":1547,"station_name":"Tanah Tinggi","i_lat":-6.17331,"i_long":106.64657,"station_id":"THI","line":5,"transit":false},{"station_id":"BPR","i_long":106.665036,"station_name":"Batuceper","is_transit":false,"time":3,"transit":false,"line":5,"distance":2028,"i_lat":-6.171811},{"time":3,"i_lat":-6.169933,"is_transit":false,"station_id":"PI","distance":1834,"line":5,"station_name":"Poris","transit":false,"i_long":106.679458},{"line":5,"station_name":"Kalideres","is_transit":false,"transit":false,"i_long":106.701612,"time":3,"station_id":"KDS","distance":2548,"i_lat":-6.166068},{"time":3,"i_long":106.723064,"line":5,"i_lat":-6.162758,"distance":2504,"transit":false,"is_transit":false,"station_name":"Rawa Buaya","station_id":"RW"},{"transit":false,"is_transit":false,"i_lat":-6.159876,"i_long":106.737035,"distance":1152,"station_name":"Bojongindah","time":4,"line":5,"station_id":"BOI"},{"transit":false,"i_long":106.756522,"distance":2334,"station_id":"TKO","i_lat":-6.1587309999999995,"station_name":"Taman Kota","line":5,"is_transit":false,"time":2},{"is_transit":false,"transit":false,"time":2,"station_name":"Pesing","line":5,"distance":1614,"station_id":"PSG","i_lat":-6.161433,"i_long":106.771379},{"is_transit":false,"i_long":106.788277,"station_id":"GRG","time":2,"transit":false,"line":5,"i_lat":-6.162021,"station_name":"Grogol","distance":2036},{"transit":true,"is_transit":true,"station_name":"Duri","i_lat":-6.155215,"station_id":"DU","i_long":106.800832,"time":3,"line":1,"distance":1700},{"transit":false,"distance":3632,"time":8,"is_transit":false,"station_name":"Tanah Abang","i_long":106.811091,"i_lat":-6.185545,"station_id":"THB","line":1},{"distance":2029,"is_transit":false,"time":5,"station_name":"Karet","i_lat":-6.20132,"line":1,"transit":false,"i_long":106.816351,"station_id":"KAT"},{"station_name":"Sudirman Baru","i_long":106.819881,"line":1,"distance":471,"station_id":"SUDB","time":1,"is_transit":false,"transit":false,"i_lat":-6.201433},{"station_id":"SUD","i_lat":-6.202263,"i_long":106.822649,"is_transit":false,"station_name":"Sudirman","distance":280,"transit":false,"time":1,"line":1},{"station_id":"MRI","time":4,"transit":true,"i_long":106.84912,"distance":3186,"i_lat":-6.209883,"station_name":"Manggarai","line":2,"is_transit":true},{"station_name":"Cikini","station_id":"CKI","i_long":106.840169,"line":2,"i_lat":-6.198556,"transit":false,"distance":1590,"is_transit":false,"time":4},{"station_name":"Gondangdia","i_lat":-6.186295,"time":3,"station_id":"GDD","transit":false,"distance":1750,"i_long":106.832183,"is_transit":false,"line":2},{"station_name":"Juanda","time":4,"i_lat":-6.166716,"distance":2015,"i_long":106.828284,"line":2,"transit":false,"is_transit":false,"station_id":"JUA"},{"is_transit":false,"station_id":"SW","time":2,"transit":false,"i_lat":-6.160725,"distance":1149,"i_long":106.827103,"line":2,"station_name":"Sawah Besar"},{"i_long":106.82482,"station_id":"MGB","transit":false,"i_lat":-6.149769,"is_transit":false,"time":2,"distance":906,"line":2,"station_name":"Manggabesar"},{"transit":false,"line":2,"time":2,"station_name":"Jayakarta","is_transit":false,"distance":1080,"i_long":106.820901,"station_id":"JAY","i_lat":-6.141205},{"distance":1264,"station_name":"Jakarta Kota","time":4,"i_long":106.812439,"transit":true,"i_lat":-6.137569,"station_id":"JAKK","line":2,"is_transit":true},{"transit":true,"distance":1364,"is_transit":true,"i_lat":-6.132549,"line":4,"station_id":"KPB","time":3,"i_long":106.826365,"station_name":"Kampung Bandan"},{"transit":false,"station_name":"Rajawali","line":11,"i_long":106.836569,"time":3,"i_lat":-6.14505,"is_transit":false,"distance":1444,"station_id":"RJW"},{"distance":1901,"transit":false,"i_long":106.839204,"station_id":"KMO","time":5,"is_transit":false,"line":11,"station_name":"Kemayoran","i_lat":-6.161728},{"station_name":"Pasar Senen","transit":false,"i_long":106.84368,"time":4,"station_id":"PSE","line":11,"i_lat":-6.174784,"is_transit":false,"distance":1436},{"station_id":"GST","i_long":106.850107,"is_transit":false,"distance":1567,"transit":false,"time":8,"line":11,"i_lat":-6.185975,"station_name":"Gang Sentiong"},{"station_name":"Kramat","i_lat":-6.193792,"i_long":106.855437,"line":11,"time":1,"is_transit":false,"station_id":"KMT","transit":false,"distance":973},{"time":2,"i_lat":-6.209188,"station_id":"POK","transit":false,"line":11,"is_transit":false,"station_name":"Pondok Jati","distance":1829,"i_long":106.861737},{"i_lat":-6.215091,"distance":1236,"station_id":"JNG","transit":true,"line":1,"time":9,"is_transit":true,"i_long":106.86807400000001,"station_name":"Jatinegara"},{"is_transit":false,"transit":false,"line":1,"time":2,"i_long":106.858896,"station_name":"Matraman","i_lat":-6.212485,"distance":1377,"station_id":"MTR"}]]}