{"data":[[{"transit":false,"distance":0,"time":0,"is_transit":false,"station_name":"Tangerang","i_lat":-6.176583,"station_id":"TNG","i_long":106.632761,"line":5},{"transit":false,"i_lat":-6.17331,"i_long":106.64657,"is_transit":false,"station_name":"Tanah Tinggi","line":5,"time":3,"station_id":"TTI","distance":1547},{"station_name":"Batuceper","distance":2028,"station_id":"BPR","transit":false,"line":5,"i_long":106.665036,"time":3,"is_transit":false,"i_lat":-6.171811},{"station_id":"PI","station_name":"Poris","distance":1834,"is_transit":false,"time":3,"i_lat":-6.169933,"transit":false,"i_long":106.679458,"line":5},{"station_id":"KDS","transit":false,"i_lat":-6.166068,"line":5,"distance":2548,"is_transit":false,"i_long":106.701612,"time":3,"station_name":"Kalideres"},{"i_lat":-6.162758,"i_long":106.723064,"time":3,"transit":false,"distance":2504,"is_transit":false,"station_id":"RW","line":5,"station_name":"Rawa Buaya"},{"distance":1152,"time":4,"station_id":"BOI","transit":false,"station_name":"Bojongindah","is_transit":false,"i_lat":-6.159876,"i_long":106.737035,"line":5},{"distance":2334,"transit":false,"i_long":106.756522,"station_id":"TKO","is_transit":false,"i_lat":-6.1587309999999995,"station_name":"Taman Kota","line":5,"time":2},{"distance":1614,"time":2,"station_name":"Pesing","i_long":106.771379,"i_lat":-6.161433,"station_id":"PSG","is_transit":false,"transit":false,"line":5},{"is_transit":false,"distance":2036,"station_id":"GGL","time":2,"station_name":"Grogol","i_long":106.788277,"i_lat":-6.162021,"line":5,"transit":false},{"station_name":"Duri","distance":1700,"line":1,"time":3,"transit":true,"is_transit":true,"station_id":"DU","i_lat":-6.155215,"i_long":106.800832},{"distance":3632,"time":8,"station_id":"THB","is_transit":false,"transit":false,"station_name":"Tanah Abang","i_long":106.811091,"line":1,"i_lat":-6.185545},{"i_lat":-6.20132,"i_long":106.816351,"transit":false,"station_id":"KAT","station_name":"Karet","time":5,"is_transit":false,"line":1,"distance":2029},{"station_id":"SUDB","station_name":"Sudirman Baru","i_long":106.819881,"transit":false,"i_lat":-6.201433,"distance":471,"is_transit":false,"time":1,"line":1},{"distance":280,"is_transit":false,"station_id":"SUD","i_long":106.822649,"time":1,"station_name":"Sudirman","line":1,"i_lat":-6.202263,"transit":false},{"station_name":"Manggarai","distance":3186,"transit":false,"is_transit":false,"i_lat":-6.209883,"i_long":106.84912,"line":2,"time":4,"station_id":"MRI"},{"time":2,"i_lat":-6.212485,"station_id":"MTR","is_transit":false,"station_name":"Matraman","i_long":106.858896,"distance":1275,"line":1,"transit":false},{"is_transit":false,"time":8,"i_lat":-6.215091,"line":1,"station_name":"Jatinegara","i_long":106.86807400000001,"station_id":"JNG","distance":1377,"transit":false},{"distance":3395,"i_long":106.899548,"station_name":"Klender","i_lat":-6.2135,"line":1,"is_transit":false,"station_id":"KLD","time":3,"transit":false},{"station_id":"BUA","i_lat":-6.215568,"transit":false,"line":1,"is_transit":false,"distance":3100,"station_name":"Buaran","time":2,"i_long":106.922662},{"time":1,"is_transit":false,"line":1,"station_name":"Klenderbaru","transit":false,"distance":1305,"i_lat":-6.217455,"i_long":106.939679,"station_id":"KLDB"},{"station_id":"CUK","time":8,"i_long":106.951283,"station_name":"Cakung","i_lat":-6.219053,"is_transit":false,"transit":false,"line":1,"distance":1385}],[{"transit":false,"station_id":"TNG","distance":0,"time":0,"line":5,"station_name":"Tangerang","i_lat":-6.176583,"is_transit":false,"i_long":106.632761},{"distance":1547,"station_id":"TTI","transit":false,"i_long":106.64657,"i_lat":-6.17331,"line":5,"station_name":"Tanah Tinggi","time":3,"is_transit":false},{"time":3,"line":5,"i_long":106.665036,"is_transit":false,"transit":false,"station_id":"BPR","distance":2028,"i_lat":-6.171811,"station_name":"Batuceper"},{"transit":false,"station_id":"PI","i_long":106.679458,"station_name":"Poris","i_lat":-6.169933,"is_transit":false,"distance":1834,"time":3,"line":5},{"i_lat":-6.166068,"station_id":"KDS","distance":2548,"line":5,"is_transit":false,"i_long":106.701612,"station_name":"Kalideres","transit":false,"time":3},{"transit":false,"station_name":"Rawa Buaya","is_transit":false,"line":5,"i_lat":-6.162758,"station_id":"RW","distance":2504,"i_long":106.723064,"time":3},{"i_long":106.737035,"distance":1152,"station_id":"BOI","time":4,"is_transit":false,"i_lat":-6.159876,"line":5,"transit":false,"station_name":"Bojongindah"},{"i_long":106.756522,"transit":false,"i_lat":-6.1587309999999995,"line":5,"distance":2334,"station_id":"TKO","station_name":"Taman Kota","time":2,"is_transit":false},{"transit":false,"distance":1614,"station_id":"PSG","is_transit":false,"line":5,"i_lat":-6.161433,"i_long":106.771379,"time":2,"station_name":"Pesing"},{"is_transit":false,"station_name":"Grogol","distance":2036,"i_long":106.788277,"time":2,"transit":false,"i_lat":-6.162021,"line":5,"station_id":"GGL"},{"station_name":"Duri","station_id":"DU","i_lat":-6.155215,"distance":1700,"line":1,"time":3,"i_long":106.800832,"transit":true,"is_transit":true},{"distance":1230,"i_long":106.79867,"station_id":"AK","station_name":"Angke","time":4,"line":1,"transit":false,"i_lat":-6.144674,"is_transit":false},{"line":4,"transit":true,"distance":4102,"i_lat":-6.132549,"time":9,"is_transit":true,"station_name":"Kampung Bandan","i_long":106.826365,"station_id":"KPB"},{"distance":1444,"i_long":106.836569,"line":11,"station_name":"Rajawali","transit":false,"i_lat":-6.14505,"is_transit":false,"time":3,"station_id":"RJW"},{"time":5,"line":11,"i_long":106.839204,"distance":1901,"is_transit":false,"station_id":"KMO","i_lat":-6.161728,"station_name":"Kemayoran","transit":false},{"station_id":"PSE","i_lat":-6.174784,"is_transit":false,"station_name":"Pasar Senen","i_long":106.84368,"line":11,"transit":false,"distance":1436,"time":4},{"i_long":106.850107,"time":8,"transit":false,"is_transit":false,"station_name":"Gang Sentiong","station_id":"GST","distance":1567,"i_lat":-6.185975,"line":11},{"distance":973,"is_transit":false,"transit":false,"line":11,"station_name":"Kramat","i_long":106.855437,"i_lat":-6.193792,"station_id":"KMT","time":1},{"i_long":106.861737,"time":2,"i_lat":-6.209188,"line":11,"transit":false,"distance":1829,"station_name":"Pondok Jati","is_transit":false,"station_id":"POK"},{"i_lat":-6.215091,"i_long":106.86807400000001,"station_id":"JNG","is_transit":true,"line":1,"time":9,"transit":true,"distance":1236,"station_name":"Jatinegara"},{"is_transit":false,"time":3,"i_lat":-6.2135,"i_long":106.899548,"transit":false,"station_id":"KLD","distance":3395,"line":1,"station_name":"Klender"},{"i_lat":-6.215568,"distance":3100,"station_name":"Buaran","i_long":106.922662,"is_transit":false,"time":2,"transit":false,"line":1,"station_id":"BUA"},{"transit":false,"distance":1305,"i_lat":-6.217455,"line":1,"i_long":106.939679,"station_name":"Klenderbaru","station_id":"KLDB","time":1,"is_transit":false},{"i_long":106.951283,"time":8,"i_lat":-6.219053,"line":1,"station_name":"Cakung","transit":false,"distance":1385,"is_transit":false,"station_id":"CUK"}],[{"station_id":"TNG","station_name":"Tangerang","line":5,"distance":0,"i_lat":-6.176583,"i_long":106.632761,"transit":false,"time":0,"is_transit":false},{"is_transit":false,"time":3,"i_lat":-6.17331,"i_long":106.64657,"station_name":"Tanah Tinggi","distance":1547,"transit":false,"station_id":"TTI","line":5},{"transit":false,"distance":2028,"line":5,"time":3,"station_name":"Batuceper","i_long":106.665036,"station_id":"BPR","is_transit":false,"i_lat":-6.171811},{"distance":1834,"time":3,"i_lat":-6.169933,"station_id":"PI","line":5,"transit":false,"i_long":106.679458,"is_transit":false,"station_name":"Poris"},{"is_transit":false,"i_long":106.701612,"distance":2548,"station_id":"KDS","time":3,"station_name":"Kalideres","transit":false,"i_lat":-6.166068,"line":5},{"line":5,"i_lat":-6.162758,"is_transit":false,"transit":false,"time":3,"station_id":"RW","station_name":"Rawa Buaya","distance":2504,"i_long":106.723064},{"time":4,"distance":1152,"station_id":"BOI","transit":false,"is_transit":false,"i_lat":-6.159876,"line":5,"station_name":"Bojongindah","i_long":106.737035},{"distance":2334,"station_id":"TKO","time":2,"transit":false,"i_long":106.756522,"station_name":"Taman Kota","is_transit":false,"i_lat":-6.1587309999999995,"line":5},{"station_name":"Pesing","i_lat":-6.161433,"line":5,"time":2,"station_id":"PSG","i_long":106.771379,"transit":false,"is_transit":false,"distance":1614},{"station_name":"Grogol","transit":false,"i_lat":-6.162021,"station_id":"GGL","is_transit":false,"i_long":106.788277,"distance":2036,"line":5,"time":2},{"i_lat":-6.155215,"i_long":106.800832,"station_id":"DU","is_transit":true,"distance":1700,"transit":true,"station_name":"Duri","line":1,"time":3},{"time":4,"distance":1230,"station_id":"AK","transit":false,"i_long":106.79867,"is_transit":false,"line":1,"station_name":"Angke","i_lat":-6.144674},{"i_long":106.826365,"distance":4102,"line":4,"transit":true,"is_transit":true,"station_name":"Kampung Bandan","i_lat":-6.132549,"time":9,"station_id":"KPB"},{"is_transit":true,"line":2,"transit":true,"station_id":"JAKK","i_lat":-6.137569,"time":3,"distance":1364,"station_name":"Jakarta Kota","i_long":106.812439},{"time":4,"is_transit":false,"station_name":"Jayakarta","i_long":106.820901,"transit":false,"station_id":"JAY","distance":1264,"i_lat":-6.141205,"line":2},{"transit":false,"distance":1080,"station_id":"MGB","line":2,"time":2,"is_transit":false,"i_lat":-6.149769,"i_long":106.82482,"station_name":"Manggabesar"},{"station_name":"Sawah Besar","station_id":"SW","transit":false,"i_lat":-6.160725,"i_long":106.827103,"time":2,"is_transit":false,"distance":906,"line":2},{"i_lat":-6.166716,"distance":1149,"time":2,"station_id":"JUA","is_transit":false,"station_name":"Juanda","line":2,"transit":false,"i_long":106.828284},{"transit":false,"i_lat":-6.186295,"time":4,"line":2,"station_name":"Gondangdia","distance":2015,"is_transit":false,"station_id":"GDD","i_long":106.832183},{"distance":1750,"i_lat":-6.198556,"is_transit":false,"transit":false,"station_id":"CKI","time":3,"i_long":106.840169,"station_name":"Cikini","line":2},{"i_lat":-6.209883,"station_id":"MRI","line":2,"transit":true,"distance":1590,"is_transit":true,"station_name":"Manggarai","time":4,"i_long":106.84912},{"station_name":"Matraman","i_long":106.858896,"time":2,"transit":false,"station_id":"MTR","distance":1275,"line":1,"is_transit":false,"i_lat":-6.212485},{"i_lat":-6.215091,"distance":1377,"line":1,"station_id":"JNG","i_long":106.86807400000001,"time":8,"is_transit":false,"transit":false,"station_name":"Jatinegara"},{"station_id":"KLD","is_transit":false,"station_name":"Klender","line":1,"distance":3395,"transit":false,"i_lat":-6.2135,"time":3,"i_long":106.899548},{"i_lat":-6.215568,"station_name":"Buaran","time":2,"i_long":106.922662,"is_transit":false,"transit":false,"station_id":"BUA","line":1,"distance":3100},{"transit":false,"distance":1305,"i_lat":-6.217455,"station_name":"Klenderbaru","i_long":106.939679,"station_id":"KLDB","is_transit":false,"line":1,"time":1},{"i_long":106.951283,"distance":1385,"i_lat":-6.219053,"transit":false,"line":1,"is_transit":false,"time":8,"station_name":"Cakung","station_id":"CUK"}],[{"time":0,"distance":0,"line":5,"i_lat":-6.176583,"is_transit":false,"station_name":"Tangerang","i_long":106.632761,"station_id":"TNG","transit":false},{"station_name":"Tanah Tinggi","station_id":"TTI","distance":1547,"line":5,"i_long":106.64657,"time":3,"is_transit":false,"i_lat":-6.17331,"transit":false},{"is_transit":false,"i_long":106.665036,"station_name":"Batuceper","station_id":"BPR","line":5,"i_lat":-6.171811,"distance":2028,"transit":false,"time":3},{"i_long":106.679458,"is_transit":false,"distance":1834,"i_lat":-6.169933,"line":5,"transit":false,"station_id":"PI","time":3,"station_name":"Poris"},{"time":3,"transit":false,"distance":2548,"is_transit":false,"station_id":"KDS","i_long":106.701612,"i_lat":-6.166068,"station_name":"Kalideres","line":5},{"line":5,"i_lat":-6.162758,"transit":false,"i_long":106.723064,"time":3,"is_transit":false,"distance":2504,"station_id":"RW","station_name":"Rawa Buaya"},{"line":5,"distance":1152,"station_name":"Bojongindah","is_transit":false,"i_lat":-6.159876,"i_long":106.737035,"time":4,"transit":false,"station_id":"BOI"},{"transit":false,"station_name":"Taman Kota","i_lat":-6.1587309999999995,"line":5,"is_transit":false,"distance":2334,"time":2,"station_id":"TKO","i_long":106.756522},{"station_name":"Pesing","station_id":"PSG","transit":false,"line":5,"i_long":106.771379,"i_lat":-6.161433,"distance":1614,"time":2,"is_transit":false},{"i_long":106.788277,"line":5,"is_transit":false,"transit":false,"distance":2036,"station_id":"GGL","station_name":"Grogol","time":2,"i_lat":-6.162021},{"i_long":106.800832,"station_id":"DU","station_name":"Duri","line":1,"transit":true,"is_transit":true,"time":3,"i_lat":-6.155215,"distance":1700},{"time":8,"station_name":"Tanah Abang","is_transit":false,"transit":false,"station_id":"THB","i_lat":-6.185545,"i_long":106.811091,"distance":3632,"line":1},{"is_transit":false,"line":1,"transit":false,"i_lat":-6.20132,"i_long":106.816351,"time":5,"station_id":"KAT","station_name":"Karet","distance":2029},{"is_transit":false,"i_lat":-6.201433,"station_name":"Sudirman Baru","i_long":106.819881,"line":1,"time":1,"distance":471,"transit":false,"station_id":"SUDB"},{"i_lat":-6.202263,"station_name":"Sudirman","i_long":106.822649,"time":1,"line":1,"transit":false,"is_transit":false,"distance":280,"station_id":"SUD"},{"distance":3186,"line":2,"i_long":106.84912,"transit":true,"i_lat":-6.209883,"is_transit":true,"station_id":"MRI","station_name":"Manggarai","time":4},{"is_transit":false,"time":4,"station_name":"Cikini","transit":false,"line":2,"distance":1590,"i_lat":-6.198556,"station_id":"CKI","i_long":106.840169},{"distance":1750,"transit":false,"i_long":106.832183,"is_transit":false,"line":2,"station_id":"GDD","i_lat":-6.186295,"time":3,"station_name":"Gondangdia"},{"distance":2015,"station_name":"Juanda","station_id":"JUA","i_lat":-6.166716,"i_long":106.828284,"time":4,"line":2,"is_transit":false,"transit":false},{"time":2,"distance":1149,"i_long":106.827103,"i_lat":-6.160725,"line":2,"station_id":"SW","transit":false,"is_transit":false,"station_name":"Sawah Besar"},{"i_long":106.82482,"station_id":"MGB","transit":false,"time":2,"station_name":"Manggabesar","is_transit":false,"line":2,"distance":906,"i_lat":-6.149769},{"station_name":"Jayakarta","i_lat":-6.141205,"time":2,"is_transit":false,"transit":false,"distance":1080,"station_id":"JAY","i_long":106.820901,"line":2},{"distance":1264,"is_transit":true,"station_id":"JAKK","i_long":106.812439,"station_name":"Jakarta Kota","line":2,"i_lat":-6.137569,"time":4,"transit":true},{"i_lat":-6.132549,"is_transit":true,"station_id":"KPB","line":4,"transit":true,"distance":1364,"time":3,"station_name":"Kampung Bandan","i_long":106.826365},{"is_transit":false,"transit":false,"distance":1444,"station_id":"RJW","i_lat":-6.14505,"line":11,"i_long":106.836569,"station_name":"Rajawali","time":3},{"transit":false,"is_transit":false,"distance":1901,"i_long":106.839204,"line":11,"station_name":"Kemayoran","time":5,"i_lat":-6.161728,"station_id":"KMO"},{"line":11,"transit":false,"station_name":"Pasar Senen","distance":1436,"is_transit":false,"time":4,"station_id":"PSE","i_lat":-6.174784,"i_long":106.84368},{"station_name":"Gang Sentiong","i_lat":-6.185975,"transit":false,"station_id":"GST","i_long":106.850107,"is_transit":false,"line":11,"distance":1567,"time":8},{"line":11,"i_long":106.855437,"time":1,"is_transit":false,"station_id":"KMT","distance":973,"i_lat":-6.193792,"transit":false,"station_name":"Kramat"},{"station_name":"Pondok Jati","time":2,"i_lat":-6.209188,"line":11,"i_long":106.861737,"is_transit":false,"station_id":"POK","transit":false,"distance":1829},{"is_transit":true,"distance":1236,"station_name":"Jatinegara","i_lat":-6.215091,"transit":true,"line":1,"station_id":"JNG","i_long":106.86807400000001,"time":9},{"is_transit":false,"station_name":"Klender","distance":3395,"time":3,"i_lat":-6.2135,"station_id":"KLD","line":1,"transit":false,"i_long":106.899548},{"station_id":"BUA","i_lat":-6.215568,"distance":3100,"station_name":"Buaran","is_transit":false,"i_long":106.922662,"transit":false,"time":2,"line":1},{"time":1,"station_id":"KLDB","distance":1305,"i_long":106.939679,"transit":false,"station_name":"Klenderbaru","i_lat":-6.217455,"line":1,"is_transit":false},{"transit":false,"distance":1385,"station_name":"Cakung","station_id":"CUK","i_lat":-6.219053,"i_long":106.951283,"line":1,"time":8,"is_transit":false}]]}