{"data":[[{"time":0,"transit":false,"line":5,"i_long":106.632761,"station_name":"Tangerang","i_lat":-6.176583,"is_transit":false,"station_id":"TNG","distance":0},{"station_id":"TTI","i_long":106.64657,"distance":1547,"transit":false,"i_lat":-6.17331,"line":5,"time":3,"is_transit":false,"station_name":"Tanah Tinggi"},{"i_long":106.665036,"i_lat":-6.171811,"station_name":"Batuceper","distance":2028,"transit":false,"line":5,"time":3,"is_transit":false,"station_id":"BPR"},{"i_long":106.679458,"station_id":"PI","station_name":"Poris","transit":false,"i_lat":-6.169933,"line":5,"distance":1834,"time":3,"is_transit":false},{"distance":2548,"transit":false,"i_lat":-6.166068,"i_long":106.701612,"is_transit":false,"station_name":"Kalideres","time":3,"line":5,"station_id":"KDS"},{"station_id":"RW","time":3,"distance":2504,"station_name":"Rawa Buaya","is_transit":false,"i_lat":-6.162758,"i_long":106.723064,"transit":false,"line":5},{"transit":false,"line":5,"distance":1152,"is_transit":false,"station_id":"BOI","time":4,"i_lat":-6.159876,"i_long":106.737035,"station_name":"Bojongindah"},{"station_id":"TKO","i_lat":-6.1587309999999995,"i_long":106.756522,"time":2,"transit":false,"station_name":"Taman Kota","distance":2334,"line":5,"is_transit":false},{"is_transit":false,"distance":1614,"time":2,"i_lat":-6.161433,"i_long":106.771379,"station_id":"PSG","transit":false,"station_name":"Pesing","line":5},{"distance":2036,"line":5,"station_name":"Grogol","transit":false,"i_long":106.788277,"station_id":"GGL","is_transit":false,"time":2,"i_lat":-6.162021},{"line":1,"time":3,"i_lat":-6.155215,"distance":1700,"station_name":"Duri","transit":true,"station_id":"DU","is_transit":true,"i_long":106.800832},{"station_id":"THB","time":8,"i_long":106.811091,"line":1,"station_name":"Tanah Abang","distance":3632,"transit":false,"is_transit":false,"i_lat":-6.185545},{"line":1,"station_name":"Karet","transit":false,"is_transit":false,"time":5,"distance":2029,"i_long":106.816351,"i_lat":-6.20132,"station_id":"KAT"},{"station_name":"Sudirman Baru","transit":false,"i_lat":-6.201433,"is_transit":false,"station_id":"SUDB","time":1,"distance":471,"i_long":106.819881,"line":1},{"line":1,"station_id":"SUD","i_long":106.822649,"time":1,"i_lat":-6.202263,"transit":false,"distance":280,"is_transit":false,"station_name":"Sudirman"},{"station_id":"MRI","is_transit":false,"i_long":106.84912,"i_lat":-6.209883,"transit":false,"line":2,"distance":3186,"time":4,"station_name":"Manggarai"},{"time":2,"i_long":106.858896,"line":1,"distance":1275,"i_lat":-6.212485,"station_name":"Matraman","station_id":"MTR","transit":false,"is_transit":false},{"i_long":106.86807400000001,"station_id":"JNG","i_lat":-6.215091,"distance":1377,"transit":false,"is_transit":false,"line":1,"station_name":"Jatinegara","time":8}],[{"line":5,"is_transit":false,"i_long":106.632761,"time":0,"distance":0,"station_name":"Tangerang","i_lat":-6.176583,"transit":false,"station_id":"TNG"},{"line":5,"station_name":"Tanah Tinggi","i_lat":-6.17331,"is_transit":false,"i_long":106.64657,"transit":false,"time":3,"station_id":"TTI","distance":1547},{"time":3,"transit":false,"i_lat":-6.171811,"is_transit":false,"station_name":"Batuceper","i_long":106.665036,"line":5,"distance":2028,"station_id":"BPR"},{"time":3,"distance":1834,"transit":false,"station_id":"PI","is_transit":false,"station_name":"Poris","i_lat":-6.169933,"line":5,"i_long":106.679458},{"line":5,"station_id":"KDS","time":3,"is_transit":false,"distance":2548,"station_name":"Kalideres","i_lat":-6.166068,"transit":false,"i_long":106.701612},{"line":5,"i_long":106.723064,"station_name":"Rawa Buaya","is_transit":false,"station_id":"RW","time":3,"transit":false,"distance":2504,"i_lat":-6.162758},{"distance":1152,"station_name":"Bojongindah","i_long":106.737035,"station_id":"BOI","time":4,"is_transit":false,"transit":false,"i_lat":-6.159876,"line":5},{"transit":false,"is_transit":false,"station_name":"Taman Kota","i_long":106.756522,"station_id":"TKO","i_lat":-6.1587309999999995,"line":5,"time":2,"distance":2334},{"time":2,"distance":1614,"station_name":"Pesing","is_transit":false,"i_lat":-6.161433,"i_long":106.771379,"transit":false,"station_id":"PSG","line":5},{"station_name":"Grogol","i_lat":-6.162021,"distance":2036,"station_id":"GGL","time":2,"i_long":106.788277,"is_transit":false,"transit":false,"line":5},{"transit":true,"station_id":"DU","time":3,"distance":1700,"station_name":"Duri","is_transit":true,"i_lat":-6.155215,"line":1,"i_long":106.800832},{"is_transit":false,"transit":false,"station_id":"AK","i_long":106.79867,"line":1,"station_name":"Angke","time":4,"distance":1230,"i_lat":-6.144674},{"time":9,"i_long":106.826365,"line":4,"station_name":"Kampung Bandan","i_lat":-6.132549,"is_transit":true,"distance":4102,"transit":true,"station_id":"KPB"},{"station_id":"RJW","line":11,"is_transit":false,"time":3,"distance":1444,"i_long":106.836569,"station_name":"Rajawali","transit":false,"i_lat":-6.14505},{"i_long":106.839204,"i_lat":-6.161728,"station_name":"Kemayoran","transit":false,"time":5,"station_id":"KMO","is_transit":false,"line":11,"distance":1901},{"transit":false,"i_lat":-6.174784,"time":4,"distance":1436,"station_name":"Pasar Senen","i_long":106.84368,"is_transit":false,"line":11,"station_id":"PSE"},{"distance":1567,"station_name":"Gang Sentiong","time":8,"transit":false,"is_transit":false,"i_long":106.850107,"i_lat":-6.185975,"line":11,"station_id":"GST"},{"line":11,"distance":973,"i_long":106.855437,"station_name":"Kramat","station_id":"KMT","is_transit":false,"time":1,"transit":false,"i_lat":-6.193792},{"time":2,"i_lat":-6.209188,"station_id":"POK","station_name":"Pondok Jati","transit":false,"is_transit":false,"line":11,"distance":1829,"i_long":106.861737},{"station_id":"JNG","is_transit":false,"i_lat":-6.215091,"transit":false,"line":1,"station_name":"Jatinegara","time":9,"distance":1236,"i_long":106.86807400000001}],[{"station_name":"Tangerang","i_lat":-6.176583,"time":0,"station_id":"TNG","distance":0,"is_transit":false,"i_long":106.632761,"line":5,"transit":false},{"transit":false,"i_long":106.64657,"station_id":"TTI","is_transit":false,"i_lat":-6.17331,"station_name":"Tanah Tinggi","time":3,"distance":1547,"line":5},{"station_id":"BPR","time":3,"distance":2028,"transit":false,"i_long":106.665036,"station_name":"Batuceper","i_lat":-6.171811,"is_transit":false,"line":5},{"distance":1834,"station_id":"PI","station_name":"Poris","is_transit":false,"time":3,"line":5,"i_lat":-6.169933,"i_long":106.679458,"transit":false},{"time":3,"distance":2548,"i_long":106.701612,"transit":false,"station_name":"Kalideres","line":5,"station_id":"KDS","is_transit":false,"i_lat":-6.166068},{"is_transit":false,"station_id":"RW","i_long":106.723064,"line":5,"transit":false,"time":3,"distance":2504,"i_lat":-6.162758,"station_name":"Rawa Buaya"},{"line":5,"transit":false,"is_transit":false,"station_id":"BOI","distance":1152,"station_name":"Bojongindah","i_lat":-6.159876,"i_long":106.737035,"time":4},{"line":5,"distance":2334,"station_name":"Taman Kota","transit":false,"is_transit":false,"time":2,"station_id":"TKO","i_long":106.756522,"i_lat":-6.1587309999999995},{"distance":1614,"line":5,"station_name":"Pesing","station_id":"PSG","is_transit":false,"i_lat":-6.161433,"i_long":106.771379,"transit":false,"time":2},{"line":5,"time":2,"is_transit":false,"distance":2036,"station_id":"GGL","transit":false,"i_lat":-6.162021,"station_name":"Grogol","i_long":106.788277},{"station_id":"DU","i_long":106.800832,"station_name":"Duri","is_transit":true,"time":3,"transit":true,"distance":1700,"line":1,"i_lat":-6.155215},{"i_long":106.79867,"i_lat":-6.144674,"station_name":"Angke","is_transit":false,"time":4,"station_id":"AK","line":1,"transit":false,"distance":1230},{"time":9,"distance":4102,"station_id":"KPB","i_long":106.826365,"station_name":"Kampung Bandan","transit":true,"is_transit":true,"i_lat":-6.132549,"line":4},{"station_name":"Jakarta Kota","time":3,"distance":1364,"station_id":"JAKK","transit":true,"is_transit":true,"i_lat":-6.137569,"i_long":106.812439,"line":2},{"transit":false,"i_lat":-6.141205,"station_name":"Jayakarta","station_id":"JAY","time":4,"is_transit":false,"line":2,"i_long":106.820901,"distance":1264},{"transit":false,"distance":1080,"i_lat":-6.149769,"station_id":"MGB","line":2,"i_long":106.82482,"is_transit":false,"station_name":"Manggabesar","time":2},{"transit":false,"station_name":"Sawah Besar","line":2,"is_transit":false,"station_id":"SW","time":2,"distance":906,"i_long":106.827103,"i_lat":-6.160725},{"station_name":"Juanda","transit":false,"i_lat":-6.166716,"i_long":106.828284,"time":2,"distance":1149,"is_transit":false,"line":2,"station_id":"JUA"},{"distance":2015,"station_name":"Gondangdia","station_id":"GDD","i_long":106.832183,"is_transit":false,"transit":false,"i_lat":-6.186295,"time":4,"line":2},{"time":3,"is_transit":false,"i_long":106.840169,"station_name":"Cikini","station_id":"CKI","distance":1750,"i_lat":-6.198556,"transit":false,"line":2},{"i_long":106.84912,"distance":1590,"line":2,"time":4,"i_lat":-6.209883,"station_name":"Manggarai","is_transit":true,"transit":true,"station_id":"MRI"},{"transit":false,"station_id":"MTR","is_transit":false,"i_long":106.858896,"line":1,"station_name":"Matraman","time":2,"distance":1275,"i_lat":-6.212485},{"transit":false,"i_long":106.86807400000001,"line":1,"station_id":"JNG","is_transit":false,"station_name":"Jatinegara","time":8,"i_lat":-6.215091,"distance":1377}],[{"i_lat":-6.176583,"station_name":"Tangerang","transit":false,"is_transit":false,"line":5,"i_long":106.632761,"station_id":"TNG","time":0,"distance":0},{"distance":1547,"station_name":"Tanah Tinggi","time":3,"i_long":106.64657,"line":5,"i_lat":-6.17331,"station_id":"TTI","transit":false,"is_transit":false},{"i_lat":-6.171811,"is_transit":false,"line":5,"transit":false,"station_name":"Batuceper","station_id":"BPR","i_long":106.665036,"distance":2028,"time":3},{"line":5,"station_name":"Poris","is_transit":false,"station_id":"PI","i_long":106.679458,"time":3,"distance":1834,"i_lat":-6.169933,"transit":false},{"transit":false,"time":3,"station_id":"KDS","is_transit":false,"line":5,"i_lat":-6.166068,"station_name":"Kalideres","i_long":106.701612,"distance":2548},{"is_transit":false,"line":5,"distance":2504,"transit":false,"station_name":"Rawa Buaya","station_id":"RW","time":3,"i_lat":-6.162758,"i_long":106.723064},{"station_name":"Bojongindah","i_long":106.737035,"i_lat":-6.159876,"is_transit":false,"line":5,"time":4,"distance":1152,"transit":false,"station_id":"BOI"},{"transit":false,"is_transit":false,"distance":2334,"station_id":"TKO","time":2,"i_lat":-6.1587309999999995,"station_name":"Taman Kota","i_long":106.756522,"line":5},{"i_lat":-6.161433,"i_long":106.771379,"line":5,"distance":1614,"is_transit":false,"transit":false,"station_id":"PSG","station_name":"Pesing","time":2},{"transit":false,"i_long":106.788277,"station_id":"GGL","station_name":"Grogol","is_transit":false,"time":2,"line":5,"i_lat":-6.162021,"distance":2036},{"time":3,"i_long":106.800832,"station_name":"Duri","line":1,"transit":true,"distance":1700,"is_transit":true,"station_id":"DU","i_lat":-6.155215},{"distance":3632,"is_transit":false,"station_name":"Tanah Abang","line":1,"i_lat":-6.185545,"station_id":"THB","transit":false,"i_long":106.811091,"time":8},{"transit":false,"station_id":"KAT","line":1,"station_name":"Karet","is_transit":false,"i_lat":-6.20132,"i_long":106.816351,"time":5,"distance":2029},{"i_long":106.819881,"i_lat":-6.201433,"transit":false,"station_id":"SUDB","time":1,"distance":471,"station_name":"Sudirman Baru","is_transit":false,"line":1},{"transit":false,"time":1,"distance":280,"station_id":"SUD","station_name":"Sudirman","i_lat":-6.202263,"is_transit":false,"line":1,"i_long":106.822649},{"distance":3186,"is_transit":true,"time":4,"transit":true,"i_long":106.84912,"line":2,"station_name":"Manggarai","i_lat":-6.209883,"station_id":"MRI"},{"time":4,"line":2,"distance":1590,"is_transit":false,"i_lat":-6.198556,"i_long":106.840169,"station_name":"Cikini","transit":false,"station_id":"CKI"},{"station_name":"Gondangdia","i_lat":-6.186295,"transit":false,"distance":1750,"line":2,"i_long":106.832183,"time":3,"station_id":"GDD","is_transit":false},{"transit":false,"i_lat":-6.166716,"i_long":106.828284,"line":2,"station_name":"Juanda","station_id":"JUA","is_transit":false,"time":4,"distance":2015},{"transit":false,"distance":1149,"station_name":"Sawah Besar","is_transit":false,"i_lat":-6.160725,"i_long":106.827103,"line":2,"time":2,"station_id":"SW"},{"transit":false,"is_transit":false,"station_name":"Manggabesar","i_lat":-6.149769,"line":2,"i_long":106.82482,"distance":906,"station_id":"MGB","time":2},{"line":2,"station_id":"JAY","time":2,"station_name":"Jayakarta","distance":1080,"transit":false,"i_lat":-6.141205,"is_transit":false,"i_long":106.820901},{"station_id":"JAKK","i_long":106.812439,"is_transit":true,"distance":1264,"station_name":"Jakarta Kota","i_lat":-6.137569,"transit":true,"time":4,"line":2},{"station_name":"Kampung Bandan","i_long":106.826365,"transit":true,"is_transit":true,"time":3,"distance":1364,"line":4,"i_lat":-6.132549,"station_id":"KPB"},{"transit":false,"i_lat":-6.14505,"is_transit":false,"time":3,"i_long":106.836569,"distance":1444,"station_name":"Rajawali","station_id":"RJW","line":11},{"i_lat":-6.161728,"distance":1901,"line":11,"transit":false,"station_id":"KMO","station_name":"Kemayoran","time":5,"i_long":106.839204,"is_transit":false},{"i_long":106.84368,"distance":1436,"i_lat":-6.174784,"line":11,"transit":false,"is_transit":false,"time":4,"station_name":"Pasar Senen","station_id":"PSE"},{"is_transit":false,"time":8,"distance":1567,"line":11,"transit":false,"i_long":106.850107,"station_id":"GST","station_name":"Gang Sentiong","i_lat":-6.185975},{"i_long":106.855437,"time":1,"transit":false,"station_name":"Kramat","station_id":"KMT","distance":973,"i_lat":-6.193792,"line":11,"is_transit":false},{"i_long":106.861737,"is_transit":false,"time":2,"transit":false,"i_lat":-6.209188,"station_name":"Pondok Jati","line":11,"station_id":"POK","distance":1829},{"distance":1236,"is_transit":false,"transit":false,"i_lat":-6.215091,"line":1,"station_name":"Jatinegara","station_id":"JNG","time":9,"i_long":106.86807400000001}]]}