{"data":[[{"station_id":"TNG","is_transit":false,"line":5,"i_lat":-6.176583,"i_long":106.632761,"transit":false,"time":0,"station_name":"Tangerang","distance":0},{"transit":false,"distance":1547,"is_transit":false,"i_long":106.64657,"i_lat":-6.17331,"line":5,"time":3,"station_id":"THI","station_name":"Tanah Tinggi"},{"is_transit":false,"i_long":106.665036,"i_lat":-6.171811,"transit":false,"line":5,"time":3,"station_id":"BPR","station_name":"Batuceper","distance":2028},{"i_long":106.679458,"time":3,"is_transit":false,"i_lat":-6.169933,"transit":false,"line":5,"station_id":"PI","distance":1834,"station_name":"Poris"},{"is_transit":false,"time":3,"transit":false,"i_lat":-6.166068,"station_id":"KDS","station_name":"Kalideres","i_long":106.701612,"line":5,"distance":2548},{"transit":false,"i_long":106.723064,"time":3,"distance":2504,"line":5,"station_id":"RW","station_name":"Rawa Buaya","i_lat":-6.162758,"is_transit":false},{"station_name":"Bojongindah","is_transit":false,"time":4,"distance":1152,"line":5,"i_lat":-6.159876,"station_id":"BOI","transit":false,"i_long":106.737035},{"distance":2334,"time":2,"is_transit":false,"transit":false,"station_name":"Taman Kota","station_id":"TKO","i_lat":-6.1587309999999995,"line":5,"i_long":106.756522},{"station_name":"Pesing","distance":1614,"is_transit":false,"transit":false,"i_long":106.771379,"station_id":"PSG","i_lat":-6.161433,"time":2,"line":5},{"line":5,"is_transit":false,"time":2,"i_long":106.788277,"i_lat":-6.162021,"station_id":"GRG","transit":false,"distance":2036,"station_name":"Grogol"},{"i_lat":-6.155215,"time":3,"i_long":106.800832,"is_transit":true,"distance":1700,"station_id":"DU","station_name":"Duri","transit":true,"line":1},{"transit":true,"time":8,"distance":3632,"station_id":"THB","station_name":"Tanah Abang","i_long":106.811091,"i_lat":-6.185545,"is_transit":true,"line":1},{"transit":false,"station_id":"PLM","line":6,"is_transit":false,"distance":3191,"i_lat":-6.207404,"station_name":"Palmerah","i_long":106.79689,"time":6}],[{"i_lat":-6.176583,"distance":0,"line":5,"station_name":"Tangerang","is_transit":false,"i_long":106.632761,"time":0,"station_id":"TNG","transit":false},{"i_long":106.64657,"station_name":"Tanah Tinggi","distance":1547,"is_transit":false,"time":3,"i_lat":-6.17331,"line":5,"station_id":"THI","transit":false},{"line":5,"time":3,"station_id":"BPR","station_name":"Batuceper","distance":2028,"transit":false,"i_lat":-6.171811,"i_long":106.665036,"is_transit":false},{"i_long":106.679458,"i_lat":-6.169933,"is_transit":false,"line":5,"transit":false,"station_id":"PI","time":3,"station_name":"Poris","distance":1834},{"is_transit":false,"distance":2548,"transit":false,"i_long":106.701612,"i_lat":-6.166068,"station_id":"KDS","line":5,"time":3,"station_name":"Kalideres"},{"station_name":"Rawa Buaya","time":3,"station_id":"RW","i_lat":-6.162758,"is_transit":false,"distance":2504,"transit":false,"i_long":106.723064,"line":5},{"station_id":"BOI","transit":false,"station_name":"Bojongindah","is_transit":false,"distance":1152,"i_lat":-6.159876,"line":5,"i_long":106.737035,"time":4},{"transit":false,"time":2,"line":5,"distance":2334,"i_lat":-6.1587309999999995,"station_name":"Taman Kota","station_id":"TKO","is_transit":false,"i_long":106.756522},{"distance":1614,"i_long":106.771379,"line":5,"station_name":"Pesing","time":2,"station_id":"PSG","is_transit":false,"transit":false,"i_lat":-6.161433},{"i_long":106.788277,"transit":false,"line":5,"is_transit":false,"time":2,"station_id":"GRG","i_lat":-6.162021,"distance":2036,"station_name":"Grogol"},{"time":3,"station_id":"DU","i_lat":-6.155215,"i_long":106.800832,"is_transit":true,"station_name":"Duri","line":1,"transit":true,"distance":1700},{"is_transit":false,"line":1,"station_name":"Angke","station_id":"AK","i_lat":-6.144674,"time":4,"i_long":106.79867,"transit":false,"distance":1230},{"time":9,"distance":4102,"is_transit":true,"station_id":"KPB","station_name":"Kampung Bandan","transit":true,"i_lat":-6.132549,"i_long":106.826365,"line":4},{"station_id":"JAKK","i_long":106.812439,"station_name":"Jakarta Kota","i_lat":-6.137569,"is_transit":true,"transit":true,"distance":1364,"time":3,"line":2},{"line":2,"is_transit":false,"i_lat":-6.141205,"station_name":"Jayakarta","transit":false,"time":4,"i_long":106.820901,"distance":1264,"station_id":"JAY"},{"distance":1080,"station_id":"MGB","station_name":"Manggabesar","is_transit":false,"transit":false,"i_lat":-6.149769,"time":2,"line":2,"i_long":106.82482},{"transit":false,"station_id":"SW","station_name":"Sawah Besar","time":2,"distance":906,"i_lat":-6.160725,"i_long":106.827103,"line":2,"is_transit":false},{"is_transit":false,"i_lat":-6.166716,"distance":1149,"transit":false,"station_name":"Juanda","i_long":106.828284,"station_id":"JUA","line":2,"time":2},{"time":4,"distance":2015,"is_transit":false,"i_lat":-6.186295,"station_id":"GDD","station_name":"Gondangdia","transit":false,"i_long":106.832183,"line":2},{"station_id":"CKI","transit":false,"line":2,"time":3,"is_transit":false,"i_lat":-6.198556,"distance":1750,"i_long":106.840169,"station_name":"Cikini"},{"is_transit":true,"time":4,"station_id":"MRI","line":2,"distance":1590,"i_lat":-6.209883,"station_name":"Manggarai","transit":true,"i_long":106.84912},{"i_long":106.822649,"distance":3186,"is_transit":false,"time":4,"station_name":"Sudirman","transit":false,"station_id":"SUD","line":1,"i_lat":-6.202263},{"i_long":106.819881,"distance":280,"station_id":"SUDB","transit":false,"station_name":"Sudirman Baru","is_transit":false,"i_lat":-6.201433,"line":1,"time":1},{"line":1,"is_transit":false,"station_name":"Karet","i_long":106.816351,"transit":false,"time":1,"distance":471,"i_lat":-6.20132,"station_id":"KAT"},{"station_id":"THB","transit":true,"time":5,"i_lat":-6.185545,"i_long":106.811091,"line":1,"station_name":"Tanah Abang","is_transit":true,"distance":2029},{"i_long":106.79689,"is_transit":false,"line":6,"station_id":"PLM","i_lat":-6.207404,"distance":3191,"time":6,"transit":false,"station_name":"Palmerah"}],[{"i_long":106.632761,"distance":0,"line":5,"is_transit":false,"station_name":"Tangerang","time":0,"transit":false,"station_id":"TNG","i_lat":-6.176583},{"station_id":"THI","i_lat":-6.17331,"i_long":106.64657,"transit":false,"time":3,"station_name":"Tanah Tinggi","distance":1547,"line":5,"is_transit":false},{"is_transit":false,"i_lat":-6.171811,"transit":false,"distance":2028,"time":3,"i_long":106.665036,"station_id":"BPR","line":5,"station_name":"Batuceper"},{"is_transit":false,"i_long":106.679458,"distance":1834,"line":5,"i_lat":-6.169933,"time":3,"station_id":"PI","transit":false,"station_name":"Poris"},{"distance":2548,"i_lat":-6.166068,"is_transit":false,"station_id":"KDS","time":3,"i_long":106.701612,"station_name":"Kalideres","transit":false,"line":5},{"i_long":106.723064,"station_id":"RW","station_name":"Rawa Buaya","i_lat":-6.162758,"distance":2504,"is_transit":false,"transit":false,"line":5,"time":3},{"i_lat":-6.159876,"i_long":106.737035,"line":5,"time":4,"is_transit":false,"distance":1152,"station_id":"BOI","station_name":"Bojongindah","transit":false},{"i_long":106.756522,"station_id":"TKO","distance":2334,"station_name":"Taman Kota","is_transit":false,"line":5,"i_lat":-6.1587309999999995,"transit":false,"time":2},{"time":2,"line":5,"station_name":"Pesing","i_lat":-6.161433,"station_id":"PSG","distance":1614,"i_long":106.771379,"is_transit":false,"transit":false},{"i_lat":-6.162021,"station_name":"Grogol","time":2,"distance":2036,"transit":false,"is_transit":false,"i_long":106.788277,"station_id":"GRG","line":5},{"time":3,"station_name":"Duri","i_lat":-6.155215,"distance":1700,"i_long":106.800832,"transit":true,"line":1,"is_transit":true,"station_id":"DU"},{"time":4,"transit":false,"i_long":106.79867,"i_lat":-6.144674,"line":1,"distance":1230,"station_name":"Angke","is_transit":false,"station_id":"AK"},{"distance":4102,"line":4,"transit":true,"i_lat":-6.132549,"is_transit":true,"station_id":"KPB","station_name":"Kampung Bandan","i_long":106.826365,"time":9},{"transit":false,"station_name":"Rajawali","distance":1444,"station_id":"RJW","time":3,"i_long":106.836569,"is_transit":false,"line":11,"i_lat":-6.14505},{"is_transit":false,"station_id":"KMO","time":5,"distance":1901,"i_lat":-6.161728,"i_long":106.839204,"transit":false,"line":11,"station_name":"Kemayoran"},{"i_long":106.84368,"is_transit":false,"distance":1436,"line":11,"station_name":"Pasar Senen","time":4,"transit":false,"i_lat":-6.174784,"station_id":"PSE"},{"station_name":"Gang Sentiong","line":11,"time":8,"transit":false,"distance":1567,"is_transit":false,"i_lat":-6.185975,"station_id":"GST","i_long":106.850107},{"transit":false,"i_long":106.855437,"station_id":"KMT","time":1,"station_name":"Kramat","distance":973,"line":11,"is_transit":false,"i_lat":-6.193792},{"transit":false,"is_transit":false,"i_lat":-6.209188,"line":11,"time":2,"station_name":"Pondok Jati","i_long":106.861737,"station_id":"POK","distance":1829},{"i_lat":-6.215091,"is_transit":true,"transit":true,"i_long":106.86807400000001,"station_id":"JNG","line":1,"station_name":"Jatinegara","distance":1236,"time":9},{"is_transit":false,"station_name":"Matraman","station_id":"MTR","line":1,"i_long":106.858896,"time":2,"transit":false,"i_lat":-6.212485,"distance":1377},{"transit":false,"distance":1275,"is_transit":false,"i_lat":-6.209883,"i_long":106.84912,"time":2,"station_id":"MRI","station_name":"Manggarai","line":2},{"station_name":"Sudirman","distance":3186,"i_lat":-6.202263,"station_id":"SUD","is_transit":false,"line":1,"i_long":106.822649,"time":4,"transit":false},{"station_name":"Sudirman Baru","i_long":106.819881,"line":1,"time":1,"transit":false,"i_lat":-6.201433,"is_transit":false,"distance":280,"station_id":"SUDB"},{"time":1,"station_id":"KAT","is_transit":false,"transit":false,"line":1,"distance":471,"i_long":106.816351,"station_name":"Karet","i_lat":-6.20132},{"line":1,"station_id":"THB","transit":true,"is_transit":true,"i_lat":-6.185545,"time":5,"distance":2029,"i_long":106.811091,"station_name":"Tanah Abang"},{"station_name":"Palmerah","i_lat":-6.207404,"station_id":"PLM","line":6,"is_transit":false,"transit":false,"i_long":106.79689,"time":6,"distance":3191}]]}