{"data":[[{"transit":false,"line":5,"is_transit":false,"i_long":106.632761,"station_name":"Tangerang","station_id":"TNG","distance":0,"i_lat":-6.176583,"time":0},{"transit":false,"station_name":"Tanah Tinggi","station_id":"TTI","distance":1547,"is_transit":false,"time":3,"line":5,"i_lat":-6.17331,"i_long":106.64657},{"distance":2028,"i_lat":-6.171811,"i_long":106.665036,"line":5,"time":3,"station_name":"Batuceper","transit":false,"is_transit":false,"station_id":"BPR"},{"transit":false,"line":5,"i_lat":-6.169933,"time":3,"distance":1834,"station_name":"Poris","station_id":"PI","is_transit":false,"i_long":106.679458},{"station_id":"KDS","station_name":"Kalideres","is_transit":false,"i_lat":-6.166068,"line":5,"distance":2548,"time":3,"i_long":106.701612,"transit":false},{"station_id":"RW","line":5,"station_name":"Rawa Buaya","is_transit":false,"i_long":106.723064,"time":3,"distance":2504,"transit":false,"i_lat":-6.162758},{"is_transit":false,"line":5,"transit":false,"time":4,"distance":1152,"i_lat":-6.159876,"station_name":"Bojongindah","station_id":"BOI","i_long":106.737035},{"time":2,"is_transit":false,"distance":2334,"transit":false,"station_id":"TKO","i_long":106.756522,"line":5,"station_name":"Taman Kota","i_lat":-6.1587309999999995},{"distance":1614,"transit":false,"time":2,"is_transit":false,"line":5,"station_name":"Pesing","i_long":106.771379,"i_lat":-6.161433,"station_id":"PSG"},{"i_lat":-6.162021,"station_id":"GGL","i_long":106.788277,"station_name":"Grogol","time":2,"distance":2036,"is_transit":false,"line":5,"transit":false},{"distance":1700,"is_transit":true,"line":1,"transit":true,"i_long":106.800832,"time":3,"station_id":"DU","station_name":"Duri","i_lat":-6.155215},{"time":8,"distance":3632,"station_name":"Tanah Abang","is_transit":true,"i_lat":-6.185545,"line":1,"station_id":"THB","transit":true,"i_long":106.811091},{"transit":false,"line":6,"station_name":"Palmerah","station_id":"PLM","is_transit":false,"i_long":106.79689,"time":6,"distance":3191,"i_lat":-6.207404}],[{"transit":false,"station_name":"Tangerang","is_transit":false,"time":0,"line":5,"i_lat":-6.176583,"distance":0,"i_long":106.632761,"station_id":"TNG"},{"transit":false,"i_long":106.64657,"line":5,"station_id":"TTI","time":3,"distance":1547,"i_lat":-6.17331,"station_name":"Tanah Tinggi","is_transit":false},{"i_lat":-6.171811,"i_long":106.665036,"distance":2028,"is_transit":false,"line":5,"time":3,"station_name":"Batuceper","station_id":"BPR","transit":false},{"transit":false,"i_long":106.679458,"station_name":"Poris","line":5,"station_id":"PI","distance":1834,"is_transit":false,"time":3,"i_lat":-6.169933},{"transit":false,"station_id":"KDS","i_lat":-6.166068,"station_name":"Kalideres","line":5,"distance":2548,"time":3,"i_long":106.701612,"is_transit":false},{"station_id":"RW","i_long":106.723064,"is_transit":false,"time":3,"transit":false,"distance":2504,"i_lat":-6.162758,"station_name":"Rawa Buaya","line":5},{"i_long":106.737035,"i_lat":-6.159876,"line":5,"is_transit":false,"time":4,"station_name":"Bojongindah","transit":false,"station_id":"BOI","distance":1152},{"transit":false,"station_id":"TKO","i_lat":-6.1587309999999995,"i_long":106.756522,"line":5,"is_transit":false,"station_name":"Taman Kota","time":2,"distance":2334},{"station_name":"Pesing","time":2,"i_lat":-6.161433,"line":5,"station_id":"PSG","is_transit":false,"distance":1614,"transit":false,"i_long":106.771379},{"station_id":"GGL","distance":2036,"i_lat":-6.162021,"i_long":106.788277,"transit":false,"line":5,"station_name":"Grogol","time":2,"is_transit":false},{"transit":true,"station_id":"DU","line":1,"time":3,"i_lat":-6.155215,"station_name":"Duri","is_transit":true,"distance":1700,"i_long":106.800832},{"line":1,"i_lat":-6.144674,"station_name":"Angke","transit":false,"time":4,"station_id":"AK","is_transit":false,"i_long":106.79867,"distance":1230},{"distance":4102,"is_transit":true,"transit":true,"time":9,"line":4,"i_long":106.826365,"station_name":"Kampung Bandan","station_id":"KPB","i_lat":-6.132549},{"station_name":"Jakarta Kota","is_transit":true,"time":3,"i_lat":-6.137569,"line":2,"transit":true,"station_id":"JAKK","distance":1364,"i_long":106.812439},{"line":2,"time":4,"distance":1264,"station_name":"Jayakarta","i_lat":-6.141205,"transit":false,"station_id":"JAY","i_long":106.820901,"is_transit":false},{"time":2,"distance":1080,"is_transit":false,"station_name":"Manggabesar","transit":false,"i_long":106.82482,"station_id":"MGB","i_lat":-6.149769,"line":2},{"transit":false,"i_lat":-6.160725,"line":2,"i_long":106.827103,"distance":906,"is_transit":false,"station_id":"SW","station_name":"Sawah Besar","time":2},{"i_long":106.828284,"time":2,"distance":1149,"station_name":"Juanda","transit":false,"station_id":"JUA","line":2,"is_transit":false,"i_lat":-6.166716},{"transit":false,"station_name":"Gondangdia","time":4,"station_id":"GDD","i_long":106.832183,"is_transit":false,"distance":2015,"line":2,"i_lat":-6.186295},{"i_lat":-6.198556,"station_id":"CKI","is_transit":false,"transit":false,"time":3,"distance":1750,"station_name":"Cikini","i_long":106.840169,"line":2},{"transit":true,"is_transit":true,"time":4,"distance":1590,"line":2,"i_lat":-6.209883,"i_long":106.84912,"station_id":"MRI","station_name":"Manggarai"},{"station_id":"SUD","is_transit":false,"station_name":"Sudirman","i_lat":-6.202263,"i_long":106.822649,"transit":false,"line":1,"distance":3186,"time":4},{"time":1,"i_lat":-6.201433,"station_id":"SUDB","transit":false,"i_long":106.819881,"distance":280,"is_transit":false,"station_name":"Sudirman Baru","line":1},{"transit":false,"is_transit":false,"i_long":106.816351,"line":1,"time":1,"i_lat":-6.20132,"station_id":"KAT","distance":471,"station_name":"Karet"},{"line":1,"station_name":"Tanah Abang","time":5,"i_lat":-6.185545,"i_long":106.811091,"transit":true,"station_id":"THB","is_transit":true,"distance":2029},{"station_id":"PLM","station_name":"Palmerah","distance":3191,"is_transit":false,"i_long":106.79689,"time":6,"i_lat":-6.207404,"line":6,"transit":false}],[{"is_transit":false,"i_lat":-6.176583,"line":5,"station_name":"Tangerang","i_long":106.632761,"distance":0,"transit":false,"time":0,"station_id":"TNG"},{"i_lat":-6.17331,"station_id":"TTI","distance":1547,"line":5,"station_name":"Tanah Tinggi","time":3,"i_long":106.64657,"is_transit":false,"transit":false},{"time":3,"is_transit":false,"i_lat":-6.171811,"i_long":106.665036,"transit":false,"line":5,"station_name":"Batuceper","station_id":"BPR","distance":2028},{"station_name":"Poris","i_lat":-6.169933,"line":5,"distance":1834,"i_long":106.679458,"station_id":"PI","time":3,"transit":false,"is_transit":false},{"is_transit":false,"station_id":"KDS","distance":2548,"line":5,"time":3,"station_name":"Kalideres","transit":false,"i_long":106.701612,"i_lat":-6.166068},{"transit":false,"station_name":"Rawa Buaya","line":5,"distance":2504,"station_id":"RW","time":3,"is_transit":false,"i_lat":-6.162758,"i_long":106.723064},{"i_lat":-6.159876,"i_long":106.737035,"distance":1152,"station_id":"BOI","station_name":"Bojongindah","is_transit":false,"time":4,"line":5,"transit":false},{"i_long":106.756522,"i_lat":-6.1587309999999995,"distance":2334,"station_id":"TKO","station_name":"Taman Kota","is_transit":false,"line":5,"time":2,"transit":false},{"time":2,"i_lat":-6.161433,"line":5,"station_id":"PSG","transit":false,"station_name":"Pesing","i_long":106.771379,"distance":1614,"is_transit":false},{"station_id":"GGL","is_transit":false,"i_lat":-6.162021,"time":2,"distance":2036,"i_long":106.788277,"line":5,"station_name":"Grogol","transit":false},{"transit":true,"i_long":106.800832,"station_name":"Duri","time":3,"is_transit":true,"distance":1700,"i_lat":-6.155215,"line":1,"station_id":"DU"},{"i_long":106.79867,"line":1,"transit":false,"station_name":"Angke","station_id":"AK","is_transit":false,"i_lat":-6.144674,"time":4,"distance":1230},{"transit":true,"time":9,"is_transit":true,"station_id":"KPB","distance":4102,"i_lat":-6.132549,"station_name":"Kampung Bandan","line":4,"i_long":106.826365},{"transit":false,"time":3,"distance":1444,"i_long":106.836569,"station_name":"Rajawali","i_lat":-6.14505,"station_id":"RJW","is_transit":false,"line":11},{"i_long":106.839204,"distance":1901,"time":5,"line":11,"station_id":"KMO","transit":false,"station_name":"Kemayoran","is_transit":false,"i_lat":-6.161728},{"transit":false,"is_transit":false,"i_lat":-6.174784,"distance":1436,"time":4,"i_long":106.84368,"line":11,"station_name":"Pasar Senen","station_id":"PSE"},{"distance":1567,"time":8,"line":11,"transit":false,"station_name":"Gang Sentiong","i_lat":-6.185975,"station_id":"GST","is_transit":false,"i_long":106.850107},{"station_id":"KMT","i_long":106.855437,"is_transit":false,"station_name":"Kramat","time":1,"i_lat":-6.193792,"distance":973,"line":11,"transit":false},{"line":11,"i_long":106.861737,"is_transit":false,"time":2,"station_name":"Pondok Jati","transit":false,"i_lat":-6.209188,"distance":1829,"station_id":"POK"},{"i_long":106.86807400000001,"i_lat":-6.215091,"transit":true,"distance":1236,"station_name":"Jatinegara","line":1,"station_id":"JNG","is_transit":true,"time":9},{"station_name":"Matraman","distance":1377,"i_lat":-6.212485,"i_long":106.858896,"line":1,"is_transit":false,"transit":false,"station_id":"MTR","time":2},{"transit":false,"station_name":"Manggarai","is_transit":false,"distance":1275,"i_lat":-6.209883,"i_long":106.84912,"line":2,"station_id":"MRI","time":2},{"time":4,"station_id":"SUD","distance":3186,"transit":false,"line":1,"is_transit":false,"i_lat":-6.202263,"station_name":"Sudirman","i_long":106.822649},{"transit":false,"station_name":"Sudirman Baru","is_transit":false,"time":1,"i_long":106.819881,"distance":280,"i_lat":-6.201433,"line":1,"station_id":"SUDB"},{"transit":false,"station_id":"KAT","is_transit":false,"distance":471,"time":1,"i_long":106.816351,"line":1,"station_name":"Karet","i_lat":-6.20132},{"station_name":"Tanah Abang","line":1,"transit":true,"distance":2029,"time":5,"station_id":"THB","i_long":106.811091,"is_transit":true,"i_lat":-6.185545},{"i_long":106.79689,"is_transit":false,"distance":3191,"transit":false,"station_name":"Palmerah","i_lat":-6.207404,"line":6,"station_id":"PLM","time":6}]]}