{"data":[[{"station_id":"TNG","is_transit":false,"station_name":"Tangerang","i_long":106.632761,"time":0,"distance":0,"transit":false,"line":5,"i_lat":-6.176583},{"is_transit":false,"line":5,"time":3,"i_lat":-6.17331,"i_long":106.64657,"station_id":"TTI","transit":false,"station_name":"Tanah Tinggi","distance":1547},{"line":0,"i_long":106.665036,"time":3,"station_id":"BPR","transit":false,"i_lat":-6.171811,"is_transit":false,"distance":2028,"station_name":"Batuceper"},{"is_transit":false,"time":3,"i_long":106.679458,"transit":false,"station_name":"Poris","line":5,"station_id":"PI","i_lat":-6.169933,"distance":1834},{"transit":false,"line":5,"i_lat":-6.166068,"station_name":"Kalideres","i_long":106.701612,"distance":2548,"time":3,"is_transit":false,"station_id":"KDS"},{"transit":false,"station_id":"RW","i_lat":-6.162758,"i_long":106.723064,"distance":2504,"time":3,"line":5,"is_transit":false,"station_name":"Rawa Buaya"},{"time":4,"i_lat":-6.159876,"station_name":"Bojongindah","line":0,"i_long":106.737035,"is_transit":false,"distance":1152,"station_id":"BOI","transit":false},{"transit":false,"time":2,"station_name":"Taman Kota","is_transit":false,"station_id":"TKO","i_lat":-6.1587309999999995,"line":5,"i_long":106.756522,"distance":2334},{"line":5,"transit":false,"station_id":"PSG","i_long":106.771379,"i_lat":-6.161433,"distance":1614,"station_name":"Pesing","is_transit":false,"time":2},{"station_id":"GGL","station_name":"Grogol","line":5,"distance":2036,"i_long":106.788277,"is_transit":false,"i_lat":-6.162021,"time":2,"transit":false},{"station_name":"Duri","is_transit":true,"station_id":"DU","time":3,"i_lat":-6.155215,"distance":1700,"line":1,"transit":true,"i_long":106.800832},{"station_id":"THB","distance":3632,"is_transit":true,"line":1,"transit":true,"station_name":"Tanah Abang","i_lat":-6.185545,"i_long":106.811091,"time":8},{"line":6,"transit":false,"time":6,"i_lat":-6.207404,"is_transit":false,"i_long":106.79689,"station_name":"Palmerah","distance":3191,"station_id":"PLM"}],[{"is_transit":false,"station_name":"Tangerang","distance":0,"line":5,"station_id":"TNG","time":0,"i_lat":-6.176583,"i_long":106.632761,"transit":false},{"transit":false,"station_name":"Tanah Tinggi","line":5,"i_long":106.64657,"is_transit":false,"distance":1547,"station_id":"TTI","time":3,"i_lat":-6.17331},{"i_long":106.665036,"i_lat":-6.171811,"time":3,"line":0,"transit":false,"is_transit":false,"station_name":"Batuceper","distance":2028,"station_id":"BPR"},{"i_long":106.679458,"station_id":"PI","i_lat":-6.169933,"transit":false,"distance":1834,"is_transit":false,"station_name":"Poris","line":5,"time":3},{"line":5,"time":3,"station_id":"KDS","i_lat":-6.166068,"distance":2548,"is_transit":false,"station_name":"Kalideres","i_long":106.701612,"transit":false},{"time":3,"station_name":"Rawa Buaya","line":5,"distance":2504,"is_transit":false,"i_lat":-6.162758,"station_id":"RW","transit":false,"i_long":106.723064},{"station_id":"BOI","distance":1152,"i_lat":-6.159876,"line":0,"i_long":106.737035,"station_name":"Bojongindah","time":4,"is_transit":false,"transit":false},{"i_lat":-6.1587309999999995,"i_long":106.756522,"transit":false,"is_transit":false,"station_name":"Taman Kota","distance":2334,"line":5,"station_id":"TKO","time":2},{"is_transit":false,"line":5,"station_name":"Pesing","i_lat":-6.161433,"transit":false,"distance":1614,"station_id":"PSG","i_long":106.771379,"time":2},{"station_id":"GGL","is_transit":false,"time":2,"i_long":106.788277,"transit":false,"i_lat":-6.162021,"station_name":"Grogol","line":5,"distance":2036},{"station_id":"DU","is_transit":true,"transit":true,"distance":1700,"time":3,"i_lat":-6.155215,"i_long":106.800832,"line":1,"station_name":"Duri"},{"is_transit":false,"transit":false,"time":4,"station_id":"AK","i_lat":-6.144674,"line":0,"station_name":"Angke","i_long":106.79867,"distance":1230},{"distance":4102,"i_lat":-6.132549,"is_transit":true,"station_id":"KPB","station_name":"Kampung Bandan","time":9,"i_long":106.826365,"transit":false,"line":0},{"transit":true,"line":0,"i_long":106.812439,"time":3,"is_transit":true,"station_id":"JAKK","i_lat":-6.137569,"distance":1364,"station_name":"Jakarta Kota"},{"transit":false,"i_lat":-6.141205,"i_long":106.820901,"line":7,"station_name":"Jayakarta","time":4,"is_transit":false,"distance":1264,"station_id":"JAY"},{"distance":1080,"station_id":"MGB","transit":false,"i_long":106.82482,"is_transit":false,"station_name":"Manggabesar","line":2,"time":2,"i_lat":-6.149769},{"line":2,"is_transit":false,"station_name":"Sawah Besar","distance":906,"i_long":106.827103,"transit":false,"station_id":"SW","time":2,"i_lat":-6.160725},{"is_transit":false,"station_id":"JUA","transit":false,"station_name":"Juanda","i_long":106.828284,"time":2,"i_lat":-6.166716,"line":2,"distance":1149},{"station_id":"GDD","time":4,"i_lat":-6.186295,"distance":2015,"is_transit":false,"station_name":"Gondangdia","i_long":106.832183,"line":2,"transit":false},{"time":3,"transit":false,"i_lat":-6.198556,"line":0,"distance":1750,"i_long":106.840169,"is_transit":false,"station_id":"CKI","station_name":"Cikini"},{"line":0,"station_id":"MRI","distance":1590,"transit":true,"is_transit":true,"time":4,"i_lat":-6.209883,"station_name":"Manggarai","i_long":106.84912},{"time":4,"station_name":"Sudirman","station_id":"SUD","is_transit":false,"transit":false,"distance":3186,"i_lat":-6.202263,"line":1,"i_long":106.822649},{"station_name":"Sudirman Baru","distance":280,"station_id":"SUDB","i_lat":-6.201433,"line":1,"i_long":106.819881,"transit":false,"is_transit":false,"time":1},{"time":1,"i_long":106.816351,"distance":471,"station_id":"KAT","i_lat":-6.20132,"transit":false,"line":1,"station_name":"Karet","is_transit":false},{"time":5,"i_lat":-6.185545,"station_name":"Tanah Abang","station_id":"THB","is_transit":true,"distance":2029,"transit":true,"i_long":106.811091,"line":1},{"i_lat":-6.207404,"line":6,"distance":3191,"is_transit":false,"time":6,"i_long":106.79689,"station_name":"Palmerah","transit":false,"station_id":"PLM"}],[{"is_transit":false,"i_lat":-6.176583,"line":5,"distance":0,"i_long":106.632761,"station_name":"Tangerang","time":0,"transit":false,"station_id":"TNG"},{"station_name":"Tanah Tinggi","station_id":"TTI","is_transit":false,"transit":false,"line":5,"time":3,"i_lat":-6.17331,"distance":1547,"i_long":106.64657},{"i_lat":-6.171811,"distance":2028,"station_name":"Batuceper","time":3,"transit":false,"line":0,"station_id":"BPR","i_long":106.665036,"is_transit":false},{"station_name":"Poris","time":3,"station_id":"PI","transit":false,"i_lat":-6.169933,"is_transit":false,"distance":1834,"i_long":106.679458,"line":5},{"time":3,"station_id":"KDS","i_long":106.701612,"distance":2548,"is_transit":false,"transit":false,"station_name":"Kalideres","i_lat":-6.166068,"line":5},{"station_name":"Rawa Buaya","station_id":"RW","distance":2504,"transit":false,"line":5,"is_transit":false,"time":3,"i_lat":-6.162758,"i_long":106.723064},{"station_id":"BOI","i_long":106.737035,"distance":1152,"transit":false,"line":0,"station_name":"Bojongindah","is_transit":false,"time":4,"i_lat":-6.159876},{"station_name":"Taman Kota","i_long":106.756522,"station_id":"TKO","line":5,"time":2,"distance":2334,"is_transit":false,"i_lat":-6.1587309999999995,"transit":false},{"i_long":106.771379,"line":5,"station_id":"PSG","station_name":"Pesing","time":2,"i_lat":-6.161433,"is_transit":false,"transit":false,"distance":1614},{"station_name":"Grogol","distance":2036,"station_id":"GGL","transit":false,"i_lat":-6.162021,"time":2,"line":5,"is_transit":false,"i_long":106.788277},{"station_id":"DU","line":1,"distance":1700,"is_transit":true,"station_name":"Duri","transit":true,"time":3,"i_lat":-6.155215,"i_long":106.800832},{"line":0,"station_name":"Angke","i_lat":-6.144674,"transit":false,"station_id":"AK","distance":1230,"is_transit":false,"time":4,"i_long":106.79867},{"station_id":"KPB","transit":true,"i_lat":-6.132549,"distance":4102,"line":0,"i_long":106.826365,"is_transit":true,"time":9,"station_name":"Kampung Bandan"},{"distance":1444,"station_name":"Rajawali","i_long":106.836569,"line":11,"time":3,"transit":false,"is_transit":false,"station_id":"RJW","i_lat":-6.14505},{"line":11,"transit":false,"time":5,"i_lat":-6.161728,"is_transit":false,"station_id":"KMO","distance":1901,"i_long":106.839204,"station_name":"Kemayoran"},{"transit":false,"i_long":106.84368,"line":11,"is_transit":false,"distance":1436,"station_name":"Pasar Senen","station_id":"PSE","time":4,"i_lat":-6.174784},{"time":8,"i_long":106.850107,"line":11,"distance":1567,"station_name":"Gang Sentiong","transit":false,"station_id":"GST","is_transit":false,"i_lat":-6.185975},{"time":1,"i_lat":-6.193792,"station_name":"Kramat","transit":false,"distance":973,"line":11,"i_long":106.855437,"station_id":"KMT","is_transit":false},{"station_name":"Pondok Jati","line":11,"i_lat":-6.209188,"i_long":106.861737,"is_transit":false,"time":2,"transit":false,"station_id":"POK","distance":1829},{"time":9,"i_lat":-6.215091,"transit":true,"line":0,"distance":1236,"is_transit":true,"i_long":106.86807400000001,"station_name":"Jatinegara","station_id":"JNG"},{"is_transit":false,"line":1,"time":2,"i_long":106.858896,"distance":1377,"station_id":"MTR","station_name":"Matraman","transit":false,"i_lat":-6.212485},{"is_transit":true,"transit":false,"time":2,"station_id":"MRI","station_name":"Manggarai","i_lat":-6.209883,"distance":1275,"i_long":106.84912,"line":0},{"station_name":"Sudirman","station_id":"SUD","distance":3186,"i_lat":-6.202263,"is_transit":false,"transit":false,"line":1,"i_long":106.822649,"time":4},{"i_lat":-6.201433,"transit":false,"line":1,"time":1,"is_transit":false,"station_id":"SUDB","station_name":"Sudirman Baru","i_long":106.819881,"distance":280},{"station_name":"Karet","time":1,"station_id":"KAT","distance":471,"line":1,"transit":false,"i_lat":-6.20132,"i_long":106.816351,"is_transit":false},{"i_long":106.811091,"time":5,"distance":2029,"is_transit":true,"line":1,"transit":true,"station_id":"THB","i_lat":-6.185545,"station_name":"Tanah Abang"},{"line":6,"time":6,"i_long":106.79689,"is_transit":false,"station_id":"PLM","distance":3191,"i_lat":-6.207404,"station_name":"Palmerah","transit":false}]]}