{"data":[[{"station_name":"Tangerang","transit":false,"line":5,"distance":0,"i_lat":-6.176583,"time":0,"i_long":106.632761,"station_id":"TNG","is_transit":false},{"i_lat":-6.17331,"is_transit":false,"transit":false,"time":3,"distance":1547,"station_id":"TTI","i_long":106.64657,"line":5,"station_name":"Tanah Tinggi"},{"is_transit":false,"i_lat":-6.171811,"transit":false,"i_long":106.665036,"line":0,"distance":2028,"time":3,"station_name":"Batuceper","station_id":"BPR"},{"transit":false,"station_id":"PI","time":3,"distance":1834,"line":5,"i_lat":-6.169933,"i_long":106.679458,"station_name":"Poris","is_transit":false},{"distance":2548,"is_transit":false,"transit":false,"station_id":"KDS","station_name":"Kalideres","line":5,"i_lat":-6.166068,"time":3,"i_long":106.701612},{"station_name":"Rawa Buaya","time":3,"i_long":106.723064,"station_id":"RW","is_transit":false,"transit":false,"i_lat":-6.162758,"line":5,"distance":2504},{"transit":false,"distance":1152,"is_transit":false,"station_id":"BOI","line":0,"time":4,"i_lat":-6.159876,"station_name":"Bojongindah","i_long":106.737035},{"i_lat":-6.1587309999999995,"line":5,"transit":false,"i_long":106.756522,"is_transit":false,"station_id":"TKO","station_name":"Taman Kota","distance":2334,"time":2},{"line":5,"time":2,"transit":false,"distance":1614,"station_name":"Pesing","i_long":106.771379,"is_transit":false,"station_id":"PSG","i_lat":-6.161433},{"i_long":106.788277,"station_id":"GGL","distance":2036,"station_name":"Grogol","line":5,"i_lat":-6.162021,"transit":false,"is_transit":false,"time":2},{"distance":1700,"line":1,"is_transit":true,"station_id":"DU","station_name":"Duri","transit":true,"time":3,"i_long":106.800832,"i_lat":-6.155215},{"transit":true,"station_id":"THB","station_name":"Tanah Abang","distance":3632,"i_lat":-6.185545,"is_transit":true,"i_long":106.811091,"line":1,"time":8},{"station_id":"PLM","time":6,"is_transit":false,"i_lat":-6.207404,"i_long":106.79689,"line":6,"distance":3191,"station_name":"Palmerah","transit":false},{"is_transit":false,"station_name":"Kebayoran","time":7,"i_long":106.780334,"distance":3737,"transit":false,"i_lat":-6.237242,"station_id":"KBY","line":6},{"i_long":106.74273,"station_id":"PDJ","i_lat":-6.276362,"distance":6218,"time":8,"station_name":"Pondokranji","is_transit":false,"transit":false,"line":6},{"station_id":"JMU","station_name":"Jurangmangu","i_long":106.728916,"time":3,"transit":false,"is_transit":false,"distance":2179,"line":6,"i_lat":-6.288927},{"line":6,"station_id":"SDM","is_transit":false,"distance":1994,"i_lat":-6.296963,"station_name":"Sudimara","time":4,"transit":false,"i_long":106.712277},{"station_name":"Rawa Buntu","time":6,"transit":false,"i_long":106.675475,"line":6,"i_lat":-6.314823,"distance":4566,"is_transit":false,"station_id":"RU"},{"transit":false,"line":6,"station_name":"Serpong","station_id":"SRP","i_lat":-6.319871,"time":4,"i_long":106.66566,"is_transit":false,"distance":2413},{"station_id":"CSK","i_lat":-6.32484,"transit":false,"time":4,"distance":1784,"station_name":"Cisauk","i_long":106.640411,"line":0,"is_transit":false},{"i_long":106.617853,"is_transit":false,"time":4,"station_name":"Cicayur","line":0,"distance":2519,"station_id":"CC","transit":false,"i_lat":-6.329547},{"time":8,"transit":false,"distance":5968,"station_id":"PRP","i_lat":-6.3441410000000005,"station_name":"Parung Panjang","i_long":106.568863,"is_transit":false,"line":6}],[{"time":0,"i_lat":-6.176583,"line":5,"transit":false,"i_long":106.632761,"station_id":"TNG","station_name":"Tangerang","distance":0,"is_transit":false},{"distance":1547,"station_name":"Tanah Tinggi","is_transit":false,"i_long":106.64657,"transit":false,"station_id":"TTI","time":3,"line":5,"i_lat":-6.17331},{"i_lat":-6.171811,"i_long":106.665036,"line":0,"distance":2028,"transit":false,"station_name":"Batuceper","is_transit":false,"station_id":"BPR","time":3},{"transit":false,"i_lat":-6.169933,"time":3,"i_long":106.679458,"station_id":"PI","is_transit":false,"line":5,"distance":1834,"station_name":"Poris"},{"distance":2548,"station_name":"Kalideres","station_id":"KDS","line":5,"transit":false,"time":3,"is_transit":false,"i_lat":-6.166068,"i_long":106.701612},{"transit":false,"time":3,"i_long":106.723064,"is_transit":false,"station_name":"Rawa Buaya","i_lat":-6.162758,"line":5,"distance":2504,"station_id":"RW"},{"i_lat":-6.159876,"line":0,"distance":1152,"transit":false,"station_id":"BOI","i_long":106.737035,"is_transit":false,"time":4,"station_name":"Bojongindah"},{"i_long":106.756522,"time":2,"is_transit":false,"transit":false,"distance":2334,"line":5,"station_name":"Taman Kota","i_lat":-6.1587309999999995,"station_id":"TKO"},{"station_name":"Pesing","is_transit":false,"station_id":"PSG","i_lat":-6.161433,"line":5,"i_long":106.771379,"transit":false,"time":2,"distance":1614},{"i_lat":-6.162021,"transit":false,"is_transit":false,"station_name":"Grogol","time":2,"i_long":106.788277,"station_id":"GGL","distance":2036,"line":5},{"i_lat":-6.155215,"distance":1700,"line":1,"is_transit":true,"station_name":"Duri","transit":true,"time":3,"i_long":106.800832,"station_id":"DU"},{"distance":1230,"i_lat":-6.144674,"is_transit":false,"time":4,"i_long":106.79867,"line":0,"transit":false,"station_id":"AK","station_name":"Angke"},{"is_transit":true,"transit":false,"distance":4102,"station_name":"Kampung Bandan","line":0,"time":9,"i_lat":-6.132549,"i_long":106.826365,"station_id":"KPB"},{"line":0,"i_long":106.812439,"station_name":"Jakarta Kota","distance":1364,"i_lat":-6.137569,"station_id":"JAKK","time":3,"is_transit":true,"transit":true},{"i_long":106.820901,"is_transit":false,"station_id":"JAY","time":4,"i_lat":-6.141205,"line":7,"station_name":"Jayakarta","transit":false,"distance":1264},{"is_transit":false,"time":2,"distance":1080,"station_id":"MGB","line":2,"i_lat":-6.149769,"station_name":"Manggabesar","transit":false,"i_long":106.82482},{"i_long":106.827103,"station_name":"Sawah Besar","station_id":"SW","transit":false,"time":2,"line":2,"distance":906,"is_transit":false,"i_lat":-6.160725},{"line":2,"is_transit":false,"transit":false,"station_name":"Juanda","i_lat":-6.166716,"i_long":106.828284,"station_id":"JUA","time":2,"distance":1149},{"station_id":"GDD","i_lat":-6.186295,"transit":false,"is_transit":false,"i_long":106.832183,"line":2,"station_name":"Gondangdia","time":4,"distance":2015},{"distance":1750,"is_transit":false,"station_id":"CKI","i_lat":-6.198556,"i_long":106.840169,"line":0,"station_name":"Cikini","time":3,"transit":false},{"is_transit":true,"i_lat":-6.209883,"i_long":106.84912,"line":0,"time":4,"station_id":"MRI","distance":1590,"station_name":"Manggarai","transit":true},{"i_lat":-6.202263,"line":1,"is_transit":false,"station_id":"SUD","i_long":106.822649,"station_name":"Sudirman","transit":false,"distance":3186,"time":4},{"station_id":"SUDB","transit":false,"time":1,"i_long":106.819881,"is_transit":false,"i_lat":-6.201433,"distance":280,"line":1,"station_name":"Sudirman Baru"},{"is_transit":false,"time":1,"i_lat":-6.20132,"distance":471,"station_name":"Karet","line":1,"transit":false,"station_id":"KAT","i_long":106.816351},{"is_transit":true,"station_id":"THB","i_lat":-6.185545,"i_long":106.811091,"distance":2029,"station_name":"Tanah Abang","time":5,"line":1,"transit":true},{"distance":3191,"i_long":106.79689,"line":6,"station_name":"Palmerah","is_transit":false,"time":6,"i_lat":-6.207404,"station_id":"PLM","transit":false},{"station_id":"KBY","station_name":"Kebayoran","time":7,"is_transit":false,"i_long":106.780334,"i_lat":-6.237242,"transit":false,"line":6,"distance":3737},{"distance":6218,"line":6,"time":8,"i_lat":-6.276362,"is_transit":false,"i_long":106.74273,"station_name":"Pondokranji","station_id":"PDJ","transit":false},{"distance":2179,"time":3,"i_lat":-6.288927,"i_long":106.728916,"transit":false,"station_name":"Jurangmangu","line":6,"is_transit":false,"station_id":"JMU"},{"line":6,"is_transit":false,"i_lat":-6.296963,"i_long":106.712277,"transit":false,"distance":1994,"station_name":"Sudimara","time":4,"station_id":"SDM"},{"is_transit":false,"station_id":"RU","time":6,"distance":4566,"transit":false,"i_lat":-6.314823,"station_name":"Rawa Buntu","i_long":106.675475,"line":6},{"i_long":106.66566,"station_id":"SRP","distance":2413,"is_transit":false,"station_name":"Serpong","time":4,"transit":false,"i_lat":-6.319871,"line":6},{"time":4,"line":0,"is_transit":false,"station_id":"CSK","i_lat":-6.32484,"i_long":106.640411,"distance":1784,"station_name":"Cisauk","transit":false},{"i_lat":-6.329547,"station_id":"CC","transit":false,"distance":2519,"is_transit":false,"time":4,"line":0,"station_name":"Cicayur","i_long":106.617853},{"line":6,"station_id":"PRP","transit":false,"i_long":106.568863,"i_lat":-6.3441410000000005,"is_transit":false,"time":8,"station_name":"Parung Panjang","distance":5968}],[{"station_name":"Tangerang","transit":false,"time":0,"line":5,"i_long":106.632761,"station_id":"TNG","i_lat":-6.176583,"is_transit":false,"distance":0},{"line":5,"time":3,"i_lat":-6.17331,"station_id":"TTI","transit":false,"is_transit":false,"station_name":"Tanah Tinggi","distance":1547,"i_long":106.64657},{"station_id":"BPR","is_transit":false,"i_long":106.665036,"line":0,"station_name":"Batuceper","distance":2028,"transit":false,"time":3,"i_lat":-6.171811},{"time":3,"station_id":"PI","transit":false,"line":5,"is_transit":false,"station_name":"Poris","i_lat":-6.169933,"i_long":106.679458,"distance":1834},{"station_id":"KDS","distance":2548,"station_name":"Kalideres","i_lat":-6.166068,"i_long":106.701612,"time":3,"is_transit":false,"transit":false,"line":5},{"distance":2504,"line":5,"is_transit":false,"i_lat":-6.162758,"station_name":"Rawa Buaya","station_id":"RW","transit":false,"time":3,"i_long":106.723064},{"line":0,"distance":1152,"is_transit":false,"station_id":"BOI","station_name":"Bojongindah","time":4,"i_long":106.737035,"transit":false,"i_lat":-6.159876},{"station_name":"Taman Kota","station_id":"TKO","i_lat":-6.1587309999999995,"is_transit":false,"distance":2334,"transit":false,"line":5,"time":2,"i_long":106.756522},{"line":5,"is_transit":false,"station_id":"PSG","i_long":106.771379,"transit":false,"i_lat":-6.161433,"distance":1614,"station_name":"Pesing","time":2},{"time":2,"i_long":106.788277,"line":5,"station_name":"Grogol","i_lat":-6.162021,"is_transit":false,"transit":false,"distance":2036,"station_id":"GGL"},{"distance":1700,"i_long":106.800832,"is_transit":true,"i_lat":-6.155215,"station_id":"DU","time":3,"station_name":"Duri","transit":true,"line":1},{"line":0,"distance":1230,"time":4,"i_lat":-6.144674,"is_transit":false,"station_name":"Angke","transit":false,"i_long":106.79867,"station_id":"AK"},{"station_name":"Kampung Bandan","line":0,"is_transit":true,"i_lat":-6.132549,"time":9,"transit":true,"i_long":106.826365,"station_id":"KPB","distance":4102},{"is_transit":false,"station_id":"RJW","distance":1444,"i_lat":-6.14505,"i_long":106.836569,"line":11,"time":3,"station_name":"Rajawali","transit":false},{"is_transit":false,"transit":false,"time":5,"line":11,"i_long":106.839204,"distance":1901,"station_id":"KMO","i_lat":-6.161728,"station_name":"Kemayoran"},{"is_transit":false,"station_name":"Pasar Senen","time":4,"distance":1436,"i_long":106.84368,"line":11,"transit":false,"i_lat":-6.174784,"station_id":"PSE"},{"station_name":"Gang Sentiong","is_transit":false,"time":8,"distance":1567,"station_id":"GST","transit":false,"i_lat":-6.185975,"i_long":106.850107,"line":11},{"station_id":"KMT","station_name":"Kramat","distance":973,"time":1,"i_long":106.855437,"i_lat":-6.193792,"is_transit":false,"line":11,"transit":false},{"transit":false,"line":11,"station_name":"Pondok Jati","station_id":"POK","time":2,"i_long":106.861737,"distance":1829,"is_transit":false,"i_lat":-6.209188},{"is_transit":true,"i_long":106.86807400000001,"distance":1236,"station_name":"Jatinegara","transit":true,"time":9,"i_lat":-6.215091,"station_id":"JNG","line":0},{"station_name":"Matraman","transit":false,"i_long":106.858896,"station_id":"MTR","line":1,"time":2,"distance":1377,"is_transit":false,"i_lat":-6.212485},{"transit":false,"i_lat":-6.209883,"line":0,"time":2,"i_long":106.84912,"station_name":"Manggarai","is_transit":true,"station_id":"MRI","distance":1275},{"transit":false,"i_lat":-6.202263,"is_transit":false,"distance":3186,"line":1,"station_name":"Sudirman","i_long":106.822649,"time":4,"station_id":"SUD"},{"line":1,"station_id":"SUDB","time":1,"i_lat":-6.201433,"distance":280,"station_name":"Sudirman Baru","transit":false,"is_transit":false,"i_long":106.819881},{"distance":471,"station_name":"Karet","is_transit":false,"i_lat":-6.20132,"i_long":106.816351,"station_id":"KAT","line":1,"transit":false,"time":1},{"time":5,"line":1,"i_long":106.811091,"is_transit":true,"station_name":"Tanah Abang","station_id":"THB","i_lat":-6.185545,"distance":2029,"transit":true},{"transit":false,"station_id":"PLM","i_lat":-6.207404,"station_name":"Palmerah","time":6,"line":6,"distance":3191,"i_long":106.79689,"is_transit":false},{"i_lat":-6.237242,"transit":false,"line":6,"station_name":"Kebayoran","station_id":"KBY","time":7,"distance":3737,"is_transit":false,"i_long":106.780334},{"station_id":"PDJ","distance":6218,"station_name":"Pondokranji","transit":false,"time":8,"i_lat":-6.276362,"i_long":106.74273,"line":6,"is_transit":false},{"distance":2179,"station_id":"JMU","is_transit":false,"time":3,"line":6,"i_long":106.728916,"i_lat":-6.288927,"station_name":"Jurangmangu","transit":false},{"is_transit":false,"i_long":106.712277,"station_name":"Sudimara","i_lat":-6.296963,"line":6,"distance":1994,"time":4,"transit":false,"station_id":"SDM"},{"i_lat":-6.314823,"i_long":106.675475,"station_name":"Rawa Buntu","line":6,"station_id":"RU","is_transit":false,"distance":4566,"transit":false,"time":6},{"time":4,"station_name":"Serpong","distance":2413,"is_transit":false,"transit":false,"line":6,"station_id":"SRP","i_long":106.66566,"i_lat":-6.319871},{"distance":1784,"is_transit":false,"station_id":"CSK","transit":false,"time":4,"station_name":"Cisauk","i_lat":-6.32484,"i_long":106.640411,"line":0},{"i_long":106.617853,"line":0,"transit":false,"distance":2519,"is_transit":false,"station_name":"Cicayur","station_id":"CC","time":4,"i_lat":-6.329547},{"i_long":106.568863,"is_transit":false,"transit":false,"time":8,"station_id":"PRP","station_name":"Parung Panjang","i_lat":-6.3441410000000005,"line":6,"distance":5968}]]}