{"data":[[{"transit":false,"station_id":"TNG","distance":0,"time":0,"station_name":"Tangerang","i_lat":-6.176583,"is_transit":false,"i_long":106.632761,"line":5},{"transit":false,"station_name":"Tanah Tinggi","is_transit":false,"distance":1547,"i_long":106.64657,"station_id":"TTI","i_lat":-6.17331,"time":3,"line":5},{"distance":2028,"line":5,"time":3,"i_lat":-6.171811,"transit":false,"station_name":"Batuceper","is_transit":false,"i_long":106.665036,"station_id":"BPR"},{"station_id":"PI","distance":1834,"is_transit":false,"i_long":106.679458,"i_lat":-6.169933,"line":5,"station_name":"Poris","time":3,"transit":false},{"i_lat":-6.166068,"time":3,"i_long":106.701612,"transit":false,"line":5,"station_id":"KDS","station_name":"Kalideres","distance":2548,"is_transit":false},{"i_long":106.723064,"station_name":"Rawa Buaya","line":5,"is_transit":false,"station_id":"RW","time":3,"distance":2504,"transit":false,"i_lat":-6.162758},{"station_name":"Bojongindah","time":4,"station_id":"BOI","transit":false,"i_lat":-6.159876,"line":5,"is_transit":false,"i_long":106.737035,"distance":1152},{"distance":2334,"station_id":"TKO","transit":false,"is_transit":false,"time":2,"i_long":106.756522,"i_lat":-6.1587309999999995,"station_name":"Taman Kota","line":5},{"station_name":"Pesing","transit":false,"line":5,"time":2,"i_lat":-6.161433,"is_transit":false,"i_long":106.771379,"distance":1614,"station_id":"PSG"},{"distance":2036,"station_id":"GGL","is_transit":false,"time":2,"transit":false,"i_lat":-6.162021,"i_long":106.788277,"line":5,"station_name":"Grogol"},{"distance":1700,"i_lat":-6.155215,"line":1,"i_long":106.800832,"transit":true,"station_id":"DU","station_name":"Duri","time":3,"is_transit":true},{"time":8,"station_id":"THB","transit":true,"i_lat":-6.185545,"distance":3632,"station_name":"Tanah Abang","i_long":106.811091,"line":1,"is_transit":true},{"time":6,"i_long":106.79689,"is_transit":false,"line":6,"distance":3191,"station_id":"PLM","station_name":"Palmerah","i_lat":-6.207404,"transit":false},{"i_lat":-6.237242,"line":6,"i_long":106.780334,"time":7,"is_transit":false,"station_id":"KBY","station_name":"Kebayoran","transit":false,"distance":3737},{"line":6,"transit":false,"distance":6218,"is_transit":false,"i_lat":-6.276362,"station_name":"Pondokranji","i_long":106.74273,"time":8,"station_id":"PDJ"},{"time":3,"station_id":"JMU","station_name":"Jurangmangu","i_long":106.728916,"distance":2179,"is_transit":false,"transit":false,"i_lat":-6.288927,"line":6},{"distance":1994,"station_id":"SDM","is_transit":false,"transit":false,"i_lat":-6.296963,"time":4,"station_name":"Sudimara","i_long":106.712277,"line":6},{"time":6,"station_name":"Rawa Buntu","station_id":"RU","i_long":106.675475,"line":6,"is_transit":false,"transit":false,"i_lat":-6.314823,"distance":4566},{"time":4,"distance":2413,"is_transit":false,"transit":false,"station_id":"SRP","i_long":106.66566,"station_name":"Serpong","i_lat":-6.319871,"line":6},{"i_lat":-6.32484,"transit":false,"distance":1784,"station_id":"CSK","line":3,"i_long":106.640411,"is_transit":false,"station_name":"Cisauk","time":4},{"is_transit":false,"transit":false,"distance":2519,"i_lat":-6.329547,"i_long":106.617853,"time":4,"station_id":"CC","station_name":"Cicayur","line":3},{"station_id":"PRP","line":6,"is_transit":false,"transit":false,"i_lat":-6.3441410000000005,"distance":5968,"station_name":"Parung Panjang","time":8,"i_long":106.568863}],[{"distance":0,"is_transit":false,"station_name":"Tangerang","station_id":"TNG","transit":false,"time":0,"i_lat":-6.176583,"i_long":106.632761,"line":5},{"line":5,"is_transit":false,"station_id":"TTI","time":3,"transit":false,"i_long":106.64657,"distance":1547,"station_name":"Tanah Tinggi","i_lat":-6.17331},{"station_id":"BPR","line":5,"i_long":106.665036,"station_name":"Batuceper","distance":2028,"time":3,"transit":false,"i_lat":-6.171811,"is_transit":false},{"is_transit":false,"line":5,"i_long":106.679458,"station_id":"PI","time":3,"distance":1834,"station_name":"Poris","transit":false,"i_lat":-6.169933},{"distance":2548,"transit":false,"is_transit":false,"station_name":"Kalideres","i_lat":-6.166068,"i_long":106.701612,"line":5,"station_id":"KDS","time":3},{"is_transit":false,"station_id":"RW","i_long":106.723064,"distance":2504,"transit":false,"station_name":"Rawa Buaya","time":3,"i_lat":-6.162758,"line":5},{"station_id":"BOI","transit":false,"i_long":106.737035,"time":4,"line":5,"distance":1152,"i_lat":-6.159876,"is_transit":false,"station_name":"Bojongindah"},{"line":5,"is_transit":false,"distance":2334,"station_name":"Taman Kota","transit":false,"station_id":"TKO","i_lat":-6.1587309999999995,"time":2,"i_long":106.756522},{"distance":1614,"i_long":106.771379,"i_lat":-6.161433,"station_id":"PSG","time":2,"transit":false,"station_name":"Pesing","is_transit":false,"line":5},{"line":5,"is_transit":false,"station_name":"Grogol","transit":false,"station_id":"GGL","i_lat":-6.162021,"distance":2036,"i_long":106.788277,"time":2},{"time":3,"i_long":106.800832,"transit":true,"station_name":"Duri","distance":1700,"is_transit":true,"station_id":"DU","i_lat":-6.155215,"line":1},{"station_name":"Angke","i_lat":-6.144674,"line":1,"i_long":106.79867,"distance":1230,"station_id":"AK","time":4,"is_transit":false,"transit":false},{"i_lat":-6.132549,"i_long":106.826365,"distance":4102,"transit":true,"line":4,"station_id":"KPB","is_transit":true,"time":9,"station_name":"Kampung Bandan"},{"station_name":"Jakarta Kota","station_id":"JAKK","transit":true,"distance":1364,"i_long":106.812439,"is_transit":true,"line":2,"i_lat":-6.137569,"time":3},{"station_id":"JAY","line":2,"time":4,"i_lat":-6.141205,"distance":1264,"station_name":"Jayakarta","transit":false,"is_transit":false,"i_long":106.820901},{"station_name":"Manggabesar","line":2,"station_id":"MGB","time":2,"distance":1080,"is_transit":false,"transit":false,"i_lat":-6.149769,"i_long":106.82482},{"time":2,"transit":false,"i_long":106.827103,"is_transit":false,"distance":906,"station_id":"SW","line":2,"station_name":"Sawah Besar","i_lat":-6.160725},{"i_lat":-6.166716,"line":2,"is_transit":false,"station_id":"JUA","distance":1149,"station_name":"Juanda","transit":false,"time":2,"i_long":106.828284},{"transit":false,"i_long":106.832183,"station_id":"GDD","distance":2015,"i_lat":-6.186295,"line":2,"time":4,"is_transit":false,"station_name":"Gondangdia"},{"i_lat":-6.198556,"distance":1750,"station_id":"CKI","line":2,"time":3,"station_name":"Cikini","transit":false,"i_long":106.840169,"is_transit":false},{"i_long":106.84912,"transit":true,"station_name":"Manggarai","i_lat":-6.209883,"distance":1590,"station_id":"MRI","line":2,"time":4,"is_transit":true},{"is_transit":false,"i_lat":-6.202263,"time":4,"station_id":"SUD","transit":false,"i_long":106.822649,"line":1,"station_name":"Sudirman","distance":3186},{"station_id":"SUDB","transit":false,"i_long":106.819881,"time":1,"i_lat":-6.201433,"station_name":"Sudirman Baru","is_transit":false,"distance":280,"line":1},{"station_id":"KAT","distance":471,"i_long":106.816351,"is_transit":false,"i_lat":-6.20132,"station_name":"Karet","time":1,"line":1,"transit":false},{"station_id":"THB","time":5,"transit":true,"station_name":"Tanah Abang","i_long":106.811091,"distance":2029,"is_transit":true,"i_lat":-6.185545,"line":1},{"transit":false,"distance":3191,"i_long":106.79689,"i_lat":-6.207404,"line":6,"station_id":"PLM","is_transit":false,"time":6,"station_name":"Palmerah"},{"time":7,"transit":false,"line":6,"i_lat":-6.237242,"station_name":"Kebayoran","distance":3737,"i_long":106.780334,"station_id":"KBY","is_transit":false},{"i_lat":-6.276362,"station_name":"Pondokranji","line":6,"time":8,"distance":6218,"transit":false,"is_transit":false,"i_long":106.74273,"station_id":"PDJ"},{"station_id":"JMU","station_name":"Jurangmangu","i_long":106.728916,"distance":2179,"time":3,"is_transit":false,"i_lat":-6.288927,"line":6,"transit":false},{"i_lat":-6.296963,"line":6,"station_name":"Sudimara","transit":false,"i_long":106.712277,"time":4,"is_transit":false,"distance":1994,"station_id":"SDM"},{"is_transit":false,"time":6,"i_long":106.675475,"line":6,"i_lat":-6.314823,"distance":4566,"transit":false,"station_name":"Rawa Buntu","station_id":"RU"},{"i_lat":-6.319871,"i_long":106.66566,"distance":2413,"station_name":"Serpong","line":6,"station_id":"SRP","transit":false,"is_transit":false,"time":4},{"is_transit":false,"distance":1784,"i_lat":-6.32484,"time":4,"line":3,"station_name":"Cisauk","i_long":106.640411,"transit":false,"station_id":"CSK"},{"time":4,"i_lat":-6.329547,"line":3,"distance":2519,"i_long":106.617853,"is_transit":false,"station_id":"CC","transit":false,"station_name":"Cicayur"},{"transit":false,"i_long":106.568863,"time":8,"line":6,"is_transit":false,"station_name":"Parung Panjang","distance":5968,"station_id":"PRP","i_lat":-6.3441410000000005}],[{"station_id":"TNG","transit":false,"i_lat":-6.176583,"i_long":106.632761,"is_transit":false,"time":0,"station_name":"Tangerang","line":5,"distance":0},{"station_name":"Tanah Tinggi","is_transit":false,"i_long":106.64657,"line":5,"station_id":"TTI","distance":1547,"transit":false,"i_lat":-6.17331,"time":3},{"station_id":"BPR","distance":2028,"i_long":106.665036,"line":5,"time":3,"is_transit":false,"transit":false,"station_name":"Batuceper","i_lat":-6.171811},{"station_name":"Poris","station_id":"PI","distance":1834,"transit":false,"time":3,"is_transit":false,"i_lat":-6.169933,"i_long":106.679458,"line":5},{"is_transit":false,"line":5,"station_id":"KDS","distance":2548,"transit":false,"i_lat":-6.166068,"i_long":106.701612,"time":3,"station_name":"Kalideres"},{"time":3,"i_lat":-6.162758,"is_transit":false,"station_name":"Rawa Buaya","line":5,"station_id":"RW","distance":2504,"i_long":106.723064,"transit":false},{"station_name":"Bojongindah","transit":false,"time":4,"is_transit":false,"i_lat":-6.159876,"distance":1152,"station_id":"BOI","i_long":106.737035,"line":5},{"is_transit":false,"transit":false,"station_name":"Taman Kota","i_lat":-6.1587309999999995,"time":2,"station_id":"TKO","i_long":106.756522,"distance":2334,"line":5},{"is_transit":false,"transit":false,"i_long":106.771379,"line":5,"station_name":"Pesing","i_lat":-6.161433,"distance":1614,"station_id":"PSG","time":2},{"line":5,"station_id":"GGL","distance":2036,"time":2,"transit":false,"station_name":"Grogol","i_lat":-6.162021,"is_transit":false,"i_long":106.788277},{"time":3,"i_long":106.800832,"distance":1700,"transit":true,"station_name":"Duri","is_transit":true,"station_id":"DU","i_lat":-6.155215,"line":1},{"distance":1230,"is_transit":false,"time":4,"transit":false,"i_long":106.79867,"station_id":"AK","i_lat":-6.144674,"station_name":"Angke","line":1},{"is_transit":true,"i_long":106.826365,"transit":true,"distance":4102,"i_lat":-6.132549,"station_id":"KPB","station_name":"Kampung Bandan","line":4,"time":9},{"i_lat":-6.14505,"transit":false,"station_id":"RJW","line":11,"time":3,"i_long":106.836569,"distance":1444,"station_name":"Rajawali","is_transit":false},{"is_transit":false,"station_id":"KMO","distance":1901,"time":5,"i_long":106.839204,"transit":false,"station_name":"Kemayoran","line":11,"i_lat":-6.161728},{"line":11,"station_id":"PSE","time":4,"station_name":"Pasar Senen","distance":1436,"transit":false,"is_transit":false,"i_lat":-6.174784,"i_long":106.84368},{"time":8,"i_long":106.850107,"distance":1567,"station_id":"GST","line":11,"transit":false,"is_transit":false,"i_lat":-6.185975,"station_name":"Gang Sentiong"},{"distance":973,"i_long":106.855437,"line":11,"station_name":"Kramat","station_id":"KMT","is_transit":false,"time":1,"transit":false,"i_lat":-6.193792},{"time":2,"station_id":"POK","distance":1829,"i_lat":-6.209188,"transit":false,"is_transit":false,"i_long":106.861737,"station_name":"Pondok Jati","line":11},{"line":1,"is_transit":true,"distance":1236,"i_long":106.86807400000001,"station_id":"JNG","time":9,"transit":true,"i_lat":-6.215091,"station_name":"Jatinegara"},{"distance":1377,"i_lat":-6.212485,"time":2,"is_transit":false,"transit":false,"station_id":"MTR","station_name":"Matraman","i_long":106.858896,"line":1},{"distance":1275,"is_transit":false,"i_long":106.84912,"line":2,"time":2,"station_id":"MRI","station_name":"Manggarai","transit":false,"i_lat":-6.209883},{"time":4,"station_name":"Sudirman","is_transit":false,"i_long":106.822649,"i_lat":-6.202263,"transit":false,"station_id":"SUD","line":1,"distance":3186},{"station_name":"Sudirman Baru","station_id":"SUDB","transit":false,"is_transit":false,"distance":280,"i_lat":-6.201433,"line":1,"i_long":106.819881,"time":1},{"distance":471,"i_lat":-6.20132,"i_long":106.816351,"time":1,"station_id":"KAT","line":1,"transit":false,"station_name":"Karet","is_transit":false},{"distance":2029,"i_lat":-6.185545,"i_long":106.811091,"is_transit":true,"time":5,"line":1,"station_id":"THB","station_name":"Tanah Abang","transit":true},{"station_id":"PLM","transit":false,"line":6,"i_long":106.79689,"time":6,"station_name":"Palmerah","distance":3191,"is_transit":false,"i_lat":-6.207404},{"station_name":"Kebayoran","transit":false,"is_transit":false,"i_long":106.780334,"line":6,"station_id":"KBY","distance":3737,"i_lat":-6.237242,"time":7},{"transit":false,"i_lat":-6.276362,"line":6,"time":8,"distance":6218,"station_name":"Pondokranji","is_transit":false,"i_long":106.74273,"station_id":"PDJ"},{"transit":false,"station_name":"Jurangmangu","station_id":"JMU","line":6,"i_long":106.728916,"is_transit":false,"i_lat":-6.288927,"time":3,"distance":2179},{"i_long":106.712277,"station_name":"Sudimara","is_transit":false,"distance":1994,"line":6,"i_lat":-6.296963,"time":4,"station_id":"SDM","transit":false},{"i_long":106.675475,"transit":false,"distance":4566,"i_lat":-6.314823,"station_id":"RU","is_transit":false,"station_name":"Rawa Buntu","time":6,"line":6},{"station_name":"Serpong","transit":false,"line":6,"i_lat":-6.319871,"i_long":106.66566,"station_id":"SRP","is_transit":false,"time":4,"distance":2413},{"distance":1784,"is_transit":false,"i_lat":-6.32484,"station_id":"CSK","i_long":106.640411,"transit":false,"line":3,"time":4,"station_name":"Cisauk"},{"station_id":"CC","time":4,"i_long":106.617853,"line":3,"is_transit":false,"i_lat":-6.329547,"transit":false,"distance":2519,"station_name":"Cicayur"},{"station_name":"Parung Panjang","distance":5968,"transit":false,"is_transit":false,"i_long":106.568863,"line":6,"time":8,"station_id":"PRP","i_lat":-6.3441410000000005}]]}