{"data":[[{"transit":false,"station_name":"Tangerang","time":0,"distance":0,"station_id":"TNG","is_transit":false,"i_lat":-6.176583,"i_long":106.632761,"line":5},{"i_long":106.64657,"line":5,"i_lat":-6.17331,"station_id":"TTI","is_transit":false,"station_name":"Tanah Tinggi","distance":1547,"time":3,"transit":false},{"time":3,"is_transit":false,"line":0,"i_lat":-6.171811,"i_long":106.665036,"station_name":"Batuceper","station_id":"BPR","transit":false,"distance":2028},{"distance":1834,"station_id":"PI","i_lat":-6.169933,"station_name":"Poris","transit":false,"is_transit":false,"time":3,"i_long":106.679458,"line":5},{"station_name":"Kalideres","line":5,"i_lat":-6.166068,"i_long":106.701612,"distance":2548,"is_transit":false,"station_id":"KDS","transit":false,"time":3},{"is_transit":false,"transit":false,"i_lat":-6.162758,"distance":2504,"i_long":106.723064,"line":5,"station_id":"RW","station_name":"Rawa Buaya","time":3},{"transit":false,"station_name":"Bojongindah","i_lat":-6.159876,"time":4,"i_long":106.737035,"station_id":"BOI","is_transit":false,"distance":1152,"line":0},{"is_transit":false,"i_long":106.756522,"station_name":"Taman Kota","station_id":"TKO","i_lat":-6.1587309999999995,"line":5,"distance":2334,"transit":false,"time":2},{"line":5,"time":2,"transit":false,"i_long":106.771379,"distance":1614,"station_id":"PSG","is_transit":false,"station_name":"Pesing","i_lat":-6.161433},{"time":2,"line":5,"station_name":"Grogol","i_long":106.788277,"i_lat":-6.162021,"transit":false,"is_transit":false,"station_id":"GGL","distance":2036},{"distance":1700,"i_lat":-6.155215,"station_id":"DU","i_long":106.800832,"line":1,"is_transit":true,"transit":true,"station_name":"Duri","time":3},{"line":0,"is_transit":false,"transit":false,"station_name":"Angke","distance":1230,"time":4,"i_lat":-6.144674,"station_id":"AK","i_long":106.79867},{"time":9,"transit":true,"is_transit":true,"station_id":"KPB","station_name":"Kampung Bandan","distance":4102,"i_lat":-6.132549,"i_long":106.826365,"line":0},{"i_long":106.836569,"line":11,"is_transit":false,"transit":false,"station_id":"RJW","i_lat":-6.14505,"distance":1444,"station_name":"Rajawali","time":3},{"distance":1901,"line":11,"transit":false,"station_name":"Kemayoran","time":5,"is_transit":false,"station_id":"KMO","i_lat":-6.161728,"i_long":106.839204},{"transit":false,"distance":1436,"station_id":"PSE","i_long":106.84368,"station_name":"Pasar Senen","time":4,"i_lat":-6.174784,"is_transit":false,"line":11},{"is_transit":false,"i_lat":-6.185975,"i_long":106.850107,"line":11,"station_id":"GST","transit":false,"distance":1567,"station_name":"Gang Sentiong","time":8},{"station_name":"Kramat","i_lat":-6.193792,"i_long":106.855437,"line":11,"distance":973,"is_transit":false,"station_id":"KMT","transit":false,"time":1},{"station_name":"Pondok Jati","i_lat":-6.209188,"time":2,"is_transit":false,"distance":1829,"i_long":106.861737,"line":11,"station_id":"POK","transit":false}],[{"line":5,"station_name":"Tangerang","station_id":"TNG","distance":0,"transit":false,"i_lat":-6.176583,"is_transit":false,"time":0,"i_long":106.632761},{"i_lat":-6.17331,"i_long":106.64657,"line":5,"time":3,"distance":1547,"station_name":"Tanah Tinggi","is_transit":false,"transit":false,"station_id":"TTI"},{"transit":false,"distance":2028,"station_name":"Batuceper","station_id":"BPR","i_lat":-6.171811,"i_long":106.665036,"time":3,"line":0,"is_transit":false},{"time":3,"line":5,"i_lat":-6.169933,"i_long":106.679458,"transit":false,"distance":1834,"station_id":"PI","is_transit":false,"station_name":"Poris"},{"transit":false,"is_transit":false,"line":5,"i_lat":-6.166068,"station_name":"Kalideres","station_id":"KDS","i_long":106.701612,"time":3,"distance":2548},{"time":3,"is_transit":false,"distance":2504,"i_lat":-6.162758,"line":5,"station_name":"Rawa Buaya","station_id":"RW","i_long":106.723064,"transit":false},{"distance":1152,"time":4,"i_long":106.737035,"line":0,"transit":false,"i_lat":-6.159876,"station_name":"Bojongindah","is_transit":false,"station_id":"BOI"},{"station_id":"TKO","i_long":106.756522,"transit":false,"time":2,"line":5,"distance":2334,"is_transit":false,"station_name":"Taman Kota","i_lat":-6.1587309999999995},{"transit":false,"time":2,"is_transit":false,"i_long":106.771379,"line":5,"distance":1614,"station_name":"Pesing","station_id":"PSG","i_lat":-6.161433},{"time":2,"i_lat":-6.162021,"station_id":"GGL","distance":2036,"station_name":"Grogol","transit":false,"line":5,"is_transit":false,"i_long":106.788277},{"i_lat":-6.155215,"distance":1700,"line":1,"station_id":"DU","transit":true,"time":3,"station_name":"Duri","i_long":106.800832,"is_transit":true},{"is_transit":true,"i_long":106.811091,"station_id":"THB","station_name":"Tanah Abang","time":8,"line":1,"distance":3632,"transit":false,"i_lat":-6.185545},{"station_id":"KAT","i_long":106.816351,"time":5,"station_name":"Karet","transit":false,"distance":2029,"i_lat":-6.20132,"line":1,"is_transit":false},{"line":1,"is_transit":false,"i_lat":-6.201433,"transit":false,"i_long":106.819881,"distance":471,"time":1,"station_id":"SUDB","station_name":"Sudirman Baru"},{"i_lat":-6.202263,"distance":280,"i_long":106.822649,"line":1,"station_name":"Sudirman","station_id":"SUD","is_transit":false,"time":1,"transit":false},{"is_transit":true,"transit":false,"station_name":"Manggarai","i_long":106.84912,"distance":3186,"line":0,"station_id":"MRI","i_lat":-6.209883,"time":4},{"i_lat":-6.212485,"station_name":"Matraman","time":2,"is_transit":false,"line":1,"station_id":"MTR","transit":false,"i_long":106.858896,"distance":1275},{"station_name":"Jatinegara","is_transit":true,"distance":1377,"transit":true,"i_long":106.86807400000001,"line":0,"i_lat":-6.215091,"station_id":"JNG","time":8},{"i_long":106.861737,"line":11,"is_transit":false,"station_id":"POK","i_lat":-6.209188,"transit":false,"station_name":"Pondok Jati","distance":1236,"time":2}],[{"transit":false,"i_lat":-6.176583,"station_name":"Tangerang","time":0,"station_id":"TNG","line":5,"distance":0,"is_transit":false,"i_long":106.632761},{"is_transit":false,"station_name":"Tanah Tinggi","distance":1547,"i_lat":-6.17331,"station_id":"TTI","transit":false,"line":5,"time":3,"i_long":106.64657},{"station_id":"BPR","distance":2028,"i_long":106.665036,"is_transit":false,"i_lat":-6.171811,"line":0,"time":3,"station_name":"Batuceper","transit":false},{"line":5,"i_long":106.679458,"station_id":"PI","i_lat":-6.169933,"is_transit":false,"distance":1834,"station_name":"Poris","transit":false,"time":3},{"is_transit":false,"i_long":106.701612,"time":3,"transit":false,"i_lat":-6.166068,"line":5,"distance":2548,"station_name":"Kalideres","station_id":"KDS"},{"time":3,"line":5,"station_id":"RW","distance":2504,"i_long":106.723064,"station_name":"Rawa Buaya","transit":false,"is_transit":false,"i_lat":-6.162758},{"is_transit":false,"time":4,"transit":false,"i_lat":-6.159876,"line":0,"distance":1152,"station_name":"Bojongindah","i_long":106.737035,"station_id":"BOI"},{"distance":2334,"i_lat":-6.1587309999999995,"line":5,"is_transit":false,"station_name":"Taman Kota","station_id":"TKO","transit":false,"time":2,"i_long":106.756522},{"line":5,"time":2,"station_id":"PSG","station_name":"Pesing","transit":false,"distance":1614,"is_transit":false,"i_lat":-6.161433,"i_long":106.771379},{"station_name":"Grogol","transit":false,"time":2,"i_lat":-6.162021,"distance":2036,"i_long":106.788277,"is_transit":false,"station_id":"GGL","line":5},{"transit":true,"i_lat":-6.155215,"i_long":106.800832,"line":1,"station_id":"DU","is_transit":true,"distance":1700,"station_name":"Duri","time":3},{"transit":false,"station_id":"AK","station_name":"Angke","i_long":106.79867,"is_transit":false,"distance":1230,"line":0,"time":4,"i_lat":-6.144674},{"i_lat":-6.132549,"time":9,"transit":false,"i_long":106.826365,"station_name":"Kampung Bandan","is_transit":true,"distance":4102,"line":0,"station_id":"KPB"},{"distance":1364,"is_transit":true,"station_name":"Jakarta Kota","i_long":106.812439,"station_id":"JAKK","line":0,"transit":true,"time":3,"i_lat":-6.137569},{"distance":1264,"is_transit":false,"station_name":"Jayakarta","station_id":"JAY","i_lat":-6.141205,"time":4,"i_long":106.820901,"line":7,"transit":false},{"station_id":"MGB","distance":1080,"i_long":106.82482,"time":2,"i_lat":-6.149769,"transit":false,"is_transit":false,"station_name":"Manggabesar","line":2},{"time":2,"i_lat":-6.160725,"station_id":"SW","distance":906,"is_transit":false,"i_long":106.827103,"transit":false,"line":2,"station_name":"Sawah Besar"},{"i_long":106.828284,"station_id":"JUA","line":2,"station_name":"Juanda","distance":1149,"is_transit":false,"transit":false,"time":2,"i_lat":-6.166716},{"is_transit":false,"station_id":"GDD","i_lat":-6.186295,"i_long":106.832183,"line":2,"station_name":"Gondangdia","transit":false,"time":4,"distance":2015},{"distance":1750,"station_id":"CKI","i_lat":-6.198556,"line":0,"is_transit":false,"time":3,"i_long":106.840169,"transit":false,"station_name":"Cikini"},{"transit":true,"station_name":"Manggarai","i_lat":-6.209883,"i_long":106.84912,"time":4,"station_id":"MRI","line":0,"distance":1590,"is_transit":true},{"transit":false,"i_lat":-6.212485,"station_name":"Matraman","i_long":106.858896,"is_transit":false,"time":2,"distance":1275,"line":1,"station_id":"MTR"},{"transit":true,"i_lat":-6.215091,"is_transit":true,"station_id":"JNG","station_name":"Jatinegara","line":0,"distance":1377,"time":8,"i_long":106.86807400000001},{"distance":1236,"is_transit":false,"station_id":"POK","time":2,"i_lat":-6.209188,"transit":false,"line":11,"station_name":"Pondok Jati","i_long":106.861737}],[{"station_name":"Tangerang","line":5,"station_id":"TNG","distance":0,"i_long":106.632761,"is_transit":false,"time":0,"transit":false,"i_lat":-6.176583},{"distance":1547,"i_lat":-6.17331,"time":3,"station_id":"TTI","station_name":"Tanah Tinggi","transit":false,"is_transit":false,"line":5,"i_long":106.64657},{"time":3,"station_name":"Batuceper","transit":false,"station_id":"BPR","distance":2028,"i_lat":-6.171811,"line":0,"i_long":106.665036,"is_transit":false},{"transit":false,"station_id":"PI","distance":1834,"i_lat":-6.169933,"line":5,"i_long":106.679458,"time":3,"is_transit":false,"station_name":"Poris"},{"distance":2548,"is_transit":false,"line":5,"transit":false,"station_id":"KDS","station_name":"Kalideres","time":3,"i_lat":-6.166068,"i_long":106.701612},{"is_transit":false,"time":3,"distance":2504,"station_name":"Rawa Buaya","station_id":"RW","transit":false,"i_long":106.723064,"line":5,"i_lat":-6.162758},{"time":4,"station_id":"BOI","station_name":"Bojongindah","line":0,"distance":1152,"i_long":106.737035,"transit":false,"i_lat":-6.159876,"is_transit":false},{"i_lat":-6.1587309999999995,"i_long":106.756522,"line":5,"station_name":"Taman Kota","time":2,"distance":2334,"is_transit":false,"station_id":"TKO","transit":false},{"time":2,"transit":false,"station_name":"Pesing","station_id":"PSG","line":5,"is_transit":false,"i_lat":-6.161433,"i_long":106.771379,"distance":1614},{"distance":2036,"time":2,"line":5,"i_long":106.788277,"station_id":"GGL","is_transit":false,"station_name":"Grogol","transit":false,"i_lat":-6.162021},{"i_long":106.800832,"station_id":"DU","is_transit":true,"station_name":"Duri","line":1,"time":3,"distance":1700,"i_lat":-6.155215,"transit":true},{"time":8,"i_long":106.811091,"station_name":"Tanah Abang","station_id":"THB","line":1,"distance":3632,"i_lat":-6.185545,"is_transit":true,"transit":false},{"transit":false,"station_name":"Karet","distance":2029,"is_transit":false,"time":5,"i_long":106.816351,"line":1,"i_lat":-6.20132,"station_id":"KAT"},{"is_transit":false,"i_long":106.819881,"transit":false,"time":1,"line":1,"station_id":"SUDB","i_lat":-6.201433,"distance":471,"station_name":"Sudirman Baru"},{"distance":280,"station_name":"Sudirman","is_transit":false,"i_lat":-6.202263,"time":1,"i_long":106.822649,"transit":false,"station_id":"SUD","line":1},{"transit":true,"time":4,"distance":3186,"i_long":106.84912,"line":0,"station_id":"MRI","is_transit":true,"station_name":"Manggarai","i_lat":-6.209883},{"station_id":"CKI","station_name":"Cikini","i_lat":-6.198556,"i_long":106.840169,"is_transit":false,"distance":1590,"transit":false,"time":4,"line":0},{"is_transit":false,"i_lat":-6.186295,"station_name":"Gondangdia","line":2,"i_long":106.832183,"distance":1750,"station_id":"GDD","transit":false,"time":3},{"transit":false,"line":2,"station_name":"Juanda","is_transit":false,"time":4,"i_long":106.828284,"distance":2015,"station_id":"JUA","i_lat":-6.166716},{"time":2,"i_long":106.827103,"is_transit":false,"i_lat":-6.160725,"transit":false,"station_id":"SW","station_name":"Sawah Besar","line":2,"distance":1149},{"time":2,"i_lat":-6.149769,"line":2,"station_id":"MGB","station_name":"Manggabesar","transit":false,"i_long":106.82482,"distance":906,"is_transit":false},{"time":2,"line":7,"transit":false,"distance":1080,"is_transit":false,"station_id":"JAY","i_lat":-6.141205,"station_name":"Jayakarta","i_long":106.820901},{"i_long":106.812439,"line":0,"station_id":"JAKK","i_lat":-6.137569,"transit":true,"station_name":"Jakarta Kota","distance":1264,"time":4,"is_transit":true},{"is_transit":true,"station_name":"Kampung Bandan","i_lat":-6.132549,"line":0,"time":3,"i_long":106.826365,"station_id":"KPB","distance":1364,"transit":true},{"station_id":"RJW","transit":false,"i_long":106.836569,"time":3,"distance":1444,"station_name":"Rajawali","i_lat":-6.14505,"line":11,"is_transit":false},{"i_long":106.839204,"station_name":"Kemayoran","is_transit":false,"line":11,"transit":false,"station_id":"KMO","i_lat":-6.161728,"distance":1901,"time":5},{"station_id":"PSE","time":4,"line":11,"transit":false,"is_transit":false,"station_name":"Pasar Senen","i_long":106.84368,"i_lat":-6.174784,"distance":1436},{"station_id":"GST","is_transit":false,"i_long":106.850107,"line":11,"distance":1567,"time":8,"station_name":"Gang Sentiong","i_lat":-6.185975,"transit":false},{"i_long":106.855437,"transit":false,"station_name":"Kramat","time":1,"i_lat":-6.193792,"line":11,"station_id":"KMT","is_transit":false,"distance":973},{"i_long":106.861737,"station_id":"POK","station_name":"Pondok Jati","distance":1829,"transit":false,"time":2,"i_lat":-6.209188,"line":11,"is_transit":false}]]}