{"data":[[{"distance":0,"station_id":"TNG","station_name":"Tangerang","transit":false,"line":5,"is_transit":false,"i_lat":-6.176583,"i_long":106.632761,"time":0},{"i_lat":-6.17331,"is_transit":false,"station_name":"Tanah Tinggi","time":3,"transit":false,"i_long":106.64657,"line":5,"station_id":"TTI","distance":1547},{"transit":false,"distance":2028,"i_lat":-6.171811,"is_transit":false,"i_long":106.665036,"line":5,"time":3,"station_id":"BPR","station_name":"Batuceper"},{"transit":false,"is_transit":false,"time":3,"i_lat":-6.169933,"i_long":106.679458,"station_id":"PI","distance":1834,"station_name":"Poris","line":5},{"time":3,"transit":false,"distance":2548,"station_id":"KDS","i_lat":-6.166068,"is_transit":false,"line":5,"station_name":"Kalideres","i_long":106.701612},{"i_long":106.723064,"time":3,"is_transit":false,"station_id":"RW","transit":false,"station_name":"Rawa Buaya","distance":2504,"i_lat":-6.162758,"line":5},{"line":5,"station_id":"BOI","is_transit":false,"distance":1152,"i_lat":-6.159876,"time":4,"transit":false,"station_name":"Bojongindah","i_long":106.737035}]]}