{"data":[[{"station_name":"Tangerang","is_transit":false,"distance":0,"transit":false,"station_id":"TNG","time":0,"i_lat":-6.176583,"i_long":106.632761,"line":5},{"i_long":106.64657,"distance":1547,"is_transit":false,"station_name":"Tanah Tinggi","time":3,"line":5,"i_lat":-6.17331,"station_id":"TTI","transit":false},{"time":3,"i_lat":-6.171811,"line":5,"station_name":"Batuceper","station_id":"BPR","distance":2028,"is_transit":false,"i_long":106.665036,"transit":false},{"i_long":106.679458,"station_name":"Poris","time":3,"station_id":"PI","i_lat":-6.169933,"distance":1834,"line":5,"transit":false,"is_transit":false},{"distance":2548,"i_lat":-6.166068,"is_transit":false,"i_long":106.701612,"transit":false,"station_name":"Kalideres","time":3,"station_id":"KDS","line":5},{"transit":false,"time":3,"i_lat":-6.162758,"station_id":"RW","distance":2504,"station_name":"Rawa Buaya","is_transit":false,"i_long":106.723064,"line":5},{"i_lat":-6.159876,"station_id":"BOI","distance":1152,"line":5,"is_transit":false,"time":4,"transit":false,"i_long":106.737035,"station_name":"Bojongindah"},{"station_id":"TKO","is_transit":false,"line":5,"i_long":106.756522,"distance":2334,"transit":false,"time":2,"i_lat":-6.1587309999999995,"station_name":"Taman Kota"},{"i_lat":-6.161433,"is_transit":false,"i_long":106.771379,"station_name":"Pesing","time":2,"distance":1614,"station_id":"PSG","line":5,"transit":false},{"i_lat":-6.162021,"is_transit":false,"station_id":"GGL","station_name":"Grogol","i_long":106.788277,"distance":2036,"line":5,"transit":false,"time":2},{"transit":true,"distance":1700,"station_id":"DU","i_lat":-6.155215,"station_name":"Duri","time":3,"i_long":106.800832,"is_transit":true,"line":1},{"i_long":106.79867,"station_id":"AK","station_name":"Angke","is_transit":false,"time":4,"distance":1230,"i_lat":-6.144674,"line":1,"transit":false}],[{"line":5,"time":0,"station_id":"TNG","is_transit":false,"i_lat":-6.176583,"transit":false,"station_name":"Tangerang","distance":0,"i_long":106.632761},{"station_name":"Tanah Tinggi","distance":1547,"is_transit":false,"i_long":106.64657,"station_id":"TTI","i_lat":-6.17331,"line":5,"time":3,"transit":false},{"line":5,"is_transit":false,"time":3,"i_lat":-6.171811,"i_long":106.665036,"station_id":"BPR","station_name":"Batuceper","distance":2028,"transit":false},{"i_lat":-6.169933,"transit":false,"i_long":106.679458,"line":5,"station_id":"PI","distance":1834,"time":3,"station_name":"Poris","is_transit":false},{"transit":false,"is_transit":false,"station_id":"KDS","station_name":"Kalideres","time":3,"i_long":106.701612,"i_lat":-6.166068,"line":5,"distance":2548},{"station_id":"RW","station_name":"Rawa Buaya","time":3,"transit":false,"is_transit":false,"i_long":106.723064,"i_lat":-6.162758,"distance":2504,"line":5},{"transit":false,"station_id":"BOI","distance":1152,"time":4,"i_lat":-6.159876,"i_long":106.737035,"station_name":"Bojongindah","line":5,"is_transit":false},{"station_id":"TKO","distance":2334,"is_transit":false,"station_name":"Taman Kota","time":2,"i_lat":-6.1587309999999995,"line":5,"i_long":106.756522,"transit":false},{"station_id":"PSG","time":2,"transit":false,"distance":1614,"is_transit":false,"i_lat":-6.161433,"i_long":106.771379,"line":5,"station_name":"Pesing"},{"transit":false,"i_lat":-6.162021,"is_transit":false,"i_long":106.788277,"station_id":"GGL","distance":2036,"time":2,"station_name":"Grogol","line":5},{"i_long":106.800832,"is_transit":true,"transit":true,"time":3,"station_id":"DU","i_lat":-6.155215,"distance":1700,"line":1,"station_name":"Duri"},{"station_id":"THB","station_name":"Tanah Abang","distance":3632,"i_lat":-6.185545,"i_long":106.811091,"line":1,"transit":false,"time":8,"is_transit":false},{"station_name":"Karet","i_long":106.816351,"is_transit":false,"station_id":"KAT","time":5,"i_lat":-6.20132,"line":1,"distance":2029,"transit":false},{"i_lat":-6.201433,"time":1,"station_name":"Sudirman Baru","transit":false,"distance":471,"i_long":106.819881,"is_transit":false,"line":1,"station_id":"SUDB"},{"i_long":106.822649,"i_lat":-6.202263,"transit":false,"station_name":"Sudirman","station_id":"SUD","is_transit":false,"distance":280,"time":1,"line":1},{"i_long":106.84912,"line":2,"transit":true,"time":4,"station_id":"MRI","is_transit":true,"distance":3186,"station_name":"Manggarai","i_lat":-6.209883},{"station_name":"Cikini","i_long":106.840169,"transit":false,"distance":1590,"line":2,"time":4,"is_transit":false,"station_id":"CKI","i_lat":-6.198556},{"line":2,"station_id":"GDD","is_transit":false,"i_lat":-6.186295,"time":3,"transit":false,"station_name":"Gondangdia","i_long":106.832183,"distance":1750},{"station_id":"JUA","distance":2015,"line":2,"i_long":106.828284,"transit":false,"station_name":"Juanda","i_lat":-6.166716,"time":4,"is_transit":false},{"is_transit":false,"time":2,"distance":1149,"transit":false,"station_id":"SW","line":2,"i_lat":-6.160725,"i_long":106.827103,"station_name":"Sawah Besar"},{"i_long":106.82482,"is_transit":false,"distance":906,"line":2,"station_name":"Manggabesar","station_id":"MGB","time":2,"transit":false,"i_lat":-6.149769},{"distance":1080,"station_name":"Jayakarta","i_long":106.820901,"line":2,"transit":false,"time":2,"station_id":"JAY","is_transit":false,"i_lat":-6.141205},{"station_name":"Jakarta Kota","transit":true,"station_id":"JAKK","i_lat":-6.137569,"i_long":106.812439,"distance":1264,"time":4,"is_transit":true,"line":2},{"is_transit":true,"transit":true,"station_name":"Kampung Bandan","distance":1364,"i_long":106.826365,"station_id":"KPB","i_lat":-6.132549,"time":3,"line":4},{"line":1,"station_name":"Angke","i_lat":-6.144674,"station_id":"AK","is_transit":false,"distance":4102,"time":9,"transit":false,"i_long":106.79867}],[{"station_id":"TNG","i_long":106.632761,"is_transit":false,"time":0,"transit":false,"distance":0,"i_lat":-6.176583,"line":5,"station_name":"Tangerang"},{"distance":1547,"line":5,"transit":false,"station_name":"Tanah Tinggi","time":3,"i_long":106.64657,"station_id":"TTI","i_lat":-6.17331,"is_transit":false},{"i_long":106.665036,"is_transit":false,"distance":2028,"i_lat":-6.171811,"line":5,"station_id":"BPR","transit":false,"time":3,"station_name":"Batuceper"},{"station_name":"Poris","transit":false,"i_long":106.679458,"line":5,"is_transit":false,"distance":1834,"i_lat":-6.169933,"time":3,"station_id":"PI"},{"station_id":"KDS","transit":false,"distance":2548,"is_transit":false,"i_lat":-6.166068,"i_long":106.701612,"time":3,"line":5,"station_name":"Kalideres"},{"station_name":"Rawa Buaya","distance":2504,"line":5,"station_id":"RW","is_transit":false,"transit":false,"i_lat":-6.162758,"i_long":106.723064,"time":3},{"i_lat":-6.159876,"line":5,"is_transit":false,"distance":1152,"time":4,"i_long":106.737035,"transit":false,"station_id":"BOI","station_name":"Bojongindah"},{"transit":false,"is_transit":false,"station_name":"Taman Kota","i_lat":-6.1587309999999995,"line":5,"i_long":106.756522,"time":2,"distance":2334,"station_id":"TKO"},{"line":5,"time":2,"distance":1614,"station_id":"PSG","station_name":"Pesing","i_lat":-6.161433,"is_transit":false,"i_long":106.771379,"transit":false},{"line":5,"station_name":"Grogol","is_transit":false,"station_id":"GGL","distance":2036,"time":2,"transit":false,"i_lat":-6.162021,"i_long":106.788277},{"station_id":"DU","i_lat":-6.155215,"distance":1700,"transit":true,"time":3,"is_transit":true,"line":1,"i_long":106.800832,"station_name":"Duri"},{"i_lat":-6.185545,"time":8,"station_id":"THB","i_long":106.811091,"is_transit":false,"distance":3632,"transit":false,"station_name":"Tanah Abang","line":1},{"distance":2029,"station_id":"KAT","i_long":106.816351,"line":1,"time":5,"transit":false,"station_name":"Karet","is_transit":false,"i_lat":-6.20132},{"transit":false,"time":1,"is_transit":false,"station_name":"Sudirman Baru","station_id":"SUDB","i_lat":-6.201433,"i_long":106.819881,"distance":471,"line":1},{"distance":280,"station_id":"SUD","transit":false,"is_transit":false,"i_long":106.822649,"time":1,"station_name":"Sudirman","line":1,"i_lat":-6.202263},{"line":2,"station_name":"Manggarai","time":4,"is_transit":false,"station_id":"MRI","distance":3186,"i_long":106.84912,"transit":false,"i_lat":-6.209883},{"line":1,"distance":1275,"station_name":"Matraman","is_transit":false,"i_lat":-6.212485,"i_long":106.858896,"time":2,"station_id":"MTR","transit":false},{"line":1,"distance":1377,"station_name":"Jatinegara","station_id":"JNG","i_long":106.86807400000001,"transit":true,"is_transit":true,"time":8,"i_lat":-6.215091},{"i_long":106.861737,"line":11,"station_name":"Pondok Jati","station_id":"POK","is_transit":false,"transit":false,"i_lat":-6.209188,"distance":1236,"time":2},{"station_id":"KMT","station_name":"Kramat","line":11,"time":2,"distance":1829,"i_lat":-6.193792,"transit":false,"i_long":106.855437,"is_transit":false},{"i_lat":-6.185975,"i_long":106.850107,"line":11,"transit":false,"station_name":"Gang Sentiong","station_id":"GST","distance":973,"is_transit":false,"time":1},{"i_long":106.84368,"i_lat":-6.174784,"transit":false,"time":8,"station_id":"PSE","distance":1567,"is_transit":false,"line":11,"station_name":"Pasar Senen"},{"time":4,"distance":1436,"station_name":"Kemayoran","line":11,"i_lat":-6.161728,"is_transit":false,"i_long":106.839204,"transit":false,"station_id":"KMO"},{"time":5,"distance":1901,"i_long":106.836569,"is_transit":false,"i_lat":-6.14505,"line":11,"station_name":"Rajawali","station_id":"RJW","transit":false},{"i_lat":-6.132549,"station_name":"Kampung Bandan","is_transit":true,"i_long":106.826365,"transit":true,"line":4,"station_id":"KPB","time":3,"distance":1444},{"distance":4102,"line":1,"transit":false,"i_lat":-6.144674,"station_name":"Angke","time":9,"i_long":106.79867,"is_transit":false,"station_id":"AK"}]]}