{"data":[[{"station_name":"Tangerang","line":5,"transit":false,"i_long":106.632761,"distance":0,"is_transit":false,"time":0,"station_id":"TNG","i_lat":-6.176583},{"station_id":"TTI","i_lat":-6.17331,"is_transit":false,"station_name":"Tanah Tinggi","time":3,"line":5,"distance":1547,"transit":false,"i_long":106.64657},{"i_long":106.665036,"distance":2028,"is_transit":false,"line":0,"station_id":"BPR","time":3,"i_lat":-6.171811,"station_name":"Batuceper","transit":false},{"station_id":"PI","i_long":106.679458,"station_name":"Poris","transit":false,"i_lat":-6.169933,"time":3,"distance":1834,"is_transit":false,"line":5},{"is_transit":false,"station_name":"Kalideres","time":3,"distance":2548,"station_id":"KDS","i_lat":-6.166068,"i_long":106.701612,"transit":false,"line":5},{"i_long":106.723064,"line":5,"distance":2504,"i_lat":-6.162758,"is_transit":false,"time":3,"station_id":"RW","station_name":"Rawa Buaya","transit":false},{"distance":1152,"is_transit":false,"station_id":"BOI","i_lat":-6.159876,"station_name":"Bojongindah","time":4,"i_long":106.737035,"line":0,"transit":false},{"station_name":"Taman Kota","line":5,"transit":false,"station_id":"TKO","distance":2334,"i_long":106.756522,"is_transit":false,"time":2,"i_lat":-6.1587309999999995},{"transit":false,"station_id":"PSG","i_long":106.771379,"station_name":"Pesing","is_transit":false,"i_lat":-6.161433,"time":2,"line":5,"distance":1614},{"station_name":"Grogol","i_long":106.788277,"time":2,"station_id":"GGL","distance":2036,"transit":false,"i_lat":-6.162021,"is_transit":false,"line":5},{"station_name":"Duri","distance":1700,"is_transit":true,"time":3,"transit":true,"station_id":"DU","i_lat":-6.155215,"i_long":106.800832,"line":1},{"i_long":106.811091,"line":1,"station_name":"Tanah Abang","station_id":"THB","is_transit":true,"distance":3632,"time":8,"transit":true,"i_lat":-6.185545},{"i_lat":-6.207404,"distance":3191,"i_long":106.79689,"transit":false,"is_transit":false,"station_name":"Palmerah","station_id":"PLM","line":6,"time":6},{"station_name":"Kebayoran","time":7,"i_lat":-6.237242,"i_long":106.780334,"station_id":"KBY","line":6,"transit":false,"distance":3737,"is_transit":false},{"line":6,"i_long":106.74273,"is_transit":false,"station_name":"Pondokranji","transit":false,"distance":6218,"i_lat":-6.276362,"station_id":"PDJ","time":8},{"i_lat":-6.288927,"station_name":"Jurangmangu","station_id":"JMU","i_long":106.728916,"transit":false,"time":3,"distance":2179,"line":6,"is_transit":false},{"i_long":106.712277,"distance":1994,"time":4,"line":6,"station_id":"SDM","is_transit":false,"station_name":"Sudimara","i_lat":-6.296963,"transit":false},{"line":6,"station_name":"Rawa Buntu","distance":4566,"time":6,"i_long":106.675475,"i_lat":-6.314823,"transit":false,"station_id":"RU","is_transit":false},{"distance":2413,"transit":false,"i_lat":-6.319871,"line":6,"is_transit":false,"i_long":106.66566,"station_id":"SRP","station_name":"Serpong","time":4},{"i_lat":-6.32484,"time":4,"station_name":"Cisauk","distance":1784,"transit":false,"is_transit":false,"line":0,"station_id":"CSK","i_long":106.640411}],[{"transit":false,"station_id":"TNG","station_name":"Tangerang","i_long":106.632761,"time":0,"line":5,"is_transit":false,"distance":0,"i_lat":-6.176583},{"station_id":"TTI","line":5,"station_name":"Tanah Tinggi","distance":1547,"is_transit":false,"time":3,"i_long":106.64657,"transit":false,"i_lat":-6.17331},{"station_name":"Batuceper","distance":2028,"line":0,"time":3,"station_id":"BPR","transit":false,"i_long":106.665036,"is_transit":false,"i_lat":-6.171811},{"station_name":"Poris","is_transit":false,"i_long":106.679458,"i_lat":-6.169933,"line":5,"distance":1834,"transit":false,"time":3,"station_id":"PI"},{"station_id":"KDS","i_long":106.701612,"time":3,"distance":2548,"transit":false,"i_lat":-6.166068,"line":5,"is_transit":false,"station_name":"Kalideres"},{"distance":2504,"line":5,"station_name":"Rawa Buaya","transit":false,"is_transit":false,"i_lat":-6.162758,"time":3,"station_id":"RW","i_long":106.723064},{"i_long":106.737035,"station_id":"BOI","is_transit":false,"distance":1152,"line":0,"time":4,"transit":false,"i_lat":-6.159876,"station_name":"Bojongindah"},{"i_long":106.756522,"transit":false,"station_name":"Taman Kota","station_id":"TKO","line":5,"distance":2334,"i_lat":-6.1587309999999995,"is_transit":false,"time":2},{"line":5,"i_lat":-6.161433,"station_name":"Pesing","time":2,"distance":1614,"station_id":"PSG","is_transit":false,"i_long":106.771379,"transit":false},{"time":2,"distance":2036,"station_name":"Grogol","is_transit":false,"i_long":106.788277,"line":5,"station_id":"GGL","i_lat":-6.162021,"transit":false},{"time":3,"station_id":"DU","line":1,"transit":true,"distance":1700,"i_long":106.800832,"station_name":"Duri","is_transit":true,"i_lat":-6.155215},{"line":0,"station_id":"AK","transit":false,"i_long":106.79867,"time":4,"is_transit":false,"distance":1230,"station_name":"Angke","i_lat":-6.144674},{"i_long":106.826365,"time":9,"line":0,"station_id":"KPB","is_transit":true,"i_lat":-6.132549,"transit":false,"station_name":"Kampung Bandan","distance":4102},{"is_transit":true,"station_name":"Jakarta Kota","i_lat":-6.137569,"transit":true,"time":3,"i_long":106.812439,"line":0,"distance":1364,"station_id":"JAKK"},{"transit":false,"station_id":"JAY","station_name":"Jayakarta","is_transit":false,"i_lat":-6.141205,"i_long":106.820901,"distance":1264,"time":4,"line":7},{"line":2,"i_lat":-6.149769,"station_name":"Manggabesar","is_transit":false,"station_id":"MGB","time":2,"distance":1080,"transit":false,"i_long":106.82482},{"is_transit":false,"transit":false,"time":2,"station_id":"SW","i_long":106.827103,"line":2,"i_lat":-6.160725,"station_name":"Sawah Besar","distance":906},{"station_id":"JUA","distance":1149,"line":2,"i_long":106.828284,"i_lat":-6.166716,"transit":false,"station_name":"Juanda","is_transit":false,"time":2},{"distance":2015,"time":4,"i_lat":-6.186295,"line":2,"station_id":"GDD","is_transit":false,"i_long":106.832183,"transit":false,"station_name":"Gondangdia"},{"station_name":"Cikini","time":3,"station_id":"CKI","i_lat":-6.198556,"line":0,"i_long":106.840169,"transit":false,"distance":1750,"is_transit":false},{"line":0,"station_id":"MRI","station_name":"Manggarai","is_transit":true,"transit":true,"i_long":106.84912,"distance":1590,"time":4,"i_lat":-6.209883},{"transit":false,"line":1,"station_name":"Sudirman","time":4,"station_id":"SUD","is_transit":false,"distance":3186,"i_lat":-6.202263,"i_long":106.822649},{"is_transit":false,"i_long":106.819881,"distance":280,"time":1,"transit":false,"station_id":"SUDB","line":1,"station_name":"Sudirman Baru","i_lat":-6.201433},{"station_id":"KAT","distance":471,"transit":false,"line":1,"is_transit":false,"time":1,"station_name":"Karet","i_long":106.816351,"i_lat":-6.20132},{"line":1,"station_name":"Tanah Abang","i_lat":-6.185545,"time":5,"transit":true,"is_transit":true,"distance":2029,"station_id":"THB","i_long":106.811091},{"distance":3191,"i_lat":-6.207404,"i_long":106.79689,"time":6,"is_transit":false,"line":6,"station_name":"Palmerah","transit":false,"station_id":"PLM"},{"time":7,"station_name":"Kebayoran","transit":false,"station_id":"KBY","distance":3737,"is_transit":false,"line":6,"i_lat":-6.237242,"i_long":106.780334},{"station_name":"Pondokranji","distance":6218,"transit":false,"i_lat":-6.276362,"time":8,"i_long":106.74273,"line":6,"is_transit":false,"station_id":"PDJ"},{"station_id":"JMU","station_name":"Jurangmangu","i_long":106.728916,"i_lat":-6.288927,"line":6,"distance":2179,"is_transit":false,"transit":false,"time":3},{"i_lat":-6.296963,"is_transit":false,"time":4,"i_long":106.712277,"station_name":"Sudimara","transit":false,"station_id":"SDM","line":6,"distance":1994},{"i_long":106.675475,"distance":4566,"station_id":"RU","is_transit":false,"line":6,"station_name":"Rawa Buntu","i_lat":-6.314823,"transit":false,"time":6},{"distance":2413,"station_name":"Serpong","time":4,"i_lat":-6.319871,"transit":false,"station_id":"SRP","i_long":106.66566,"line":6,"is_transit":false},{"station_name":"Cisauk","distance":1784,"time":4,"is_transit":false,"transit":false,"station_id":"CSK","i_lat":-6.32484,"i_long":106.640411,"line":0}],[{"distance":0,"time":0,"transit":false,"is_transit":false,"i_lat":-6.176583,"i_long":106.632761,"station_id":"TNG","line":5,"station_name":"Tangerang"},{"distance":1547,"time":3,"line":5,"i_long":106.64657,"i_lat":-6.17331,"station_name":"Tanah Tinggi","transit":false,"station_id":"TTI","is_transit":false},{"i_lat":-6.171811,"i_long":106.665036,"line":0,"station_name":"Batuceper","distance":2028,"transit":false,"is_transit":false,"time":3,"station_id":"BPR"},{"station_name":"Poris","is_transit":false,"transit":false,"time":3,"distance":1834,"i_lat":-6.169933,"line":5,"i_long":106.679458,"station_id":"PI"},{"station_name":"Kalideres","i_lat":-6.166068,"time":3,"transit":false,"is_transit":false,"distance":2548,"station_id":"KDS","i_long":106.701612,"line":5},{"i_lat":-6.162758,"transit":false,"i_long":106.723064,"distance":2504,"station_id":"RW","line":5,"station_name":"Rawa Buaya","is_transit":false,"time":3},{"distance":1152,"time":4,"line":0,"transit":false,"is_transit":false,"i_long":106.737035,"station_id":"BOI","station_name":"Bojongindah","i_lat":-6.159876},{"station_name":"Taman Kota","station_id":"TKO","is_transit":false,"i_lat":-6.1587309999999995,"line":5,"time":2,"distance":2334,"i_long":106.756522,"transit":false},{"station_id":"PSG","i_long":106.771379,"line":5,"time":2,"distance":1614,"i_lat":-6.161433,"transit":false,"is_transit":false,"station_name":"Pesing"},{"i_lat":-6.162021,"distance":2036,"transit":false,"line":5,"i_long":106.788277,"station_name":"Grogol","is_transit":false,"time":2,"station_id":"GGL"},{"is_transit":true,"station_name":"Duri","transit":true,"line":1,"distance":1700,"i_lat":-6.155215,"i_long":106.800832,"station_id":"DU","time":3},{"is_transit":false,"i_lat":-6.144674,"i_long":106.79867,"distance":1230,"line":0,"station_id":"AK","station_name":"Angke","transit":false,"time":4},{"i_long":106.826365,"station_name":"Kampung Bandan","line":0,"is_transit":true,"distance":4102,"i_lat":-6.132549,"transit":true,"time":9,"station_id":"KPB"},{"station_name":"Rajawali","line":11,"is_transit":false,"time":3,"i_long":106.836569,"i_lat":-6.14505,"distance":1444,"transit":false,"station_id":"RJW"},{"i_lat":-6.161728,"line":11,"distance":1901,"transit":false,"station_id":"KMO","time":5,"i_long":106.839204,"station_name":"Kemayoran","is_transit":false},{"distance":1436,"is_transit":false,"i_lat":-6.174784,"station_name":"Pasar Senen","transit":false,"i_long":106.84368,"time":4,"line":11,"station_id":"PSE"},{"time":8,"station_id":"GST","transit":false,"station_name":"Gang Sentiong","i_long":106.850107,"i_lat":-6.185975,"is_transit":false,"distance":1567,"line":11},{"station_name":"Kramat","time":1,"distance":973,"transit":false,"i_lat":-6.193792,"i_long":106.855437,"is_transit":false,"line":11,"station_id":"KMT"},{"i_lat":-6.209188,"is_transit":false,"time":2,"station_name":"Pondok Jati","i_long":106.861737,"line":11,"distance":1829,"transit":false,"station_id":"POK"},{"transit":true,"station_name":"Jatinegara","i_lat":-6.215091,"i_long":106.86807400000001,"is_transit":true,"time":9,"station_id":"JNG","distance":1236,"line":0},{"station_name":"Matraman","i_lat":-6.212485,"i_long":106.858896,"line":1,"time":2,"station_id":"MTR","is_transit":false,"distance":1377,"transit":false},{"station_name":"Manggarai","distance":1275,"time":2,"i_long":106.84912,"is_transit":true,"line":0,"station_id":"MRI","i_lat":-6.209883,"transit":false},{"is_transit":false,"station_id":"SUD","i_lat":-6.202263,"line":1,"i_long":106.822649,"time":4,"station_name":"Sudirman","distance":3186,"transit":false},{"i_lat":-6.201433,"distance":280,"station_id":"SUDB","transit":false,"time":1,"station_name":"Sudirman Baru","is_transit":false,"i_long":106.819881,"line":1},{"time":1,"i_long":106.816351,"transit":false,"distance":471,"is_transit":false,"station_name":"Karet","line":1,"i_lat":-6.20132,"station_id":"KAT"},{"i_long":106.811091,"is_transit":true,"station_name":"Tanah Abang","station_id":"THB","time":5,"transit":true,"line":1,"distance":2029,"i_lat":-6.185545},{"station_name":"Palmerah","transit":false,"line":6,"i_lat":-6.207404,"distance":3191,"is_transit":false,"time":6,"station_id":"PLM","i_long":106.79689},{"time":7,"is_transit":false,"station_id":"KBY","i_lat":-6.237242,"line":6,"station_name":"Kebayoran","distance":3737,"transit":false,"i_long":106.780334},{"i_long":106.74273,"transit":false,"is_transit":false,"line":6,"i_lat":-6.276362,"time":8,"station_name":"Pondokranji","distance":6218,"station_id":"PDJ"},{"station_name":"Jurangmangu","transit":false,"is_transit":false,"line":6,"station_id":"JMU","time":3,"distance":2179,"i_lat":-6.288927,"i_long":106.728916},{"i_long":106.712277,"i_lat":-6.296963,"distance":1994,"transit":false,"time":4,"station_name":"Sudimara","is_transit":false,"station_id":"SDM","line":6},{"i_long":106.675475,"station_name":"Rawa Buntu","time":6,"distance":4566,"station_id":"RU","is_transit":false,"line":6,"i_lat":-6.314823,"transit":false},{"time":4,"transit":false,"i_lat":-6.319871,"i_long":106.66566,"station_name":"Serpong","is_transit":false,"distance":2413,"line":6,"station_id":"SRP"},{"i_lat":-6.32484,"station_id":"CSK","line":0,"time":4,"distance":1784,"transit":false,"station_name":"Cisauk","is_transit":false,"i_long":106.640411}]]}