{"data":[[{"station_id":"TNG","i_long":106.632761,"is_transit":false,"distance":0,"transit":false,"time":0,"line":5,"station_name":"Tangerang","i_lat":-6.176583},{"time":3,"distance":1547,"station_id":"TTI","station_name":"Tanah Tinggi","i_lat":-6.17331,"line":5,"is_transit":false,"transit":false,"i_long":106.64657},{"station_name":"Batuceper","is_transit":false,"i_long":106.665036,"station_id":"BPR","transit":false,"time":3,"line":0,"distance":2028,"i_lat":-6.171811},{"transit":false,"is_transit":false,"station_id":"PI","station_name":"Poris","distance":1834,"time":3,"line":5,"i_lat":-6.169933,"i_long":106.679458},{"i_long":106.701612,"time":3,"station_name":"Kalideres","i_lat":-6.166068,"distance":2548,"line":5,"station_id":"KDS","transit":false,"is_transit":false},{"transit":false,"time":3,"station_name":"Rawa Buaya","i_long":106.723064,"line":5,"is_transit":false,"i_lat":-6.162758,"station_id":"RW","distance":2504},{"station_id":"BOI","station_name":"Bojongindah","transit":false,"distance":1152,"i_long":106.737035,"line":0,"is_transit":false,"time":4,"i_lat":-6.159876},{"transit":false,"i_lat":-6.1587309999999995,"i_long":106.756522,"is_transit":false,"station_id":"TKO","time":2,"distance":2334,"station_name":"Taman Kota","line":5},{"distance":1614,"time":2,"i_lat":-6.161433,"transit":false,"i_long":106.771379,"is_transit":false,"station_name":"Pesing","station_id":"PSG","line":5},{"is_transit":false,"time":2,"i_lat":-6.162021,"station_id":"GGL","station_name":"Grogol","transit":false,"i_long":106.788277,"line":5,"distance":2036},{"time":3,"is_transit":true,"transit":true,"distance":1700,"i_lat":-6.155215,"station_name":"Duri","line":1,"i_long":106.800832,"station_id":"DU"},{"is_transit":false,"transit":false,"station_id":"AK","i_lat":-6.144674,"i_long":106.79867,"station_name":"Angke","line":0,"distance":1230,"time":4},{"distance":4102,"station_name":"Kampung Bandan","time":9,"i_lat":-6.132549,"line":0,"station_id":"KPB","transit":false,"i_long":106.826365,"is_transit":true},{"distance":1364,"is_transit":true,"station_id":"JAKK","station_name":"Jakarta Kota","line":0,"transit":true,"i_long":106.812439,"time":3,"i_lat":-6.137569},{"i_lat":-6.141205,"distance":1264,"station_id":"JAY","station_name":"Jayakarta","transit":false,"time":4,"i_long":106.820901,"line":7,"is_transit":false}],[{"time":0,"i_long":106.632761,"station_id":"TNG","is_transit":false,"transit":false,"station_name":"Tangerang","distance":0,"i_lat":-6.176583,"line":5},{"distance":1547,"station_name":"Tanah Tinggi","time":3,"i_lat":-6.17331,"line":5,"is_transit":false,"transit":false,"station_id":"TTI","i_long":106.64657},{"distance":2028,"transit":false,"i_lat":-6.171811,"station_name":"Batuceper","time":3,"is_transit":false,"station_id":"BPR","line":0,"i_long":106.665036},{"station_id":"PI","distance":1834,"is_transit":false,"station_name":"Poris","time":3,"i_long":106.679458,"line":5,"transit":false,"i_lat":-6.169933},{"i_long":106.701612,"line":5,"distance":2548,"station_name":"Kalideres","is_transit":false,"i_lat":-6.166068,"station_id":"KDS","transit":false,"time":3},{"station_id":"RW","station_name":"Rawa Buaya","distance":2504,"transit":false,"line":5,"is_transit":false,"time":3,"i_lat":-6.162758,"i_long":106.723064},{"station_id":"BOI","i_lat":-6.159876,"distance":1152,"i_long":106.737035,"station_name":"Bojongindah","transit":false,"line":0,"time":4,"is_transit":false},{"i_lat":-6.1587309999999995,"is_transit":false,"transit":false,"time":2,"i_long":106.756522,"station_name":"Taman Kota","station_id":"TKO","distance":2334,"line":5},{"transit":false,"line":5,"is_transit":false,"i_long":106.771379,"distance":1614,"station_id":"PSG","time":2,"i_lat":-6.161433,"station_name":"Pesing"},{"is_transit":false,"station_name":"Grogol","line":5,"i_long":106.788277,"station_id":"GGL","time":2,"i_lat":-6.162021,"transit":false,"distance":2036},{"distance":1700,"transit":true,"line":1,"is_transit":true,"time":3,"i_lat":-6.155215,"i_long":106.800832,"station_name":"Duri","station_id":"DU"},{"time":8,"distance":3632,"is_transit":true,"station_id":"THB","line":1,"i_lat":-6.185545,"transit":false,"i_long":106.811091,"station_name":"Tanah Abang"},{"station_name":"Karet","i_long":106.816351,"station_id":"KAT","line":1,"transit":false,"distance":2029,"time":5,"i_lat":-6.20132,"is_transit":false},{"i_long":106.819881,"time":1,"i_lat":-6.201433,"line":1,"is_transit":false,"distance":471,"station_id":"SUDB","station_name":"Sudirman Baru","transit":false},{"time":1,"i_long":106.822649,"station_id":"SUD","transit":false,"is_transit":false,"i_lat":-6.202263,"line":1,"distance":280,"station_name":"Sudirman"},{"i_lat":-6.209883,"time":4,"line":0,"distance":3186,"is_transit":true,"transit":true,"i_long":106.84912,"station_id":"MRI","station_name":"Manggarai"},{"station_id":"CKI","transit":false,"i_long":106.840169,"line":0,"i_lat":-6.198556,"distance":1590,"station_name":"Cikini","time":4,"is_transit":false},{"station_id":"GDD","distance":1750,"time":3,"station_name":"Gondangdia","i_lat":-6.186295,"is_transit":false,"line":2,"transit":false,"i_long":106.832183},{"station_name":"Juanda","is_transit":false,"transit":false,"station_id":"JUA","time":4,"i_long":106.828284,"line":2,"distance":2015,"i_lat":-6.166716},{"is_transit":false,"station_name":"Sawah Besar","time":2,"i_lat":-6.160725,"transit":false,"line":2,"station_id":"SW","i_long":106.827103,"distance":1149},{"time":2,"i_long":106.82482,"is_transit":false,"transit":false,"line":2,"station_name":"Manggabesar","i_lat":-6.149769,"distance":906,"station_id":"MGB"},{"distance":1080,"line":7,"station_id":"JAY","i_long":106.820901,"time":2,"station_name":"Jayakarta","transit":false,"is_transit":false,"i_lat":-6.141205}],[{"i_long":106.632761,"line":5,"station_id":"TNG","station_name":"Tangerang","time":0,"distance":0,"is_transit":false,"transit":false,"i_lat":-6.176583},{"is_transit":false,"i_lat":-6.17331,"line":5,"station_id":"TTI","distance":1547,"time":3,"i_long":106.64657,"transit":false,"station_name":"Tanah Tinggi"},{"distance":2028,"time":3,"station_id":"BPR","station_name":"Batuceper","i_lat":-6.171811,"i_long":106.665036,"transit":false,"line":0,"is_transit":false},{"station_id":"PI","i_lat":-6.169933,"transit":false,"line":5,"distance":1834,"i_long":106.679458,"is_transit":false,"station_name":"Poris","time":3},{"time":3,"i_long":106.701612,"i_lat":-6.166068,"station_name":"Kalideres","distance":2548,"transit":false,"line":5,"is_transit":false,"station_id":"KDS"},{"time":3,"i_lat":-6.162758,"line":5,"station_name":"Rawa Buaya","distance":2504,"is_transit":false,"station_id":"RW","i_long":106.723064,"transit":false},{"station_name":"Bojongindah","transit":false,"station_id":"BOI","time":4,"line":0,"is_transit":false,"i_lat":-6.159876,"distance":1152,"i_long":106.737035},{"station_name":"Taman Kota","time":2,"distance":2334,"i_long":106.756522,"is_transit":false,"station_id":"TKO","i_lat":-6.1587309999999995,"transit":false,"line":5},{"line":5,"distance":1614,"i_lat":-6.161433,"is_transit":false,"station_name":"Pesing","time":2,"station_id":"PSG","i_long":106.771379,"transit":false},{"time":2,"is_transit":false,"station_name":"Grogol","i_lat":-6.162021,"transit":false,"i_long":106.788277,"line":5,"distance":2036,"station_id":"GGL"},{"time":3,"transit":true,"is_transit":true,"line":1,"i_lat":-6.155215,"distance":1700,"station_id":"DU","i_long":106.800832,"station_name":"Duri"},{"transit":false,"distance":3632,"i_long":106.811091,"i_lat":-6.185545,"line":1,"time":8,"station_id":"THB","station_name":"Tanah Abang","is_transit":true},{"station_id":"KAT","distance":2029,"is_transit":false,"time":5,"i_lat":-6.20132,"station_name":"Karet","line":1,"i_long":106.816351,"transit":false},{"distance":471,"station_name":"Sudirman Baru","station_id":"SUDB","transit":false,"i_long":106.819881,"time":1,"line":1,"i_lat":-6.201433,"is_transit":false},{"time":1,"i_lat":-6.202263,"is_transit":false,"station_name":"Sudirman","distance":280,"transit":false,"i_long":106.822649,"line":1,"station_id":"SUD"},{"station_name":"Manggarai","is_transit":true,"transit":false,"time":4,"line":0,"i_long":106.84912,"station_id":"MRI","i_lat":-6.209883,"distance":3186},{"time":2,"station_name":"Matraman","is_transit":false,"transit":false,"distance":1275,"i_long":106.858896,"i_lat":-6.212485,"line":1,"station_id":"MTR"},{"transit":true,"i_lat":-6.215091,"i_long":106.86807400000001,"line":0,"station_name":"Jatinegara","time":8,"is_transit":true,"distance":1377,"station_id":"JNG"},{"distance":1236,"station_id":"POK","transit":false,"i_long":106.861737,"is_transit":false,"station_name":"Pondok Jati","line":11,"time":2,"i_lat":-6.209188},{"line":11,"is_transit":false,"station_name":"Kramat","distance":1829,"i_long":106.855437,"transit":false,"station_id":"KMT","time":2,"i_lat":-6.193792},{"i_lat":-6.185975,"i_long":106.850107,"transit":false,"station_id":"GST","time":1,"station_name":"Gang Sentiong","distance":973,"is_transit":false,"line":11},{"transit":false,"station_id":"PSE","station_name":"Pasar Senen","i_lat":-6.174784,"time":8,"line":11,"distance":1567,"is_transit":false,"i_long":106.84368},{"i_lat":-6.161728,"transit":false,"time":4,"i_long":106.839204,"distance":1436,"station_id":"KMO","station_name":"Kemayoran","line":11,"is_transit":false},{"station_name":"Rajawali","distance":1901,"i_lat":-6.14505,"i_long":106.836569,"is_transit":false,"station_id":"RJW","transit":false,"line":11,"time":5},{"is_transit":true,"i_lat":-6.132549,"distance":1444,"transit":true,"station_id":"KPB","station_name":"Kampung Bandan","time":3,"i_long":106.826365,"line":0},{"line":0,"distance":1364,"is_transit":true,"i_lat":-6.137569,"transit":true,"time":3,"i_long":106.812439,"station_name":"Jakarta Kota","station_id":"JAKK"},{"transit":false,"i_lat":-6.141205,"time":4,"i_long":106.820901,"station_id":"JAY","station_name":"Jayakarta","distance":1264,"line":7,"is_transit":false}],[{"is_transit":false,"time":0,"distance":0,"i_lat":-6.176583,"transit":false,"i_long":106.632761,"station_name":"Tangerang","station_id":"TNG","line":5},{"distance":1547,"i_lat":-6.17331,"i_long":106.64657,"line":5,"is_transit":false,"station_id":"TTI","station_name":"Tanah Tinggi","time":3,"transit":false},{"time":3,"i_long":106.665036,"distance":2028,"station_id":"BPR","station_name":"Batuceper","line":0,"i_lat":-6.171811,"transit":false,"is_transit":false},{"station_id":"PI","line":5,"transit":false,"time":3,"i_lat":-6.169933,"is_transit":false,"distance":1834,"station_name":"Poris","i_long":106.679458},{"i_long":106.701612,"is_transit":false,"distance":2548,"station_id":"KDS","station_name":"Kalideres","line":5,"transit":false,"time":3,"i_lat":-6.166068},{"is_transit":false,"line":5,"i_lat":-6.162758,"distance":2504,"transit":false,"time":3,"station_name":"Rawa Buaya","station_id":"RW","i_long":106.723064},{"distance":1152,"i_lat":-6.159876,"i_long":106.737035,"station_id":"BOI","is_transit":false,"line":0,"time":4,"station_name":"Bojongindah","transit":false},{"distance":2334,"time":2,"station_id":"TKO","station_name":"Taman Kota","i_long":106.756522,"line":5,"transit":false,"is_transit":false,"i_lat":-6.1587309999999995},{"distance":1614,"line":5,"transit":false,"i_lat":-6.161433,"i_long":106.771379,"is_transit":false,"time":2,"station_name":"Pesing","station_id":"PSG"},{"time":2,"line":5,"transit":false,"station_id":"GGL","is_transit":false,"i_lat":-6.162021,"i_long":106.788277,"distance":2036,"station_name":"Grogol"},{"distance":1700,"is_transit":true,"station_name":"Duri","station_id":"DU","line":1,"i_lat":-6.155215,"time":3,"i_long":106.800832,"transit":true},{"time":4,"i_lat":-6.144674,"i_long":106.79867,"distance":1230,"station_id":"AK","station_name":"Angke","is_transit":false,"transit":false,"line":0},{"distance":4102,"is_transit":true,"station_id":"KPB","transit":true,"time":9,"i_long":106.826365,"station_name":"Kampung Bandan","line":0,"i_lat":-6.132549},{"is_transit":false,"i_long":106.836569,"transit":false,"station_id":"RJW","station_name":"Rajawali","distance":1444,"time":3,"i_lat":-6.14505,"line":11},{"transit":false,"station_id":"KMO","is_transit":false,"station_name":"Kemayoran","i_long":106.839204,"i_lat":-6.161728,"time":5,"distance":1901,"line":11},{"time":4,"station_name":"Pasar Senen","distance":1436,"station_id":"PSE","i_lat":-6.174784,"line":11,"transit":false,"i_long":106.84368,"is_transit":false},{"line":11,"station_id":"GST","distance":1567,"station_name":"Gang Sentiong","transit":false,"i_lat":-6.185975,"is_transit":false,"i_long":106.850107,"time":8},{"transit":false,"i_long":106.855437,"line":11,"is_transit":false,"distance":973,"station_name":"Kramat","station_id":"KMT","time":1,"i_lat":-6.193792},{"time":2,"i_long":106.861737,"line":11,"distance":1829,"station_name":"Pondok Jati","transit":false,"station_id":"POK","is_transit":false,"i_lat":-6.209188},{"station_name":"Jatinegara","station_id":"JNG","line":0,"distance":1236,"is_transit":true,"time":9,"i_lat":-6.215091,"i_long":106.86807400000001,"transit":true},{"transit":false,"line":1,"time":2,"distance":1377,"is_transit":false,"station_name":"Matraman","station_id":"MTR","i_lat":-6.212485,"i_long":106.858896},{"station_name":"Manggarai","transit":true,"station_id":"MRI","is_transit":true,"time":2,"i_lat":-6.209883,"distance":1275,"i_long":106.84912,"line":0},{"station_name":"Cikini","transit":false,"line":0,"i_lat":-6.198556,"time":4,"i_long":106.840169,"station_id":"CKI","distance":1590,"is_transit":false},{"distance":1750,"station_name":"Gondangdia","station_id":"GDD","i_long":106.832183,"is_transit":false,"transit":false,"time":3,"i_lat":-6.186295,"line":2},{"i_lat":-6.166716,"transit":false,"is_transit":false,"time":4,"distance":2015,"station_name":"Juanda","station_id":"JUA","line":2,"i_long":106.828284},{"distance":1149,"transit":false,"i_lat":-6.160725,"line":2,"station_id":"SW","i_long":106.827103,"is_transit":false,"station_name":"Sawah Besar","time":2},{"distance":906,"i_lat":-6.149769,"line":2,"station_name":"Manggabesar","station_id":"MGB","i_long":106.82482,"time":2,"transit":false,"is_transit":false},{"station_id":"JAY","transit":false,"is_transit":false,"i_lat":-6.141205,"i_long":106.820901,"distance":1080,"station_name":"Jayakarta","line":7,"time":2}]]}