{"data":[[{"i_lat":-6.176583,"line":5,"transit":false,"station_id":"TNG","is_transit":false,"distance":0,"station_name":"Tangerang","time":0,"i_long":106.632761},{"transit":false,"station_id":"TTI","i_lat":-6.17331,"station_name":"Tanah Tinggi","i_long":106.64657,"is_transit":false,"time":3,"line":5,"distance":1547},{"line":5,"i_lat":-6.171811,"station_id":"BPR","transit":false,"distance":2028,"is_transit":false,"station_name":"Batuceper","time":3,"i_long":106.665036},{"distance":1834,"line":5,"is_transit":false,"i_long":106.679458,"station_name":"Poris","station_id":"PI","i_lat":-6.169933,"transit":false,"time":3},{"station_id":"KDS","transit":false,"is_transit":false,"time":3,"i_long":106.701612,"distance":2548,"line":5,"station_name":"Kalideres","i_lat":-6.166068},{"transit":false,"i_long":106.723064,"distance":2504,"line":5,"is_transit":false,"station_name":"Rawa Buaya","time":3,"i_lat":-6.162758,"station_id":"RW"},{"time":4,"transit":false,"station_id":"BOI","i_long":106.737035,"distance":1152,"is_transit":false,"i_lat":-6.159876,"station_name":"Bojongindah","line":5},{"line":5,"time":2,"i_long":106.756522,"transit":false,"station_id":"TKO","is_transit":false,"i_lat":-6.1587309999999995,"distance":2334,"station_name":"Taman Kota"},{"time":2,"i_lat":-6.161433,"is_transit":false,"transit":false,"line":5,"i_long":106.771379,"distance":1614,"station_name":"Pesing","station_id":"PSG"},{"station_name":"Grogol","transit":false,"distance":2036,"line":5,"time":2,"i_lat":-6.162021,"station_id":"GRG","is_transit":false,"i_long":106.788277},{"i_lat":-6.155215,"line":1,"station_id":"DU","i_long":106.800832,"transit":true,"time":3,"station_name":"Duri","distance":1700,"is_transit":true},{"i_lat":-6.185545,"transit":false,"station_id":"THB","distance":3632,"i_long":106.811091,"station_name":"Tanah Abang","line":1,"is_transit":false,"time":8},{"station_id":"KAT","i_lat":-6.20132,"time":5,"line":1,"distance":2029,"is_transit":false,"transit":false,"station_name":"Karet","i_long":106.816351},{"i_lat":-6.201433,"distance":471,"station_id":"SUDB","time":1,"i_long":106.819881,"line":1,"station_name":"Sudirman Baru","transit":false,"is_transit":false},{"station_id":"SUD","transit":false,"station_name":"Sudirman","is_transit":false,"time":1,"i_lat":-6.202263,"i_long":106.822649,"line":1,"distance":280},{"station_name":"Manggarai","transit":false,"station_id":"MRI","line":2,"time":4,"i_lat":-6.209883,"is_transit":false,"distance":3186,"i_long":106.84912},{"i_long":106.858896,"station_id":"MTR","time":2,"distance":1275,"station_name":"Matraman","is_transit":false,"line":1,"transit":false,"i_lat":-6.212485},{"i_long":106.86807400000001,"transit":false,"is_transit":false,"distance":1377,"station_id":"JNG","station_name":"Jatinegara","time":8,"line":1,"i_lat":-6.215091},{"distance":3395,"time":3,"station_id":"KLD","station_name":"Klender","transit":false,"i_lat":-6.2135,"line":1,"is_transit":false,"i_long":106.899548},{"is_transit":false,"i_long":106.922662,"station_name":"Buaran","distance":3100,"i_lat":-6.215568,"transit":false,"line":1,"time":2,"station_id":"BUA"},{"is_transit":false,"distance":1305,"station_id":"KLDB","time":1,"i_long":106.939679,"transit":false,"line":1,"station_name":"Klenderbaru","i_lat":-6.217455},{"time":8,"station_name":"Cakung","transit":false,"i_lat":-6.219053,"i_long":106.951283,"station_id":"CUK","is_transit":false,"distance":1385,"line":1}],[{"line":5,"time":0,"is_transit":false,"station_name":"Tangerang","transit":false,"distance":0,"i_lat":-6.176583,"station_id":"TNG","i_long":106.632761},{"time":3,"is_transit":false,"station_id":"TTI","line":5,"station_name":"Tanah Tinggi","transit":false,"distance":1547,"i_lat":-6.17331,"i_long":106.64657},{"transit":false,"station_id":"BPR","line":5,"distance":2028,"i_lat":-6.171811,"time":3,"station_name":"Batuceper","is_transit":false,"i_long":106.665036},{"i_long":106.679458,"is_transit":false,"station_id":"PI","time":3,"station_name":"Poris","i_lat":-6.169933,"line":5,"transit":false,"distance":1834},{"i_long":106.701612,"station_name":"Kalideres","is_transit":false,"line":5,"i_lat":-6.166068,"transit":false,"station_id":"KDS","distance":2548,"time":3},{"i_long":106.723064,"transit":false,"station_id":"RW","time":3,"is_transit":false,"i_lat":-6.162758,"line":5,"distance":2504,"station_name":"Rawa Buaya"},{"distance":1152,"station_name":"Bojongindah","transit":false,"is_transit":false,"i_lat":-6.159876,"line":5,"time":4,"station_id":"BOI","i_long":106.737035},{"transit":false,"station_name":"Taman Kota","time":2,"station_id":"TKO","is_transit":false,"i_lat":-6.1587309999999995,"i_long":106.756522,"distance":2334,"line":5},{"station_id":"PSG","line":5,"is_transit":false,"distance":1614,"time":2,"station_name":"Pesing","transit":false,"i_lat":-6.161433,"i_long":106.771379},{"transit":false,"i_long":106.788277,"distance":2036,"i_lat":-6.162021,"station_name":"Grogol","station_id":"GRG","time":2,"is_transit":false,"line":5},{"station_id":"DU","transit":true,"i_lat":-6.155215,"i_long":106.800832,"line":1,"distance":1700,"is_transit":true,"station_name":"Duri","time":3},{"time":4,"station_name":"Angke","is_transit":false,"i_long":106.79867,"i_lat":-6.144674,"station_id":"AK","distance":1230,"transit":false,"line":1},{"distance":4102,"line":4,"is_transit":true,"time":9,"transit":true,"i_lat":-6.132549,"i_long":106.826365,"station_id":"KPB","station_name":"Kampung Bandan"},{"station_id":"RJW","transit":false,"i_long":106.836569,"time":3,"distance":1444,"station_name":"Rajawali","i_lat":-6.14505,"is_transit":false,"line":11},{"i_long":106.839204,"i_lat":-6.161728,"transit":false,"line":11,"station_id":"KMO","station_name":"Kemayoran","time":5,"distance":1901,"is_transit":false},{"time":4,"station_name":"Pasar Senen","transit":false,"line":11,"station_id":"PSE","i_lat":-6.174784,"is_transit":false,"distance":1436,"i_long":106.84368},{"i_lat":-6.185975,"transit":false,"line":11,"station_id":"GST","time":8,"is_transit":false,"i_long":106.850107,"station_name":"Gang Sentiong","distance":1567},{"station_id":"KMT","is_transit":false,"time":1,"distance":973,"line":11,"i_lat":-6.193792,"station_name":"Kramat","transit":false,"i_long":106.855437},{"time":2,"station_id":"POK","transit":false,"line":11,"station_name":"Pondok Jati","i_lat":-6.209188,"distance":1829,"i_long":106.861737,"is_transit":false},{"line":1,"i_lat":-6.215091,"transit":true,"station_id":"JNG","i_long":106.86807400000001,"time":9,"is_transit":true,"station_name":"Jatinegara","distance":1236},{"transit":false,"station_name":"Klender","i_lat":-6.2135,"line":1,"time":3,"station_id":"KLD","i_long":106.899548,"distance":3395,"is_transit":false},{"time":2,"station_id":"BUA","station_name":"Buaran","is_transit":false,"i_lat":-6.215568,"i_long":106.922662,"line":1,"transit":false,"distance":3100},{"station_name":"Klenderbaru","transit":false,"time":1,"station_id":"KLDB","is_transit":false,"i_long":106.939679,"line":1,"i_lat":-6.217455,"distance":1305},{"time":8,"station_id":"CUK","is_transit":false,"distance":1385,"station_name":"Cakung","line":1,"transit":false,"i_long":106.951283,"i_lat":-6.219053}],[{"transit":false,"station_name":"Tangerang","station_id":"TNG","is_transit":false,"distance":0,"i_lat":-6.176583,"time":0,"i_long":106.632761,"line":5},{"i_long":106.64657,"station_id":"TTI","time":3,"station_name":"Tanah Tinggi","is_transit":false,"line":5,"i_lat":-6.17331,"transit":false,"distance":1547},{"i_lat":-6.171811,"i_long":106.665036,"station_name":"Batuceper","time":3,"station_id":"BPR","is_transit":false,"distance":2028,"line":5,"transit":false},{"station_id":"PI","line":5,"station_name":"Poris","i_lat":-6.169933,"i_long":106.679458,"time":3,"transit":false,"distance":1834,"is_transit":false},{"time":3,"line":5,"station_name":"Kalideres","transit":false,"is_transit":false,"i_lat":-6.166068,"distance":2548,"station_id":"KDS","i_long":106.701612},{"i_long":106.723064,"transit":false,"station_id":"RW","distance":2504,"line":5,"station_name":"Rawa Buaya","time":3,"is_transit":false,"i_lat":-6.162758},{"i_long":106.737035,"time":4,"i_lat":-6.159876,"station_name":"Bojongindah","line":5,"transit":false,"station_id":"BOI","is_transit":false,"distance":1152},{"is_transit":false,"i_lat":-6.1587309999999995,"station_id":"TKO","i_long":106.756522,"line":5,"time":2,"station_name":"Taman Kota","transit":false,"distance":2334},{"line":5,"distance":1614,"time":2,"is_transit":false,"station_id":"PSG","transit":false,"i_long":106.771379,"station_name":"Pesing","i_lat":-6.161433},{"line":5,"transit":false,"distance":2036,"time":2,"i_long":106.788277,"is_transit":false,"station_id":"GRG","station_name":"Grogol","i_lat":-6.162021},{"transit":true,"line":1,"is_transit":true,"i_long":106.800832,"station_id":"DU","i_lat":-6.155215,"distance":1700,"time":3,"station_name":"Duri"},{"station_id":"AK","is_transit":false,"station_name":"Angke","distance":1230,"transit":false,"i_lat":-6.144674,"i_long":106.79867,"line":1,"time":4},{"is_transit":true,"distance":4102,"line":4,"station_name":"Kampung Bandan","i_long":106.826365,"time":9,"transit":true,"i_lat":-6.132549,"station_id":"KPB"},{"is_transit":true,"transit":true,"i_long":106.812439,"station_id":"JAKK","time":3,"i_lat":-6.137569,"distance":1364,"line":2,"station_name":"Jakarta Kota"},{"distance":1264,"station_name":"Jayakarta","is_transit":false,"i_long":106.820901,"station_id":"JAY","transit":false,"i_lat":-6.141205,"time":4,"line":2},{"i_long":106.82482,"line":2,"station_id":"MGB","distance":1080,"station_name":"Manggabesar","transit":false,"time":2,"is_transit":false,"i_lat":-6.149769},{"station_name":"Sawah Besar","transit":false,"distance":906,"i_lat":-6.160725,"i_long":106.827103,"time":2,"station_id":"SW","is_transit":false,"line":2},{"station_name":"Juanda","i_lat":-6.166716,"station_id":"JUA","is_transit":false,"i_long":106.828284,"time":2,"transit":false,"distance":1149,"line":2},{"distance":2015,"line":2,"i_long":106.832183,"i_lat":-6.186295,"transit":false,"station_id":"GDD","time":4,"station_name":"Gondangdia","is_transit":false},{"station_name":"Cikini","is_transit":false,"transit":false,"i_long":106.840169,"station_id":"CKI","distance":1750,"time":3,"i_lat":-6.198556,"line":2},{"time":4,"line":2,"station_name":"Manggarai","station_id":"MRI","is_transit":true,"distance":1590,"transit":true,"i_long":106.84912,"i_lat":-6.209883},{"transit":false,"distance":1275,"line":1,"time":2,"i_lat":-6.212485,"station_id":"MTR","is_transit":false,"station_name":"Matraman","i_long":106.858896},{"station_name":"Jatinegara","distance":1377,"time":8,"station_id":"JNG","i_long":106.86807400000001,"transit":false,"is_transit":false,"line":1,"i_lat":-6.215091},{"distance":3395,"i_lat":-6.2135,"time":3,"station_id":"KLD","station_name":"Klender","transit":false,"is_transit":false,"i_long":106.899548,"line":1},{"station_id":"BUA","station_name":"Buaran","i_lat":-6.215568,"transit":false,"distance":3100,"i_long":106.922662,"is_transit":false,"line":1,"time":2},{"transit":false,"station_name":"Klenderbaru","i_lat":-6.217455,"time":1,"i_long":106.939679,"station_id":"KLDB","distance":1305,"line":1,"is_transit":false},{"i_lat":-6.219053,"time":8,"station_name":"Cakung","is_transit":false,"i_long":106.951283,"line":1,"transit":false,"station_id":"CUK","distance":1385}],[{"station_name":"Tangerang","is_transit":false,"distance":0,"i_lat":-6.176583,"transit":false,"i_long":106.632761,"line":5,"time":0,"station_id":"TNG"},{"station_id":"TTI","distance":1547,"i_lat":-6.17331,"time":3,"station_name":"Tanah Tinggi","transit":false,"is_transit":false,"line":5,"i_long":106.64657},{"time":3,"transit":false,"is_transit":false,"i_long":106.665036,"line":5,"station_name":"Batuceper","distance":2028,"station_id":"BPR","i_lat":-6.171811},{"station_id":"PI","time":3,"transit":false,"line":5,"station_name":"Poris","distance":1834,"i_long":106.679458,"is_transit":false,"i_lat":-6.169933},{"distance":2548,"station_name":"Kalideres","transit":false,"time":3,"is_transit":false,"i_long":106.701612,"line":5,"i_lat":-6.166068,"station_id":"KDS"},{"transit":false,"line":5,"is_transit":false,"time":3,"distance":2504,"station_id":"RW","i_lat":-6.162758,"i_long":106.723064,"station_name":"Rawa Buaya"},{"transit":false,"i_long":106.737035,"time":4,"line":5,"is_transit":false,"i_lat":-6.159876,"station_id":"BOI","distance":1152,"station_name":"Bojongindah"},{"time":2,"transit":false,"line":5,"is_transit":false,"i_long":106.756522,"i_lat":-6.1587309999999995,"station_name":"Taman Kota","station_id":"TKO","distance":2334},{"station_id":"PSG","line":5,"is_transit":false,"time":2,"distance":1614,"station_name":"Pesing","i_long":106.771379,"transit":false,"i_lat":-6.161433},{"time":2,"station_id":"GRG","station_name":"Grogol","i_long":106.788277,"is_transit":false,"line":5,"distance":2036,"i_lat":-6.162021,"transit":false},{"i_long":106.800832,"station_name":"Duri","is_transit":true,"line":1,"distance":1700,"i_lat":-6.155215,"station_id":"DU","time":3,"transit":true},{"station_name":"Tanah Abang","transit":false,"i_lat":-6.185545,"i_long":106.811091,"line":1,"station_id":"THB","is_transit":false,"time":8,"distance":3632},{"is_transit":false,"time":5,"distance":2029,"transit":false,"i_lat":-6.20132,"station_name":"Karet","i_long":106.816351,"station_id":"KAT","line":1},{"distance":471,"i_long":106.819881,"is_transit":false,"time":1,"station_id":"SUDB","transit":false,"i_lat":-6.201433,"line":1,"station_name":"Sudirman Baru"},{"is_transit":false,"time":1,"station_id":"SUD","station_name":"Sudirman","line":1,"transit":false,"i_lat":-6.202263,"distance":280,"i_long":106.822649},{"distance":3186,"line":2,"transit":true,"station_id":"MRI","is_transit":true,"i_lat":-6.209883,"time":4,"station_name":"Manggarai","i_long":106.84912},{"station_name":"Cikini","i_lat":-6.198556,"i_long":106.840169,"station_id":"CKI","line":2,"time":4,"is_transit":false,"distance":1590,"transit":false},{"distance":1750,"i_lat":-6.186295,"transit":false,"time":3,"i_long":106.832183,"line":2,"station_id":"GDD","is_transit":false,"station_name":"Gondangdia"},{"distance":2015,"i_lat":-6.166716,"transit":false,"line":2,"time":4,"station_id":"JUA","is_transit":false,"i_long":106.828284,"station_name":"Juanda"},{"i_lat":-6.160725,"transit":false,"distance":1149,"station_id":"SW","station_name":"Sawah Besar","is_transit":false,"line":2,"time":2,"i_long":106.827103},{"distance":906,"i_long":106.82482,"time":2,"transit":false,"is_transit":false,"station_id":"MGB","i_lat":-6.149769,"station_name":"Manggabesar","line":2},{"transit":false,"time":2,"i_lat":-6.141205,"station_id":"JAY","station_name":"Jayakarta","distance":1080,"is_transit":false,"i_long":106.820901,"line":2},{"time":4,"is_transit":true,"i_long":106.812439,"distance":1264,"line":2,"station_id":"JAKK","station_name":"Jakarta Kota","transit":true,"i_lat":-6.137569},{"time":3,"transit":true,"i_long":106.826365,"station_id":"KPB","i_lat":-6.132549,"distance":1364,"station_name":"Kampung Bandan","is_transit":true,"line":4},{"i_long":106.836569,"i_lat":-6.14505,"station_id":"RJW","is_transit":false,"distance":1444,"time":3,"station_name":"Rajawali","transit":false,"line":11},{"station_name":"Kemayoran","transit":false,"time":5,"station_id":"KMO","distance":1901,"i_long":106.839204,"is_transit":false,"i_lat":-6.161728,"line":11},{"transit":false,"station_id":"PSE","line":11,"station_name":"Pasar Senen","is_transit":false,"i_lat":-6.174784,"i_long":106.84368,"distance":1436,"time":4},{"line":11,"station_id":"GST","station_name":"Gang Sentiong","transit":false,"time":8,"is_transit":false,"distance":1567,"i_long":106.850107,"i_lat":-6.185975},{"station_id":"KMT","i_lat":-6.193792,"distance":973,"time":1,"station_name":"Kramat","is_transit":false,"line":11,"transit":false,"i_long":106.855437},{"is_transit":false,"transit":false,"time":2,"distance":1829,"station_id":"POK","station_name":"Pondok Jati","i_lat":-6.209188,"i_long":106.861737,"line":11},{"station_name":"Jatinegara","distance":1236,"i_long":106.86807400000001,"line":1,"station_id":"JNG","time":9,"i_lat":-6.215091,"transit":true,"is_transit":true},{"station_name":"Klender","transit":false,"is_transit":false,"distance":3395,"time":3,"line":1,"station_id":"KLD","i_long":106.899548,"i_lat":-6.2135},{"station_name":"Buaran","i_lat":-6.215568,"time":2,"transit":false,"distance":3100,"station_id":"BUA","i_long":106.922662,"line":1,"is_transit":false},{"is_transit":false,"time":1,"i_long":106.939679,"station_id":"KLDB","transit":false,"line":1,"i_lat":-6.217455,"distance":1305,"station_name":"Klenderbaru"},{"line":1,"transit":false,"is_transit":false,"station_name":"Cakung","distance":1385,"station_id":"CUK","i_long":106.951283,"time":8,"i_lat":-6.219053}]]}