{"data":[[{"is_transit":false,"station_name":"Tangerang","time":0,"distance":0,"transit":false,"i_long":106.632761,"line":5,"station_id":"TNG","i_lat":-6.176583},{"station_id":"TTI","is_transit":false,"i_long":106.64657,"time":3,"distance":1547,"transit":false,"station_name":"Tanah Tinggi","line":5,"i_lat":-6.17331},{"station_name":"Batuceper","transit":false,"is_transit":false,"line":5,"station_id":"BPR","time":3,"distance":2028,"i_lat":-6.171811,"i_long":106.665036},{"distance":1834,"is_transit":false,"transit":false,"line":5,"i_long":106.679458,"i_lat":-6.169933,"station_name":"Poris","station_id":"PI","time":3},{"station_name":"Kalideres","time":3,"is_transit":false,"i_lat":-6.166068,"i_long":106.701612,"station_id":"KDS","transit":false,"distance":2548,"line":5},{"transit":false,"station_id":"RW","is_transit":false,"i_long":106.723064,"line":5,"time":3,"station_name":"Rawa Buaya","distance":2504,"i_lat":-6.162758},{"i_long":106.737035,"i_lat":-6.159876,"distance":1152,"is_transit":false,"station_name":"Bojongindah","time":4,"transit":false,"station_id":"BOI","line":5}]]}