{"data":[[{"station_name":"Tangerang","station_id":"TNG","is_transit":false,"line":5,"time":0,"distance":0,"i_lat":-6.176583,"transit":false,"i_long":106.632761},{"station_name":"Tanah Tinggi","time":3,"is_transit":false,"transit":false,"i_lat":-6.17331,"station_id":"TTI","distance":1547,"i_long":106.64657,"line":5},{"station_id":"BPR","transit":false,"i_lat":-6.171811,"distance":2028,"line":5,"is_transit":false,"station_name":"Batuceper","i_long":106.665036,"time":3},{"i_lat":-6.169933,"line":5,"time":3,"station_id":"PI","station_name":"Poris","is_transit":false,"distance":1834,"transit":false,"i_long":106.679458},{"is_transit":false,"time":3,"station_id":"KDS","transit":false,"i_long":106.701612,"line":5,"distance":2548,"station_name":"Kalideres","i_lat":-6.166068},{"i_long":106.723064,"transit":false,"line":5,"is_transit":false,"station_id":"RW","i_lat":-6.162758,"distance":2504,"time":3,"station_name":"Rawa Buaya"},{"line":5,"station_id":"BOI","distance":1152,"station_name":"Bojongindah","i_lat":-6.159876,"time":4,"is_transit":false,"i_long":106.737035,"transit":false}]]}