{"data":[[{"line":5,"station_id":"TNG","i_long":106.632761,"station_name":"Tangerang","is_transit":false,"distance":0,"transit":false,"time":0,"i_lat":-6.176583},{"distance":1547,"i_lat":-6.17331,"station_id":"TTI","is_transit":false,"transit":false,"line":5,"station_name":"Tanah Tinggi","time":3,"i_long":106.64657},{"transit":false,"distance":2028,"time":3,"is_transit":false,"i_long":106.665036,"station_id":"BPR","i_lat":-6.171811,"station_name":"Batuceper","line":5},{"is_transit":false,"i_lat":-6.169933,"station_name":"Poris","station_id":"PI","line":5,"transit":false,"distance":1834,"i_long":106.679458,"time":3},{"transit":false,"i_lat":-6.166068,"line":5,"time":3,"is_transit":false,"station_name":"Kalideres","distance":2548,"i_long":106.701612,"station_id":"KDS"},{"station_id":"RW","station_name":"Rawa Buaya","transit":false,"i_long":106.723064,"is_transit":false,"i_lat":-6.162758,"time":3,"line":5,"distance":2504},{"time":4,"station_id":"BOI","distance":1152,"i_lat":-6.159876,"station_name":"Bojongindah","is_transit":false,"transit":false,"line":5,"i_long":106.737035},{"line":5,"station_name":"Taman Kota","station_id":"TKO","i_long":106.756522,"i_lat":-6.1587309999999995,"time":2,"distance":2334,"transit":false,"is_transit":false},{"distance":1614,"is_transit":false,"i_lat":-6.161433,"i_long":106.771379,"transit":false,"station_id":"PSG","station_name":"Pesing","time":2,"line":5},{"transit":false,"i_lat":-6.162021,"station_name":"Grogol","station_id":"GGL","is_transit":false,"distance":2036,"time":2,"i_long":106.788277,"line":5},{"time":3,"station_id":"DU","i_long":106.800832,"i_lat":-6.155215,"is_transit":true,"transit":true,"station_name":"Duri","line":1,"distance":1700},{"i_lat":-6.185545,"i_long":106.811091,"time":8,"transit":false,"distance":3632,"station_id":"THB","line":1,"is_transit":false,"station_name":"Tanah Abang"},{"time":5,"transit":false,"station_name":"Karet","i_long":106.816351,"distance":2029,"i_lat":-6.20132,"line":1,"station_id":"KAT","is_transit":false},{"line":1,"i_lat":-6.201433,"station_id":"SUDB","is_transit":false,"transit":false,"distance":471,"i_long":106.819881,"time":1,"station_name":"Sudirman Baru"},{"distance":280,"i_long":106.822649,"transit":false,"is_transit":false,"time":1,"station_name":"Sudirman","station_id":"SUD","line":1,"i_lat":-6.202263},{"time":4,"distance":3186,"station_id":"MRI","station_name":"Manggarai","i_lat":-6.209883,"transit":true,"i_long":106.84912,"line":2,"is_transit":true},{"i_lat":-6.226659,"transit":false,"station_id":"TEB","time":4,"distance":2610,"i_long":106.857948,"station_name":"Tebet","line":2,"is_transit":false},{"transit":false,"distance":1230,"is_transit":false,"time":2,"i_lat":-6.242512,"i_long":106.856607,"line":2,"station_id":"CW","station_name":"Cawang"},{"station_name":"Duren Kalibata","distance":1546,"is_transit":false,"i_lat":-6.255332,"time":3,"transit":false,"i_long":106.85449,"line":2,"station_id":"DRN"},{"i_long":106.851577,"station_id":"PSMB","is_transit":false,"distance":824,"time":2,"i_lat":-6.263214,"transit":false,"line":2,"station_name":"Pasar Minggu Baru"},{"station_name":"Pasar Minggu","transit":false,"i_lat":-6.2842400000000005,"i_long":106.843999,"line":2,"time":2,"station_id":"PSM","distance":2380,"is_transit":false},{"distance":2820,"time":4,"station_id":"TNT","i_lat":-6.3080680000000005,"station_name":"Tanjung Barat","line":2,"i_long":106.838896,"is_transit":false,"transit":false},{"distance":2671,"station_id":"LNA","station_name":"Lenteng Agung","i_lat":-6.330363,"transit":false,"time":3,"is_transit":false,"i_long":106.832616,"line":2},{"time":2,"station_id":"UP","i_lat":-6.339291,"i_long":106.834175,"is_transit":false,"line":2,"transit":false,"distance":1029,"station_name":"Univ. Pancasila"},{"distance":2264,"transit":false,"time":3,"station_id":"UI","line":2,"i_lat":-6.360749,"station_name":"Univ. Indonesia","i_long":106.831474,"is_transit":false},{"line":2,"transit":false,"time":2,"station_id":"POC","i_long":106.831114,"distance":1109,"i_lat":-6.369073,"station_name":"Pondok Cina","is_transit":false},{"station_name":"Depokbaru","line":2,"time":4,"i_long":106.819451,"station_id":"DPB","distance":2727,"i_lat":-6.391065,"is_transit":false,"transit":false},{"distance":1584,"is_transit":false,"station_name":"Depok","station_id":"DP","line":2,"time":3,"i_long":106.816926,"transit":false,"i_lat":-6.405256},{"distance":5084,"i_long":106.800298,"line":2,"time":6,"i_lat":-6.448811,"station_name":"Citayam","transit":false,"is_transit":false,"station_id":"CTA"},{"station_name":"Bojonggede","i_lat":-6.493243,"line":2,"i_long":106.792719,"time":5,"station_id":"BJD","is_transit":false,"transit":false,"distance":5197}],[{"i_long":106.632761,"is_transit":false,"i_lat":-6.176583,"time":0,"transit":false,"station_id":"TNG","line":5,"distance":0,"station_name":"Tangerang"},{"station_id":"TTI","station_name":"Tanah Tinggi","i_long":106.64657,"distance":1547,"is_transit":false,"line":5,"time":3,"transit":false,"i_lat":-6.17331},{"i_lat":-6.171811,"is_transit":false,"transit":false,"station_id":"BPR","line":5,"distance":2028,"station_name":"Batuceper","time":3,"i_long":106.665036},{"time":3,"i_lat":-6.169933,"transit":false,"station_id":"PI","line":5,"station_name":"Poris","i_long":106.679458,"is_transit":false,"distance":1834},{"line":5,"station_id":"KDS","station_name":"Kalideres","i_lat":-6.166068,"is_transit":false,"i_long":106.701612,"transit":false,"distance":2548,"time":3},{"line":5,"transit":false,"i_long":106.723064,"is_transit":false,"station_name":"Rawa Buaya","station_id":"RW","i_lat":-6.162758,"time":3,"distance":2504},{"i_long":106.737035,"station_name":"Bojongindah","transit":false,"i_lat":-6.159876,"time":4,"line":5,"is_transit":false,"distance":1152,"station_id":"BOI"},{"time":2,"i_lat":-6.1587309999999995,"distance":2334,"i_long":106.756522,"is_transit":false,"station_name":"Taman Kota","transit":false,"station_id":"TKO","line":5},{"i_long":106.771379,"i_lat":-6.161433,"distance":1614,"is_transit":false,"station_name":"Pesing","transit":false,"time":2,"station_id":"PSG","line":5},{"distance":2036,"transit":false,"i_long":106.788277,"line":5,"time":2,"station_id":"GGL","i_lat":-6.162021,"is_transit":false,"station_name":"Grogol"},{"distance":1700,"transit":true,"i_lat":-6.155215,"time":3,"line":1,"is_transit":true,"station_id":"DU","i_long":106.800832,"station_name":"Duri"},{"station_id":"AK","station_name":"Angke","transit":false,"i_lat":-6.144674,"line":1,"time":4,"i_long":106.79867,"is_transit":false,"distance":1230},{"distance":4102,"is_transit":true,"transit":true,"station_id":"KPB","line":4,"i_lat":-6.132549,"i_long":106.826365,"station_name":"Kampung Bandan","time":9},{"station_id":"JAKK","is_transit":true,"i_long":106.812439,"line":2,"station_name":"Jakarta Kota","i_lat":-6.137569,"distance":1364,"time":3,"transit":true},{"i_long":106.820901,"distance":1264,"station_name":"Jayakarta","station_id":"JAY","line":2,"time":4,"i_lat":-6.141205,"transit":false,"is_transit":false},{"distance":1080,"line":2,"station_name":"Manggabesar","transit":false,"time":2,"is_transit":false,"station_id":"MGB","i_lat":-6.149769,"i_long":106.82482},{"time":2,"station_id":"SW","i_long":106.827103,"line":2,"station_name":"Sawah Besar","is_transit":false,"i_lat":-6.160725,"transit":false,"distance":906},{"distance":1149,"station_name":"Juanda","station_id":"JUA","is_transit":false,"transit":false,"i_lat":-6.166716,"i_long":106.828284,"line":2,"time":2},{"transit":false,"is_transit":false,"i_long":106.832183,"line":2,"station_id":"GDD","time":4,"station_name":"Gondangdia","i_lat":-6.186295,"distance":2015},{"distance":1750,"transit":false,"time":3,"is_transit":false,"line":2,"i_long":106.840169,"i_lat":-6.198556,"station_id":"CKI","station_name":"Cikini"},{"station_name":"Manggarai","i_lat":-6.209883,"transit":false,"is_transit":false,"distance":1590,"station_id":"MRI","line":2,"i_long":106.84912,"time":4},{"time":4,"transit":false,"station_name":"Tebet","is_transit":false,"station_id":"TEB","line":2,"distance":2610,"i_lat":-6.226659,"i_long":106.857948},{"is_transit":false,"time":2,"transit":false,"line":2,"station_name":"Cawang","i_lat":-6.242512,"i_long":106.856607,"distance":1230,"station_id":"CW"},{"time":3,"line":2,"is_transit":false,"station_id":"DRN","station_name":"Duren Kalibata","transit":false,"i_lat":-6.255332,"distance":1546,"i_long":106.85449},{"station_name":"Pasar Minggu Baru","i_lat":-6.263214,"i_long":106.851577,"time":2,"station_id":"PSMB","distance":824,"is_transit":false,"transit":false,"line":2},{"time":2,"station_name":"Pasar Minggu","line":2,"is_transit":false,"i_lat":-6.2842400000000005,"transit":false,"i_long":106.843999,"station_id":"PSM","distance":2380},{"station_id":"TNT","i_long":106.838896,"station_name":"Tanjung Barat","line":2,"time":4,"distance":2820,"is_transit":false,"i_lat":-6.3080680000000005,"transit":false},{"i_lat":-6.330363,"time":3,"i_long":106.832616,"station_name":"Lenteng Agung","transit":false,"line":2,"station_id":"LNA","is_transit":false,"distance":2671},{"i_lat":-6.339291,"transit":false,"station_id":"UP","is_transit":false,"line":2,"distance":1029,"time":2,"station_name":"Univ. Pancasila","i_long":106.834175},{"distance":2264,"station_id":"UI","is_transit":false,"transit":false,"time":3,"line":2,"station_name":"Univ. Indonesia","i_lat":-6.360749,"i_long":106.831474},{"transit":false,"line":2,"station_id":"POC","is_transit":false,"time":2,"i_long":106.831114,"distance":1109,"station_name":"Pondok Cina","i_lat":-6.369073},{"time":4,"i_lat":-6.391065,"station_name":"Depokbaru","is_transit":false,"station_id":"DPB","distance":2727,"i_long":106.819451,"line":2,"transit":false},{"station_id":"DP","i_long":106.816926,"time":3,"is_transit":false,"distance":1584,"i_lat":-6.405256,"station_name":"Depok","line":2,"transit":false},{"distance":5084,"is_transit":false,"transit":false,"station_id":"CTA","i_long":106.800298,"i_lat":-6.448811,"station_name":"Citayam","time":6,"line":2},{"transit":false,"station_id":"BJD","distance":5197,"is_transit":false,"station_name":"Bojonggede","i_long":106.792719,"i_lat":-6.493243,"line":2,"time":5}],[{"line":5,"station_name":"Tangerang","station_id":"TNG","is_transit":false,"i_lat":-6.176583,"transit":false,"time":0,"i_long":106.632761,"distance":0},{"distance":1547,"station_name":"Tanah Tinggi","i_long":106.64657,"station_id":"TTI","time":3,"i_lat":-6.17331,"line":5,"transit":false,"is_transit":false},{"is_transit":false,"station_name":"Batuceper","time":3,"i_long":106.665036,"distance":2028,"transit":false,"station_id":"BPR","i_lat":-6.171811,"line":5},{"time":3,"is_transit":false,"distance":1834,"transit":false,"station_name":"Poris","line":5,"station_id":"PI","i_long":106.679458,"i_lat":-6.169933},{"transit":false,"i_long":106.701612,"station_id":"KDS","distance":2548,"is_transit":false,"i_lat":-6.166068,"station_name":"Kalideres","line":5,"time":3},{"i_lat":-6.162758,"distance":2504,"is_transit":false,"i_long":106.723064,"time":3,"line":5,"station_name":"Rawa Buaya","station_id":"RW","transit":false},{"i_long":106.737035,"time":4,"distance":1152,"station_id":"BOI","line":5,"transit":false,"station_name":"Bojongindah","is_transit":false,"i_lat":-6.159876},{"line":5,"transit":false,"is_transit":false,"station_id":"TKO","station_name":"Taman Kota","time":2,"i_lat":-6.1587309999999995,"i_long":106.756522,"distance":2334},{"transit":false,"station_id":"PSG","is_transit":false,"distance":1614,"time":2,"line":5,"i_long":106.771379,"station_name":"Pesing","i_lat":-6.161433},{"time":2,"i_long":106.788277,"line":5,"distance":2036,"station_name":"Grogol","station_id":"GGL","transit":false,"is_transit":false,"i_lat":-6.162021},{"transit":true,"i_long":106.800832,"station_id":"DU","i_lat":-6.155215,"time":3,"distance":1700,"is_transit":true,"station_name":"Duri","line":1},{"time":4,"is_transit":false,"transit":false,"station_name":"Angke","i_lat":-6.144674,"line":1,"station_id":"AK","distance":1230,"i_long":106.79867},{"station_id":"KPB","i_long":106.826365,"station_name":"Kampung Bandan","line":4,"distance":4102,"i_lat":-6.132549,"time":9,"is_transit":true,"transit":true},{"transit":false,"station_name":"Rajawali","line":11,"time":3,"station_id":"RJW","i_long":106.836569,"is_transit":false,"distance":1444,"i_lat":-6.14505},{"station_id":"KMO","distance":1901,"i_lat":-6.161728,"transit":false,"time":5,"station_name":"Kemayoran","is_transit":false,"i_long":106.839204,"line":11},{"i_long":106.84368,"station_id":"PSE","time":4,"transit":false,"distance":1436,"station_name":"Pasar Senen","is_transit":false,"line":11,"i_lat":-6.174784},{"time":8,"station_id":"GST","station_name":"Gang Sentiong","i_lat":-6.185975,"transit":false,"distance":1567,"i_long":106.850107,"is_transit":false,"line":11},{"transit":false,"i_long":106.855437,"station_name":"Kramat","time":1,"station_id":"KMT","is_transit":false,"i_lat":-6.193792,"line":11,"distance":973},{"distance":1829,"line":11,"transit":false,"i_long":106.861737,"time":2,"station_id":"POK","station_name":"Pondok Jati","is_transit":false,"i_lat":-6.209188},{"station_id":"JNG","time":9,"transit":true,"i_long":106.86807400000001,"distance":1236,"station_name":"Jatinegara","is_transit":true,"i_lat":-6.215091,"line":1},{"line":1,"station_name":"Matraman","transit":false,"is_transit":false,"i_long":106.858896,"time":2,"i_lat":-6.212485,"station_id":"MTR","distance":1377},{"transit":true,"distance":1275,"i_lat":-6.209883,"station_id":"MRI","is_transit":true,"station_name":"Manggarai","i_long":106.84912,"line":2,"time":2},{"line":2,"distance":2610,"time":4,"station_name":"Tebet","transit":false,"is_transit":false,"station_id":"TEB","i_long":106.857948,"i_lat":-6.226659},{"transit":false,"time":2,"i_long":106.856607,"i_lat":-6.242512,"line":2,"station_id":"CW","station_name":"Cawang","is_transit":false,"distance":1230},{"distance":1546,"i_lat":-6.255332,"station_id":"DRN","station_name":"Duren Kalibata","line":2,"time":3,"is_transit":false,"i_long":106.85449,"transit":false},{"transit":false,"i_long":106.851577,"station_name":"Pasar Minggu Baru","is_transit":false,"i_lat":-6.263214,"station_id":"PSMB","line":2,"time":2,"distance":824},{"is_transit":false,"station_id":"PSM","distance":2380,"transit":false,"time":2,"i_long":106.843999,"station_name":"Pasar Minggu","i_lat":-6.2842400000000005,"line":2},{"time":4,"i_long":106.838896,"transit":false,"i_lat":-6.3080680000000005,"station_name":"Tanjung Barat","station_id":"TNT","line":2,"is_transit":false,"distance":2820},{"station_name":"Lenteng Agung","line":2,"i_lat":-6.330363,"i_long":106.832616,"distance":2671,"is_transit":false,"time":3,"station_id":"LNA","transit":false},{"station_name":"Univ. Pancasila","station_id":"UP","i_long":106.834175,"transit":false,"is_transit":false,"line":2,"time":2,"distance":1029,"i_lat":-6.339291},{"time":3,"is_transit":false,"line":2,"distance":2264,"station_id":"UI","i_lat":-6.360749,"transit":false,"station_name":"Univ. Indonesia","i_long":106.831474},{"distance":1109,"station_id":"POC","transit":false,"is_transit":false,"i_lat":-6.369073,"line":2,"station_name":"Pondok Cina","time":2,"i_long":106.831114},{"station_id":"DPB","i_lat":-6.391065,"station_name":"Depokbaru","i_long":106.819451,"line":2,"transit":false,"distance":2727,"is_transit":false,"time":4},{"station_name":"Depok","transit":false,"time":3,"i_lat":-6.405256,"distance":1584,"i_long":106.816926,"is_transit":false,"line":2,"station_id":"DP"},{"station_name":"Citayam","distance":5084,"transit":false,"station_id":"CTA","is_transit":false,"time":6,"line":2,"i_long":106.800298,"i_lat":-6.448811},{"i_long":106.792719,"line":2,"distance":5197,"i_lat":-6.493243,"station_id":"BJD","time":5,"transit":false,"is_transit":false,"station_name":"Bojonggede"}]]}