{"data":[[{"i_long":106.632761,"station_name":"Tangerang","line":5,"is_transit":false,"time":0,"transit":false,"distance":0,"station_id":"TNG","i_lat":-6.176583},{"time":3,"station_name":"Tanah Tinggi","transit":false,"i_lat":-6.17331,"station_id":"TTI","i_long":106.64657,"line":5,"is_transit":false,"distance":1547},{"distance":2028,"transit":false,"station_name":"Batuceper","i_long":106.665036,"i_lat":-6.171811,"line":5,"time":3,"station_id":"BPR","is_transit":false},{"is_transit":false,"line":5,"time":3,"i_lat":-6.169933,"station_id":"PI","distance":1834,"transit":false,"i_long":106.679458,"station_name":"Poris"},{"i_lat":-6.166068,"line":5,"station_id":"KDS","is_transit":false,"station_name":"Kalideres","time":3,"transit":false,"i_long":106.701612,"distance":2548},{"station_id":"RW","line":5,"distance":2504,"station_name":"Rawa Buaya","is_transit":false,"i_lat":-6.162758,"time":3,"transit":false,"i_long":106.723064},{"distance":1152,"is_transit":false,"station_name":"Bojongindah","line":5,"time":4,"transit":false,"station_id":"BOI","i_long":106.737035,"i_lat":-6.159876},{"transit":false,"is_transit":false,"line":5,"time":2,"station_id":"TKO","station_name":"Taman Kota","distance":2334,"i_long":106.756522,"i_lat":-6.1587309999999995},{"transit":false,"i_lat":-6.161433,"is_transit":false,"line":5,"station_name":"Pesing","i_long":106.771379,"distance":1614,"station_id":"PSG","time":2},{"is_transit":false,"distance":2036,"i_lat":-6.162021,"i_long":106.788277,"transit":false,"time":2,"station_id":"GGL","line":5,"station_name":"Grogol"},{"station_id":"DU","station_name":"Duri","line":1,"is_transit":true,"i_long":106.800832,"i_lat":-6.155215,"distance":1700,"time":3,"transit":true},{"i_lat":-6.185545,"time":8,"distance":3632,"station_id":"THB","station_name":"Tanah Abang","i_long":106.811091,"transit":false,"is_transit":false,"line":1},{"station_id":"KAT","is_transit":false,"transit":false,"i_long":106.816351,"line":1,"distance":2029,"time":5,"i_lat":-6.20132,"station_name":"Karet"},{"station_id":"SUDB","is_transit":false,"i_long":106.819881,"time":1,"line":1,"transit":false,"distance":471,"i_lat":-6.201433,"station_name":"Sudirman Baru"},{"time":1,"i_lat":-6.202263,"i_long":106.822649,"is_transit":false,"station_id":"SUD","distance":280,"station_name":"Sudirman","transit":false,"line":1},{"time":4,"transit":true,"station_id":"MRI","is_transit":true,"i_lat":-6.209883,"i_long":106.84912,"distance":3186,"line":2,"station_name":"Manggarai"},{"i_long":106.857948,"station_name":"Tebet","transit":false,"distance":2610,"time":4,"line":2,"is_transit":false,"station_id":"TEB","i_lat":-6.226659},{"time":2,"transit":false,"station_id":"CW","distance":1230,"station_name":"Cawang","i_lat":-6.242512,"is_transit":false,"i_long":106.856607,"line":2},{"transit":false,"line":2,"distance":1546,"time":3,"i_long":106.85449,"is_transit":false,"station_id":"DRN","station_name":"Duren Kalibata","i_lat":-6.255332},{"station_id":"PSMB","distance":824,"is_transit":false,"i_lat":-6.263214,"time":2,"transit":false,"station_name":"Pasar Minggu Baru","line":2,"i_long":106.851577},{"distance":2380,"transit":false,"station_id":"PSM","station_name":"Pasar Minggu","i_lat":-6.2842400000000005,"i_long":106.843999,"line":2,"time":2,"is_transit":false}],[{"transit":false,"i_lat":-6.176583,"station_name":"Tangerang","station_id":"TNG","is_transit":false,"line":5,"i_long":106.632761,"distance":0,"time":0},{"distance":1547,"i_lat":-6.17331,"station_name":"Tanah Tinggi","is_transit":false,"station_id":"TTI","i_long":106.64657,"line":5,"transit":false,"time":3},{"station_name":"Batuceper","distance":2028,"time":3,"transit":false,"i_lat":-6.171811,"line":5,"station_id":"BPR","i_long":106.665036,"is_transit":false},{"time":3,"i_long":106.679458,"line":5,"distance":1834,"is_transit":false,"i_lat":-6.169933,"station_id":"PI","station_name":"Poris","transit":false},{"station_name":"Kalideres","line":5,"station_id":"KDS","i_lat":-6.166068,"is_transit":false,"distance":2548,"time":3,"i_long":106.701612,"transit":false},{"i_long":106.723064,"station_name":"Rawa Buaya","distance":2504,"is_transit":false,"station_id":"RW","i_lat":-6.162758,"transit":false,"line":5,"time":3},{"time":4,"station_name":"Bojongindah","line":5,"i_long":106.737035,"station_id":"BOI","is_transit":false,"distance":1152,"transit":false,"i_lat":-6.159876},{"time":2,"is_transit":false,"i_lat":-6.1587309999999995,"i_long":106.756522,"distance":2334,"station_name":"Taman Kota","transit":false,"station_id":"TKO","line":5},{"is_transit":false,"i_long":106.771379,"station_name":"Pesing","station_id":"PSG","i_lat":-6.161433,"transit":false,"line":5,"time":2,"distance":1614},{"station_id":"GGL","transit":false,"station_name":"Grogol","distance":2036,"line":5,"i_long":106.788277,"i_lat":-6.162021,"is_transit":false,"time":2},{"i_lat":-6.155215,"i_long":106.800832,"is_transit":true,"station_id":"DU","line":1,"transit":true,"station_name":"Duri","distance":1700,"time":3},{"time":4,"station_id":"AK","is_transit":false,"i_long":106.79867,"transit":false,"station_name":"Angke","line":1,"i_lat":-6.144674,"distance":1230},{"distance":4102,"i_lat":-6.132549,"station_id":"KPB","i_long":106.826365,"is_transit":true,"time":9,"transit":true,"line":4,"station_name":"Kampung Bandan"},{"i_long":106.812439,"line":2,"distance":1364,"station_name":"Jakarta Kota","is_transit":true,"time":3,"station_id":"JAKK","transit":true,"i_lat":-6.137569},{"is_transit":false,"transit":false,"i_long":106.820901,"time":4,"line":2,"i_lat":-6.141205,"station_id":"JAY","distance":1264,"station_name":"Jayakarta"},{"time":2,"transit":false,"station_name":"Manggabesar","i_lat":-6.149769,"station_id":"MGB","line":2,"is_transit":false,"i_long":106.82482,"distance":1080},{"i_long":106.827103,"station_name":"Sawah Besar","time":2,"station_id":"SW","distance":906,"line":2,"is_transit":false,"i_lat":-6.160725,"transit":false},{"station_name":"Juanda","time":2,"i_lat":-6.166716,"distance":1149,"station_id":"JUA","is_transit":false,"i_long":106.828284,"transit":false,"line":2},{"station_name":"Gondangdia","line":2,"time":4,"station_id":"GDD","i_lat":-6.186295,"i_long":106.832183,"is_transit":false,"distance":2015,"transit":false},{"line":2,"is_transit":false,"distance":1750,"station_id":"CKI","transit":false,"i_lat":-6.198556,"time":3,"station_name":"Cikini","i_long":106.840169},{"station_id":"MRI","i_long":106.84912,"is_transit":false,"line":2,"distance":1590,"i_lat":-6.209883,"time":4,"transit":false,"station_name":"Manggarai"},{"distance":2610,"station_name":"Tebet","time":4,"i_lat":-6.226659,"i_long":106.857948,"line":2,"is_transit":false,"transit":false,"station_id":"TEB"},{"distance":1230,"station_id":"CW","i_lat":-6.242512,"station_name":"Cawang","line":2,"transit":false,"i_long":106.856607,"is_transit":false,"time":2},{"line":2,"i_lat":-6.255332,"is_transit":false,"time":3,"station_name":"Duren Kalibata","i_long":106.85449,"distance":1546,"transit":false,"station_id":"DRN"},{"is_transit":false,"i_long":106.851577,"time":2,"i_lat":-6.263214,"transit":false,"station_name":"Pasar Minggu Baru","distance":824,"station_id":"PSMB","line":2},{"station_name":"Pasar Minggu","transit":false,"i_lat":-6.2842400000000005,"line":2,"is_transit":false,"station_id":"PSM","time":2,"i_long":106.843999,"distance":2380}],[{"is_transit":false,"station_id":"TNG","line":5,"i_long":106.632761,"i_lat":-6.176583,"time":0,"distance":0,"transit":false,"station_name":"Tangerang"},{"station_id":"TTI","time":3,"is_transit":false,"distance":1547,"transit":false,"station_name":"Tanah Tinggi","i_long":106.64657,"line":5,"i_lat":-6.17331},{"is_transit":false,"station_id":"BPR","i_long":106.665036,"line":5,"station_name":"Batuceper","time":3,"transit":false,"i_lat":-6.171811,"distance":2028},{"time":3,"i_long":106.679458,"is_transit":false,"transit":false,"station_name":"Poris","i_lat":-6.169933,"line":5,"station_id":"PI","distance":1834},{"i_lat":-6.166068,"distance":2548,"transit":false,"time":3,"station_id":"KDS","i_long":106.701612,"is_transit":false,"line":5,"station_name":"Kalideres"},{"station_id":"RW","i_long":106.723064,"is_transit":false,"time":3,"distance":2504,"transit":false,"station_name":"Rawa Buaya","i_lat":-6.162758,"line":5},{"time":4,"is_transit":false,"transit":false,"i_lat":-6.159876,"line":5,"distance":1152,"station_name":"Bojongindah","station_id":"BOI","i_long":106.737035},{"station_id":"TKO","i_long":106.756522,"distance":2334,"line":5,"is_transit":false,"time":2,"transit":false,"station_name":"Taman Kota","i_lat":-6.1587309999999995},{"line":5,"transit":false,"station_name":"Pesing","i_long":106.771379,"is_transit":false,"station_id":"PSG","time":2,"distance":1614,"i_lat":-6.161433},{"i_lat":-6.162021,"line":5,"time":2,"i_long":106.788277,"distance":2036,"transit":false,"station_id":"GGL","station_name":"Grogol","is_transit":false},{"is_transit":true,"distance":1700,"station_id":"DU","station_name":"Duri","line":1,"transit":true,"i_long":106.800832,"i_lat":-6.155215,"time":3},{"is_transit":false,"transit":false,"i_lat":-6.144674,"distance":1230,"station_id":"AK","station_name":"Angke","i_long":106.79867,"time":4,"line":1},{"station_name":"Kampung Bandan","station_id":"KPB","is_transit":true,"time":9,"distance":4102,"i_lat":-6.132549,"i_long":106.826365,"transit":true,"line":4},{"line":11,"i_lat":-6.14505,"is_transit":false,"station_name":"Rajawali","distance":1444,"time":3,"transit":false,"station_id":"RJW","i_long":106.836569},{"station_name":"Kemayoran","transit":false,"i_lat":-6.161728,"time":5,"i_long":106.839204,"station_id":"KMO","line":11,"distance":1901,"is_transit":false},{"station_id":"PSE","i_long":106.84368,"i_lat":-6.174784,"is_transit":false,"transit":false,"station_name":"Pasar Senen","line":11,"distance":1436,"time":4},{"i_lat":-6.185975,"i_long":106.850107,"time":8,"transit":false,"station_name":"Gang Sentiong","line":11,"station_id":"GST","is_transit":false,"distance":1567},{"is_transit":false,"i_lat":-6.193792,"distance":973,"transit":false,"line":11,"time":1,"i_long":106.855437,"station_name":"Kramat","station_id":"KMT"},{"time":2,"is_transit":false,"distance":1829,"transit":false,"i_lat":-6.209188,"station_id":"POK","i_long":106.861737,"line":11,"station_name":"Pondok Jati"},{"is_transit":true,"i_lat":-6.215091,"time":9,"distance":1236,"station_name":"Jatinegara","station_id":"JNG","transit":true,"i_long":106.86807400000001,"line":1},{"transit":false,"i_long":106.858896,"station_id":"MTR","distance":1377,"time":2,"i_lat":-6.212485,"station_name":"Matraman","line":1,"is_transit":false},{"time":2,"is_transit":true,"line":2,"transit":true,"station_id":"MRI","station_name":"Manggarai","distance":1275,"i_lat":-6.209883,"i_long":106.84912},{"line":2,"time":4,"i_lat":-6.226659,"station_name":"Tebet","station_id":"TEB","distance":2610,"transit":false,"is_transit":false,"i_long":106.857948},{"line":2,"distance":1230,"is_transit":false,"time":2,"transit":false,"station_name":"Cawang","i_lat":-6.242512,"i_long":106.856607,"station_id":"CW"},{"is_transit":false,"station_name":"Duren Kalibata","distance":1546,"i_lat":-6.255332,"i_long":106.85449,"transit":false,"line":2,"station_id":"DRN","time":3},{"transit":false,"i_long":106.851577,"distance":824,"time":2,"station_name":"Pasar Minggu Baru","i_lat":-6.263214,"station_id":"PSMB","is_transit":false,"line":2},{"distance":2380,"station_name":"Pasar Minggu","i_lat":-6.2842400000000005,"time":2,"station_id":"PSM","i_long":106.843999,"is_transit":false,"transit":false,"line":2}]]}