{"data":[[{"station_id":"TNG","i_long":106.632761,"time":0,"station_name":"Tangerang","line":5,"transit":false,"distance":0,"is_transit":false,"i_lat":-6.176583},{"transit":false,"station_id":"TTI","i_lat":-6.17331,"line":5,"i_long":106.64657,"station_name":"Tanah Tinggi","distance":1547,"time":3,"is_transit":false},{"distance":2028,"station_id":"BPR","line":5,"time":3,"i_lat":-6.171811,"i_long":106.665036,"station_name":"Batuceper","transit":false,"is_transit":false},{"time":3,"distance":1834,"i_long":106.679458,"station_id":"PI","is_transit":false,"transit":false,"station_name":"Poris","i_lat":-6.169933,"line":5},{"transit":false,"station_name":"Kalideres","station_id":"KDS","time":3,"is_transit":false,"distance":2548,"i_lat":-6.166068,"i_long":106.701612,"line":5},{"distance":2504,"i_lat":-6.162758,"station_name":"Rawa Buaya","transit":false,"time":3,"line":5,"is_transit":false,"station_id":"RW","i_long":106.723064},{"distance":1152,"transit":false,"i_lat":-6.159876,"is_transit":false,"line":5,"i_long":106.737035,"station_name":"Bojongindah","time":4,"station_id":"BOI"},{"distance":2334,"is_transit":false,"i_long":106.756522,"station_name":"Taman Kota","transit":false,"station_id":"TKO","line":5,"time":2,"i_lat":-6.1587309999999995},{"i_lat":-6.161433,"line":5,"station_id":"PSG","time":2,"station_name":"Pesing","transit":false,"is_transit":false,"distance":1614,"i_long":106.771379},{"i_long":106.788277,"station_name":"Grogol","transit":false,"is_transit":false,"i_lat":-6.162021,"line":5,"distance":2036,"station_id":"GGL","time":2},{"distance":1700,"line":1,"i_long":106.800832,"is_transit":true,"station_name":"Duri","station_id":"DU","time":3,"transit":true,"i_lat":-6.155215},{"station_name":"Tanah Abang","i_long":106.811091,"i_lat":-6.185545,"transit":true,"is_transit":true,"distance":3632,"station_id":"THB","time":8,"line":1},{"i_long":106.79689,"station_name":"Palmerah","i_lat":-6.207404,"line":6,"transit":false,"is_transit":false,"distance":3191,"station_id":"PLM","time":6}],[{"i_lat":-6.176583,"i_long":106.632761,"time":0,"station_id":"TNG","station_name":"Tangerang","is_transit":false,"distance":0,"transit":false,"line":5},{"i_lat":-6.17331,"station_name":"Tanah Tinggi","i_long":106.64657,"transit":false,"time":3,"distance":1547,"station_id":"TTI","is_transit":false,"line":5},{"i_long":106.665036,"time":3,"is_transit":false,"distance":2028,"transit":false,"i_lat":-6.171811,"station_name":"Batuceper","line":5,"station_id":"BPR"},{"i_long":106.679458,"line":5,"station_name":"Poris","station_id":"PI","i_lat":-6.169933,"time":3,"transit":false,"is_transit":false,"distance":1834},{"distance":2548,"transit":false,"is_transit":false,"time":3,"station_id":"KDS","i_long":106.701612,"station_name":"Kalideres","line":5,"i_lat":-6.166068},{"i_long":106.723064,"line":5,"is_transit":false,"station_name":"Rawa Buaya","i_lat":-6.162758,"transit":false,"distance":2504,"station_id":"RW","time":3},{"distance":1152,"transit":false,"station_name":"Bojongindah","i_long":106.737035,"station_id":"BOI","i_lat":-6.159876,"line":5,"is_transit":false,"time":4},{"is_transit":false,"station_id":"TKO","station_name":"Taman Kota","line":5,"distance":2334,"i_long":106.756522,"transit":false,"time":2,"i_lat":-6.1587309999999995},{"station_id":"PSG","i_lat":-6.161433,"i_long":106.771379,"station_name":"Pesing","distance":1614,"line":5,"time":2,"transit":false,"is_transit":false},{"time":2,"i_long":106.788277,"station_id":"GGL","station_name":"Grogol","is_transit":false,"distance":2036,"i_lat":-6.162021,"transit":false,"line":5},{"station_id":"DU","line":1,"station_name":"Duri","i_long":106.800832,"time":3,"distance":1700,"transit":true,"i_lat":-6.155215,"is_transit":true},{"distance":1230,"station_name":"Angke","time":4,"i_lat":-6.144674,"line":1,"transit":false,"i_long":106.79867,"is_transit":false,"station_id":"AK"},{"station_name":"Kampung Bandan","transit":true,"i_lat":-6.132549,"line":4,"time":9,"distance":4102,"i_long":106.826365,"is_transit":true,"station_id":"KPB"},{"i_long":106.812439,"time":3,"is_transit":true,"line":2,"station_id":"JAKK","station_name":"Jakarta Kota","i_lat":-6.137569,"transit":true,"distance":1364},{"transit":false,"station_id":"JAY","i_lat":-6.141205,"is_transit":false,"station_name":"Jayakarta","i_long":106.820901,"distance":1264,"line":2,"time":4},{"station_id":"MGB","i_lat":-6.149769,"i_long":106.82482,"transit":false,"distance":1080,"station_name":"Manggabesar","time":2,"line":2,"is_transit":false},{"transit":false,"station_name":"Sawah Besar","is_transit":false,"distance":906,"station_id":"SW","time":2,"line":2,"i_lat":-6.160725,"i_long":106.827103},{"time":2,"transit":false,"line":2,"distance":1149,"station_id":"JUA","station_name":"Juanda","is_transit":false,"i_lat":-6.166716,"i_long":106.828284},{"station_id":"GDD","is_transit":false,"time":4,"transit":false,"i_lat":-6.186295,"station_name":"Gondangdia","i_long":106.832183,"distance":2015,"line":2},{"time":3,"station_name":"Cikini","station_id":"CKI","is_transit":false,"distance":1750,"i_lat":-6.198556,"i_long":106.840169,"line":2,"transit":false},{"transit":true,"i_lat":-6.209883,"is_transit":true,"station_name":"Manggarai","distance":1590,"time":4,"i_long":106.84912,"line":2,"station_id":"MRI"},{"distance":3186,"station_name":"Sudirman","i_long":106.822649,"transit":false,"time":4,"i_lat":-6.202263,"line":1,"is_transit":false,"station_id":"SUD"},{"station_name":"Sudirman Baru","distance":280,"time":1,"i_lat":-6.201433,"is_transit":false,"transit":false,"station_id":"SUDB","i_long":106.819881,"line":1},{"i_lat":-6.20132,"i_long":106.816351,"station_name":"Karet","transit":false,"line":1,"time":1,"is_transit":false,"distance":471,"station_id":"KAT"},{"station_name":"Tanah Abang","time":5,"is_transit":true,"distance":2029,"i_lat":-6.185545,"line":1,"i_long":106.811091,"transit":true,"station_id":"THB"},{"station_id":"PLM","time":6,"i_long":106.79689,"is_transit":false,"i_lat":-6.207404,"distance":3191,"transit":false,"station_name":"Palmerah","line":6}],[{"i_long":106.632761,"is_transit":false,"line":5,"transit":false,"i_lat":-6.176583,"station_name":"Tangerang","station_id":"TNG","distance":0,"time":0},{"transit":false,"i_long":106.64657,"station_name":"Tanah Tinggi","station_id":"TTI","i_lat":-6.17331,"line":5,"distance":1547,"is_transit":false,"time":3},{"is_transit":false,"i_lat":-6.171811,"i_long":106.665036,"line":5,"transit":false,"distance":2028,"station_id":"BPR","station_name":"Batuceper","time":3},{"time":3,"i_lat":-6.169933,"station_name":"Poris","transit":false,"distance":1834,"station_id":"PI","i_long":106.679458,"line":5,"is_transit":false},{"station_name":"Kalideres","distance":2548,"i_lat":-6.166068,"line":5,"transit":false,"station_id":"KDS","time":3,"i_long":106.701612,"is_transit":false},{"transit":false,"station_name":"Rawa Buaya","i_lat":-6.162758,"is_transit":false,"distance":2504,"time":3,"i_long":106.723064,"station_id":"RW","line":5},{"distance":1152,"station_name":"Bojongindah","transit":false,"i_lat":-6.159876,"time":4,"i_long":106.737035,"station_id":"BOI","line":5,"is_transit":false},{"line":5,"transit":false,"station_id":"TKO","station_name":"Taman Kota","i_long":106.756522,"is_transit":false,"time":2,"distance":2334,"i_lat":-6.1587309999999995},{"station_id":"PSG","time":2,"i_lat":-6.161433,"is_transit":false,"line":5,"distance":1614,"i_long":106.771379,"transit":false,"station_name":"Pesing"},{"transit":false,"distance":2036,"is_transit":false,"station_id":"GGL","station_name":"Grogol","time":2,"i_long":106.788277,"line":5,"i_lat":-6.162021},{"time":3,"distance":1700,"station_id":"DU","transit":true,"station_name":"Duri","i_lat":-6.155215,"line":1,"i_long":106.800832,"is_transit":true},{"i_lat":-6.144674,"line":1,"station_id":"AK","is_transit":false,"distance":1230,"time":4,"i_long":106.79867,"station_name":"Angke","transit":false},{"distance":4102,"transit":true,"time":9,"station_id":"KPB","station_name":"Kampung Bandan","line":4,"is_transit":true,"i_long":106.826365,"i_lat":-6.132549},{"is_transit":false,"i_long":106.836569,"station_name":"Rajawali","line":11,"time":3,"transit":false,"distance":1444,"station_id":"RJW","i_lat":-6.14505},{"time":5,"distance":1901,"i_long":106.839204,"line":11,"is_transit":false,"station_name":"Kemayoran","transit":false,"i_lat":-6.161728,"station_id":"KMO"},{"station_id":"PSE","i_long":106.84368,"is_transit":false,"i_lat":-6.174784,"time":4,"line":11,"station_name":"Pasar Senen","transit":false,"distance":1436},{"is_transit":false,"line":11,"station_name":"Gang Sentiong","distance":1567,"time":8,"transit":false,"i_lat":-6.185975,"station_id":"GST","i_long":106.850107},{"line":11,"i_long":106.855437,"is_transit":false,"transit":false,"time":1,"station_name":"Kramat","distance":973,"station_id":"KMT","i_lat":-6.193792},{"transit":false,"station_name":"Pondok Jati","i_lat":-6.209188,"line":11,"time":2,"is_transit":false,"i_long":106.861737,"station_id":"POK","distance":1829},{"distance":1236,"line":1,"i_lat":-6.215091,"station_id":"JNG","is_transit":true,"station_name":"Jatinegara","time":9,"transit":true,"i_long":106.86807400000001},{"distance":1377,"i_lat":-6.212485,"station_id":"MTR","is_transit":false,"station_name":"Matraman","transit":false,"line":1,"time":2,"i_long":106.858896},{"i_long":106.84912,"i_lat":-6.209883,"station_id":"MRI","line":2,"station_name":"Manggarai","transit":false,"is_transit":false,"distance":1275,"time":2},{"station_id":"SUD","transit":false,"is_transit":false,"line":1,"i_long":106.822649,"distance":3186,"station_name":"Sudirman","i_lat":-6.202263,"time":4},{"distance":280,"is_transit":false,"station_id":"SUDB","time":1,"i_lat":-6.201433,"line":1,"i_long":106.819881,"transit":false,"station_name":"Sudirman Baru"},{"station_name":"Karet","i_lat":-6.20132,"station_id":"KAT","transit":false,"distance":471,"line":1,"time":1,"i_long":106.816351,"is_transit":false},{"station_name":"Tanah Abang","is_transit":true,"time":5,"distance":2029,"i_lat":-6.185545,"station_id":"THB","i_long":106.811091,"line":1,"transit":true},{"i_lat":-6.207404,"i_long":106.79689,"station_id":"PLM","is_transit":false,"time":6,"station_name":"Palmerah","distance":3191,"transit":false,"line":6}]]}