{"data":[[{"line":5,"station_id":"TNG","transit":false,"distance":0,"is_transit":false,"time":0,"i_lat":-6.176583,"station_name":"Tangerang","i_long":106.632761},{"time":3,"station_name":"Tanah Tinggi","transit":false,"distance":1547,"line":5,"is_transit":false,"station_id":"TTI","i_lat":-6.17331,"i_long":106.64657},{"transit":false,"distance":2028,"station_id":"BPR","line":0,"is_transit":false,"i_long":106.665036,"time":3,"station_name":"Batuceper","i_lat":-6.171811},{"line":5,"station_id":"PI","transit":false,"is_transit":false,"time":3,"i_lat":-6.169933,"i_long":106.679458,"station_name":"Poris","distance":1834},{"distance":2548,"station_id":"KDS","is_transit":false,"time":3,"station_name":"Kalideres","i_lat":-6.166068,"line":5,"i_long":106.701612,"transit":false},{"distance":2504,"transit":false,"i_long":106.723064,"time":3,"i_lat":-6.162758,"is_transit":false,"line":5,"station_name":"Rawa Buaya","station_id":"RW"},{"i_long":106.737035,"station_id":"BOI","transit":false,"is_transit":false,"distance":1152,"station_name":"Bojongindah","line":0,"time":4,"i_lat":-6.159876},{"station_id":"TKO","transit":false,"is_transit":false,"distance":2334,"time":2,"i_long":106.756522,"line":5,"station_name":"Taman Kota","i_lat":-6.1587309999999995},{"line":5,"station_id":"PSG","is_transit":false,"distance":1614,"i_long":106.771379,"transit":false,"time":2,"station_name":"Pesing","i_lat":-6.161433},{"time":2,"i_long":106.788277,"i_lat":-6.162021,"distance":2036,"station_id":"GGL","transit":false,"line":5,"is_transit":false,"station_name":"Grogol"},{"station_name":"Duri","distance":1700,"station_id":"DU","transit":true,"time":3,"line":1,"i_long":106.800832,"i_lat":-6.155215,"is_transit":true},{"distance":1230,"station_name":"Angke","i_long":106.79867,"line":0,"is_transit":false,"i_lat":-6.144674,"transit":false,"time":4,"station_id":"AK"}],[{"station_id":"TNG","transit":false,"time":0,"i_lat":-6.176583,"i_long":106.632761,"distance":0,"station_name":"Tangerang","is_transit":false,"line":5},{"line":5,"is_transit":false,"time":3,"i_lat":-6.17331,"distance":1547,"station_id":"TTI","i_long":106.64657,"station_name":"Tanah Tinggi","transit":false},{"i_long":106.665036,"time":3,"is_transit":false,"transit":false,"line":0,"station_name":"Batuceper","i_lat":-6.171811,"distance":2028,"station_id":"BPR"},{"is_transit":false,"station_name":"Poris","i_long":106.679458,"station_id":"PI","i_lat":-6.169933,"distance":1834,"transit":false,"time":3,"line":5},{"i_long":106.701612,"station_name":"Kalideres","i_lat":-6.166068,"time":3,"is_transit":false,"distance":2548,"line":5,"station_id":"KDS","transit":false},{"station_name":"Rawa Buaya","i_long":106.723064,"station_id":"RW","is_transit":false,"i_lat":-6.162758,"distance":2504,"line":5,"time":3,"transit":false},{"distance":1152,"station_id":"BOI","station_name":"Bojongindah","i_lat":-6.159876,"i_long":106.737035,"transit":false,"is_transit":false,"time":4,"line":0},{"time":2,"i_long":106.756522,"i_lat":-6.1587309999999995,"station_id":"TKO","line":5,"is_transit":false,"station_name":"Taman Kota","distance":2334,"transit":false},{"i_long":106.771379,"station_name":"Pesing","station_id":"PSG","distance":1614,"line":5,"i_lat":-6.161433,"time":2,"transit":false,"is_transit":false},{"transit":false,"station_name":"Grogol","station_id":"GGL","i_lat":-6.162021,"distance":2036,"is_transit":false,"i_long":106.788277,"line":5,"time":2},{"station_id":"DU","transit":true,"distance":1700,"i_lat":-6.155215,"station_name":"Duri","time":3,"i_long":106.800832,"line":1,"is_transit":true},{"is_transit":true,"distance":3632,"time":8,"station_name":"Tanah Abang","line":1,"station_id":"THB","transit":false,"i_long":106.811091,"i_lat":-6.185545},{"line":1,"distance":2029,"station_name":"Karet","is_transit":false,"station_id":"KAT","i_lat":-6.20132,"time":5,"i_long":106.816351,"transit":false},{"time":1,"transit":false,"line":1,"distance":471,"is_transit":false,"station_name":"Sudirman Baru","i_long":106.819881,"station_id":"SUDB","i_lat":-6.201433},{"time":1,"transit":false,"i_long":106.822649,"distance":280,"i_lat":-6.202263,"line":1,"is_transit":false,"station_id":"SUD","station_name":"Sudirman"},{"is_transit":true,"i_lat":-6.209883,"line":0,"station_id":"MRI","distance":3186,"transit":true,"station_name":"Manggarai","time":4,"i_long":106.84912},{"i_long":106.840169,"is_transit":false,"station_name":"Cikini","transit":false,"station_id":"CKI","line":0,"time":4,"i_lat":-6.198556,"distance":1590},{"transit":false,"distance":1750,"is_transit":false,"i_lat":-6.186295,"station_id":"GDD","station_name":"Gondangdia","time":3,"line":2,"i_long":106.832183},{"i_long":106.828284,"line":2,"transit":false,"distance":2015,"station_name":"Juanda","i_lat":-6.166716,"station_id":"JUA","is_transit":false,"time":4},{"is_transit":false,"station_name":"Sawah Besar","time":2,"line":2,"i_long":106.827103,"distance":1149,"i_lat":-6.160725,"station_id":"SW","transit":false},{"station_id":"MGB","i_lat":-6.149769,"line":2,"time":2,"is_transit":false,"station_name":"Manggabesar","distance":906,"transit":false,"i_long":106.82482},{"i_long":106.820901,"distance":1080,"is_transit":false,"i_lat":-6.141205,"station_id":"JAY","line":7,"station_name":"Jayakarta","transit":false,"time":2},{"station_id":"JAKK","time":4,"station_name":"Jakarta Kota","distance":1264,"i_lat":-6.137569,"i_long":106.812439,"transit":true,"is_transit":true,"line":0},{"distance":1364,"station_name":"Kampung Bandan","time":3,"i_lat":-6.132549,"i_long":106.826365,"is_transit":true,"station_id":"KPB","transit":false,"line":0},{"station_name":"Angke","transit":false,"i_lat":-6.144674,"distance":4102,"station_id":"AK","time":9,"i_long":106.79867,"line":0,"is_transit":false}],[{"time":0,"line":5,"i_lat":-6.176583,"station_id":"TNG","distance":0,"station_name":"Tangerang","transit":false,"is_transit":false,"i_long":106.632761},{"is_transit":false,"line":5,"time":3,"distance":1547,"station_name":"Tanah Tinggi","i_lat":-6.17331,"station_id":"TTI","transit":false,"i_long":106.64657},{"i_long":106.665036,"station_name":"Batuceper","distance":2028,"transit":false,"line":0,"i_lat":-6.171811,"is_transit":false,"station_id":"BPR","time":3},{"transit":false,"i_lat":-6.169933,"i_long":106.679458,"time":3,"is_transit":false,"station_id":"PI","station_name":"Poris","line":5,"distance":1834},{"i_lat":-6.166068,"line":5,"distance":2548,"time":3,"station_name":"Kalideres","transit":false,"i_long":106.701612,"is_transit":false,"station_id":"KDS"},{"is_transit":false,"transit":false,"distance":2504,"time":3,"i_lat":-6.162758,"line":5,"station_id":"RW","station_name":"Rawa Buaya","i_long":106.723064},{"time":4,"i_lat":-6.159876,"is_transit":false,"i_long":106.737035,"line":0,"station_id":"BOI","transit":false,"station_name":"Bojongindah","distance":1152},{"station_id":"TKO","station_name":"Taman Kota","i_lat":-6.1587309999999995,"line":5,"is_transit":false,"distance":2334,"i_long":106.756522,"transit":false,"time":2},{"i_lat":-6.161433,"transit":false,"is_transit":false,"station_id":"PSG","time":2,"distance":1614,"line":5,"station_name":"Pesing","i_long":106.771379},{"i_lat":-6.162021,"transit":false,"distance":2036,"i_long":106.788277,"station_id":"GGL","time":2,"line":5,"is_transit":false,"station_name":"Grogol"},{"i_lat":-6.155215,"i_long":106.800832,"is_transit":true,"station_id":"DU","line":1,"transit":true,"distance":1700,"station_name":"Duri","time":3},{"distance":3632,"station_id":"THB","i_lat":-6.185545,"i_long":106.811091,"line":1,"time":8,"transit":false,"is_transit":true,"station_name":"Tanah Abang"},{"is_transit":false,"station_id":"KAT","time":5,"i_lat":-6.20132,"i_long":106.816351,"station_name":"Karet","transit":false,"line":1,"distance":2029},{"i_long":106.819881,"line":1,"transit":false,"is_transit":false,"station_name":"Sudirman Baru","time":1,"distance":471,"i_lat":-6.201433,"station_id":"SUDB"},{"line":1,"i_long":106.822649,"i_lat":-6.202263,"distance":280,"transit":false,"is_transit":false,"station_id":"SUD","station_name":"Sudirman","time":1},{"is_transit":true,"line":0,"transit":false,"time":4,"station_name":"Manggarai","i_long":106.84912,"distance":3186,"i_lat":-6.209883,"station_id":"MRI"},{"i_long":106.858896,"time":2,"transit":false,"line":1,"distance":1275,"station_id":"MTR","station_name":"Matraman","is_transit":false,"i_lat":-6.212485},{"i_long":106.86807400000001,"distance":1377,"is_transit":true,"station_id":"JNG","station_name":"Jatinegara","time":8,"line":0,"i_lat":-6.215091,"transit":true},{"transit":false,"station_name":"Pondok Jati","i_long":106.861737,"line":11,"time":2,"distance":1236,"is_transit":false,"i_lat":-6.209188,"station_id":"POK"},{"station_name":"Kramat","i_long":106.855437,"distance":1829,"transit":false,"line":11,"time":2,"i_lat":-6.193792,"is_transit":false,"station_id":"KMT"},{"line":11,"i_long":106.850107,"distance":973,"station_name":"Gang Sentiong","i_lat":-6.185975,"time":1,"is_transit":false,"station_id":"GST","transit":false},{"time":8,"is_transit":false,"i_long":106.84368,"line":11,"i_lat":-6.174784,"station_name":"Pasar Senen","station_id":"PSE","transit":false,"distance":1567},{"station_id":"KMO","i_lat":-6.161728,"is_transit":false,"line":11,"station_name":"Kemayoran","distance":1436,"transit":false,"time":4,"i_long":106.839204},{"line":11,"i_lat":-6.14505,"transit":false,"i_long":106.836569,"station_id":"RJW","is_transit":false,"time":5,"distance":1901,"station_name":"Rajawali"},{"station_name":"Kampung Bandan","is_transit":true,"line":0,"station_id":"KPB","distance":1444,"i_lat":-6.132549,"transit":true,"time":3,"i_long":106.826365},{"station_name":"Angke","time":9,"i_lat":-6.144674,"i_long":106.79867,"line":0,"is_transit":false,"distance":4102,"station_id":"AK","transit":false}]]}