{"data":[[{"transit":false,"station_name":"Tangerang","i_long":106.632761,"distance":0,"line":5,"station_id":"TNG","is_transit":false,"time":0,"i_lat":-6.176583},{"station_id":"TTI","i_lat":-6.17331,"station_name":"Tanah Tinggi","is_transit":false,"i_long":106.64657,"distance":1547,"time":3,"line":5,"transit":false},{"i_long":106.665036,"distance":2028,"station_id":"BPR","transit":false,"station_name":"Batuceper","line":0,"i_lat":-6.171811,"is_transit":false,"time":3},{"i_lat":-6.169933,"transit":false,"station_id":"PI","distance":1834,"is_transit":false,"i_long":106.679458,"station_name":"Poris","time":3,"line":5},{"time":3,"station_id":"KDS","i_long":106.701612,"is_transit":false,"station_name":"Kalideres","transit":false,"i_lat":-6.166068,"distance":2548,"line":5},{"distance":2504,"station_name":"Rawa Buaya","i_long":106.723064,"i_lat":-6.162758,"line":5,"is_transit":false,"time":3,"transit":false,"station_id":"RW"},{"distance":1152,"i_lat":-6.159876,"station_id":"BOI","station_name":"Bojongindah","transit":false,"time":4,"is_transit":false,"line":0,"i_long":106.737035},{"distance":2334,"station_name":"Taman Kota","station_id":"TKO","transit":false,"i_lat":-6.1587309999999995,"line":5,"is_transit":false,"time":2,"i_long":106.756522},{"time":2,"is_transit":false,"line":5,"station_id":"PSG","station_name":"Pesing","i_lat":-6.161433,"transit":false,"distance":1614,"i_long":106.771379},{"station_name":"Grogol","is_transit":false,"time":2,"station_id":"GGL","transit":false,"i_lat":-6.162021,"i_long":106.788277,"distance":2036,"line":5},{"distance":1700,"station_id":"DU","transit":true,"station_name":"Duri","time":3,"i_lat":-6.155215,"i_long":106.800832,"line":1,"is_transit":true},{"distance":3632,"is_transit":true,"time":8,"station_id":"THB","i_long":106.811091,"station_name":"Tanah Abang","transit":false,"i_lat":-6.185545,"line":1},{"transit":false,"distance":2029,"is_transit":false,"station_id":"KAT","line":1,"i_lat":-6.20132,"time":5,"i_long":106.816351,"station_name":"Karet"},{"i_long":106.819881,"i_lat":-6.201433,"station_id":"SUDB","is_transit":false,"line":1,"transit":false,"distance":471,"time":1,"station_name":"Sudirman Baru"},{"is_transit":false,"line":1,"station_name":"Sudirman","i_lat":-6.202263,"transit":false,"station_id":"SUD","i_long":106.822649,"distance":280,"time":1},{"line":0,"station_id":"MRI","is_transit":true,"time":4,"distance":3186,"transit":false,"station_name":"Manggarai","i_lat":-6.209883,"i_long":106.84912},{"station_id":"MTR","is_transit":false,"transit":false,"time":2,"i_lat":-6.212485,"station_name":"Matraman","i_long":106.858896,"line":1,"distance":1275},{"is_transit":true,"time":8,"i_lat":-6.215091,"station_id":"JNG","distance":1377,"station_name":"Jatinegara","i_long":106.86807400000001,"line":0,"transit":false}],[{"distance":0,"time":0,"station_id":"TNG","i_lat":-6.176583,"station_name":"Tangerang","transit":false,"i_long":106.632761,"is_transit":false,"line":5},{"line":5,"i_long":106.64657,"time":3,"transit":false,"i_lat":-6.17331,"station_name":"Tanah Tinggi","is_transit":false,"distance":1547,"station_id":"TTI"},{"distance":2028,"is_transit":false,"transit":false,"station_id":"BPR","time":3,"i_long":106.665036,"station_name":"Batuceper","line":0,"i_lat":-6.171811},{"transit":false,"i_lat":-6.169933,"i_long":106.679458,"line":5,"station_id":"PI","distance":1834,"is_transit":false,"station_name":"Poris","time":3},{"station_name":"Kalideres","line":5,"is_transit":false,"i_long":106.701612,"transit":false,"distance":2548,"time":3,"i_lat":-6.166068,"station_id":"KDS"},{"station_name":"Rawa Buaya","station_id":"RW","time":3,"line":5,"i_long":106.723064,"is_transit":false,"i_lat":-6.162758,"transit":false,"distance":2504},{"is_transit":false,"i_lat":-6.159876,"line":0,"time":4,"distance":1152,"transit":false,"i_long":106.737035,"station_id":"BOI","station_name":"Bojongindah"},{"transit":false,"i_lat":-6.1587309999999995,"station_name":"Taman Kota","station_id":"TKO","time":2,"line":5,"is_transit":false,"i_long":106.756522,"distance":2334},{"transit":false,"station_name":"Pesing","time":2,"i_long":106.771379,"is_transit":false,"i_lat":-6.161433,"station_id":"PSG","distance":1614,"line":5},{"station_name":"Grogol","distance":2036,"time":2,"station_id":"GGL","i_lat":-6.162021,"line":5,"i_long":106.788277,"transit":false,"is_transit":false},{"is_transit":true,"station_id":"DU","station_name":"Duri","time":3,"i_lat":-6.155215,"line":1,"transit":true,"i_long":106.800832,"distance":1700},{"is_transit":false,"transit":false,"distance":1230,"station_id":"AK","line":0,"time":4,"i_lat":-6.144674,"station_name":"Angke","i_long":106.79867},{"distance":4102,"is_transit":true,"transit":true,"time":9,"i_long":106.826365,"i_lat":-6.132549,"station_id":"KPB","line":0,"station_name":"Kampung Bandan"},{"station_name":"Rajawali","line":11,"i_long":106.836569,"time":3,"i_lat":-6.14505,"station_id":"RJW","is_transit":false,"distance":1444,"transit":false},{"is_transit":false,"station_name":"Kemayoran","transit":false,"line":11,"time":5,"i_lat":-6.161728,"i_long":106.839204,"station_id":"KMO","distance":1901},{"line":11,"time":4,"station_name":"Pasar Senen","distance":1436,"station_id":"PSE","i_lat":-6.174784,"i_long":106.84368,"is_transit":false,"transit":false},{"station_name":"Gang Sentiong","i_lat":-6.185975,"distance":1567,"i_long":106.850107,"time":8,"line":11,"transit":false,"station_id":"GST","is_transit":false},{"line":11,"time":1,"transit":false,"i_long":106.855437,"distance":973,"station_id":"KMT","is_transit":false,"station_name":"Kramat","i_lat":-6.193792},{"time":2,"line":11,"station_name":"Pondok Jati","i_long":106.861737,"i_lat":-6.209188,"transit":false,"is_transit":false,"station_id":"POK","distance":1829},{"distance":1236,"i_lat":-6.215091,"station_id":"JNG","i_long":106.86807400000001,"line":0,"is_transit":true,"transit":false,"station_name":"Jatinegara","time":9}],[{"line":5,"is_transit":false,"transit":false,"station_name":"Tangerang","distance":0,"time":0,"i_lat":-6.176583,"station_id":"TNG","i_long":106.632761},{"time":3,"transit":false,"is_transit":false,"station_id":"TTI","station_name":"Tanah Tinggi","distance":1547,"i_lat":-6.17331,"i_long":106.64657,"line":5},{"i_long":106.665036,"line":0,"is_transit":false,"transit":false,"station_id":"BPR","i_lat":-6.171811,"distance":2028,"station_name":"Batuceper","time":3},{"distance":1834,"line":5,"transit":false,"station_name":"Poris","time":3,"is_transit":false,"station_id":"PI","i_lat":-6.169933,"i_long":106.679458},{"transit":false,"distance":2548,"station_id":"KDS","i_long":106.701612,"station_name":"Kalideres","time":3,"i_lat":-6.166068,"is_transit":false,"line":5},{"is_transit":false,"i_lat":-6.162758,"i_long":106.723064,"line":5,"station_id":"RW","transit":false,"distance":2504,"station_name":"Rawa Buaya","time":3},{"distance":1152,"line":0,"transit":false,"i_lat":-6.159876,"i_long":106.737035,"is_transit":false,"time":4,"station_name":"Bojongindah","station_id":"BOI"},{"station_name":"Taman Kota","station_id":"TKO","distance":2334,"i_long":106.756522,"line":5,"transit":false,"i_lat":-6.1587309999999995,"time":2,"is_transit":false},{"i_lat":-6.161433,"i_long":106.771379,"distance":1614,"is_transit":false,"transit":false,"station_id":"PSG","station_name":"Pesing","time":2,"line":5},{"distance":2036,"station_name":"Grogol","time":2,"is_transit":false,"transit":false,"i_long":106.788277,"line":5,"station_id":"GGL","i_lat":-6.162021},{"station_name":"Duri","time":3,"line":1,"distance":1700,"transit":true,"i_lat":-6.155215,"is_transit":true,"i_long":106.800832,"station_id":"DU"},{"distance":1230,"i_lat":-6.144674,"time":4,"station_id":"AK","line":0,"is_transit":false,"i_long":106.79867,"station_name":"Angke","transit":false},{"i_long":106.826365,"distance":4102,"time":9,"station_id":"KPB","station_name":"Kampung Bandan","transit":false,"line":0,"is_transit":true,"i_lat":-6.132549},{"i_long":106.812439,"time":3,"transit":true,"station_id":"JAKK","is_transit":true,"line":0,"distance":1364,"station_name":"Jakarta Kota","i_lat":-6.137569},{"i_long":106.820901,"distance":1264,"transit":false,"time":4,"line":7,"station_id":"JAY","is_transit":false,"station_name":"Jayakarta","i_lat":-6.141205},{"distance":1080,"line":2,"station_id":"MGB","i_lat":-6.149769,"i_long":106.82482,"is_transit":false,"station_name":"Manggabesar","transit":false,"time":2},{"time":2,"transit":false,"distance":906,"is_transit":false,"i_lat":-6.160725,"i_long":106.827103,"line":2,"station_id":"SW","station_name":"Sawah Besar"},{"time":2,"i_lat":-6.166716,"station_id":"JUA","distance":1149,"station_name":"Juanda","transit":false,"line":2,"is_transit":false,"i_long":106.828284},{"i_lat":-6.186295,"distance":2015,"line":2,"station_id":"GDD","transit":false,"time":4,"station_name":"Gondangdia","i_long":106.832183,"is_transit":false},{"is_transit":false,"i_long":106.840169,"station_id":"CKI","station_name":"Cikini","time":3,"line":0,"distance":1750,"transit":false,"i_lat":-6.198556},{"station_id":"MRI","i_long":106.84912,"time":4,"station_name":"Manggarai","transit":true,"distance":1590,"i_lat":-6.209883,"line":0,"is_transit":true},{"line":1,"is_transit":false,"i_lat":-6.212485,"transit":false,"i_long":106.858896,"distance":1275,"time":2,"station_id":"MTR","station_name":"Matraman"},{"i_lat":-6.215091,"distance":1377,"i_long":106.86807400000001,"line":0,"station_name":"Jatinegara","station_id":"JNG","is_transit":true,"time":8,"transit":false}],[{"is_transit":false,"transit":false,"station_name":"Tangerang","i_long":106.632761,"distance":0,"line":5,"station_id":"TNG","i_lat":-6.176583,"time":0},{"i_lat":-6.17331,"station_name":"Tanah Tinggi","time":3,"is_transit":false,"line":5,"station_id":"TTI","transit":false,"i_long":106.64657,"distance":1547},{"i_long":106.665036,"is_transit":false,"station_id":"BPR","line":0,"i_lat":-6.171811,"transit":false,"time":3,"distance":2028,"station_name":"Batuceper"},{"station_id":"PI","i_long":106.679458,"line":5,"i_lat":-6.169933,"distance":1834,"station_name":"Poris","transit":false,"is_transit":false,"time":3},{"i_long":106.701612,"line":5,"station_name":"Kalideres","time":3,"i_lat":-6.166068,"distance":2548,"station_id":"KDS","transit":false,"is_transit":false},{"i_long":106.723064,"line":5,"distance":2504,"is_transit":false,"transit":false,"i_lat":-6.162758,"time":3,"station_name":"Rawa Buaya","station_id":"RW"},{"station_id":"BOI","time":4,"is_transit":false,"i_lat":-6.159876,"distance":1152,"station_name":"Bojongindah","i_long":106.737035,"line":0,"transit":false},{"is_transit":false,"transit":false,"distance":2334,"time":2,"i_lat":-6.1587309999999995,"i_long":106.756522,"station_name":"Taman Kota","line":5,"station_id":"TKO"},{"time":2,"i_lat":-6.161433,"i_long":106.771379,"is_transit":false,"line":5,"transit":false,"station_name":"Pesing","distance":1614,"station_id":"PSG"},{"is_transit":false,"transit":false,"time":2,"line":5,"station_id":"GGL","i_lat":-6.162021,"distance":2036,"station_name":"Grogol","i_long":106.788277},{"is_transit":true,"i_lat":-6.155215,"station_name":"Duri","station_id":"DU","time":3,"distance":1700,"line":1,"i_long":106.800832,"transit":true},{"transit":false,"i_lat":-6.185545,"is_transit":true,"distance":3632,"station_name":"Tanah Abang","i_long":106.811091,"station_id":"THB","time":8,"line":1},{"is_transit":false,"station_name":"Karet","station_id":"KAT","transit":false,"time":5,"i_lat":-6.20132,"i_long":106.816351,"line":1,"distance":2029},{"line":1,"transit":false,"time":1,"distance":471,"i_lat":-6.201433,"is_transit":false,"station_id":"SUDB","station_name":"Sudirman Baru","i_long":106.819881},{"distance":280,"i_lat":-6.202263,"i_long":106.822649,"is_transit":false,"transit":false,"station_name":"Sudirman","time":1,"line":1,"station_id":"SUD"},{"transit":true,"i_long":106.84912,"line":0,"time":4,"distance":3186,"is_transit":true,"station_name":"Manggarai","station_id":"MRI","i_lat":-6.209883},{"line":0,"station_name":"Cikini","i_long":106.840169,"distance":1590,"i_lat":-6.198556,"is_transit":false,"station_id":"CKI","transit":false,"time":4},{"distance":1750,"is_transit":false,"station_name":"Gondangdia","i_long":106.832183,"station_id":"GDD","line":2,"transit":false,"time":3,"i_lat":-6.186295},{"distance":2015,"is_transit":false,"station_name":"Juanda","station_id":"JUA","i_lat":-6.166716,"time":4,"i_long":106.828284,"line":2,"transit":false},{"station_id":"SW","distance":1149,"i_long":106.827103,"time":2,"i_lat":-6.160725,"transit":false,"is_transit":false,"station_name":"Sawah Besar","line":2},{"time":2,"i_lat":-6.149769,"station_id":"MGB","distance":906,"is_transit":false,"i_long":106.82482,"transit":false,"line":2,"station_name":"Manggabesar"},{"distance":1080,"is_transit":false,"station_id":"JAY","station_name":"Jayakarta","transit":false,"time":2,"i_long":106.820901,"i_lat":-6.141205,"line":7},{"station_name":"Jakarta Kota","transit":true,"i_long":106.812439,"station_id":"JAKK","is_transit":true,"distance":1264,"time":4,"i_lat":-6.137569,"line":0},{"time":3,"i_long":106.826365,"is_transit":true,"station_name":"Kampung Bandan","transit":true,"line":0,"i_lat":-6.132549,"station_id":"KPB","distance":1364},{"is_transit":false,"distance":1444,"line":11,"transit":false,"i_lat":-6.14505,"time":3,"i_long":106.836569,"station_name":"Rajawali","station_id":"RJW"},{"station_name":"Kemayoran","transit":false,"time":5,"station_id":"KMO","line":11,"distance":1901,"i_long":106.839204,"i_lat":-6.161728,"is_transit":false},{"time":4,"line":11,"is_transit":false,"i_lat":-6.174784,"i_long":106.84368,"station_id":"PSE","transit":false,"distance":1436,"station_name":"Pasar Senen"},{"station_id":"GST","line":11,"is_transit":false,"transit":false,"distance":1567,"i_lat":-6.185975,"i_long":106.850107,"time":8,"station_name":"Gang Sentiong"},{"station_name":"Kramat","line":11,"distance":973,"i_lat":-6.193792,"is_transit":false,"station_id":"KMT","transit":false,"time":1,"i_long":106.855437},{"time":2,"i_lat":-6.209188,"line":11,"is_transit":false,"station_id":"POK","i_long":106.861737,"transit":false,"station_name":"Pondok Jati","distance":1829},{"is_transit":true,"station_name":"Jatinegara","i_long":106.86807400000001,"station_id":"JNG","distance":1236,"transit":false,"i_lat":-6.215091,"time":9,"line":0}]]}