{"data":[[{"transit":false,"i_lat":-6.176583,"is_transit":false,"station_id":"TNG","station_name":"Tangerang","time":0,"i_long":106.632761,"line":5,"distance":0},{"distance":1547,"transit":false,"line":5,"i_lat":-6.17331,"is_transit":false,"time":3,"station_name":"Tanah Tinggi","i_long":106.64657,"station_id":"THI"},{"station_name":"Batuceper","transit":false,"i_lat":-6.171811,"line":5,"i_long":106.665036,"time":3,"station_id":"BPR","distance":2028,"is_transit":false},{"is_transit":false,"station_id":"PI","transit":false,"station_name":"Poris","time":3,"distance":1834,"i_lat":-6.169933,"i_long":106.679458,"line":5},{"time":3,"is_transit":false,"transit":false,"distance":2548,"station_id":"KDS","station_name":"Kalideres","i_lat":-6.166068,"i_long":106.701612,"line":5},{"i_long":106.723064,"time":3,"station_name":"Rawa Buaya","distance":2504,"transit":false,"i_lat":-6.162758,"station_id":"RW","is_transit":false,"line":5},{"time":4,"i_lat":-6.159876,"i_long":106.737035,"station_id":"BOI","is_transit":false,"transit":false,"station_name":"Bojongindah","distance":1152,"line":5},{"time":2,"transit":false,"line":5,"station_name":"Taman Kota","i_lat":-6.1587309999999995,"station_id":"TKO","i_long":106.756522,"distance":2334,"is_transit":false},{"i_long":106.771379,"is_transit":false,"station_id":"PSG","transit":false,"distance":1614,"station_name":"Pesing","i_lat":-6.161433,"time":2,"line":5},{"time":2,"distance":2036,"station_id":"GRG","transit":false,"is_transit":false,"station_name":"Grogol","i_lat":-6.162021,"i_long":106.788277,"line":5},{"line":1,"transit":true,"station_id":"DU","is_transit":true,"i_long":106.800832,"i_lat":-6.155215,"time":3,"distance":1700,"station_name":"Duri"},{"time":8,"transit":false,"is_transit":false,"i_lat":-6.185545,"i_long":106.811091,"distance":3632,"station_name":"Tanah Abang","line":1,"station_id":"THB"},{"station_id":"KAT","time":5,"distance":2029,"transit":false,"i_long":106.816351,"line":1,"is_transit":false,"station_name":"Karet","i_lat":-6.20132},{"i_long":106.819881,"line":1,"distance":471,"station_name":"Sudirman Baru","is_transit":false,"station_id":"SUDB","transit":false,"time":1,"i_lat":-6.201433},{"distance":280,"line":1,"station_name":"Sudirman","time":1,"i_long":106.822649,"is_transit":false,"transit":false,"station_id":"SUD","i_lat":-6.202263},{"i_long":106.84912,"line":2,"i_lat":-6.209883,"time":4,"station_id":"MRI","is_transit":true,"station_name":"Manggarai","transit":true,"distance":3186},{"transit":false,"line":2,"station_name":"Tebet","i_long":106.857948,"time":4,"station_id":"TEB","is_transit":false,"i_lat":-6.226659,"distance":2610},{"time":2,"is_transit":false,"station_id":"CW","station_name":"Cawang","transit":false,"line":2,"i_lat":-6.242512,"distance":1230,"i_long":106.856607},{"distance":1546,"i_long":106.85449,"time":3,"line":2,"is_transit":false,"transit":false,"station_name":"Duren Kalibata","station_id":"DRN","i_lat":-6.255332},{"station_name":"Pasar Minggu Baru","i_lat":-6.263214,"is_transit":false,"station_id":"PSMB","time":2,"line":2,"distance":824,"transit":false,"i_long":106.851577},{"station_name":"Pasar Minggu","transit":false,"distance":2380,"station_id":"PSM","line":2,"i_long":106.843999,"time":2,"is_transit":false,"i_lat":-6.2842400000000005},{"distance":2820,"station_name":"Tanjung Barat","i_long":106.838896,"transit":false,"time":4,"is_transit":false,"i_lat":-6.3080680000000005,"station_id":"TNT","line":2},{"station_id":"LNA","station_name":"Lenteng Agung","i_lat":-6.330363,"i_long":106.832616,"is_transit":false,"distance":2671,"transit":false,"time":3,"line":2},{"time":2,"transit":false,"i_lat":-6.339291,"station_name":"Univ. Pancasila","i_long":106.834175,"station_id":"UP","distance":1029,"line":2,"is_transit":false},{"is_transit":false,"station_id":"UI","distance":2264,"line":2,"transit":false,"time":3,"station_name":"Univ. Indonesia","i_lat":-6.360749,"i_long":106.831474},{"i_long":106.831114,"line":2,"time":2,"station_id":"POC","is_transit":false,"station_name":"Pondok Cina","distance":1109,"transit":false,"i_lat":-6.369073},{"distance":2727,"station_name":"Depokbaru","i_lat":-6.391065,"is_transit":false,"line":2,"transit":false,"time":4,"i_long":106.819451,"station_id":"DPB"},{"is_transit":false,"distance":1584,"line":2,"transit":false,"station_name":"Depok","i_long":106.816926,"time":3,"station_id":"DP","i_lat":-6.405256},{"station_id":"CTA","time":6,"i_lat":-6.448811,"distance":5084,"line":2,"i_long":106.800298,"transit":false,"is_transit":false,"station_name":"Citayam"},{"transit":false,"station_name":"Bojonggede","time":5,"station_id":"BJD","i_long":106.792719,"line":2,"i_lat":-6.493243,"distance":5197,"is_transit":false}],[{"line":5,"i_long":106.632761,"i_lat":-6.176583,"transit":false,"distance":0,"is_transit":false,"station_name":"Tangerang","station_id":"TNG","time":0},{"i_lat":-6.17331,"line":5,"station_name":"Tanah Tinggi","is_transit":false,"transit":false,"time":3,"station_id":"THI","i_long":106.64657,"distance":1547},{"line":5,"distance":2028,"time":3,"station_name":"Batuceper","is_transit":false,"transit":false,"i_lat":-6.171811,"i_long":106.665036,"station_id":"BPR"},{"station_name":"Poris","distance":1834,"time":3,"is_transit":false,"line":5,"i_lat":-6.169933,"i_long":106.679458,"transit":false,"station_id":"PI"},{"i_long":106.701612,"distance":2548,"time":3,"is_transit":false,"station_name":"Kalideres","transit":false,"station_id":"KDS","line":5,"i_lat":-6.166068},{"distance":2504,"i_long":106.723064,"line":5,"is_transit":false,"i_lat":-6.162758,"transit":false,"time":3,"station_name":"Rawa Buaya","station_id":"RW"},{"time":4,"station_name":"Bojongindah","i_long":106.737035,"station_id":"BOI","i_lat":-6.159876,"distance":1152,"is_transit":false,"transit":false,"line":5},{"i_long":106.756522,"transit":false,"time":2,"station_id":"TKO","i_lat":-6.1587309999999995,"line":5,"station_name":"Taman Kota","is_transit":false,"distance":2334},{"station_id":"PSG","i_lat":-6.161433,"i_long":106.771379,"is_transit":false,"distance":1614,"line":5,"transit":false,"station_name":"Pesing","time":2},{"station_name":"Grogol","i_long":106.788277,"station_id":"GRG","line":5,"i_lat":-6.162021,"time":2,"transit":false,"distance":2036,"is_transit":false},{"transit":true,"station_name":"Duri","distance":1700,"i_long":106.800832,"line":1,"i_lat":-6.155215,"time":3,"station_id":"DU","is_transit":true},{"time":4,"distance":1230,"is_transit":false,"transit":false,"i_long":106.79867,"line":1,"station_name":"Angke","station_id":"AK","i_lat":-6.144674},{"station_id":"KPB","line":4,"time":9,"transit":true,"i_lat":-6.132549,"i_long":106.826365,"is_transit":true,"station_name":"Kampung Bandan","distance":4102},{"time":3,"station_name":"Jakarta Kota","distance":1364,"i_long":106.812439,"station_id":"JAKK","line":2,"transit":true,"i_lat":-6.137569,"is_transit":true},{"i_lat":-6.141205,"line":2,"station_id":"JAY","distance":1264,"time":4,"station_name":"Jayakarta","transit":false,"i_long":106.820901,"is_transit":false},{"line":2,"i_long":106.82482,"transit":false,"distance":1080,"station_name":"Manggabesar","station_id":"MGB","time":2,"i_lat":-6.149769,"is_transit":false},{"transit":false,"i_lat":-6.160725,"station_id":"SW","is_transit":false,"station_name":"Sawah Besar","time":2,"line":2,"distance":906,"i_long":106.827103},{"line":2,"time":2,"station_id":"JUA","station_name":"Juanda","distance":1149,"transit":false,"i_lat":-6.166716,"i_long":106.828284,"is_transit":false},{"i_long":106.832183,"i_lat":-6.186295,"is_transit":false,"line":2,"transit":false,"station_id":"GDD","time":4,"station_name":"Gondangdia","distance":2015},{"station_name":"Cikini","distance":1750,"transit":false,"i_long":106.840169,"i_lat":-6.198556,"station_id":"CKI","line":2,"time":3,"is_transit":false},{"station_name":"Manggarai","time":4,"station_id":"MRI","i_lat":-6.209883,"is_transit":false,"distance":1590,"transit":false,"i_long":106.84912,"line":2},{"station_id":"TEB","transit":false,"station_name":"Tebet","is_transit":false,"distance":2610,"i_lat":-6.226659,"line":2,"i_long":106.857948,"time":4},{"transit":false,"time":2,"line":2,"distance":1230,"i_lat":-6.242512,"station_name":"Cawang","station_id":"CW","is_transit":false,"i_long":106.856607},{"distance":1546,"i_long":106.85449,"line":2,"station_name":"Duren Kalibata","time":3,"station_id":"DRN","is_transit":false,"transit":false,"i_lat":-6.255332},{"i_long":106.851577,"transit":false,"line":2,"is_transit":false,"time":2,"station_id":"PSMB","i_lat":-6.263214,"distance":824,"station_name":"Pasar Minggu Baru"},{"time":2,"station_id":"PSM","i_lat":-6.2842400000000005,"i_long":106.843999,"is_transit":false,"station_name":"Pasar Minggu","line":2,"transit":false,"distance":2380},{"is_transit":false,"line":2,"station_name":"Tanjung Barat","station_id":"TNT","i_lat":-6.3080680000000005,"time":4,"i_long":106.838896,"transit":false,"distance":2820},{"distance":2671,"time":3,"is_transit":false,"station_id":"LNA","station_name":"Lenteng Agung","transit":false,"i_lat":-6.330363,"i_long":106.832616,"line":2},{"station_id":"UP","i_long":106.834175,"station_name":"Univ. Pancasila","i_lat":-6.339291,"is_transit":false,"transit":false,"distance":1029,"time":2,"line":2},{"line":2,"is_transit":false,"i_lat":-6.360749,"station_name":"Univ. Indonesia","transit":false,"time":3,"i_long":106.831474,"distance":2264,"station_id":"UI"},{"distance":1109,"station_id":"POC","station_name":"Pondok Cina","is_transit":false,"transit":false,"i_lat":-6.369073,"time":2,"line":2,"i_long":106.831114},{"transit":false,"station_id":"DPB","station_name":"Depokbaru","distance":2727,"time":4,"i_lat":-6.391065,"i_long":106.819451,"line":2,"is_transit":false},{"is_transit":false,"i_lat":-6.405256,"distance":1584,"station_name":"Depok","transit":false,"i_long":106.816926,"station_id":"DP","line":2,"time":3},{"line":2,"distance":5084,"time":6,"transit":false,"i_lat":-6.448811,"is_transit":false,"i_long":106.800298,"station_id":"CTA","station_name":"Citayam"},{"station_id":"BJD","distance":5197,"time":5,"transit":false,"i_lat":-6.493243,"is_transit":false,"line":2,"i_long":106.792719,"station_name":"Bojonggede"}],[{"line":5,"transit":false,"station_id":"TNG","i_lat":-6.176583,"is_transit":false,"station_name":"Tangerang","distance":0,"time":0,"i_long":106.632761},{"distance":1547,"i_lat":-6.17331,"transit":false,"station_name":"Tanah Tinggi","line":5,"i_long":106.64657,"time":3,"is_transit":false,"station_id":"THI"},{"i_lat":-6.171811,"time":3,"station_name":"Batuceper","distance":2028,"is_transit":false,"station_id":"BPR","line":5,"transit":false,"i_long":106.665036},{"station_id":"PI","time":3,"is_transit":false,"distance":1834,"line":5,"i_long":106.679458,"i_lat":-6.169933,"transit":false,"station_name":"Poris"},{"time":3,"station_name":"Kalideres","distance":2548,"transit":false,"i_lat":-6.166068,"is_transit":false,"i_long":106.701612,"station_id":"KDS","line":5},{"transit":false,"line":5,"distance":2504,"i_long":106.723064,"time":3,"i_lat":-6.162758,"is_transit":false,"station_id":"RW","station_name":"Rawa Buaya"},{"transit":false,"time":4,"station_id":"BOI","distance":1152,"i_long":106.737035,"i_lat":-6.159876,"is_transit":false,"station_name":"Bojongindah","line":5},{"transit":false,"i_long":106.756522,"is_transit":false,"i_lat":-6.1587309999999995,"line":5,"station_name":"Taman Kota","station_id":"TKO","distance":2334,"time":2},{"distance":1614,"time":2,"is_transit":false,"station_name":"Pesing","i_lat":-6.161433,"i_long":106.771379,"transit":false,"station_id":"PSG","line":5},{"station_id":"GRG","line":5,"transit":false,"is_transit":false,"distance":2036,"station_name":"Grogol","time":2,"i_lat":-6.162021,"i_long":106.788277},{"is_transit":true,"distance":1700,"transit":true,"i_lat":-6.155215,"time":3,"station_id":"DU","line":1,"station_name":"Duri","i_long":106.800832},{"line":1,"time":4,"transit":false,"i_lat":-6.144674,"is_transit":false,"station_name":"Angke","station_id":"AK","distance":1230,"i_long":106.79867},{"station_id":"KPB","station_name":"Kampung Bandan","transit":true,"i_lat":-6.132549,"is_transit":true,"i_long":106.826365,"time":9,"distance":4102,"line":4},{"distance":1444,"is_transit":false,"station_id":"RJW","transit":false,"time":3,"line":11,"i_lat":-6.14505,"station_name":"Rajawali","i_long":106.836569},{"is_transit":false,"transit":false,"i_lat":-6.161728,"i_long":106.839204,"station_name":"Kemayoran","line":11,"distance":1901,"time":5,"station_id":"KMO"},{"station_name":"Pasar Senen","line":11,"transit":false,"station_id":"PSE","distance":1436,"i_lat":-6.174784,"time":4,"is_transit":false,"i_long":106.84368},{"time":8,"i_long":106.850107,"station_name":"Gang Sentiong","transit":false,"is_transit":false,"i_lat":-6.185975,"line":11,"distance":1567,"station_id":"GST"},{"is_transit":false,"line":11,"distance":973,"station_name":"Kramat","station_id":"KMT","time":1,"i_lat":-6.193792,"transit":false,"i_long":106.855437},{"station_id":"POK","i_long":106.861737,"line":11,"distance":1829,"time":2,"i_lat":-6.209188,"is_transit":false,"transit":false,"station_name":"Pondok Jati"},{"station_name":"Jatinegara","i_lat":-6.215091,"station_id":"JNG","transit":true,"is_transit":true,"i_long":106.86807400000001,"line":1,"distance":1236,"time":9},{"line":1,"station_id":"MTR","time":2,"i_lat":-6.212485,"distance":1377,"station_name":"Matraman","is_transit":false,"transit":false,"i_long":106.858896},{"distance":1275,"i_lat":-6.209883,"transit":true,"is_transit":true,"station_id":"MRI","station_name":"Manggarai","i_long":106.84912,"time":2,"line":2},{"station_name":"Tebet","i_lat":-6.226659,"distance":2610,"i_long":106.857948,"time":4,"station_id":"TEB","transit":false,"line":2,"is_transit":false},{"transit":false,"i_lat":-6.242512,"time":2,"is_transit":false,"distance":1230,"station_name":"Cawang","station_id":"CW","i_long":106.856607,"line":2},{"line":2,"i_lat":-6.255332,"distance":1546,"time":3,"station_id":"DRN","station_name":"Duren Kalibata","transit":false,"is_transit":false,"i_long":106.85449},{"time":2,"is_transit":false,"station_name":"Pasar Minggu Baru","i_lat":-6.263214,"distance":824,"line":2,"station_id":"PSMB","transit":false,"i_long":106.851577},{"i_long":106.843999,"station_id":"PSM","distance":2380,"line":2,"i_lat":-6.2842400000000005,"transit":false,"station_name":"Pasar Minggu","time":2,"is_transit":false},{"distance":2820,"time":4,"station_name":"Tanjung Barat","transit":false,"i_long":106.838896,"station_id":"TNT","line":2,"i_lat":-6.3080680000000005,"is_transit":false},{"station_name":"Lenteng Agung","time":3,"distance":2671,"line":2,"i_lat":-6.330363,"station_id":"LNA","is_transit":false,"transit":false,"i_long":106.832616},{"i_lat":-6.339291,"i_long":106.834175,"distance":1029,"time":2,"station_id":"UP","is_transit":false,"station_name":"Univ. Pancasila","transit":false,"line":2},{"is_transit":false,"station_name":"Univ. Indonesia","station_id":"UI","i_long":106.831474,"line":2,"distance":2264,"i_lat":-6.360749,"time":3,"transit":false},{"transit":false,"station_name":"Pondok Cina","station_id":"POC","i_lat":-6.369073,"i_long":106.831114,"line":2,"time":2,"is_transit":false,"distance":1109},{"line":2,"time":4,"distance":2727,"is_transit":false,"station_name":"Depokbaru","transit":false,"i_lat":-6.391065,"i_long":106.819451,"station_id":"DPB"},{"i_long":106.816926,"station_id":"DP","is_transit":false,"distance":1584,"time":3,"station_name":"Depok","transit":false,"i_lat":-6.405256,"line":2},{"time":6,"is_transit":false,"transit":false,"distance":5084,"station_name":"Citayam","line":2,"station_id":"CTA","i_long":106.800298,"i_lat":-6.448811},{"transit":false,"distance":5197,"i_lat":-6.493243,"is_transit":false,"line":2,"time":5,"station_id":"BJD","i_long":106.792719,"station_name":"Bojonggede"}]]}