{"data":[[{"line":5,"time":0,"distance":0,"station_id":"TNG","transit":false,"i_long":106.632761,"is_transit":false,"i_lat":-6.176583,"station_name":"Tangerang"},{"distance":1547,"station_id":"TTI","transit":false,"station_name":"Tanah Tinggi","i_long":106.64657,"line":5,"is_transit":false,"i_lat":-6.17331,"time":3},{"transit":false,"line":0,"time":3,"i_lat":-6.171811,"distance":2028,"i_long":106.665036,"station_name":"Batuceper","station_id":"BPR","is_transit":false},{"time":3,"line":5,"distance":1834,"is_transit":false,"i_lat":-6.169933,"station_id":"PI","station_name":"Poris","transit":false,"i_long":106.679458},{"i_lat":-6.166068,"is_transit":false,"i_long":106.701612,"line":5,"station_id":"KDS","transit":false,"station_name":"Kalideres","distance":2548,"time":3},{"station_name":"Rawa Buaya","station_id":"RW","time":3,"is_transit":false,"transit":false,"distance":2504,"line":5,"i_lat":-6.162758,"i_long":106.723064},{"station_name":"Bojongindah","station_id":"BOI","i_long":106.737035,"is_transit":false,"time":4,"distance":1152,"transit":false,"i_lat":-6.159876,"line":0},{"i_lat":-6.1587309999999995,"i_long":106.756522,"distance":2334,"transit":false,"line":5,"station_id":"TKO","station_name":"Taman Kota","is_transit":false,"time":2},{"station_name":"Pesing","is_transit":false,"transit":false,"time":2,"distance":1614,"i_long":106.771379,"i_lat":-6.161433,"station_id":"PSG","line":5},{"station_name":"Grogol","i_lat":-6.162021,"time":2,"i_long":106.788277,"line":5,"is_transit":false,"transit":false,"distance":2036,"station_id":"GGL"},{"time":3,"distance":1700,"line":1,"is_transit":true,"transit":true,"i_long":106.800832,"i_lat":-6.155215,"station_id":"DU","station_name":"Duri"},{"station_id":"THB","station_name":"Tanah Abang","is_transit":true,"time":8,"distance":3632,"i_lat":-6.185545,"i_long":106.811091,"transit":true,"line":1},{"i_long":106.79689,"time":6,"transit":false,"station_name":"Palmerah","line":6,"station_id":"PLM","i_lat":-6.207404,"distance":3191,"is_transit":false},{"line":6,"i_lat":-6.237242,"station_name":"Kebayoran","station_id":"KBY","i_long":106.780334,"distance":3737,"time":7,"transit":false,"is_transit":false},{"transit":false,"i_lat":-6.276362,"station_name":"Pondokranji","distance":6218,"station_id":"PDJ","i_long":106.74273,"line":6,"time":8,"is_transit":false},{"distance":2179,"station_id":"JMU","transit":false,"i_long":106.728916,"is_transit":false,"station_name":"Jurangmangu","line":6,"i_lat":-6.288927,"time":3},{"i_lat":-6.296963,"station_id":"SDM","station_name":"Sudimara","transit":false,"time":4,"is_transit":false,"distance":1994,"i_long":106.712277,"line":6},{"transit":false,"line":6,"station_id":"RU","time":6,"station_name":"Rawa Buntu","is_transit":false,"distance":4566,"i_lat":-6.314823,"i_long":106.675475},{"distance":2413,"time":4,"transit":false,"i_lat":-6.319871,"station_id":"SRP","line":6,"i_long":106.66566,"is_transit":false,"station_name":"Serpong"},{"time":4,"station_name":"Cisauk","i_lat":-6.32484,"station_id":"CSK","distance":1784,"i_long":106.640411,"transit":false,"line":0,"is_transit":false},{"time":4,"is_transit":false,"station_name":"Cicayur","transit":false,"i_lat":-6.329547,"i_long":106.617853,"line":0,"distance":2519,"station_id":"CC"},{"distance":5968,"i_long":106.568863,"time":8,"line":6,"is_transit":false,"i_lat":-6.3441410000000005,"station_name":"Parung Panjang","station_id":"PRP","transit":false},{"line":0,"station_name":"Cilejit","is_transit":false,"station_id":"CJT","time":9,"distance":7025,"i_long":106.508482,"i_lat":-6.354349,"transit":false},{"station_id":"DAR","i_lat":-6.338021,"i_long":106.491338,"line":0,"station_name":"Daru","distance":2675,"transit":false,"is_transit":false,"time":6},{"line":6,"distance":3902,"time":5,"station_id":"TEJ","transit":false,"station_name":"Tenjo","i_long":106.460812,"i_lat":-6.327251,"is_transit":false},{"line":6,"transit":false,"i_lat":-6.328533,"i_long":106.425991,"time":5,"station_id":"TGS","distance":2974,"is_transit":false,"station_name":"Tigaraksa"},{"distance":2651,"transit":false,"time":3,"station_id":"CKY","i_long":106.411216,"is_transit":false,"station_name":"Cikoya","line":0,"i_lat":-6.33561}],[{"distance":0,"line":5,"transit":false,"station_id":"TNG","time":0,"is_transit":false,"i_lat":-6.176583,"i_long":106.632761,"station_name":"Tangerang"},{"station_name":"Tanah Tinggi","station_id":"TTI","distance":1547,"is_transit":false,"time":3,"transit":false,"i_lat":-6.17331,"line":5,"i_long":106.64657},{"is_transit":false,"transit":false,"time":3,"station_id":"BPR","i_lat":-6.171811,"station_name":"Batuceper","line":0,"distance":2028,"i_long":106.665036},{"transit":false,"station_name":"Poris","i_long":106.679458,"time":3,"station_id":"PI","is_transit":false,"line":5,"distance":1834,"i_lat":-6.169933},{"is_transit":false,"distance":2548,"i_lat":-6.166068,"time":3,"i_long":106.701612,"station_id":"KDS","station_name":"Kalideres","transit":false,"line":5},{"station_id":"RW","i_lat":-6.162758,"distance":2504,"transit":false,"i_long":106.723064,"is_transit":false,"station_name":"Rawa Buaya","line":5,"time":3},{"is_transit":false,"i_long":106.737035,"line":0,"i_lat":-6.159876,"transit":false,"station_id":"BOI","time":4,"distance":1152,"station_name":"Bojongindah"},{"station_name":"Taman Kota","is_transit":false,"station_id":"TKO","distance":2334,"time":2,"transit":false,"line":5,"i_lat":-6.1587309999999995,"i_long":106.756522},{"station_name":"Pesing","line":5,"time":2,"i_long":106.771379,"transit":false,"is_transit":false,"i_lat":-6.161433,"distance":1614,"station_id":"PSG"},{"station_id":"GGL","station_name":"Grogol","time":2,"i_long":106.788277,"is_transit":false,"transit":false,"line":5,"distance":2036,"i_lat":-6.162021},{"station_id":"DU","transit":true,"station_name":"Duri","distance":1700,"time":3,"line":1,"i_long":106.800832,"is_transit":true,"i_lat":-6.155215},{"distance":1230,"time":4,"i_lat":-6.144674,"is_transit":false,"line":0,"i_long":106.79867,"station_name":"Angke","station_id":"AK","transit":false},{"line":0,"is_transit":true,"distance":4102,"i_long":106.826365,"station_name":"Kampung Bandan","station_id":"KPB","transit":false,"time":9,"i_lat":-6.132549},{"station_name":"Jakarta Kota","time":3,"i_lat":-6.137569,"line":0,"transit":true,"i_long":106.812439,"is_transit":true,"station_id":"JAKK","distance":1364},{"is_transit":false,"time":4,"distance":1264,"i_lat":-6.141205,"transit":false,"i_long":106.820901,"line":7,"station_id":"JAY","station_name":"Jayakarta"},{"i_lat":-6.149769,"is_transit":false,"distance":1080,"time":2,"station_id":"MGB","station_name":"Manggabesar","i_long":106.82482,"transit":false,"line":2},{"is_transit":false,"i_long":106.827103,"station_name":"Sawah Besar","station_id":"SW","time":2,"transit":false,"i_lat":-6.160725,"distance":906,"line":2},{"line":2,"is_transit":false,"distance":1149,"time":2,"station_name":"Juanda","station_id":"JUA","i_long":106.828284,"transit":false,"i_lat":-6.166716},{"i_long":106.832183,"i_lat":-6.186295,"line":2,"distance":2015,"is_transit":false,"time":4,"transit":false,"station_id":"GDD","station_name":"Gondangdia"},{"i_long":106.840169,"time":3,"line":0,"distance":1750,"station_id":"CKI","station_name":"Cikini","is_transit":false,"transit":false,"i_lat":-6.198556},{"i_lat":-6.209883,"station_name":"Manggarai","i_long":106.84912,"transit":true,"distance":1590,"time":4,"line":0,"is_transit":true,"station_id":"MRI"},{"transit":false,"i_lat":-6.202263,"is_transit":false,"time":4,"station_name":"Sudirman","line":1,"distance":3186,"station_id":"SUD","i_long":106.822649},{"i_lat":-6.201433,"transit":false,"time":1,"station_id":"SUDB","distance":280,"is_transit":false,"i_long":106.819881,"line":1,"station_name":"Sudirman Baru"},{"station_name":"Karet","is_transit":false,"i_long":106.816351,"distance":471,"time":1,"i_lat":-6.20132,"station_id":"KAT","transit":false,"line":1},{"station_name":"Tanah Abang","line":1,"i_long":106.811091,"transit":true,"station_id":"THB","distance":2029,"time":5,"i_lat":-6.185545,"is_transit":true},{"distance":3191,"time":6,"transit":false,"i_long":106.79689,"station_id":"PLM","i_lat":-6.207404,"is_transit":false,"station_name":"Palmerah","line":6},{"time":7,"transit":false,"i_lat":-6.237242,"is_transit":false,"station_id":"KBY","i_long":106.780334,"station_name":"Kebayoran","line":6,"distance":3737},{"station_id":"PDJ","transit":false,"i_long":106.74273,"time":8,"station_name":"Pondokranji","distance":6218,"is_transit":false,"i_lat":-6.276362,"line":6},{"time":3,"i_lat":-6.288927,"is_transit":false,"transit":false,"i_long":106.728916,"station_id":"JMU","station_name":"Jurangmangu","line":6,"distance":2179},{"station_name":"Sudimara","is_transit":false,"time":4,"station_id":"SDM","line":6,"transit":false,"i_lat":-6.296963,"i_long":106.712277,"distance":1994},{"is_transit":false,"i_lat":-6.314823,"i_long":106.675475,"transit":false,"time":6,"line":6,"station_name":"Rawa Buntu","station_id":"RU","distance":4566},{"is_transit":false,"time":4,"station_name":"Serpong","i_lat":-6.319871,"line":6,"station_id":"SRP","i_long":106.66566,"distance":2413,"transit":false},{"station_name":"Cisauk","i_lat":-6.32484,"station_id":"CSK","transit":false,"distance":1784,"is_transit":false,"time":4,"i_long":106.640411,"line":0},{"i_long":106.617853,"distance":2519,"station_name":"Cicayur","line":0,"is_transit":false,"time":4,"i_lat":-6.329547,"station_id":"CC","transit":false},{"transit":false,"i_long":106.568863,"distance":5968,"is_transit":false,"time":8,"i_lat":-6.3441410000000005,"line":6,"station_id":"PRP","station_name":"Parung Panjang"},{"time":9,"transit":false,"i_lat":-6.354349,"line":0,"station_name":"Cilejit","is_transit":false,"i_long":106.508482,"station_id":"CJT","distance":7025},{"transit":false,"distance":2675,"is_transit":false,"station_name":"Daru","i_lat":-6.338021,"i_long":106.491338,"station_id":"DAR","time":6,"line":0},{"time":5,"i_lat":-6.327251,"is_transit":false,"station_name":"Tenjo","station_id":"TEJ","distance":3902,"line":6,"i_long":106.460812,"transit":false},{"is_transit":false,"i_lat":-6.328533,"line":6,"station_name":"Tigaraksa","station_id":"TGS","i_long":106.425991,"time":5,"transit":false,"distance":2974},{"is_transit":false,"time":3,"station_id":"CKY","line":0,"transit":false,"i_long":106.411216,"station_name":"Cikoya","distance":2651,"i_lat":-6.33561}],[{"is_transit":false,"time":0,"i_lat":-6.176583,"line":5,"i_long":106.632761,"station_name":"Tangerang","transit":false,"station_id":"TNG","distance":0},{"station_name":"Tanah Tinggi","transit":false,"i_lat":-6.17331,"i_long":106.64657,"is_transit":false,"line":5,"distance":1547,"time":3,"station_id":"TTI"},{"station_id":"BPR","distance":2028,"i_long":106.665036,"time":3,"is_transit":false,"i_lat":-6.171811,"transit":false,"station_name":"Batuceper","line":0},{"station_id":"PI","i_lat":-6.169933,"line":5,"time":3,"is_transit":false,"distance":1834,"transit":false,"i_long":106.679458,"station_name":"Poris"},{"i_long":106.701612,"distance":2548,"line":5,"i_lat":-6.166068,"transit":false,"station_id":"KDS","station_name":"Kalideres","time":3,"is_transit":false},{"time":3,"station_name":"Rawa Buaya","is_transit":false,"i_long":106.723064,"transit":false,"i_lat":-6.162758,"distance":2504,"station_id":"RW","line":5},{"distance":1152,"transit":false,"i_lat":-6.159876,"line":0,"is_transit":false,"station_id":"BOI","i_long":106.737035,"station_name":"Bojongindah","time":4},{"i_lat":-6.1587309999999995,"i_long":106.756522,"line":5,"station_name":"Taman Kota","distance":2334,"is_transit":false,"transit":false,"station_id":"TKO","time":2},{"i_long":106.771379,"distance":1614,"transit":false,"station_name":"Pesing","line":5,"station_id":"PSG","is_transit":false,"time":2,"i_lat":-6.161433},{"is_transit":false,"time":2,"station_id":"GGL","transit":false,"line":5,"i_lat":-6.162021,"i_long":106.788277,"station_name":"Grogol","distance":2036},{"i_lat":-6.155215,"station_id":"DU","distance":1700,"station_name":"Duri","is_transit":true,"time":3,"transit":true,"i_long":106.800832,"line":1},{"station_id":"AK","time":4,"transit":false,"distance":1230,"i_lat":-6.144674,"line":0,"i_long":106.79867,"station_name":"Angke","is_transit":false},{"station_id":"KPB","station_name":"Kampung Bandan","line":0,"distance":4102,"time":9,"i_long":106.826365,"is_transit":true,"transit":true,"i_lat":-6.132549},{"distance":1444,"is_transit":false,"transit":false,"station_id":"RJW","i_lat":-6.14505,"line":11,"time":3,"station_name":"Rajawali","i_long":106.836569},{"station_name":"Kemayoran","distance":1901,"time":5,"transit":false,"i_lat":-6.161728,"i_long":106.839204,"station_id":"KMO","line":11,"is_transit":false},{"distance":1436,"station_name":"Pasar Senen","is_transit":false,"station_id":"PSE","line":11,"i_lat":-6.174784,"i_long":106.84368,"time":4,"transit":false},{"distance":1567,"i_long":106.850107,"line":11,"station_id":"GST","i_lat":-6.185975,"transit":false,"station_name":"Gang Sentiong","is_transit":false,"time":8},{"i_lat":-6.193792,"time":1,"distance":973,"line":11,"transit":false,"i_long":106.855437,"is_transit":false,"station_name":"Kramat","station_id":"KMT"},{"station_name":"Pondok Jati","transit":false,"station_id":"POK","distance":1829,"i_long":106.861737,"is_transit":false,"line":11,"i_lat":-6.209188,"time":2},{"transit":true,"station_id":"JNG","distance":1236,"time":9,"i_lat":-6.215091,"is_transit":true,"line":0,"station_name":"Jatinegara","i_long":106.86807400000001},{"distance":1377,"station_name":"Matraman","time":2,"is_transit":false,"i_lat":-6.212485,"line":1,"transit":false,"station_id":"MTR","i_long":106.858896},{"i_lat":-6.209883,"station_name":"Manggarai","time":2,"distance":1275,"is_transit":true,"station_id":"MRI","i_long":106.84912,"line":0,"transit":false},{"station_id":"SUD","i_lat":-6.202263,"i_long":106.822649,"line":1,"transit":false,"station_name":"Sudirman","distance":3186,"time":4,"is_transit":false},{"is_transit":false,"transit":false,"i_long":106.819881,"i_lat":-6.201433,"distance":280,"time":1,"line":1,"station_name":"Sudirman Baru","station_id":"SUDB"},{"transit":false,"distance":471,"station_name":"Karet","time":1,"i_lat":-6.20132,"station_id":"KAT","i_long":106.816351,"line":1,"is_transit":false},{"time":5,"station_id":"THB","i_long":106.811091,"line":1,"distance":2029,"station_name":"Tanah Abang","is_transit":true,"transit":true,"i_lat":-6.185545},{"i_lat":-6.207404,"i_long":106.79689,"line":6,"station_name":"Palmerah","station_id":"PLM","time":6,"is_transit":false,"distance":3191,"transit":false},{"station_id":"KBY","is_transit":false,"i_lat":-6.237242,"time":7,"transit":false,"i_long":106.780334,"line":6,"distance":3737,"station_name":"Kebayoran"},{"transit":false,"i_lat":-6.276362,"line":6,"is_transit":false,"station_id":"PDJ","i_long":106.74273,"distance":6218,"station_name":"Pondokranji","time":8},{"is_transit":false,"time":3,"transit":false,"i_lat":-6.288927,"i_long":106.728916,"station_id":"JMU","station_name":"Jurangmangu","distance":2179,"line":6},{"time":4,"transit":false,"i_long":106.712277,"i_lat":-6.296963,"line":6,"station_name":"Sudimara","station_id":"SDM","distance":1994,"is_transit":false},{"is_transit":false,"time":6,"i_long":106.675475,"i_lat":-6.314823,"station_name":"Rawa Buntu","station_id":"RU","transit":false,"line":6,"distance":4566},{"station_name":"Serpong","i_long":106.66566,"station_id":"SRP","line":6,"time":4,"transit":false,"i_lat":-6.319871,"is_transit":false,"distance":2413},{"time":4,"station_id":"CSK","distance":1784,"transit":false,"i_lat":-6.32484,"station_name":"Cisauk","i_long":106.640411,"line":0,"is_transit":false},{"is_transit":false,"transit":false,"line":0,"distance":2519,"station_name":"Cicayur","time":4,"i_long":106.617853,"i_lat":-6.329547,"station_id":"CC"},{"is_transit":false,"i_lat":-6.3441410000000005,"line":6,"i_long":106.568863,"distance":5968,"station_name":"Parung Panjang","station_id":"PRP","time":8,"transit":false},{"time":9,"i_long":106.508482,"station_id":"CJT","i_lat":-6.354349,"distance":7025,"is_transit":false,"transit":false,"line":0,"station_name":"Cilejit"},{"distance":2675,"transit":false,"time":6,"station_name":"Daru","i_lat":-6.338021,"line":0,"is_transit":false,"i_long":106.491338,"station_id":"DAR"},{"time":5,"station_name":"Tenjo","i_long":106.460812,"is_transit":false,"transit":false,"station_id":"TEJ","distance":3902,"i_lat":-6.327251,"line":6},{"station_name":"Tigaraksa","distance":2974,"station_id":"TGS","is_transit":false,"time":5,"transit":false,"i_lat":-6.328533,"i_long":106.425991,"line":6},{"line":0,"is_transit":false,"station_id":"CKY","distance":2651,"i_long":106.411216,"station_name":"Cikoya","time":3,"i_lat":-6.33561,"transit":false}]]}