{"data":[[{"station_name":"Tangerang","time":0,"distance":0,"i_lat":-6.176583,"station_id":"TNG","i_long":106.632761,"line":5,"is_transit":false,"transit":false},{"station_name":"Tanah Tinggi","station_id":"TTI","i_long":106.64657,"time":3,"line":5,"transit":false,"i_lat":-6.17331,"is_transit":false,"distance":1547},{"is_transit":false,"transit":false,"i_lat":-6.171811,"time":3,"distance":2028,"station_id":"BPR","station_name":"Batuceper","i_long":106.665036,"line":5},{"time":3,"i_lat":-6.169933,"transit":false,"station_name":"Poris","line":5,"station_id":"PI","distance":1834,"i_long":106.679458,"is_transit":false},{"station_name":"Kalideres","distance":2548,"transit":false,"time":3,"station_id":"KDS","i_lat":-6.166068,"line":5,"i_long":106.701612,"is_transit":false},{"line":5,"station_name":"Rawa Buaya","is_transit":false,"transit":false,"i_long":106.723064,"distance":2504,"time":3,"i_lat":-6.162758,"station_id":"RW"},{"station_name":"Bojongindah","distance":1152,"station_id":"BOI","is_transit":false,"i_lat":-6.159876,"i_long":106.737035,"line":5,"transit":false,"time":4},{"transit":false,"time":2,"i_lat":-6.1587309999999995,"i_long":106.756522,"distance":2334,"line":5,"station_name":"Taman Kota","is_transit":false,"station_id":"TKO"},{"station_name":"Pesing","line":5,"transit":false,"distance":1614,"i_lat":-6.161433,"is_transit":false,"i_long":106.771379,"station_id":"PSG","time":2},{"i_lat":-6.162021,"line":5,"i_long":106.788277,"transit":false,"station_name":"Grogol","station_id":"GGL","is_transit":false,"distance":2036,"time":2},{"is_transit":true,"time":3,"station_name":"Duri","i_long":106.800832,"transit":true,"i_lat":-6.155215,"station_id":"DU","line":1,"distance":1700},{"i_lat":-6.185545,"i_long":106.811091,"line":1,"station_id":"THB","transit":false,"station_name":"Tanah Abang","distance":3632,"is_transit":false,"time":8},{"line":1,"transit":false,"i_lat":-6.20132,"i_long":106.816351,"station_id":"KAT","is_transit":false,"distance":2029,"time":5,"station_name":"Karet"},{"line":1,"time":1,"i_lat":-6.201433,"station_name":"Sudirman Baru","is_transit":false,"transit":false,"i_long":106.819881,"station_id":"SUDB","distance":471},{"station_id":"SUD","is_transit":false,"distance":280,"i_long":106.822649,"time":1,"i_lat":-6.202263,"transit":false,"line":1,"station_name":"Sudirman"},{"station_name":"Manggarai","transit":false,"i_long":106.84912,"line":2,"station_id":"MRI","is_transit":false,"i_lat":-6.209883,"time":4,"distance":3186},{"i_long":106.858896,"distance":1275,"station_name":"Matraman","line":1,"i_lat":-6.212485,"station_id":"MTR","transit":false,"is_transit":false,"time":2},{"station_name":"Jatinegara","i_long":106.86807400000001,"i_lat":-6.215091,"distance":1377,"line":1,"transit":false,"is_transit":false,"station_id":"JNG","time":8},{"is_transit":false,"line":1,"i_long":106.899548,"station_id":"KLD","distance":3395,"i_lat":-6.2135,"time":3,"station_name":"Klender","transit":false},{"station_id":"BUA","transit":false,"i_long":106.922662,"line":1,"i_lat":-6.215568,"is_transit":false,"time":2,"station_name":"Buaran","distance":3100},{"i_long":106.939679,"is_transit":false,"distance":1305,"station_name":"Klenderbaru","i_lat":-6.217455,"line":1,"transit":false,"time":1,"station_id":"KLDB"},{"time":8,"i_lat":-6.219053,"i_long":106.951283,"transit":false,"distance":1385,"station_id":"CUK","station_name":"Cakung","line":1,"is_transit":false}],[{"time":0,"i_long":106.632761,"distance":0,"is_transit":false,"station_id":"TNG","line":5,"i_lat":-6.176583,"station_name":"Tangerang","transit":false},{"distance":1547,"i_long":106.64657,"i_lat":-6.17331,"station_name":"Tanah Tinggi","station_id":"TTI","is_transit":false,"line":5,"time":3,"transit":false},{"time":3,"line":5,"i_long":106.665036,"transit":false,"is_transit":false,"station_name":"Batuceper","station_id":"BPR","i_lat":-6.171811,"distance":2028},{"station_name":"Poris","transit":false,"i_long":106.679458,"i_lat":-6.169933,"line":5,"time":3,"station_id":"PI","distance":1834,"is_transit":false},{"transit":false,"i_long":106.701612,"line":5,"time":3,"station_name":"Kalideres","distance":2548,"i_lat":-6.166068,"is_transit":false,"station_id":"KDS"},{"station_name":"Rawa Buaya","station_id":"RW","time":3,"i_lat":-6.162758,"is_transit":false,"transit":false,"distance":2504,"line":5,"i_long":106.723064},{"transit":false,"is_transit":false,"distance":1152,"line":5,"i_long":106.737035,"station_name":"Bojongindah","station_id":"BOI","time":4,"i_lat":-6.159876},{"station_name":"Taman Kota","i_lat":-6.1587309999999995,"line":5,"transit":false,"distance":2334,"is_transit":false,"time":2,"i_long":106.756522,"station_id":"TKO"},{"time":2,"distance":1614,"transit":false,"station_id":"PSG","i_lat":-6.161433,"is_transit":false,"line":5,"i_long":106.771379,"station_name":"Pesing"},{"i_long":106.788277,"station_id":"GGL","transit":false,"line":5,"distance":2036,"is_transit":false,"station_name":"Grogol","time":2,"i_lat":-6.162021},{"time":3,"distance":1700,"is_transit":true,"i_long":106.800832,"i_lat":-6.155215,"station_name":"Duri","line":1,"station_id":"DU","transit":true},{"transit":false,"station_name":"Angke","i_lat":-6.144674,"station_id":"AK","is_transit":false,"distance":1230,"time":4,"line":1,"i_long":106.79867},{"station_name":"Kampung Bandan","is_transit":true,"distance":4102,"time":9,"i_lat":-6.132549,"station_id":"KPB","transit":true,"line":4,"i_long":106.826365},{"time":3,"i_long":106.836569,"transit":false,"i_lat":-6.14505,"line":11,"station_name":"Rajawali","station_id":"RJW","distance":1444,"is_transit":false},{"i_lat":-6.161728,"transit":false,"i_long":106.839204,"line":11,"distance":1901,"station_id":"KMO","is_transit":false,"station_name":"Kemayoran","time":5},{"time":4,"line":11,"is_transit":false,"distance":1436,"station_name":"Pasar Senen","i_long":106.84368,"station_id":"PSE","transit":false,"i_lat":-6.174784},{"i_lat":-6.185975,"is_transit":false,"i_long":106.850107,"transit":false,"time":8,"station_id":"GST","distance":1567,"line":11,"station_name":"Gang Sentiong"},{"i_long":106.855437,"line":11,"station_id":"KMT","time":1,"i_lat":-6.193792,"is_transit":false,"transit":false,"station_name":"Kramat","distance":973},{"i_long":106.861737,"transit":false,"is_transit":false,"time":2,"line":11,"station_id":"POK","distance":1829,"station_name":"Pondok Jati","i_lat":-6.209188},{"time":9,"i_lat":-6.215091,"station_id":"JNG","line":1,"is_transit":true,"i_long":106.86807400000001,"distance":1236,"station_name":"Jatinegara","transit":true},{"is_transit":false,"i_long":106.899548,"distance":3395,"line":1,"transit":false,"i_lat":-6.2135,"station_id":"KLD","time":3,"station_name":"Klender"},{"i_long":106.922662,"time":2,"transit":false,"station_name":"Buaran","station_id":"BUA","distance":3100,"i_lat":-6.215568,"line":1,"is_transit":false},{"distance":1305,"station_name":"Klenderbaru","i_lat":-6.217455,"transit":false,"is_transit":false,"line":1,"time":1,"station_id":"KLDB","i_long":106.939679},{"transit":false,"distance":1385,"station_name":"Cakung","i_lat":-6.219053,"station_id":"CUK","is_transit":false,"time":8,"i_long":106.951283,"line":1}],[{"i_long":106.632761,"is_transit":false,"time":0,"distance":0,"i_lat":-6.176583,"transit":false,"station_name":"Tangerang","line":5,"station_id":"TNG"},{"transit":false,"station_id":"TTI","time":3,"distance":1547,"i_lat":-6.17331,"is_transit":false,"i_long":106.64657,"station_name":"Tanah Tinggi","line":5},{"station_id":"BPR","line":5,"transit":false,"i_lat":-6.171811,"i_long":106.665036,"is_transit":false,"station_name":"Batuceper","distance":2028,"time":3},{"station_name":"Poris","station_id":"PI","is_transit":false,"i_lat":-6.169933,"time":3,"distance":1834,"transit":false,"i_long":106.679458,"line":5},{"is_transit":false,"time":3,"distance":2548,"line":5,"transit":false,"i_lat":-6.166068,"i_long":106.701612,"station_name":"Kalideres","station_id":"KDS"},{"distance":2504,"i_long":106.723064,"station_id":"RW","time":3,"line":5,"transit":false,"is_transit":false,"i_lat":-6.162758,"station_name":"Rawa Buaya"},{"i_long":106.737035,"time":4,"i_lat":-6.159876,"distance":1152,"line":5,"transit":false,"is_transit":false,"station_name":"Bojongindah","station_id":"BOI"},{"is_transit":false,"transit":false,"station_name":"Taman Kota","time":2,"i_lat":-6.1587309999999995,"i_long":106.756522,"distance":2334,"line":5,"station_id":"TKO"},{"line":5,"transit":false,"station_name":"Pesing","station_id":"PSG","is_transit":false,"distance":1614,"i_lat":-6.161433,"i_long":106.771379,"time":2},{"line":5,"transit":false,"station_id":"GGL","distance":2036,"time":2,"is_transit":false,"station_name":"Grogol","i_lat":-6.162021,"i_long":106.788277},{"station_name":"Duri","i_lat":-6.155215,"line":1,"time":3,"i_long":106.800832,"transit":true,"station_id":"DU","is_transit":true,"distance":1700},{"transit":false,"station_name":"Angke","i_lat":-6.144674,"i_long":106.79867,"line":1,"distance":1230,"time":4,"is_transit":false,"station_id":"AK"},{"station_name":"Kampung Bandan","i_long":106.826365,"station_id":"KPB","i_lat":-6.132549,"is_transit":true,"time":9,"line":4,"transit":true,"distance":4102},{"i_long":106.812439,"station_name":"Jakarta Kota","distance":1364,"transit":true,"is_transit":true,"line":2,"station_id":"JAKK","time":3,"i_lat":-6.137569},{"is_transit":false,"station_name":"Jayakarta","line":2,"i_long":106.820901,"distance":1264,"time":4,"i_lat":-6.141205,"station_id":"JAY","transit":false},{"distance":1080,"is_transit":false,"line":2,"station_name":"Manggabesar","transit":false,"i_lat":-6.149769,"station_id":"MGB","time":2,"i_long":106.82482},{"station_name":"Sawah Besar","time":2,"station_id":"SW","distance":906,"transit":false,"i_lat":-6.160725,"i_long":106.827103,"line":2,"is_transit":false},{"i_long":106.828284,"transit":false,"distance":1149,"station_name":"Juanda","line":2,"station_id":"JUA","time":2,"is_transit":false,"i_lat":-6.166716},{"is_transit":false,"line":2,"station_id":"GDD","transit":false,"station_name":"Gondangdia","i_long":106.832183,"distance":2015,"time":4,"i_lat":-6.186295},{"time":3,"station_name":"Cikini","is_transit":false,"station_id":"CKI","line":2,"i_long":106.840169,"i_lat":-6.198556,"distance":1750,"transit":false},{"is_transit":true,"station_name":"Manggarai","time":4,"i_lat":-6.209883,"line":2,"i_long":106.84912,"distance":1590,"station_id":"MRI","transit":true},{"is_transit":false,"time":2,"line":1,"distance":1275,"i_long":106.858896,"station_id":"MTR","transit":false,"station_name":"Matraman","i_lat":-6.212485},{"is_transit":false,"distance":1377,"i_lat":-6.215091,"i_long":106.86807400000001,"station_name":"Jatinegara","time":8,"transit":false,"line":1,"station_id":"JNG"},{"station_id":"KLD","is_transit":false,"i_long":106.899548,"i_lat":-6.2135,"transit":false,"station_name":"Klender","distance":3395,"line":1,"time":3},{"transit":false,"is_transit":false,"distance":3100,"time":2,"i_lat":-6.215568,"i_long":106.922662,"station_id":"BUA","station_name":"Buaran","line":1},{"i_long":106.939679,"time":1,"distance":1305,"station_name":"Klenderbaru","transit":false,"station_id":"KLDB","is_transit":false,"line":1,"i_lat":-6.217455},{"distance":1385,"line":1,"station_id":"CUK","i_lat":-6.219053,"is_transit":false,"station_name":"Cakung","i_long":106.951283,"time":8,"transit":false}],[{"station_name":"Tangerang","time":0,"distance":0,"i_lat":-6.176583,"line":5,"transit":false,"i_long":106.632761,"station_id":"TNG","is_transit":false},{"line":5,"is_transit":false,"time":3,"i_long":106.64657,"transit":false,"station_name":"Tanah Tinggi","i_lat":-6.17331,"station_id":"TTI","distance":1547},{"distance":2028,"transit":false,"time":3,"station_name":"Batuceper","station_id":"BPR","i_long":106.665036,"is_transit":false,"i_lat":-6.171811,"line":5},{"line":5,"is_transit":false,"station_name":"Poris","station_id":"PI","distance":1834,"time":3,"transit":false,"i_lat":-6.169933,"i_long":106.679458},{"distance":2548,"station_name":"Kalideres","i_lat":-6.166068,"station_id":"KDS","i_long":106.701612,"transit":false,"is_transit":false,"line":5,"time":3},{"i_lat":-6.162758,"i_long":106.723064,"line":5,"is_transit":false,"station_id":"RW","distance":2504,"station_name":"Rawa Buaya","time":3,"transit":false},{"i_lat":-6.159876,"transit":false,"line":5,"is_transit":false,"station_id":"BOI","station_name":"Bojongindah","distance":1152,"i_long":106.737035,"time":4},{"i_lat":-6.1587309999999995,"i_long":106.756522,"line":5,"time":2,"distance":2334,"station_id":"TKO","is_transit":false,"station_name":"Taman Kota","transit":false},{"transit":false,"i_lat":-6.161433,"line":5,"station_name":"Pesing","station_id":"PSG","time":2,"is_transit":false,"distance":1614,"i_long":106.771379},{"i_lat":-6.162021,"line":5,"station_id":"GGL","transit":false,"distance":2036,"station_name":"Grogol","is_transit":false,"i_long":106.788277,"time":2},{"transit":true,"distance":1700,"i_lat":-6.155215,"line":1,"time":3,"is_transit":true,"station_name":"Duri","station_id":"DU","i_long":106.800832},{"time":8,"i_long":106.811091,"is_transit":false,"line":1,"station_name":"Tanah Abang","i_lat":-6.185545,"transit":false,"station_id":"THB","distance":3632},{"station_name":"Karet","i_long":106.816351,"is_transit":false,"time":5,"line":1,"station_id":"KAT","i_lat":-6.20132,"transit":false,"distance":2029},{"i_lat":-6.201433,"line":1,"time":1,"distance":471,"transit":false,"station_id":"SUDB","is_transit":false,"i_long":106.819881,"station_name":"Sudirman Baru"},{"line":1,"station_name":"Sudirman","station_id":"SUD","i_lat":-6.202263,"time":1,"transit":false,"distance":280,"is_transit":false,"i_long":106.822649},{"is_transit":true,"station_id":"MRI","transit":true,"distance":3186,"i_long":106.84912,"line":2,"i_lat":-6.209883,"time":4,"station_name":"Manggarai"},{"station_id":"CKI","i_lat":-6.198556,"line":2,"transit":false,"time":4,"distance":1590,"i_long":106.840169,"station_name":"Cikini","is_transit":false},{"transit":false,"station_id":"GDD","distance":1750,"station_name":"Gondangdia","i_lat":-6.186295,"line":2,"is_transit":false,"time":3,"i_long":106.832183},{"time":4,"station_id":"JUA","line":2,"station_name":"Juanda","transit":false,"i_lat":-6.166716,"i_long":106.828284,"distance":2015,"is_transit":false},{"time":2,"distance":1149,"transit":false,"i_lat":-6.160725,"station_id":"SW","station_name":"Sawah Besar","is_transit":false,"line":2,"i_long":106.827103},{"station_id":"MGB","distance":906,"i_lat":-6.149769,"transit":false,"is_transit":false,"station_name":"Manggabesar","time":2,"i_long":106.82482,"line":2},{"i_long":106.820901,"line":2,"transit":false,"station_name":"Jayakarta","is_transit":false,"time":2,"i_lat":-6.141205,"distance":1080,"station_id":"JAY"},{"i_long":106.812439,"i_lat":-6.137569,"is_transit":true,"distance":1264,"transit":true,"station_name":"Jakarta Kota","time":4,"line":2,"station_id":"JAKK"},{"line":4,"is_transit":true,"time":3,"station_name":"Kampung Bandan","station_id":"KPB","distance":1364,"i_long":106.826365,"transit":true,"i_lat":-6.132549},{"station_name":"Rajawali","i_long":106.836569,"line":11,"station_id":"RJW","i_lat":-6.14505,"distance":1444,"is_transit":false,"transit":false,"time":3},{"time":5,"line":11,"transit":false,"i_long":106.839204,"station_id":"KMO","station_name":"Kemayoran","is_transit":false,"distance":1901,"i_lat":-6.161728},{"transit":false,"time":4,"is_transit":false,"distance":1436,"i_lat":-6.174784,"station_name":"Pasar Senen","i_long":106.84368,"station_id":"PSE","line":11},{"transit":false,"station_name":"Gang Sentiong","i_lat":-6.185975,"distance":1567,"station_id":"GST","time":8,"i_long":106.850107,"line":11,"is_transit":false},{"is_transit":false,"distance":973,"line":11,"transit":false,"station_id":"KMT","time":1,"i_lat":-6.193792,"station_name":"Kramat","i_long":106.855437},{"i_lat":-6.209188,"transit":false,"station_id":"POK","distance":1829,"line":11,"i_long":106.861737,"is_transit":false,"station_name":"Pondok Jati","time":2},{"i_lat":-6.215091,"i_long":106.86807400000001,"transit":true,"line":1,"station_id":"JNG","time":9,"station_name":"Jatinegara","distance":1236,"is_transit":true},{"distance":3395,"i_long":106.899548,"station_id":"KLD","time":3,"transit":false,"station_name":"Klender","is_transit":false,"line":1,"i_lat":-6.2135},{"i_long":106.922662,"line":1,"is_transit":false,"i_lat":-6.215568,"transit":false,"distance":3100,"time":2,"station_id":"BUA","station_name":"Buaran"},{"i_long":106.939679,"distance":1305,"i_lat":-6.217455,"line":1,"transit":false,"is_transit":false,"time":1,"station_name":"Klenderbaru","station_id":"KLDB"},{"is_transit":false,"time":8,"distance":1385,"line":1,"transit":false,"i_long":106.951283,"station_id":"CUK","station_name":"Cakung","i_lat":-6.219053}]]}