{"data":[[{"transit":false,"i_long":106.632761,"station_id":"TNG","station_name":"Tangerang","distance":0,"is_transit":false,"time":0,"i_lat":-6.176583,"line":5},{"station_id":"TTI","is_transit":false,"time":3,"i_long":106.64657,"distance":1547,"station_name":"Tanah Tinggi","transit":false,"line":5,"i_lat":-6.17331},{"time":3,"distance":2028,"i_lat":-6.171811,"i_long":106.665036,"transit":false,"line":0,"station_id":"BPR","is_transit":false,"station_name":"Batuceper"},{"station_name":"Poris","i_long":106.679458,"station_id":"PI","transit":false,"distance":1834,"i_lat":-6.169933,"is_transit":false,"line":5,"time":3},{"i_long":106.701612,"time":3,"line":5,"station_name":"Kalideres","distance":2548,"i_lat":-6.166068,"station_id":"KDS","is_transit":false,"transit":false},{"transit":false,"is_transit":false,"station_id":"RW","i_long":106.723064,"station_name":"Rawa Buaya","time":3,"i_lat":-6.162758,"line":5,"distance":2504},{"transit":false,"i_lat":-6.159876,"is_transit":false,"station_id":"BOI","time":4,"line":0,"i_long":106.737035,"distance":1152,"station_name":"Bojongindah"},{"station_id":"TKO","transit":false,"i_lat":-6.1587309999999995,"distance":2334,"time":2,"line":5,"station_name":"Taman Kota","i_long":106.756522,"is_transit":false},{"is_transit":false,"time":2,"station_id":"PSG","station_name":"Pesing","i_lat":-6.161433,"i_long":106.771379,"transit":false,"line":5,"distance":1614},{"is_transit":false,"station_id":"GGL","i_long":106.788277,"distance":2036,"transit":false,"station_name":"Grogol","time":2,"i_lat":-6.162021,"line":5},{"time":3,"i_lat":-6.155215,"i_long":106.800832,"line":1,"is_transit":true,"distance":1700,"station_id":"DU","transit":true,"station_name":"Duri"},{"transit":true,"line":1,"i_long":106.811091,"distance":3632,"station_name":"Tanah Abang","time":8,"i_lat":-6.185545,"is_transit":true,"station_id":"THB"},{"distance":3191,"time":6,"is_transit":false,"i_long":106.79689,"transit":false,"station_name":"Palmerah","station_id":"PLM","i_lat":-6.207404,"line":6},{"station_name":"Kebayoran","line":6,"time":7,"station_id":"KBY","i_long":106.780334,"distance":3737,"transit":false,"i_lat":-6.237242,"is_transit":false},{"station_name":"Pondokranji","time":8,"station_id":"PDJ","is_transit":false,"transit":false,"i_lat":-6.276362,"distance":6218,"i_long":106.74273,"line":6},{"is_transit":false,"station_id":"JMU","line":6,"time":3,"i_lat":-6.288927,"station_name":"Jurangmangu","transit":false,"distance":2179,"i_long":106.728916},{"station_id":"SDM","line":6,"i_lat":-6.296963,"time":4,"station_name":"Sudimara","is_transit":false,"i_long":106.712277,"transit":false,"distance":1994},{"line":6,"is_transit":false,"transit":false,"i_long":106.675475,"station_id":"RU","distance":4566,"station_name":"Rawa Buntu","time":6,"i_lat":-6.314823},{"time":4,"station_id":"SRP","station_name":"Serpong","is_transit":false,"i_lat":-6.319871,"distance":2413,"transit":false,"i_long":106.66566,"line":6},{"station_name":"Cisauk","line":0,"distance":1784,"transit":false,"time":4,"i_lat":-6.32484,"i_long":106.640411,"is_transit":false,"station_id":"CSK"},{"station_id":"CC","is_transit":false,"station_name":"Cicayur","transit":false,"i_lat":-6.329547,"distance":2519,"i_long":106.617853,"time":4,"line":0},{"time":8,"i_long":106.568863,"is_transit":false,"i_lat":-6.3441410000000005,"station_name":"Parung Panjang","transit":false,"line":6,"station_id":"PRP","distance":5968},{"distance":7025,"i_long":106.508482,"time":9,"i_lat":-6.354349,"is_transit":false,"line":0,"station_name":"Cilejit","station_id":"CJT","transit":false}],[{"time":0,"station_name":"Tangerang","distance":0,"station_id":"TNG","transit":false,"i_lat":-6.176583,"i_long":106.632761,"line":5,"is_transit":false},{"station_id":"TTI","transit":false,"i_lat":-6.17331,"station_name":"Tanah Tinggi","distance":1547,"i_long":106.64657,"time":3,"line":5,"is_transit":false},{"i_long":106.665036,"distance":2028,"transit":false,"station_name":"Batuceper","time":3,"station_id":"BPR","is_transit":false,"line":0,"i_lat":-6.171811},{"line":5,"distance":1834,"station_id":"PI","time":3,"is_transit":false,"transit":false,"station_name":"Poris","i_lat":-6.169933,"i_long":106.679458},{"i_lat":-6.166068,"time":3,"station_id":"KDS","is_transit":false,"station_name":"Kalideres","transit":false,"line":5,"distance":2548,"i_long":106.701612},{"distance":2504,"is_transit":false,"station_id":"RW","station_name":"Rawa Buaya","i_lat":-6.162758,"transit":false,"time":3,"line":5,"i_long":106.723064},{"station_id":"BOI","i_long":106.737035,"transit":false,"i_lat":-6.159876,"line":0,"distance":1152,"is_transit":false,"station_name":"Bojongindah","time":4},{"i_long":106.756522,"distance":2334,"station_name":"Taman Kota","line":5,"station_id":"TKO","i_lat":-6.1587309999999995,"is_transit":false,"time":2,"transit":false},{"distance":1614,"line":5,"is_transit":false,"station_name":"Pesing","i_long":106.771379,"station_id":"PSG","i_lat":-6.161433,"time":2,"transit":false},{"i_long":106.788277,"i_lat":-6.162021,"station_name":"Grogol","transit":false,"station_id":"GGL","time":2,"line":5,"is_transit":false,"distance":2036},{"line":1,"time":3,"station_id":"DU","transit":true,"distance":1700,"station_name":"Duri","i_long":106.800832,"is_transit":true,"i_lat":-6.155215},{"time":4,"station_id":"AK","transit":false,"i_long":106.79867,"is_transit":false,"line":0,"i_lat":-6.144674,"distance":1230,"station_name":"Angke"},{"time":9,"i_long":106.826365,"line":0,"station_id":"KPB","station_name":"Kampung Bandan","distance":4102,"is_transit":true,"transit":false,"i_lat":-6.132549},{"station_name":"Jakarta Kota","time":3,"distance":1364,"i_long":106.812439,"line":0,"station_id":"JAKK","i_lat":-6.137569,"is_transit":true,"transit":true},{"distance":1264,"station_id":"JAY","time":4,"line":7,"i_long":106.820901,"is_transit":false,"station_name":"Jayakarta","transit":false,"i_lat":-6.141205},{"i_lat":-6.149769,"is_transit":false,"i_long":106.82482,"station_name":"Manggabesar","time":2,"distance":1080,"transit":false,"line":2,"station_id":"MGB"},{"time":2,"i_long":106.827103,"transit":false,"distance":906,"line":2,"i_lat":-6.160725,"is_transit":false,"station_id":"SW","station_name":"Sawah Besar"},{"i_long":106.828284,"is_transit":false,"line":2,"transit":false,"station_id":"JUA","distance":1149,"station_name":"Juanda","time":2,"i_lat":-6.166716},{"line":2,"i_lat":-6.186295,"is_transit":false,"distance":2015,"time":4,"station_id":"GDD","station_name":"Gondangdia","transit":false,"i_long":106.832183},{"time":3,"distance":1750,"line":0,"station_name":"Cikini","i_long":106.840169,"transit":false,"is_transit":false,"station_id":"CKI","i_lat":-6.198556},{"time":4,"i_lat":-6.209883,"transit":true,"distance":1590,"station_id":"MRI","station_name":"Manggarai","is_transit":true,"line":0,"i_long":106.84912},{"station_name":"Sudirman","line":1,"station_id":"SUD","distance":3186,"transit":false,"time":4,"i_lat":-6.202263,"i_long":106.822649,"is_transit":false},{"station_name":"Sudirman Baru","i_lat":-6.201433,"is_transit":false,"time":1,"transit":false,"station_id":"SUDB","line":1,"distance":280,"i_long":106.819881},{"distance":471,"i_lat":-6.20132,"transit":false,"is_transit":false,"i_long":106.816351,"line":1,"station_id":"KAT","time":1,"station_name":"Karet"},{"transit":true,"time":5,"i_lat":-6.185545,"distance":2029,"is_transit":true,"station_name":"Tanah Abang","i_long":106.811091,"line":1,"station_id":"THB"},{"station_name":"Palmerah","transit":false,"time":6,"i_lat":-6.207404,"line":6,"i_long":106.79689,"is_transit":false,"station_id":"PLM","distance":3191},{"station_name":"Kebayoran","station_id":"KBY","distance":3737,"time":7,"i_lat":-6.237242,"is_transit":false,"i_long":106.780334,"transit":false,"line":6},{"station_name":"Pondokranji","i_lat":-6.276362,"is_transit":false,"time":8,"station_id":"PDJ","line":6,"transit":false,"i_long":106.74273,"distance":6218},{"station_id":"JMU","i_long":106.728916,"is_transit":false,"station_name":"Jurangmangu","distance":2179,"time":3,"transit":false,"i_lat":-6.288927,"line":6},{"line":6,"is_transit":false,"transit":false,"i_lat":-6.296963,"time":4,"station_id":"SDM","station_name":"Sudimara","distance":1994,"i_long":106.712277},{"station_name":"Rawa Buntu","line":6,"station_id":"RU","distance":4566,"time":6,"i_long":106.675475,"transit":false,"i_lat":-6.314823,"is_transit":false},{"i_long":106.66566,"distance":2413,"transit":false,"time":4,"line":6,"station_id":"SRP","station_name":"Serpong","i_lat":-6.319871,"is_transit":false},{"station_id":"CSK","i_lat":-6.32484,"i_long":106.640411,"time":4,"transit":false,"line":0,"is_transit":false,"station_name":"Cisauk","distance":1784},{"is_transit":false,"distance":2519,"station_name":"Cicayur","station_id":"CC","time":4,"i_long":106.617853,"line":0,"i_lat":-6.329547,"transit":false},{"i_long":106.568863,"i_lat":-6.3441410000000005,"line":6,"transit":false,"station_name":"Parung Panjang","distance":5968,"is_transit":false,"time":8,"station_id":"PRP"},{"station_id":"CJT","station_name":"Cilejit","is_transit":false,"line":0,"time":9,"transit":false,"i_long":106.508482,"i_lat":-6.354349,"distance":7025}],[{"line":5,"i_long":106.632761,"distance":0,"transit":false,"i_lat":-6.176583,"station_name":"Tangerang","station_id":"TNG","is_transit":false,"time":0},{"distance":1547,"is_transit":false,"line":5,"time":3,"station_name":"Tanah Tinggi","transit":false,"i_lat":-6.17331,"station_id":"TTI","i_long":106.64657},{"station_id":"BPR","time":3,"i_long":106.665036,"is_transit":false,"i_lat":-6.171811,"line":0,"station_name":"Batuceper","distance":2028,"transit":false},{"line":5,"i_long":106.679458,"is_transit":false,"i_lat":-6.169933,"station_id":"PI","station_name":"Poris","time":3,"distance":1834,"transit":false},{"distance":2548,"i_lat":-6.166068,"station_id":"KDS","station_name":"Kalideres","transit":false,"i_long":106.701612,"line":5,"is_transit":false,"time":3},{"i_lat":-6.162758,"i_long":106.723064,"is_transit":false,"station_id":"RW","station_name":"Rawa Buaya","distance":2504,"transit":false,"time":3,"line":5},{"i_lat":-6.159876,"station_id":"BOI","is_transit":false,"transit":false,"distance":1152,"station_name":"Bojongindah","line":0,"i_long":106.737035,"time":4},{"distance":2334,"time":2,"is_transit":false,"station_name":"Taman Kota","transit":false,"i_lat":-6.1587309999999995,"station_id":"TKO","i_long":106.756522,"line":5},{"distance":1614,"time":2,"i_long":106.771379,"station_id":"PSG","i_lat":-6.161433,"line":5,"is_transit":false,"transit":false,"station_name":"Pesing"},{"is_transit":false,"time":2,"station_name":"Grogol","i_lat":-6.162021,"transit":false,"i_long":106.788277,"station_id":"GGL","distance":2036,"line":5},{"is_transit":true,"station_id":"DU","transit":true,"time":3,"i_lat":-6.155215,"line":1,"i_long":106.800832,"distance":1700,"station_name":"Duri"},{"station_id":"AK","transit":false,"line":0,"station_name":"Angke","distance":1230,"is_transit":false,"time":4,"i_lat":-6.144674,"i_long":106.79867},{"station_name":"Kampung Bandan","time":9,"station_id":"KPB","transit":true,"is_transit":true,"i_long":106.826365,"line":0,"i_lat":-6.132549,"distance":4102},{"station_id":"RJW","i_lat":-6.14505,"transit":false,"line":11,"station_name":"Rajawali","distance":1444,"i_long":106.836569,"time":3,"is_transit":false},{"station_id":"KMO","is_transit":false,"i_lat":-6.161728,"time":5,"line":11,"station_name":"Kemayoran","i_long":106.839204,"transit":false,"distance":1901},{"distance":1436,"time":4,"station_id":"PSE","line":11,"is_transit":false,"station_name":"Pasar Senen","i_long":106.84368,"i_lat":-6.174784,"transit":false},{"is_transit":false,"distance":1567,"station_id":"GST","time":8,"i_lat":-6.185975,"station_name":"Gang Sentiong","i_long":106.850107,"line":11,"transit":false},{"station_id":"KMT","time":1,"is_transit":false,"i_long":106.855437,"distance":973,"station_name":"Kramat","i_lat":-6.193792,"line":11,"transit":false},{"line":11,"distance":1829,"i_lat":-6.209188,"transit":false,"station_name":"Pondok Jati","i_long":106.861737,"is_transit":false,"station_id":"POK","time":2},{"station_id":"JNG","line":0,"i_lat":-6.215091,"transit":true,"time":9,"i_long":106.86807400000001,"is_transit":true,"station_name":"Jatinegara","distance":1236},{"i_long":106.858896,"distance":1377,"i_lat":-6.212485,"station_name":"Matraman","transit":false,"time":2,"line":1,"is_transit":false,"station_id":"MTR"},{"station_id":"MRI","is_transit":true,"transit":false,"i_lat":-6.209883,"line":0,"station_name":"Manggarai","distance":1275,"time":2,"i_long":106.84912},{"transit":false,"i_long":106.822649,"distance":3186,"time":4,"is_transit":false,"station_name":"Sudirman","station_id":"SUD","i_lat":-6.202263,"line":1},{"station_name":"Sudirman Baru","time":1,"distance":280,"i_lat":-6.201433,"i_long":106.819881,"transit":false,"line":1,"station_id":"SUDB","is_transit":false},{"is_transit":false,"line":1,"i_lat":-6.20132,"distance":471,"station_id":"KAT","transit":false,"time":1,"station_name":"Karet","i_long":106.816351},{"i_lat":-6.185545,"distance":2029,"station_name":"Tanah Abang","i_long":106.811091,"station_id":"THB","transit":true,"line":1,"is_transit":true,"time":5},{"distance":3191,"is_transit":false,"transit":false,"i_lat":-6.207404,"station_name":"Palmerah","time":6,"line":6,"i_long":106.79689,"station_id":"PLM"},{"line":6,"station_name":"Kebayoran","transit":false,"distance":3737,"station_id":"KBY","i_lat":-6.237242,"time":7,"i_long":106.780334,"is_transit":false},{"station_name":"Pondokranji","station_id":"PDJ","i_lat":-6.276362,"transit":false,"distance":6218,"is_transit":false,"time":8,"i_long":106.74273,"line":6},{"station_name":"Jurangmangu","time":3,"is_transit":false,"line":6,"transit":false,"i_long":106.728916,"i_lat":-6.288927,"station_id":"JMU","distance":2179},{"i_lat":-6.296963,"distance":1994,"station_name":"Sudimara","line":6,"is_transit":false,"i_long":106.712277,"station_id":"SDM","transit":false,"time":4},{"time":6,"station_id":"RU","is_transit":false,"transit":false,"i_lat":-6.314823,"line":6,"distance":4566,"i_long":106.675475,"station_name":"Rawa Buntu"},{"station_id":"SRP","station_name":"Serpong","transit":false,"is_transit":false,"i_lat":-6.319871,"i_long":106.66566,"distance":2413,"time":4,"line":6},{"time":4,"line":0,"is_transit":false,"station_id":"CSK","i_lat":-6.32484,"i_long":106.640411,"distance":1784,"station_name":"Cisauk","transit":false},{"station_name":"Cicayur","i_long":106.617853,"transit":false,"is_transit":false,"distance":2519,"line":0,"i_lat":-6.329547,"station_id":"CC","time":4},{"is_transit":false,"i_long":106.568863,"line":6,"transit":false,"station_name":"Parung Panjang","i_lat":-6.3441410000000005,"station_id":"PRP","distance":5968,"time":8},{"i_long":106.508482,"time":9,"distance":7025,"i_lat":-6.354349,"is_transit":false,"station_id":"CJT","station_name":"Cilejit","line":0,"transit":false}]]}