{"data":[[{"station_id":"TNG","is_transit":false,"time":0,"i_lat":-6.176583,"station_name":"Tangerang","line":5,"transit":false,"distance":0,"i_long":106.632761},{"station_id":"TTI","i_lat":-6.17331,"time":3,"transit":false,"line":5,"is_transit":false,"i_long":106.64657,"distance":1547,"station_name":"Tanah Tinggi"},{"station_id":"BPR","time":3,"i_lat":-6.171811,"distance":2028,"station_name":"Batuceper","i_long":106.665036,"is_transit":false,"transit":false,"line":5},{"is_transit":false,"time":3,"i_lat":-6.169933,"i_long":106.679458,"distance":1834,"line":5,"transit":false,"station_name":"Poris","station_id":"PI"},{"distance":2548,"time":3,"i_long":106.701612,"line":5,"station_id":"KDS","is_transit":false,"transit":false,"station_name":"Kalideres","i_lat":-6.166068},{"station_id":"RW","i_long":106.723064,"is_transit":false,"time":3,"i_lat":-6.162758,"transit":false,"station_name":"Rawa Buaya","line":5,"distance":2504},{"time":4,"transit":false,"distance":1152,"station_name":"Bojongindah","is_transit":false,"station_id":"BOI","i_long":106.737035,"line":5,"i_lat":-6.159876},{"i_lat":-6.1587309999999995,"time":2,"station_name":"Taman Kota","i_long":106.756522,"line":5,"distance":2334,"is_transit":false,"transit":false,"station_id":"TKO"},{"i_lat":-6.161433,"line":5,"i_long":106.771379,"transit":false,"time":2,"station_id":"PSG","station_name":"Pesing","distance":1614,"is_transit":false},{"is_transit":false,"station_id":"GGL","transit":false,"i_lat":-6.162021,"i_long":106.788277,"line":5,"station_name":"Grogol","time":2,"distance":2036},{"is_transit":true,"line":1,"distance":1700,"i_lat":-6.155215,"station_id":"DU","transit":true,"time":3,"station_name":"Duri","i_long":106.800832},{"i_lat":-6.185545,"distance":3632,"i_long":106.811091,"station_name":"Tanah Abang","is_transit":true,"time":8,"station_id":"THB","line":1,"transit":true},{"transit":false,"line":6,"i_lat":-6.207404,"is_transit":false,"time":6,"station_name":"Palmerah","station_id":"PLM","distance":3191,"i_long":106.79689},{"transit":false,"time":7,"i_long":106.780334,"distance":3737,"is_transit":false,"i_lat":-6.237242,"line":6,"station_id":"KBY","station_name":"Kebayoran"},{"transit":false,"is_transit":false,"time":8,"station_id":"PDJ","i_long":106.74273,"line":6,"station_name":"Pondokranji","distance":6218,"i_lat":-6.276362},{"station_id":"JMU","line":6,"is_transit":false,"transit":false,"i_lat":-6.288927,"time":3,"station_name":"Jurangmangu","i_long":106.728916,"distance":2179},{"time":4,"is_transit":false,"i_lat":-6.296963,"i_long":106.712277,"distance":1994,"station_id":"SDM","transit":false,"station_name":"Sudimara","line":6},{"station_name":"Rawa Buntu","transit":false,"i_lat":-6.314823,"time":6,"i_long":106.675475,"distance":4566,"line":6,"is_transit":false,"station_id":"RU"},{"i_lat":-6.319871,"station_name":"Serpong","i_long":106.66566,"time":4,"distance":2413,"transit":false,"line":6,"station_id":"SRP","is_transit":false},{"is_transit":false,"station_id":"CSK","time":4,"distance":1784,"transit":false,"station_name":"Cisauk","i_long":106.640411,"i_lat":-6.32484,"line":3}],[{"i_lat":-6.176583,"i_long":106.632761,"is_transit":false,"station_name":"Tangerang","transit":false,"time":0,"distance":0,"station_id":"TNG","line":5},{"i_long":106.64657,"line":5,"station_id":"TTI","transit":false,"distance":1547,"i_lat":-6.17331,"time":3,"is_transit":false,"station_name":"Tanah Tinggi"},{"station_id":"BPR","line":5,"transit":false,"distance":2028,"time":3,"i_long":106.665036,"is_transit":false,"i_lat":-6.171811,"station_name":"Batuceper"},{"transit":false,"distance":1834,"station_name":"Poris","i_lat":-6.169933,"line":5,"i_long":106.679458,"time":3,"is_transit":false,"station_id":"PI"},{"transit":false,"distance":2548,"is_transit":false,"station_name":"Kalideres","i_long":106.701612,"time":3,"station_id":"KDS","line":5,"i_lat":-6.166068},{"distance":2504,"i_lat":-6.162758,"i_long":106.723064,"time":3,"line":5,"is_transit":false,"transit":false,"station_name":"Rawa Buaya","station_id":"RW"},{"i_long":106.737035,"station_id":"BOI","time":4,"line":5,"transit":false,"i_lat":-6.159876,"is_transit":false,"distance":1152,"station_name":"Bojongindah"},{"i_long":106.756522,"distance":2334,"station_name":"Taman Kota","i_lat":-6.1587309999999995,"time":2,"transit":false,"is_transit":false,"line":5,"station_id":"TKO"},{"line":5,"time":2,"i_lat":-6.161433,"transit":false,"i_long":106.771379,"distance":1614,"is_transit":false,"station_name":"Pesing","station_id":"PSG"},{"station_name":"Grogol","i_lat":-6.162021,"station_id":"GGL","time":2,"is_transit":false,"i_long":106.788277,"distance":2036,"line":5,"transit":false},{"station_name":"Duri","distance":1700,"station_id":"DU","time":3,"i_long":106.800832,"i_lat":-6.155215,"line":1,"is_transit":true,"transit":true},{"distance":1230,"station_name":"Angke","station_id":"AK","time":4,"line":1,"i_lat":-6.144674,"is_transit":false,"i_long":106.79867,"transit":false},{"is_transit":true,"station_name":"Kampung Bandan","station_id":"KPB","line":4,"time":9,"distance":4102,"i_long":106.826365,"transit":true,"i_lat":-6.132549},{"distance":1364,"i_long":106.812439,"is_transit":true,"station_id":"JAKK","line":2,"transit":true,"station_name":"Jakarta Kota","i_lat":-6.137569,"time":3},{"i_long":106.820901,"is_transit":false,"time":4,"station_name":"Jayakarta","i_lat":-6.141205,"distance":1264,"transit":false,"station_id":"JAY","line":2},{"is_transit":false,"time":2,"distance":1080,"transit":false,"station_name":"Manggabesar","station_id":"MGB","i_lat":-6.149769,"i_long":106.82482,"line":2},{"transit":false,"i_long":106.827103,"line":2,"i_lat":-6.160725,"distance":906,"is_transit":false,"station_name":"Sawah Besar","station_id":"SW","time":2},{"is_transit":false,"i_lat":-6.166716,"distance":1149,"line":2,"station_name":"Juanda","transit":false,"station_id":"JUA","i_long":106.828284,"time":2},{"station_id":"GDD","is_transit":false,"distance":2015,"station_name":"Gondangdia","i_long":106.832183,"time":4,"i_lat":-6.186295,"transit":false,"line":2},{"line":2,"station_name":"Cikini","distance":1750,"i_lat":-6.198556,"is_transit":false,"transit":false,"i_long":106.840169,"station_id":"CKI","time":3},{"time":4,"distance":1590,"line":2,"i_lat":-6.209883,"is_transit":true,"i_long":106.84912,"transit":true,"station_id":"MRI","station_name":"Manggarai"},{"time":4,"station_name":"Sudirman","station_id":"SUD","is_transit":false,"line":1,"distance":3186,"i_lat":-6.202263,"i_long":106.822649,"transit":false},{"time":1,"transit":false,"i_long":106.819881,"distance":280,"station_name":"Sudirman Baru","i_lat":-6.201433,"is_transit":false,"line":1,"station_id":"SUDB"},{"line":1,"station_id":"KAT","i_long":106.816351,"is_transit":false,"station_name":"Karet","time":1,"distance":471,"i_lat":-6.20132,"transit":false},{"distance":2029,"i_lat":-6.185545,"station_id":"THB","station_name":"Tanah Abang","i_long":106.811091,"is_transit":true,"time":5,"line":1,"transit":true},{"i_lat":-6.207404,"station_id":"PLM","i_long":106.79689,"line":6,"is_transit":false,"station_name":"Palmerah","transit":false,"time":6,"distance":3191},{"transit":false,"station_id":"KBY","station_name":"Kebayoran","line":6,"time":7,"distance":3737,"is_transit":false,"i_lat":-6.237242,"i_long":106.780334},{"i_long":106.74273,"i_lat":-6.276362,"station_id":"PDJ","is_transit":false,"distance":6218,"line":6,"time":8,"station_name":"Pondokranji","transit":false},{"station_name":"Jurangmangu","distance":2179,"line":6,"i_lat":-6.288927,"time":3,"is_transit":false,"transit":false,"station_id":"JMU","i_long":106.728916},{"distance":1994,"i_long":106.712277,"line":6,"time":4,"i_lat":-6.296963,"station_name":"Sudimara","station_id":"SDM","is_transit":false,"transit":false},{"station_id":"RU","is_transit":false,"station_name":"Rawa Buntu","time":6,"distance":4566,"transit":false,"i_long":106.675475,"line":6,"i_lat":-6.314823},{"distance":2413,"is_transit":false,"transit":false,"i_lat":-6.319871,"i_long":106.66566,"station_id":"SRP","station_name":"Serpong","line":6,"time":4},{"is_transit":false,"line":3,"station_name":"Cisauk","i_long":106.640411,"transit":false,"i_lat":-6.32484,"station_id":"CSK","time":4,"distance":1784}],[{"is_transit":false,"station_id":"TNG","i_long":106.632761,"time":0,"line":5,"distance":0,"station_name":"Tangerang","transit":false,"i_lat":-6.176583},{"station_id":"TTI","transit":false,"is_transit":false,"i_lat":-6.17331,"line":5,"station_name":"Tanah Tinggi","distance":1547,"i_long":106.64657,"time":3},{"line":5,"i_lat":-6.171811,"station_id":"BPR","transit":false,"is_transit":false,"time":3,"station_name":"Batuceper","i_long":106.665036,"distance":2028},{"station_name":"Poris","transit":false,"line":5,"i_long":106.679458,"time":3,"is_transit":false,"distance":1834,"station_id":"PI","i_lat":-6.169933},{"distance":2548,"is_transit":false,"transit":false,"station_name":"Kalideres","station_id":"KDS","i_lat":-6.166068,"time":3,"line":5,"i_long":106.701612},{"is_transit":false,"i_lat":-6.162758,"distance":2504,"line":5,"station_name":"Rawa Buaya","i_long":106.723064,"transit":false,"station_id":"RW","time":3},{"station_id":"BOI","i_long":106.737035,"station_name":"Bojongindah","transit":false,"time":4,"line":5,"i_lat":-6.159876,"is_transit":false,"distance":1152},{"i_long":106.756522,"line":5,"station_id":"TKO","transit":false,"distance":2334,"i_lat":-6.1587309999999995,"is_transit":false,"station_name":"Taman Kota","time":2},{"is_transit":false,"i_lat":-6.161433,"line":5,"transit":false,"station_id":"PSG","station_name":"Pesing","time":2,"distance":1614,"i_long":106.771379},{"distance":2036,"i_long":106.788277,"station_id":"GGL","is_transit":false,"station_name":"Grogol","time":2,"line":5,"transit":false,"i_lat":-6.162021},{"time":3,"station_id":"DU","is_transit":true,"i_long":106.800832,"line":1,"station_name":"Duri","i_lat":-6.155215,"distance":1700,"transit":true},{"station_id":"AK","time":4,"line":1,"station_name":"Angke","i_long":106.79867,"i_lat":-6.144674,"is_transit":false,"distance":1230,"transit":false},{"station_name":"Kampung Bandan","i_lat":-6.132549,"station_id":"KPB","is_transit":true,"transit":true,"line":4,"time":9,"distance":4102,"i_long":106.826365},{"transit":false,"line":11,"time":3,"distance":1444,"i_long":106.836569,"i_lat":-6.14505,"station_id":"RJW","is_transit":false,"station_name":"Rajawali"},{"time":5,"station_id":"KMO","station_name":"Kemayoran","line":11,"i_lat":-6.161728,"i_long":106.839204,"is_transit":false,"distance":1901,"transit":false},{"transit":false,"line":11,"is_transit":false,"station_id":"PSE","i_lat":-6.174784,"station_name":"Pasar Senen","distance":1436,"time":4,"i_long":106.84368},{"station_id":"GST","distance":1567,"i_long":106.850107,"station_name":"Gang Sentiong","is_transit":false,"time":8,"i_lat":-6.185975,"transit":false,"line":11},{"station_id":"KMT","i_long":106.855437,"i_lat":-6.193792,"line":11,"is_transit":false,"time":1,"transit":false,"station_name":"Kramat","distance":973},{"time":2,"distance":1829,"transit":false,"is_transit":false,"station_name":"Pondok Jati","line":11,"station_id":"POK","i_lat":-6.209188,"i_long":106.861737},{"line":1,"transit":true,"i_long":106.86807400000001,"station_id":"JNG","i_lat":-6.215091,"station_name":"Jatinegara","is_transit":true,"distance":1236,"time":9},{"transit":false,"time":2,"i_long":106.858896,"station_name":"Matraman","i_lat":-6.212485,"line":1,"is_transit":false,"distance":1377,"station_id":"MTR"},{"is_transit":false,"station_name":"Manggarai","line":2,"i_long":106.84912,"distance":1275,"time":2,"station_id":"MRI","i_lat":-6.209883,"transit":false},{"distance":3186,"line":1,"station_name":"Sudirman","is_transit":false,"station_id":"SUD","i_long":106.822649,"time":4,"i_lat":-6.202263,"transit":false},{"station_id":"SUDB","i_lat":-6.201433,"is_transit":false,"station_name":"Sudirman Baru","distance":280,"line":1,"transit":false,"time":1,"i_long":106.819881},{"line":1,"station_name":"Karet","distance":471,"is_transit":false,"i_long":106.816351,"time":1,"transit":false,"station_id":"KAT","i_lat":-6.20132},{"i_lat":-6.185545,"i_long":106.811091,"transit":true,"station_id":"THB","is_transit":true,"line":1,"time":5,"station_name":"Tanah Abang","distance":2029},{"distance":3191,"i_long":106.79689,"station_id":"PLM","station_name":"Palmerah","transit":false,"line":6,"time":6,"i_lat":-6.207404,"is_transit":false},{"transit":false,"i_long":106.780334,"station_id":"KBY","station_name":"Kebayoran","distance":3737,"line":6,"is_transit":false,"time":7,"i_lat":-6.237242},{"station_id":"PDJ","station_name":"Pondokranji","transit":false,"is_transit":false,"i_long":106.74273,"line":6,"distance":6218,"time":8,"i_lat":-6.276362},{"i_long":106.728916,"i_lat":-6.288927,"station_name":"Jurangmangu","time":3,"line":6,"transit":false,"is_transit":false,"station_id":"JMU","distance":2179},{"transit":false,"distance":1994,"station_name":"Sudimara","i_long":106.712277,"time":4,"line":6,"is_transit":false,"i_lat":-6.296963,"station_id":"SDM"},{"is_transit":false,"time":6,"i_lat":-6.314823,"station_id":"RU","station_name":"Rawa Buntu","transit":false,"i_long":106.675475,"distance":4566,"line":6},{"is_transit":false,"station_name":"Serpong","distance":2413,"line":6,"station_id":"SRP","transit":false,"i_lat":-6.319871,"time":4,"i_long":106.66566},{"line":3,"station_name":"Cisauk","station_id":"CSK","distance":1784,"transit":false,"time":4,"i_lat":-6.32484,"is_transit":false,"i_long":106.640411}]]}