{"data":[[{"is_transit":false,"time":0,"i_long":106.632761,"line":5,"i_lat":-6.176583,"distance":0,"station_name":"Tangerang","transit":false,"station_id":"TNG"},{"i_long":106.64657,"station_id":"THI","line":5,"i_lat":-6.17331,"is_transit":false,"time":3,"distance":1547,"station_name":"Tanah Tinggi","transit":false},{"station_id":"BPR","distance":2028,"transit":false,"station_name":"Batuceper","is_transit":false,"line":5,"time":3,"i_long":106.665036,"i_lat":-6.171811},{"i_long":106.679458,"time":3,"line":5,"distance":1834,"station_id":"PI","is_transit":false,"transit":false,"station_name":"Poris","i_lat":-6.169933},{"i_lat":-6.166068,"station_id":"KDS","distance":2548,"time":3,"station_name":"Kalideres","line":5,"is_transit":false,"transit":false,"i_long":106.701612},{"distance":2504,"is_transit":false,"i_lat":-6.162758,"station_name":"Rawa Buaya","i_long":106.723064,"time":3,"transit":false,"station_id":"RW","line":5},{"is_transit":false,"i_lat":-6.159876,"line":5,"station_id":"BOI","transit":false,"distance":1152,"i_long":106.737035,"time":4,"station_name":"Bojongindah"},{"distance":2334,"line":5,"i_long":106.756522,"time":2,"station_name":"Taman Kota","is_transit":false,"station_id":"TKO","transit":false,"i_lat":-6.1587309999999995},{"i_long":106.771379,"i_lat":-6.161433,"station_name":"Pesing","distance":1614,"time":2,"is_transit":false,"transit":false,"line":5,"station_id":"PSG"},{"i_lat":-6.162021,"is_transit":false,"line":5,"transit":false,"distance":2036,"i_long":106.788277,"station_name":"Grogol","time":2,"station_id":"GRG"},{"station_name":"Duri","i_lat":-6.155215,"is_transit":true,"time":3,"station_id":"DU","distance":1700,"transit":true,"i_long":106.800832,"line":1},{"i_long":106.811091,"distance":3632,"line":1,"is_transit":true,"station_name":"Tanah Abang","station_id":"THB","time":8,"transit":true,"i_lat":-6.185545},{"station_name":"Palmerah","distance":3191,"transit":false,"time":6,"i_lat":-6.207404,"i_long":106.79689,"is_transit":false,"line":6,"station_id":"PLM"},{"line":6,"is_transit":false,"i_long":106.780334,"station_name":"Kebayoran","distance":3737,"station_id":"KBY","transit":false,"i_lat":-6.237242,"time":7},{"i_long":106.74273,"station_id":"PDJ","station_name":"Pondokranji","is_transit":false,"time":8,"i_lat":-6.276362,"line":6,"transit":false,"distance":6218},{"transit":false,"i_lat":-6.288927,"line":6,"station_id":"JMU","i_long":106.728916,"distance":2179,"time":3,"is_transit":false,"station_name":"Jurangmangu"},{"is_transit":false,"station_name":"Sudimara","station_id":"SDM","time":4,"i_long":106.712277,"distance":1994,"i_lat":-6.296963,"line":6,"transit":false},{"transit":false,"station_name":"Rawa Buntu","distance":4566,"is_transit":false,"station_id":"RU","line":6,"i_long":106.675475,"time":6,"i_lat":-6.314823},{"i_long":106.66566,"line":6,"station_name":"Serpong","time":4,"is_transit":false,"station_id":"SRP","i_lat":-6.319871,"transit":false,"distance":2413},{"i_lat":-6.32484,"time":4,"is_transit":false,"station_id":"CSK","transit":false,"i_long":106.640411,"line":3,"station_name":"Cisauk","distance":1784},{"time":4,"is_transit":false,"i_lat":-6.329547,"distance":2519,"station_name":"Cicayur","i_long":106.617853,"station_id":"CC","transit":false,"line":3},{"is_transit":false,"time":8,"transit":false,"station_id":"PRP","i_lat":-6.3441410000000005,"distance":5968,"line":6,"station_name":"Parung Panjang","i_long":106.568863},{"time":9,"station_id":"CJT","i_lat":-6.354349,"station_name":"Cilejit","line":3,"is_transit":false,"transit":false,"distance":7025,"i_long":106.508482},{"line":0,"time":6,"station_name":"Daru","distance":2675,"i_lat":-6.338021,"station_id":"DAR","transit":false,"is_transit":false,"i_long":106.491338},{"time":5,"i_lat":-6.327251,"line":6,"station_id":"TEJ","transit":false,"is_transit":false,"i_long":106.460812,"distance":3902,"station_name":"Tenjo"},{"transit":false,"is_transit":false,"station_id":"TGS","line":6,"i_lat":-6.328533,"distance":2974,"station_name":"Tigaraksa","i_long":106.425991,"time":5},{"station_id":"CKY","time":3,"station_name":"Cikoya","distance":2651,"line":3,"i_lat":-6.33561,"i_long":106.411216,"transit":false,"is_transit":false}],[{"line":5,"is_transit":false,"transit":false,"i_long":106.632761,"station_name":"Tangerang","distance":0,"time":0,"station_id":"TNG","i_lat":-6.176583},{"i_lat":-6.17331,"is_transit":false,"transit":false,"time":3,"station_name":"Tanah Tinggi","i_long":106.64657,"station_id":"THI","line":5,"distance":1547},{"is_transit":false,"transit":false,"distance":2028,"i_lat":-6.171811,"line":5,"time":3,"i_long":106.665036,"station_name":"Batuceper","station_id":"BPR"},{"time":3,"station_name":"Poris","distance":1834,"i_long":106.679458,"station_id":"PI","transit":false,"line":5,"is_transit":false,"i_lat":-6.169933},{"is_transit":false,"i_long":106.701612,"time":3,"station_name":"Kalideres","distance":2548,"transit":false,"line":5,"station_id":"KDS","i_lat":-6.166068},{"station_name":"Rawa Buaya","distance":2504,"station_id":"RW","time":3,"i_lat":-6.162758,"i_long":106.723064,"is_transit":false,"transit":false,"line":5},{"i_long":106.737035,"station_id":"BOI","time":4,"station_name":"Bojongindah","i_lat":-6.159876,"is_transit":false,"distance":1152,"line":5,"transit":false},{"i_lat":-6.1587309999999995,"station_id":"TKO","transit":false,"distance":2334,"is_transit":false,"i_long":106.756522,"line":5,"time":2,"station_name":"Taman Kota"},{"line":5,"i_long":106.771379,"time":2,"distance":1614,"is_transit":false,"transit":false,"station_id":"PSG","i_lat":-6.161433,"station_name":"Pesing"},{"i_lat":-6.162021,"i_long":106.788277,"time":2,"is_transit":false,"line":5,"station_name":"Grogol","transit":false,"station_id":"GRG","distance":2036},{"distance":1700,"line":1,"i_lat":-6.155215,"station_id":"DU","i_long":106.800832,"is_transit":true,"station_name":"Duri","time":3,"transit":true},{"transit":false,"time":4,"station_id":"AK","i_lat":-6.144674,"station_name":"Angke","i_long":106.79867,"line":1,"is_transit":false,"distance":1230},{"i_lat":-6.132549,"line":4,"i_long":106.826365,"time":9,"is_transit":true,"transit":true,"station_name":"Kampung Bandan","distance":4102,"station_id":"KPB"},{"i_long":106.812439,"distance":1364,"is_transit":true,"i_lat":-6.137569,"time":3,"line":2,"station_id":"JAKK","transit":true,"station_name":"Jakarta Kota"},{"i_lat":-6.141205,"distance":1264,"station_name":"Jayakarta","time":4,"station_id":"JAY","line":2,"is_transit":false,"transit":false,"i_long":106.820901},{"distance":1080,"is_transit":false,"i_long":106.82482,"line":2,"time":2,"station_name":"Manggabesar","station_id":"MGB","i_lat":-6.149769,"transit":false},{"distance":906,"station_id":"SW","i_long":106.827103,"line":2,"transit":false,"i_lat":-6.160725,"time":2,"station_name":"Sawah Besar","is_transit":false},{"line":2,"distance":1149,"time":2,"transit":false,"i_lat":-6.166716,"is_transit":false,"i_long":106.828284,"station_id":"JUA","station_name":"Juanda"},{"station_id":"GDD","distance":2015,"transit":false,"time":4,"i_lat":-6.186295,"is_transit":false,"line":2,"i_long":106.832183,"station_name":"Gondangdia"},{"line":2,"transit":false,"station_id":"CKI","i_lat":-6.198556,"is_transit":false,"station_name":"Cikini","distance":1750,"time":3,"i_long":106.840169},{"distance":1590,"i_lat":-6.209883,"transit":true,"station_name":"Manggarai","line":2,"i_long":106.84912,"time":4,"is_transit":true,"station_id":"MRI"},{"i_lat":-6.202263,"time":4,"station_name":"Sudirman","distance":3186,"is_transit":false,"station_id":"SUD","line":1,"transit":false,"i_long":106.822649},{"station_id":"SUDB","is_transit":false,"time":1,"distance":280,"line":1,"i_long":106.819881,"i_lat":-6.201433,"transit":false,"station_name":"Sudirman Baru"},{"time":1,"station_name":"Karet","transit":false,"distance":471,"i_lat":-6.20132,"is_transit":false,"i_long":106.816351,"station_id":"KAT","line":1},{"station_name":"Tanah Abang","line":1,"distance":2029,"i_long":106.811091,"time":5,"i_lat":-6.185545,"is_transit":true,"station_id":"THB","transit":true},{"transit":false,"station_id":"PLM","time":6,"distance":3191,"i_long":106.79689,"i_lat":-6.207404,"is_transit":false,"station_name":"Palmerah","line":6},{"time":7,"i_long":106.780334,"is_transit":false,"i_lat":-6.237242,"line":6,"station_name":"Kebayoran","station_id":"KBY","distance":3737,"transit":false},{"transit":false,"i_long":106.74273,"line":6,"i_lat":-6.276362,"time":8,"distance":6218,"is_transit":false,"station_id":"PDJ","station_name":"Pondokranji"},{"transit":false,"station_id":"JMU","distance":2179,"time":3,"station_name":"Jurangmangu","is_transit":false,"i_lat":-6.288927,"line":6,"i_long":106.728916},{"station_id":"SDM","station_name":"Sudimara","time":4,"is_transit":false,"i_long":106.712277,"line":6,"transit":false,"distance":1994,"i_lat":-6.296963},{"distance":4566,"transit":false,"is_transit":false,"station_id":"RU","time":6,"station_name":"Rawa Buntu","i_long":106.675475,"i_lat":-6.314823,"line":6},{"distance":2413,"station_name":"Serpong","time":4,"i_lat":-6.319871,"transit":false,"station_id":"SRP","i_long":106.66566,"line":6,"is_transit":false},{"transit":false,"is_transit":false,"station_id":"CSK","i_long":106.640411,"distance":1784,"station_name":"Cisauk","time":4,"i_lat":-6.32484,"line":3},{"station_name":"Cicayur","line":3,"transit":false,"station_id":"CC","distance":2519,"i_lat":-6.329547,"time":4,"is_transit":false,"i_long":106.617853},{"time":8,"i_long":106.568863,"station_name":"Parung Panjang","transit":false,"is_transit":false,"i_lat":-6.3441410000000005,"line":6,"distance":5968,"station_id":"PRP"},{"is_transit":false,"line":3,"distance":7025,"station_name":"Cilejit","station_id":"CJT","time":9,"i_lat":-6.354349,"transit":false,"i_long":106.508482},{"station_id":"DAR","i_long":106.491338,"line":0,"distance":2675,"time":6,"i_lat":-6.338021,"is_transit":false,"transit":false,"station_name":"Daru"},{"station_name":"Tenjo","i_lat":-6.327251,"transit":false,"station_id":"TEJ","is_transit":false,"i_long":106.460812,"line":6,"distance":3902,"time":5},{"line":6,"station_id":"TGS","time":5,"i_lat":-6.328533,"distance":2974,"station_name":"Tigaraksa","transit":false,"is_transit":false,"i_long":106.425991},{"distance":2651,"i_lat":-6.33561,"transit":false,"is_transit":false,"station_id":"CKY","station_name":"Cikoya","i_long":106.411216,"time":3,"line":3}],[{"station_name":"Tangerang","i_lat":-6.176583,"distance":0,"i_long":106.632761,"station_id":"TNG","transit":false,"time":0,"line":5,"is_transit":false},{"transit":false,"i_lat":-6.17331,"time":3,"is_transit":false,"distance":1547,"station_name":"Tanah Tinggi","station_id":"THI","i_long":106.64657,"line":5},{"line":5,"i_lat":-6.171811,"distance":2028,"transit":false,"station_id":"BPR","station_name":"Batuceper","time":3,"is_transit":false,"i_long":106.665036},{"time":3,"is_transit":false,"station_name":"Poris","i_lat":-6.169933,"distance":1834,"line":5,"transit":false,"station_id":"PI","i_long":106.679458},{"i_long":106.701612,"station_id":"KDS","distance":2548,"line":5,"i_lat":-6.166068,"transit":false,"station_name":"Kalideres","time":3,"is_transit":false},{"distance":2504,"transit":false,"station_name":"Rawa Buaya","time":3,"i_long":106.723064,"station_id":"RW","line":5,"i_lat":-6.162758,"is_transit":false},{"station_name":"Bojongindah","time":4,"distance":1152,"line":5,"i_lat":-6.159876,"station_id":"BOI","is_transit":false,"transit":false,"i_long":106.737035},{"i_lat":-6.1587309999999995,"i_long":106.756522,"distance":2334,"transit":false,"is_transit":false,"station_id":"TKO","station_name":"Taman Kota","time":2,"line":5},{"is_transit":false,"station_name":"Pesing","station_id":"PSG","i_long":106.771379,"line":5,"distance":1614,"i_lat":-6.161433,"time":2,"transit":false},{"transit":false,"station_name":"Grogol","station_id":"GRG","i_lat":-6.162021,"i_long":106.788277,"line":5,"is_transit":false,"time":2,"distance":2036},{"line":1,"time":3,"is_transit":true,"distance":1700,"transit":true,"station_name":"Duri","i_lat":-6.155215,"i_long":106.800832,"station_id":"DU"},{"line":1,"transit":false,"is_transit":false,"distance":1230,"station_id":"AK","station_name":"Angke","i_lat":-6.144674,"time":4,"i_long":106.79867},{"transit":true,"line":4,"station_id":"KPB","time":9,"distance":4102,"i_lat":-6.132549,"is_transit":true,"station_name":"Kampung Bandan","i_long":106.826365},{"station_name":"Rajawali","transit":false,"distance":1444,"line":11,"station_id":"RJW","i_lat":-6.14505,"is_transit":false,"time":3,"i_long":106.836569},{"station_name":"Kemayoran","line":11,"transit":false,"time":5,"is_transit":false,"i_long":106.839204,"i_lat":-6.161728,"distance":1901,"station_id":"KMO"},{"station_id":"PSE","is_transit":false,"distance":1436,"i_long":106.84368,"line":11,"station_name":"Pasar Senen","time":4,"transit":false,"i_lat":-6.174784},{"distance":1567,"transit":false,"station_name":"Gang Sentiong","time":8,"i_lat":-6.185975,"station_id":"GST","i_long":106.850107,"line":11,"is_transit":false},{"station_id":"KMT","station_name":"Kramat","time":1,"line":11,"is_transit":false,"i_lat":-6.193792,"i_long":106.855437,"distance":973,"transit":false},{"transit":false,"station_name":"Pondok Jati","line":11,"time":2,"i_lat":-6.209188,"distance":1829,"is_transit":false,"i_long":106.861737,"station_id":"POK"},{"station_id":"JNG","i_long":106.86807400000001,"is_transit":true,"transit":true,"distance":1236,"line":1,"station_name":"Jatinegara","time":9,"i_lat":-6.215091},{"station_name":"Matraman","distance":1377,"station_id":"MTR","is_transit":false,"time":2,"i_long":106.858896,"transit":false,"i_lat":-6.212485,"line":1},{"distance":1275,"transit":false,"i_lat":-6.209883,"is_transit":false,"i_long":106.84912,"station_name":"Manggarai","station_id":"MRI","time":2,"line":2},{"is_transit":false,"station_id":"SUD","time":4,"distance":3186,"i_lat":-6.202263,"transit":false,"station_name":"Sudirman","i_long":106.822649,"line":1},{"station_name":"Sudirman Baru","transit":false,"line":1,"is_transit":false,"distance":280,"station_id":"SUDB","i_long":106.819881,"i_lat":-6.201433,"time":1},{"station_id":"KAT","station_name":"Karet","distance":471,"time":1,"transit":false,"is_transit":false,"i_lat":-6.20132,"i_long":106.816351,"line":1},{"station_name":"Tanah Abang","i_long":106.811091,"transit":true,"is_transit":true,"i_lat":-6.185545,"distance":2029,"station_id":"THB","line":1,"time":5},{"i_long":106.79689,"line":6,"station_id":"PLM","is_transit":false,"station_name":"Palmerah","distance":3191,"time":6,"i_lat":-6.207404,"transit":false},{"is_transit":false,"line":6,"i_lat":-6.237242,"time":7,"transit":false,"distance":3737,"station_id":"KBY","i_long":106.780334,"station_name":"Kebayoran"},{"i_lat":-6.276362,"station_name":"Pondokranji","is_transit":false,"station_id":"PDJ","distance":6218,"transit":false,"time":8,"i_long":106.74273,"line":6},{"i_lat":-6.288927,"station_name":"Jurangmangu","line":6,"time":3,"station_id":"JMU","distance":2179,"i_long":106.728916,"is_transit":false,"transit":false},{"distance":1994,"i_lat":-6.296963,"i_long":106.712277,"is_transit":false,"station_id":"SDM","station_name":"Sudimara","transit":false,"line":6,"time":4},{"station_name":"Rawa Buntu","i_lat":-6.314823,"transit":false,"is_transit":false,"station_id":"RU","i_long":106.675475,"distance":4566,"line":6,"time":6},{"station_id":"SRP","i_lat":-6.319871,"transit":false,"station_name":"Serpong","time":4,"line":6,"i_long":106.66566,"is_transit":false,"distance":2413},{"i_long":106.640411,"time":4,"line":3,"station_name":"Cisauk","transit":false,"is_transit":false,"station_id":"CSK","i_lat":-6.32484,"distance":1784},{"line":3,"i_long":106.617853,"time":4,"distance":2519,"is_transit":false,"i_lat":-6.329547,"transit":false,"station_name":"Cicayur","station_id":"CC"},{"station_id":"PRP","station_name":"Parung Panjang","line":6,"transit":false,"i_lat":-6.3441410000000005,"distance":5968,"time":8,"i_long":106.568863,"is_transit":false},{"station_id":"CJT","line":3,"transit":false,"time":9,"distance":7025,"i_long":106.508482,"i_lat":-6.354349,"is_transit":false,"station_name":"Cilejit"},{"i_long":106.491338,"line":0,"time":6,"transit":false,"station_id":"DAR","distance":2675,"station_name":"Daru","i_lat":-6.338021,"is_transit":false},{"is_transit":false,"station_id":"TEJ","line":6,"transit":false,"i_lat":-6.327251,"distance":3902,"time":5,"station_name":"Tenjo","i_long":106.460812},{"transit":false,"time":5,"station_id":"TGS","distance":2974,"i_long":106.425991,"is_transit":false,"line":6,"i_lat":-6.328533,"station_name":"Tigaraksa"},{"is_transit":false,"station_id":"CKY","distance":2651,"i_lat":-6.33561,"line":3,"station_name":"Cikoya","transit":false,"time":3,"i_long":106.411216}]]}