{"data":[[{"i_lat":-6.176583,"line":5,"distance":0,"time":0,"station_id":"TNG","is_transit":false,"i_long":106.632761,"transit":false,"station_name":"Tangerang"},{"distance":1547,"i_lat":-6.17331,"station_id":"TTI","time":3,"is_transit":false,"transit":false,"station_name":"Tanah Tinggi","line":5,"i_long":106.64657},{"transit":false,"time":3,"i_lat":-6.171811,"is_transit":false,"distance":2028,"station_name":"Batuceper","i_long":106.665036,"station_id":"BPR","line":5},{"i_lat":-6.169933,"distance":1834,"i_long":106.679458,"line":5,"transit":false,"station_id":"PI","is_transit":false,"station_name":"Poris","time":3},{"station_id":"KDS","i_lat":-6.166068,"time":3,"i_long":106.701612,"is_transit":false,"transit":false,"distance":2548,"station_name":"Kalideres","line":5},{"time":3,"i_long":106.723064,"station_id":"RW","station_name":"Rawa Buaya","line":5,"i_lat":-6.162758,"is_transit":false,"transit":false,"distance":2504},{"time":4,"station_id":"BOI","station_name":"Bojongindah","i_lat":-6.159876,"is_transit":false,"i_long":106.737035,"line":5,"transit":false,"distance":1152},{"line":5,"station_name":"Taman Kota","i_lat":-6.1587309999999995,"transit":false,"distance":2334,"station_id":"TKO","time":2,"is_transit":false,"i_long":106.756522},{"i_long":106.771379,"transit":false,"station_name":"Pesing","station_id":"PSG","is_transit":false,"i_lat":-6.161433,"line":5,"distance":1614,"time":2},{"distance":2036,"station_id":"GGL","transit":false,"line":5,"is_transit":false,"i_lat":-6.162021,"i_long":106.788277,"time":2,"station_name":"Grogol"},{"distance":1700,"station_name":"Duri","i_long":106.800832,"is_transit":true,"transit":true,"time":3,"line":1,"i_lat":-6.155215,"station_id":"DU"},{"distance":3632,"time":8,"transit":true,"i_long":106.811091,"line":1,"station_name":"Tanah Abang","station_id":"THB","is_transit":true,"i_lat":-6.185545},{"distance":3191,"time":6,"station_id":"PLM","is_transit":false,"i_long":106.79689,"line":6,"transit":false,"station_name":"Palmerah","i_lat":-6.207404},{"i_lat":-6.237242,"station_name":"Kebayoran","line":6,"i_long":106.780334,"transit":false,"distance":3737,"time":7,"station_id":"KBY","is_transit":false},{"i_lat":-6.276362,"is_transit":false,"station_name":"Pondokranji","line":6,"i_long":106.74273,"time":8,"station_id":"PDJ","distance":6218,"transit":false},{"station_id":"JMU","transit":false,"time":3,"is_transit":false,"i_lat":-6.288927,"station_name":"Jurangmangu","i_long":106.728916,"distance":2179,"line":6},{"i_long":106.712277,"is_transit":false,"time":4,"station_name":"Sudimara","i_lat":-6.296963,"transit":false,"distance":1994,"station_id":"SDM","line":6},{"distance":4566,"is_transit":false,"station_name":"Rawa Buntu","line":6,"station_id":"RU","time":6,"i_long":106.675475,"i_lat":-6.314823,"transit":false},{"transit":false,"i_lat":-6.319871,"line":6,"distance":2413,"i_long":106.66566,"station_name":"Serpong","time":4,"is_transit":false,"station_id":"SRP"},{"time":4,"is_transit":false,"transit":false,"station_id":"CSK","i_lat":-6.32484,"station_name":"Cisauk","i_long":106.640411,"line":3,"distance":1784},{"station_name":"Cicayur","line":3,"distance":2519,"station_id":"CC","i_long":106.617853,"time":4,"transit":false,"i_lat":-6.329547,"is_transit":false},{"station_name":"Parung Panjang","is_transit":false,"line":6,"transit":false,"time":8,"i_lat":-6.3441410000000005,"station_id":"PRP","distance":5968,"i_long":106.568863},{"time":9,"is_transit":false,"i_lat":-6.354349,"line":3,"station_id":"CJT","station_name":"Cilejit","i_long":106.508482,"transit":false,"distance":7025}],[{"transit":false,"time":0,"distance":0,"i_long":106.632761,"line":5,"station_name":"Tangerang","station_id":"TNG","i_lat":-6.176583,"is_transit":false},{"i_long":106.64657,"i_lat":-6.17331,"distance":1547,"is_transit":false,"station_id":"TTI","line":5,"transit":false,"time":3,"station_name":"Tanah Tinggi"},{"transit":false,"i_lat":-6.171811,"i_long":106.665036,"station_id":"BPR","distance":2028,"line":5,"time":3,"station_name":"Batuceper","is_transit":false},{"line":5,"is_transit":false,"time":3,"i_lat":-6.169933,"transit":false,"distance":1834,"i_long":106.679458,"station_name":"Poris","station_id":"PI"},{"is_transit":false,"time":3,"distance":2548,"station_name":"Kalideres","i_long":106.701612,"station_id":"KDS","i_lat":-6.166068,"transit":false,"line":5},{"line":5,"is_transit":false,"i_long":106.723064,"transit":false,"distance":2504,"station_id":"RW","station_name":"Rawa Buaya","time":3,"i_lat":-6.162758},{"i_lat":-6.159876,"is_transit":false,"line":5,"station_name":"Bojongindah","i_long":106.737035,"distance":1152,"transit":false,"time":4,"station_id":"BOI"},{"station_name":"Taman Kota","line":5,"distance":2334,"i_lat":-6.1587309999999995,"transit":false,"is_transit":false,"i_long":106.756522,"time":2,"station_id":"TKO"},{"i_lat":-6.161433,"line":5,"time":2,"transit":false,"is_transit":false,"distance":1614,"i_long":106.771379,"station_id":"PSG","station_name":"Pesing"},{"i_lat":-6.162021,"i_long":106.788277,"is_transit":false,"station_id":"GGL","station_name":"Grogol","transit":false,"distance":2036,"line":5,"time":2},{"i_lat":-6.155215,"transit":true,"time":3,"distance":1700,"station_id":"DU","is_transit":true,"station_name":"Duri","line":1,"i_long":106.800832},{"transit":false,"time":4,"i_lat":-6.144674,"station_id":"AK","station_name":"Angke","i_long":106.79867,"line":1,"is_transit":false,"distance":1230},{"transit":true,"is_transit":true,"line":4,"i_lat":-6.132549,"distance":4102,"time":9,"station_name":"Kampung Bandan","i_long":106.826365,"station_id":"KPB"},{"is_transit":true,"i_lat":-6.137569,"time":3,"station_id":"JAKK","line":2,"i_long":106.812439,"transit":true,"distance":1364,"station_name":"Jakarta Kota"},{"station_id":"JAY","station_name":"Jayakarta","is_transit":false,"transit":false,"distance":1264,"time":4,"i_lat":-6.141205,"i_long":106.820901,"line":2},{"time":2,"distance":1080,"is_transit":false,"i_lat":-6.149769,"i_long":106.82482,"transit":false,"station_id":"MGB","line":2,"station_name":"Manggabesar"},{"distance":906,"station_id":"SW","time":2,"i_lat":-6.160725,"station_name":"Sawah Besar","i_long":106.827103,"transit":false,"line":2,"is_transit":false},{"time":2,"is_transit":false,"station_name":"Juanda","i_long":106.828284,"line":2,"distance":1149,"transit":false,"station_id":"JUA","i_lat":-6.166716},{"distance":2015,"i_lat":-6.186295,"station_id":"GDD","is_transit":false,"station_name":"Gondangdia","line":2,"i_long":106.832183,"time":4,"transit":false},{"is_transit":false,"time":3,"distance":1750,"station_name":"Cikini","i_long":106.840169,"i_lat":-6.198556,"transit":false,"line":2,"station_id":"CKI"},{"station_name":"Manggarai","station_id":"MRI","time":4,"i_long":106.84912,"i_lat":-6.209883,"transit":true,"line":2,"is_transit":true,"distance":1590},{"line":1,"distance":3186,"station_name":"Sudirman","is_transit":false,"station_id":"SUD","time":4,"i_long":106.822649,"transit":false,"i_lat":-6.202263},{"station_id":"SUDB","transit":false,"distance":280,"line":1,"i_long":106.819881,"is_transit":false,"time":1,"i_lat":-6.201433,"station_name":"Sudirman Baru"},{"time":1,"station_id":"KAT","i_lat":-6.20132,"i_long":106.816351,"distance":471,"is_transit":false,"transit":false,"station_name":"Karet","line":1},{"is_transit":true,"i_lat":-6.185545,"time":5,"station_id":"THB","transit":true,"distance":2029,"station_name":"Tanah Abang","i_long":106.811091,"line":1},{"i_long":106.79689,"station_name":"Palmerah","transit":false,"line":6,"station_id":"PLM","i_lat":-6.207404,"time":6,"is_transit":false,"distance":3191},{"station_name":"Kebayoran","i_long":106.780334,"station_id":"KBY","time":7,"transit":false,"is_transit":false,"distance":3737,"i_lat":-6.237242,"line":6},{"transit":false,"distance":6218,"time":8,"station_id":"PDJ","is_transit":false,"i_long":106.74273,"line":6,"i_lat":-6.276362,"station_name":"Pondokranji"},{"station_name":"Jurangmangu","time":3,"station_id":"JMU","transit":false,"i_lat":-6.288927,"distance":2179,"i_long":106.728916,"is_transit":false,"line":6},{"transit":false,"distance":1994,"station_id":"SDM","i_long":106.712277,"is_transit":false,"i_lat":-6.296963,"time":4,"station_name":"Sudimara","line":6},{"i_long":106.675475,"station_id":"RU","line":6,"i_lat":-6.314823,"transit":false,"distance":4566,"time":6,"station_name":"Rawa Buntu","is_transit":false},{"time":4,"transit":false,"station_name":"Serpong","is_transit":false,"station_id":"SRP","i_lat":-6.319871,"distance":2413,"line":6,"i_long":106.66566},{"is_transit":false,"i_long":106.640411,"distance":1784,"time":4,"station_id":"CSK","line":3,"i_lat":-6.32484,"transit":false,"station_name":"Cisauk"},{"line":3,"station_name":"Cicayur","station_id":"CC","transit":false,"i_long":106.617853,"distance":2519,"time":4,"is_transit":false,"i_lat":-6.329547},{"station_id":"PRP","time":8,"station_name":"Parung Panjang","line":6,"is_transit":false,"transit":false,"distance":5968,"i_lat":-6.3441410000000005,"i_long":106.568863},{"time":9,"station_name":"Cilejit","transit":false,"station_id":"CJT","is_transit":false,"distance":7025,"i_long":106.508482,"i_lat":-6.354349,"line":3}],[{"line":5,"transit":false,"time":0,"i_lat":-6.176583,"station_name":"Tangerang","station_id":"TNG","distance":0,"is_transit":false,"i_long":106.632761},{"i_lat":-6.17331,"is_transit":false,"line":5,"station_id":"TTI","i_long":106.64657,"distance":1547,"time":3,"transit":false,"station_name":"Tanah Tinggi"},{"i_long":106.665036,"i_lat":-6.171811,"line":5,"transit":false,"station_name":"Batuceper","time":3,"station_id":"BPR","is_transit":false,"distance":2028},{"is_transit":false,"transit":false,"time":3,"distance":1834,"station_id":"PI","station_name":"Poris","i_lat":-6.169933,"i_long":106.679458,"line":5},{"is_transit":false,"station_id":"KDS","distance":2548,"station_name":"Kalideres","i_lat":-6.166068,"line":5,"i_long":106.701612,"transit":false,"time":3},{"transit":false,"i_long":106.723064,"line":5,"station_name":"Rawa Buaya","distance":2504,"station_id":"RW","i_lat":-6.162758,"time":3,"is_transit":false},{"station_name":"Bojongindah","distance":1152,"station_id":"BOI","is_transit":false,"transit":false,"line":5,"time":4,"i_lat":-6.159876,"i_long":106.737035},{"distance":2334,"station_name":"Taman Kota","time":2,"line":5,"i_long":106.756522,"i_lat":-6.1587309999999995,"station_id":"TKO","is_transit":false,"transit":false},{"line":5,"is_transit":false,"time":2,"station_id":"PSG","distance":1614,"station_name":"Pesing","i_lat":-6.161433,"i_long":106.771379,"transit":false},{"distance":2036,"is_transit":false,"station_name":"Grogol","transit":false,"i_long":106.788277,"line":5,"i_lat":-6.162021,"time":2,"station_id":"GGL"},{"line":1,"station_name":"Duri","transit":true,"is_transit":true,"time":3,"distance":1700,"i_lat":-6.155215,"i_long":106.800832,"station_id":"DU"},{"is_transit":false,"station_name":"Angke","line":1,"station_id":"AK","time":4,"i_lat":-6.144674,"i_long":106.79867,"distance":1230,"transit":false},{"station_id":"KPB","time":9,"distance":4102,"i_lat":-6.132549,"i_long":106.826365,"transit":true,"line":4,"station_name":"Kampung Bandan","is_transit":true},{"time":3,"is_transit":false,"i_long":106.836569,"line":11,"distance":1444,"station_id":"RJW","i_lat":-6.14505,"transit":false,"station_name":"Rajawali"},{"is_transit":false,"station_name":"Kemayoran","time":5,"transit":false,"line":11,"distance":1901,"i_lat":-6.161728,"station_id":"KMO","i_long":106.839204},{"is_transit":false,"i_lat":-6.174784,"i_long":106.84368,"distance":1436,"line":11,"time":4,"station_name":"Pasar Senen","station_id":"PSE","transit":false},{"distance":1567,"i_lat":-6.185975,"station_name":"Gang Sentiong","is_transit":false,"station_id":"GST","time":8,"transit":false,"i_long":106.850107,"line":11},{"i_long":106.855437,"time":1,"station_id":"KMT","i_lat":-6.193792,"line":11,"is_transit":false,"transit":false,"station_name":"Kramat","distance":973},{"station_name":"Pondok Jati","distance":1829,"time":2,"station_id":"POK","is_transit":false,"line":11,"transit":false,"i_lat":-6.209188,"i_long":106.861737},{"time":9,"line":1,"transit":true,"i_long":106.86807400000001,"distance":1236,"i_lat":-6.215091,"station_id":"JNG","station_name":"Jatinegara","is_transit":true},{"distance":1377,"i_lat":-6.212485,"is_transit":false,"transit":false,"station_name":"Matraman","time":2,"station_id":"MTR","i_long":106.858896,"line":1},{"line":2,"i_lat":-6.209883,"i_long":106.84912,"is_transit":false,"transit":false,"time":2,"station_name":"Manggarai","distance":1275,"station_id":"MRI"},{"distance":3186,"time":4,"station_name":"Sudirman","station_id":"SUD","i_lat":-6.202263,"line":1,"transit":false,"is_transit":false,"i_long":106.822649},{"line":1,"time":1,"distance":280,"i_lat":-6.201433,"station_id":"SUDB","is_transit":false,"transit":false,"station_name":"Sudirman Baru","i_long":106.819881},{"station_id":"KAT","i_long":106.816351,"transit":false,"is_transit":false,"line":1,"i_lat":-6.20132,"station_name":"Karet","distance":471,"time":1},{"time":5,"station_id":"THB","station_name":"Tanah Abang","transit":true,"i_lat":-6.185545,"is_transit":true,"i_long":106.811091,"line":1,"distance":2029},{"is_transit":false,"station_name":"Palmerah","line":6,"i_long":106.79689,"distance":3191,"time":6,"transit":false,"i_lat":-6.207404,"station_id":"PLM"},{"is_transit":false,"i_lat":-6.237242,"i_long":106.780334,"time":7,"line":6,"transit":false,"distance":3737,"station_name":"Kebayoran","station_id":"KBY"},{"station_name":"Pondokranji","station_id":"PDJ","line":6,"i_long":106.74273,"distance":6218,"time":8,"is_transit":false,"transit":false,"i_lat":-6.276362},{"line":6,"i_long":106.728916,"transit":false,"distance":2179,"is_transit":false,"time":3,"station_id":"JMU","station_name":"Jurangmangu","i_lat":-6.288927},{"i_long":106.712277,"transit":false,"line":6,"time":4,"distance":1994,"i_lat":-6.296963,"is_transit":false,"station_id":"SDM","station_name":"Sudimara"},{"is_transit":false,"time":6,"station_name":"Rawa Buntu","transit":false,"distance":4566,"station_id":"RU","i_lat":-6.314823,"line":6,"i_long":106.675475},{"i_lat":-6.319871,"station_id":"SRP","station_name":"Serpong","line":6,"is_transit":false,"distance":2413,"transit":false,"time":4,"i_long":106.66566},{"station_id":"CSK","line":3,"i_lat":-6.32484,"transit":false,"distance":1784,"i_long":106.640411,"station_name":"Cisauk","time":4,"is_transit":false},{"distance":2519,"i_long":106.617853,"line":3,"is_transit":false,"transit":false,"i_lat":-6.329547,"time":4,"station_name":"Cicayur","station_id":"CC"},{"i_lat":-6.3441410000000005,"distance":5968,"transit":false,"time":8,"station_id":"PRP","station_name":"Parung Panjang","line":6,"is_transit":false,"i_long":106.568863},{"time":9,"station_name":"Cilejit","station_id":"CJT","i_long":106.508482,"is_transit":false,"transit":false,"line":3,"i_lat":-6.354349,"distance":7025}]]}