{"data":[[{"i_lat":-6.176583,"line":5,"transit":false,"time":0,"is_transit":false,"i_long":106.632761,"station_id":"TNG","distance":0,"station_name":"Tangerang"},{"station_id":"TTI","i_lat":-6.17331,"is_transit":false,"distance":1547,"i_long":106.64657,"transit":false,"line":5,"station_name":"Tanah Tinggi","time":3},{"station_name":"Batuceper","station_id":"BPR","transit":false,"i_lat":-6.171811,"is_transit":false,"time":3,"distance":2028,"line":5,"i_long":106.665036},{"is_transit":false,"i_lat":-6.169933,"distance":1834,"line":5,"time":3,"transit":false,"station_id":"PI","station_name":"Poris","i_long":106.679458},{"line":5,"i_long":106.701612,"station_name":"Kalideres","distance":2548,"is_transit":false,"station_id":"KDS","transit":false,"i_lat":-6.166068,"time":3},{"station_id":"RW","transit":false,"distance":2504,"i_lat":-6.162758,"station_name":"Rawa Buaya","line":5,"is_transit":false,"i_long":106.723064,"time":3},{"i_long":106.737035,"line":5,"is_transit":false,"time":4,"transit":false,"station_name":"Bojongindah","i_lat":-6.159876,"distance":1152,"station_id":"BOI"},{"station_name":"Taman Kota","line":5,"i_long":106.756522,"time":2,"i_lat":-6.1587309999999995,"is_transit":false,"distance":2334,"transit":false,"station_id":"TKO"},{"transit":false,"line":5,"station_name":"Pesing","time":2,"i_long":106.771379,"distance":1614,"is_transit":false,"station_id":"PSG","i_lat":-6.161433},{"distance":2036,"transit":false,"station_id":"GGL","is_transit":false,"i_lat":-6.162021,"line":5,"time":2,"station_name":"Grogol","i_long":106.788277},{"is_transit":true,"i_lat":-6.155215,"distance":1700,"transit":true,"station_name":"Duri","i_long":106.800832,"line":1,"time":3,"station_id":"DU"},{"i_long":106.79867,"station_id":"AK","is_transit":false,"time":4,"i_lat":-6.144674,"line":1,"transit":false,"distance":1230,"station_name":"Angke"}],[{"i_long":106.632761,"line":5,"transit":false,"i_lat":-6.176583,"is_transit":false,"distance":0,"time":0,"station_id":"TNG","station_name":"Tangerang"},{"is_transit":false,"i_lat":-6.17331,"line":5,"transit":false,"distance":1547,"time":3,"i_long":106.64657,"station_id":"TTI","station_name":"Tanah Tinggi"},{"station_id":"BPR","line":5,"station_name":"Batuceper","i_lat":-6.171811,"i_long":106.665036,"time":3,"is_transit":false,"transit":false,"distance":2028},{"time":3,"line":5,"i_long":106.679458,"transit":false,"station_name":"Poris","i_lat":-6.169933,"is_transit":false,"station_id":"PI","distance":1834},{"line":5,"is_transit":false,"distance":2548,"station_name":"Kalideres","time":3,"i_lat":-6.166068,"i_long":106.701612,"transit":false,"station_id":"KDS"},{"time":3,"i_lat":-6.162758,"i_long":106.723064,"is_transit":false,"line":5,"station_id":"RW","distance":2504,"transit":false,"station_name":"Rawa Buaya"},{"distance":1152,"i_long":106.737035,"station_name":"Bojongindah","is_transit":false,"station_id":"BOI","transit":false,"i_lat":-6.159876,"line":5,"time":4},{"distance":2334,"i_lat":-6.1587309999999995,"station_id":"TKO","is_transit":false,"line":5,"transit":false,"station_name":"Taman Kota","time":2,"i_long":106.756522},{"is_transit":false,"i_lat":-6.161433,"transit":false,"station_name":"Pesing","distance":1614,"time":2,"station_id":"PSG","i_long":106.771379,"line":5},{"line":5,"i_lat":-6.162021,"station_name":"Grogol","transit":false,"i_long":106.788277,"time":2,"is_transit":false,"distance":2036,"station_id":"GGL"},{"line":1,"distance":1700,"station_id":"DU","i_lat":-6.155215,"is_transit":true,"transit":true,"i_long":106.800832,"time":3,"station_name":"Duri"},{"line":1,"station_name":"Tanah Abang","time":8,"is_transit":false,"distance":3632,"station_id":"THB","transit":false,"i_long":106.811091,"i_lat":-6.185545},{"distance":2029,"time":5,"i_long":106.816351,"is_transit":false,"station_name":"Karet","transit":false,"i_lat":-6.20132,"line":1,"station_id":"KAT"},{"is_transit":false,"line":1,"transit":false,"time":1,"distance":471,"i_long":106.819881,"station_id":"SUDB","station_name":"Sudirman Baru","i_lat":-6.201433},{"time":1,"distance":280,"station_id":"SUD","station_name":"Sudirman","line":1,"is_transit":false,"i_lat":-6.202263,"transit":false,"i_long":106.822649},{"transit":true,"time":4,"station_name":"Manggarai","i_long":106.84912,"line":2,"distance":3186,"i_lat":-6.209883,"is_transit":true,"station_id":"MRI"},{"i_long":106.840169,"i_lat":-6.198556,"transit":false,"distance":1590,"line":2,"station_id":"CKI","time":4,"station_name":"Cikini","is_transit":false},{"i_lat":-6.186295,"line":2,"is_transit":false,"transit":false,"station_name":"Gondangdia","distance":1750,"station_id":"GDD","time":3,"i_long":106.832183},{"transit":false,"time":4,"is_transit":false,"station_id":"JUA","distance":2015,"station_name":"Juanda","line":2,"i_long":106.828284,"i_lat":-6.166716},{"station_name":"Sawah Besar","transit":false,"line":2,"distance":1149,"i_lat":-6.160725,"is_transit":false,"station_id":"SW","time":2,"i_long":106.827103},{"transit":false,"line":2,"station_id":"MGB","distance":906,"i_long":106.82482,"station_name":"Manggabesar","i_lat":-6.149769,"is_transit":false,"time":2},{"station_id":"JAY","i_long":106.820901,"transit":false,"time":2,"is_transit":false,"distance":1080,"i_lat":-6.141205,"station_name":"Jayakarta","line":2},{"transit":true,"line":2,"is_transit":true,"time":4,"station_name":"Jakarta Kota","distance":1264,"i_long":106.812439,"station_id":"JAKK","i_lat":-6.137569},{"is_transit":true,"station_id":"KPB","transit":true,"station_name":"Kampung Bandan","i_long":106.826365,"time":3,"distance":1364,"i_lat":-6.132549,"line":4},{"line":1,"i_lat":-6.144674,"station_name":"Angke","station_id":"AK","is_transit":false,"time":9,"transit":false,"i_long":106.79867,"distance":4102}],[{"station_name":"Tangerang","line":5,"distance":0,"transit":false,"station_id":"TNG","is_transit":false,"i_lat":-6.176583,"i_long":106.632761,"time":0},{"i_lat":-6.17331,"time":3,"station_name":"Tanah Tinggi","i_long":106.64657,"station_id":"TTI","is_transit":false,"transit":false,"distance":1547,"line":5},{"distance":2028,"i_lat":-6.171811,"line":5,"station_name":"Batuceper","i_long":106.665036,"time":3,"transit":false,"station_id":"BPR","is_transit":false},{"station_id":"PI","station_name":"Poris","distance":1834,"time":3,"i_long":106.679458,"line":5,"i_lat":-6.169933,"is_transit":false,"transit":false},{"i_lat":-6.166068,"time":3,"i_long":106.701612,"line":5,"transit":false,"distance":2548,"station_name":"Kalideres","is_transit":false,"station_id":"KDS"},{"distance":2504,"station_id":"RW","is_transit":false,"time":3,"line":5,"i_lat":-6.162758,"transit":false,"i_long":106.723064,"station_name":"Rawa Buaya"},{"is_transit":false,"transit":false,"distance":1152,"station_id":"BOI","i_long":106.737035,"i_lat":-6.159876,"line":5,"station_name":"Bojongindah","time":4},{"station_id":"TKO","i_lat":-6.1587309999999995,"i_long":106.756522,"station_name":"Taman Kota","line":5,"time":2,"transit":false,"distance":2334,"is_transit":false},{"distance":1614,"i_long":106.771379,"i_lat":-6.161433,"time":2,"line":5,"transit":false,"station_name":"Pesing","is_transit":false,"station_id":"PSG"},{"is_transit":false,"distance":2036,"line":5,"time":2,"transit":false,"i_lat":-6.162021,"i_long":106.788277,"station_name":"Grogol","station_id":"GGL"},{"station_id":"DU","time":3,"i_lat":-6.155215,"line":1,"distance":1700,"transit":true,"i_long":106.800832,"is_transit":true,"station_name":"Duri"},{"is_transit":false,"transit":false,"station_id":"THB","station_name":"Tanah Abang","i_long":106.811091,"distance":3632,"i_lat":-6.185545,"line":1,"time":8},{"i_long":106.816351,"transit":false,"station_name":"Karet","line":1,"station_id":"KAT","distance":2029,"is_transit":false,"time":5,"i_lat":-6.20132},{"i_lat":-6.201433,"transit":false,"station_id":"SUDB","station_name":"Sudirman Baru","line":1,"distance":471,"time":1,"is_transit":false,"i_long":106.819881},{"distance":280,"transit":false,"is_transit":false,"time":1,"station_name":"Sudirman","station_id":"SUD","line":1,"i_long":106.822649,"i_lat":-6.202263},{"line":2,"station_name":"Manggarai","distance":3186,"time":4,"is_transit":false,"transit":false,"station_id":"MRI","i_lat":-6.209883,"i_long":106.84912},{"i_lat":-6.212485,"is_transit":false,"station_name":"Matraman","distance":1275,"station_id":"MTR","time":2,"transit":false,"i_long":106.858896,"line":1},{"station_id":"JNG","i_lat":-6.215091,"transit":true,"distance":1377,"time":8,"i_long":106.86807400000001,"is_transit":true,"station_name":"Jatinegara","line":1},{"line":11,"time":2,"i_lat":-6.209188,"station_name":"Pondok Jati","distance":1236,"station_id":"POK","transit":false,"i_long":106.861737,"is_transit":false},{"transit":false,"station_id":"KMT","station_name":"Kramat","i_lat":-6.193792,"i_long":106.855437,"distance":1829,"line":11,"time":2,"is_transit":false},{"station_id":"GST","line":11,"station_name":"Gang Sentiong","is_transit":false,"time":1,"transit":false,"i_lat":-6.185975,"distance":973,"i_long":106.850107},{"line":11,"i_lat":-6.174784,"station_name":"Pasar Senen","time":8,"station_id":"PSE","is_transit":false,"transit":false,"distance":1567,"i_long":106.84368},{"time":4,"station_id":"KMO","line":11,"station_name":"Kemayoran","distance":1436,"i_lat":-6.161728,"transit":false,"i_long":106.839204,"is_transit":false},{"i_lat":-6.14505,"i_long":106.836569,"line":11,"transit":false,"time":5,"distance":1901,"station_name":"Rajawali","is_transit":false,"station_id":"RJW"},{"is_transit":true,"line":4,"station_name":"Kampung Bandan","time":3,"i_long":106.826365,"transit":true,"distance":1444,"station_id":"KPB","i_lat":-6.132549},{"distance":4102,"line":1,"i_lat":-6.144674,"station_id":"AK","i_long":106.79867,"transit":false,"time":9,"is_transit":false,"station_name":"Angke"}]]}