{"data":[[{"i_long":106.632761,"is_transit":false,"station_name":"Tangerang","i_lat":-6.176583,"time":0,"distance":0,"transit":false,"station_id":"TNG","line":5},{"line":5,"time":3,"is_transit":false,"distance":1547,"i_long":106.64657,"station_id":"TTI","transit":false,"station_name":"Tanah Tinggi","i_lat":-6.17331},{"station_id":"BPR","transit":false,"time":3,"is_transit":false,"station_name":"Batuceper","line":0,"distance":2028,"i_long":106.665036,"i_lat":-6.171811},{"time":3,"i_lat":-6.169933,"is_transit":false,"line":5,"station_name":"Poris","i_long":106.679458,"distance":1834,"transit":false,"station_id":"PI"},{"station_id":"KDS","is_transit":false,"station_name":"Kalideres","transit":false,"time":3,"line":5,"distance":2548,"i_lat":-6.166068,"i_long":106.701612},{"station_name":"Rawa Buaya","i_long":106.723064,"is_transit":false,"time":3,"transit":false,"station_id":"RW","i_lat":-6.162758,"line":5,"distance":2504},{"i_lat":-6.159876,"station_id":"BOI","i_long":106.737035,"line":0,"transit":false,"time":4,"station_name":"Bojongindah","is_transit":false,"distance":1152},{"i_long":106.756522,"station_id":"TKO","transit":false,"time":2,"i_lat":-6.1587309999999995,"line":5,"distance":2334,"is_transit":false,"station_name":"Taman Kota"},{"time":2,"i_lat":-6.161433,"i_long":106.771379,"distance":1614,"station_name":"Pesing","is_transit":false,"transit":false,"line":5,"station_id":"PSG"},{"transit":false,"is_transit":false,"distance":2036,"station_id":"GGL","i_lat":-6.162021,"i_long":106.788277,"time":2,"station_name":"Grogol","line":5},{"time":3,"is_transit":true,"distance":1700,"i_lat":-6.155215,"station_id":"DU","line":1,"transit":true,"i_long":106.800832,"station_name":"Duri"},{"line":1,"i_long":106.811091,"transit":false,"time":8,"station_id":"THB","is_transit":true,"distance":3632,"station_name":"Tanah Abang","i_lat":-6.185545},{"transit":false,"is_transit":false,"distance":2029,"i_lat":-6.20132,"station_id":"KAT","station_name":"Karet","i_long":106.816351,"line":1,"time":5},{"station_id":"SUDB","i_long":106.819881,"line":1,"distance":471,"station_name":"Sudirman Baru","time":1,"is_transit":false,"transit":false,"i_lat":-6.201433},{"is_transit":false,"i_long":106.822649,"transit":false,"distance":280,"time":1,"station_id":"SUD","station_name":"Sudirman","i_lat":-6.202263,"line":1},{"station_name":"Manggarai","i_long":106.84912,"time":4,"is_transit":true,"distance":3186,"i_lat":-6.209883,"line":0,"station_id":"MRI","transit":false},{"time":2,"is_transit":false,"station_name":"Matraman","i_lat":-6.212485,"line":1,"transit":false,"i_long":106.858896,"station_id":"MTR","distance":1275},{"line":0,"is_transit":true,"i_lat":-6.215091,"i_long":106.86807400000001,"station_name":"Jatinegara","distance":1377,"station_id":"JNG","time":8,"transit":false},{"i_long":106.899548,"station_id":"KLD","transit":false,"i_lat":-6.2135,"is_transit":false,"line":1,"distance":3395,"station_name":"Klender","time":3},{"i_long":106.922662,"station_id":"BUA","time":2,"transit":false,"is_transit":false,"i_lat":-6.215568,"line":0,"station_name":"Buaran","distance":3100},{"transit":false,"station_id":"KLDB","i_lat":-6.217455,"is_transit":false,"station_name":"Klenderbaru","i_long":106.939679,"line":1,"distance":1305,"time":1},{"is_transit":false,"i_lat":-6.219053,"station_id":"CUK","i_long":106.951283,"time":8,"station_name":"Cakung","line":0,"transit":false,"distance":1385}],[{"time":0,"line":5,"is_transit":false,"distance":0,"station_name":"Tangerang","i_lat":-6.176583,"station_id":"TNG","i_long":106.632761,"transit":false},{"station_id":"TTI","station_name":"Tanah Tinggi","i_long":106.64657,"time":3,"distance":1547,"transit":false,"line":5,"is_transit":false,"i_lat":-6.17331},{"is_transit":false,"distance":2028,"time":3,"station_name":"Batuceper","station_id":"BPR","i_lat":-6.171811,"i_long":106.665036,"line":0,"transit":false},{"line":5,"station_name":"Poris","transit":false,"i_long":106.679458,"is_transit":false,"i_lat":-6.169933,"distance":1834,"time":3,"station_id":"PI"},{"line":5,"distance":2548,"transit":false,"station_name":"Kalideres","station_id":"KDS","is_transit":false,"time":3,"i_lat":-6.166068,"i_long":106.701612},{"i_lat":-6.162758,"station_id":"RW","i_long":106.723064,"time":3,"transit":false,"distance":2504,"station_name":"Rawa Buaya","is_transit":false,"line":5},{"is_transit":false,"transit":false,"line":0,"distance":1152,"station_name":"Bojongindah","station_id":"BOI","i_lat":-6.159876,"i_long":106.737035,"time":4},{"distance":2334,"line":5,"station_id":"TKO","i_long":106.756522,"time":2,"is_transit":false,"station_name":"Taman Kota","i_lat":-6.1587309999999995,"transit":false},{"station_id":"PSG","station_name":"Pesing","i_long":106.771379,"is_transit":false,"transit":false,"i_lat":-6.161433,"time":2,"distance":1614,"line":5},{"station_name":"Grogol","transit":false,"line":5,"i_long":106.788277,"station_id":"GGL","i_lat":-6.162021,"distance":2036,"time":2,"is_transit":false},{"is_transit":true,"transit":true,"time":3,"distance":1700,"station_name":"Duri","i_long":106.800832,"line":1,"station_id":"DU","i_lat":-6.155215},{"line":0,"i_long":106.79867,"station_name":"Angke","distance":1230,"time":4,"transit":false,"station_id":"AK","i_lat":-6.144674,"is_transit":false},{"i_lat":-6.132549,"i_long":106.826365,"line":0,"distance":4102,"is_transit":true,"station_id":"KPB","time":9,"transit":true,"station_name":"Kampung Bandan"},{"time":3,"distance":1444,"is_transit":false,"transit":false,"station_id":"RJW","station_name":"Rajawali","line":11,"i_lat":-6.14505,"i_long":106.836569},{"time":5,"is_transit":false,"distance":1901,"i_lat":-6.161728,"i_long":106.839204,"station_id":"KMO","transit":false,"line":11,"station_name":"Kemayoran"},{"i_lat":-6.174784,"distance":1436,"line":11,"i_long":106.84368,"time":4,"station_name":"Pasar Senen","transit":false,"is_transit":false,"station_id":"PSE"},{"i_lat":-6.185975,"station_id":"GST","is_transit":false,"line":11,"station_name":"Gang Sentiong","i_long":106.850107,"transit":false,"time":8,"distance":1567},{"time":1,"i_lat":-6.193792,"is_transit":false,"transit":false,"i_long":106.855437,"station_name":"Kramat","line":11,"distance":973,"station_id":"KMT"},{"is_transit":false,"time":2,"station_id":"POK","station_name":"Pondok Jati","i_long":106.861737,"distance":1829,"line":11,"i_lat":-6.209188,"transit":false},{"is_transit":true,"time":9,"i_long":106.86807400000001,"transit":true,"station_id":"JNG","station_name":"Jatinegara","distance":1236,"line":0,"i_lat":-6.215091},{"station_name":"Klender","i_long":106.899548,"time":3,"distance":3395,"is_transit":false,"station_id":"KLD","i_lat":-6.2135,"transit":false,"line":1},{"line":0,"transit":false,"i_long":106.922662,"time":2,"distance":3100,"station_name":"Buaran","i_lat":-6.215568,"is_transit":false,"station_id":"BUA"},{"i_lat":-6.217455,"station_name":"Klenderbaru","i_long":106.939679,"transit":false,"distance":1305,"line":1,"time":1,"station_id":"KLDB","is_transit":false},{"transit":false,"station_name":"Cakung","is_transit":false,"line":0,"i_long":106.951283,"distance":1385,"station_id":"CUK","i_lat":-6.219053,"time":8}],[{"transit":false,"is_transit":false,"station_name":"Tangerang","line":5,"distance":0,"station_id":"TNG","time":0,"i_long":106.632761,"i_lat":-6.176583},{"distance":1547,"line":5,"station_name":"Tanah Tinggi","i_long":106.64657,"is_transit":false,"time":3,"transit":false,"station_id":"TTI","i_lat":-6.17331},{"distance":2028,"station_name":"Batuceper","i_long":106.665036,"transit":false,"line":0,"i_lat":-6.171811,"is_transit":false,"station_id":"BPR","time":3},{"distance":1834,"i_long":106.679458,"is_transit":false,"i_lat":-6.169933,"station_id":"PI","transit":false,"line":5,"station_name":"Poris","time":3},{"transit":false,"i_long":106.701612,"distance":2548,"station_name":"Kalideres","is_transit":false,"i_lat":-6.166068,"line":5,"station_id":"KDS","time":3},{"is_transit":false,"line":5,"i_long":106.723064,"time":3,"transit":false,"distance":2504,"station_id":"RW","station_name":"Rawa Buaya","i_lat":-6.162758},{"is_transit":false,"station_id":"BOI","station_name":"Bojongindah","i_long":106.737035,"distance":1152,"i_lat":-6.159876,"time":4,"line":0,"transit":false},{"i_long":106.756522,"is_transit":false,"transit":false,"time":2,"distance":2334,"station_name":"Taman Kota","line":5,"i_lat":-6.1587309999999995,"station_id":"TKO"},{"is_transit":false,"transit":false,"distance":1614,"station_name":"Pesing","i_lat":-6.161433,"i_long":106.771379,"line":5,"time":2,"station_id":"PSG"},{"distance":2036,"i_lat":-6.162021,"line":5,"transit":false,"is_transit":false,"station_id":"GGL","station_name":"Grogol","i_long":106.788277,"time":2},{"i_lat":-6.155215,"is_transit":true,"transit":true,"time":3,"station_id":"DU","distance":1700,"station_name":"Duri","i_long":106.800832,"line":1},{"station_id":"AK","is_transit":false,"time":4,"station_name":"Angke","i_lat":-6.144674,"transit":false,"i_long":106.79867,"distance":1230,"line":0},{"is_transit":true,"distance":4102,"station_id":"KPB","time":9,"i_lat":-6.132549,"transit":false,"station_name":"Kampung Bandan","line":0,"i_long":106.826365},{"transit":true,"is_transit":true,"i_lat":-6.137569,"line":0,"distance":1364,"station_id":"JAKK","time":3,"station_name":"Jakarta Kota","i_long":106.812439},{"i_long":106.820901,"time":4,"i_lat":-6.141205,"is_transit":false,"line":7,"distance":1264,"transit":false,"station_name":"Jayakarta","station_id":"JAY"},{"time":2,"transit":false,"station_name":"Manggabesar","distance":1080,"station_id":"MGB","line":2,"is_transit":false,"i_lat":-6.149769,"i_long":106.82482},{"station_name":"Sawah Besar","i_long":106.827103,"time":2,"is_transit":false,"i_lat":-6.160725,"transit":false,"line":2,"distance":906,"station_id":"SW"},{"transit":false,"time":2,"i_lat":-6.166716,"distance":1149,"station_id":"JUA","line":2,"is_transit":false,"i_long":106.828284,"station_name":"Juanda"},{"station_id":"GDD","i_long":106.832183,"is_transit":false,"i_lat":-6.186295,"time":4,"line":2,"distance":2015,"transit":false,"station_name":"Gondangdia"},{"distance":1750,"is_transit":false,"time":3,"i_long":106.840169,"station_id":"CKI","station_name":"Cikini","i_lat":-6.198556,"transit":false,"line":0},{"distance":1590,"line":0,"is_transit":true,"transit":true,"i_lat":-6.209883,"station_id":"MRI","station_name":"Manggarai","time":4,"i_long":106.84912},{"distance":1275,"i_lat":-6.212485,"station_id":"MTR","i_long":106.858896,"line":1,"time":2,"transit":false,"is_transit":false,"station_name":"Matraman"},{"time":8,"is_transit":true,"station_id":"JNG","distance":1377,"i_long":106.86807400000001,"i_lat":-6.215091,"transit":false,"station_name":"Jatinegara","line":0},{"distance":3395,"i_long":106.899548,"time":3,"station_id":"KLD","i_lat":-6.2135,"line":1,"transit":false,"station_name":"Klender","is_transit":false},{"transit":false,"is_transit":false,"station_name":"Buaran","station_id":"BUA","i_lat":-6.215568,"line":0,"time":2,"i_long":106.922662,"distance":3100},{"i_lat":-6.217455,"i_long":106.939679,"line":1,"is_transit":false,"station_name":"Klenderbaru","distance":1305,"transit":false,"station_id":"KLDB","time":1},{"station_id":"CUK","time":8,"line":0,"is_transit":false,"transit":false,"distance":1385,"station_name":"Cakung","i_lat":-6.219053,"i_long":106.951283}],[{"transit":false,"is_transit":false,"station_id":"TNG","station_name":"Tangerang","distance":0,"i_lat":-6.176583,"i_long":106.632761,"line":5,"time":0},{"i_long":106.64657,"distance":1547,"transit":false,"time":3,"is_transit":false,"station_id":"TTI","station_name":"Tanah Tinggi","i_lat":-6.17331,"line":5},{"time":3,"distance":2028,"transit":false,"station_name":"Batuceper","i_lat":-6.171811,"i_long":106.665036,"line":0,"is_transit":false,"station_id":"BPR"},{"transit":false,"is_transit":false,"distance":1834,"line":5,"i_long":106.679458,"station_id":"PI","i_lat":-6.169933,"time":3,"station_name":"Poris"},{"i_lat":-6.166068,"distance":2548,"station_name":"Kalideres","station_id":"KDS","i_long":106.701612,"transit":false,"time":3,"is_transit":false,"line":5},{"time":3,"station_id":"RW","is_transit":false,"i_lat":-6.162758,"distance":2504,"transit":false,"station_name":"Rawa Buaya","line":5,"i_long":106.723064},{"station_name":"Bojongindah","time":4,"line":0,"station_id":"BOI","i_lat":-6.159876,"transit":false,"distance":1152,"is_transit":false,"i_long":106.737035},{"transit":false,"station_name":"Taman Kota","time":2,"distance":2334,"i_lat":-6.1587309999999995,"station_id":"TKO","is_transit":false,"i_long":106.756522,"line":5},{"distance":1614,"station_name":"Pesing","transit":false,"time":2,"station_id":"PSG","line":5,"is_transit":false,"i_long":106.771379,"i_lat":-6.161433},{"transit":false,"distance":2036,"time":2,"station_name":"Grogol","i_lat":-6.162021,"i_long":106.788277,"station_id":"GGL","is_transit":false,"line":5},{"transit":true,"is_transit":true,"station_name":"Duri","distance":1700,"i_long":106.800832,"station_id":"DU","i_lat":-6.155215,"line":1,"time":3},{"is_transit":true,"station_name":"Tanah Abang","i_long":106.811091,"distance":3632,"transit":false,"time":8,"station_id":"THB","line":1,"i_lat":-6.185545},{"is_transit":false,"transit":false,"distance":2029,"line":1,"i_lat":-6.20132,"i_long":106.816351,"time":5,"station_id":"KAT","station_name":"Karet"},{"is_transit":false,"i_lat":-6.201433,"time":1,"transit":false,"line":1,"station_name":"Sudirman Baru","station_id":"SUDB","i_long":106.819881,"distance":471},{"line":1,"time":1,"station_id":"SUD","transit":false,"i_long":106.822649,"station_name":"Sudirman","is_transit":false,"distance":280,"i_lat":-6.202263},{"line":0,"transit":true,"station_id":"MRI","i_lat":-6.209883,"is_transit":true,"station_name":"Manggarai","distance":3186,"i_long":106.84912,"time":4},{"time":4,"distance":1590,"station_id":"CKI","is_transit":false,"i_lat":-6.198556,"line":0,"i_long":106.840169,"transit":false,"station_name":"Cikini"},{"transit":false,"station_id":"GDD","i_long":106.832183,"station_name":"Gondangdia","time":3,"line":2,"is_transit":false,"i_lat":-6.186295,"distance":1750},{"distance":2015,"station_name":"Juanda","line":2,"i_lat":-6.166716,"i_long":106.828284,"is_transit":false,"time":4,"station_id":"JUA","transit":false},{"line":2,"transit":false,"distance":1149,"station_name":"Sawah Besar","i_long":106.827103,"is_transit":false,"time":2,"station_id":"SW","i_lat":-6.160725},{"station_name":"Manggabesar","transit":false,"station_id":"MGB","line":2,"i_long":106.82482,"time":2,"i_lat":-6.149769,"distance":906,"is_transit":false},{"line":7,"is_transit":false,"station_name":"Jayakarta","i_long":106.820901,"time":2,"transit":false,"distance":1080,"station_id":"JAY","i_lat":-6.141205},{"is_transit":true,"i_long":106.812439,"distance":1264,"station_name":"Jakarta Kota","transit":true,"station_id":"JAKK","time":4,"line":0,"i_lat":-6.137569},{"distance":1364,"station_name":"Kampung Bandan","is_transit":true,"transit":true,"i_long":106.826365,"i_lat":-6.132549,"station_id":"KPB","time":3,"line":0},{"is_transit":false,"distance":1444,"station_id":"RJW","time":3,"transit":false,"station_name":"Rajawali","i_long":106.836569,"i_lat":-6.14505,"line":11},{"is_transit":false,"station_id":"KMO","i_lat":-6.161728,"i_long":106.839204,"transit":false,"line":11,"distance":1901,"station_name":"Kemayoran","time":5},{"time":4,"transit":false,"i_long":106.84368,"distance":1436,"i_lat":-6.174784,"line":11,"station_id":"PSE","station_name":"Pasar Senen","is_transit":false},{"i_long":106.850107,"station_name":"Gang Sentiong","line":11,"is_transit":false,"distance":1567,"station_id":"GST","i_lat":-6.185975,"time":8,"transit":false},{"station_id":"KMT","is_transit":false,"transit":false,"distance":973,"i_lat":-6.193792,"time":1,"line":11,"i_long":106.855437,"station_name":"Kramat"},{"time":2,"distance":1829,"station_id":"POK","i_lat":-6.209188,"line":11,"transit":false,"station_name":"Pondok Jati","is_transit":false,"i_long":106.861737},{"time":9,"is_transit":true,"i_long":106.86807400000001,"station_name":"Jatinegara","distance":1236,"transit":true,"station_id":"JNG","i_lat":-6.215091,"line":0},{"i_lat":-6.2135,"is_transit":false,"transit":false,"station_name":"Klender","distance":3395,"station_id":"KLD","i_long":106.899548,"line":1,"time":3},{"is_transit":false,"station_name":"Buaran","time":2,"i_lat":-6.215568,"station_id":"BUA","i_long":106.922662,"transit":false,"line":0,"distance":3100},{"station_id":"KLDB","is_transit":false,"transit":false,"i_lat":-6.217455,"i_long":106.939679,"time":1,"distance":1305,"station_name":"Klenderbaru","line":1},{"transit":false,"station_id":"CUK","i_long":106.951283,"is_transit":false,"line":0,"time":8,"i_lat":-6.219053,"station_name":"Cakung","distance":1385}]]}