{"data":[[{"distance":0,"line":5,"station_name":"Tangerang","transit":false,"time":0,"i_long":106.632761,"station_id":"TNG","is_transit":false,"i_lat":-6.176583},{"i_lat":-6.17331,"line":5,"transit":false,"distance":1547,"is_transit":false,"station_id":"TTI","i_long":106.64657,"time":3,"station_name":"Tanah Tinggi"},{"i_long":106.665036,"i_lat":-6.171811,"transit":false,"distance":2028,"time":3,"is_transit":false,"station_id":"BPR","station_name":"Batuceper","line":5},{"station_id":"PI","i_lat":-6.169933,"line":5,"station_name":"Poris","is_transit":false,"time":3,"i_long":106.679458,"distance":1834,"transit":false},{"time":3,"is_transit":false,"station_id":"KDS","line":5,"transit":false,"distance":2548,"i_long":106.701612,"station_name":"Kalideres","i_lat":-6.166068},{"station_name":"Rawa Buaya","distance":2504,"transit":false,"i_long":106.723064,"line":5,"station_id":"RW","is_transit":false,"i_lat":-6.162758,"time":3},{"is_transit":false,"i_lat":-6.159876,"station_name":"Bojongindah","distance":1152,"i_long":106.737035,"station_id":"BOI","time":4,"line":5,"transit":false},{"time":2,"line":5,"is_transit":false,"station_name":"Taman Kota","distance":2334,"station_id":"TKO","i_long":106.756522,"i_lat":-6.1587309999999995,"transit":false},{"station_id":"PSG","i_lat":-6.161433,"i_long":106.771379,"is_transit":false,"station_name":"Pesing","distance":1614,"line":5,"time":2,"transit":false},{"i_lat":-6.162021,"station_id":"GGL","line":5,"is_transit":false,"time":2,"i_long":106.788277,"station_name":"Grogol","distance":2036,"transit":false},{"i_long":106.800832,"transit":true,"is_transit":true,"i_lat":-6.155215,"line":1,"time":3,"station_name":"Duri","distance":1700,"station_id":"DU"},{"station_name":"Tanah Abang","distance":3632,"i_lat":-6.185545,"is_transit":false,"station_id":"THB","line":1,"transit":false,"time":8,"i_long":106.811091},{"i_long":106.816351,"distance":2029,"line":1,"time":5,"transit":false,"is_transit":false,"station_id":"KAT","i_lat":-6.20132,"station_name":"Karet"},{"i_long":106.819881,"station_id":"SUDB","transit":false,"station_name":"Sudirman Baru","is_transit":false,"time":1,"line":1,"i_lat":-6.201433,"distance":471},{"is_transit":false,"station_name":"Sudirman","station_id":"SUD","transit":false,"i_long":106.822649,"line":1,"time":1,"distance":280,"i_lat":-6.202263},{"line":2,"is_transit":true,"time":4,"station_id":"MRI","station_name":"Manggarai","transit":true,"distance":3186,"i_lat":-6.209883,"i_long":106.84912},{"distance":2610,"station_name":"Tebet","line":2,"is_transit":false,"i_lat":-6.226659,"i_long":106.857948,"time":4,"station_id":"TEB","transit":false},{"station_name":"Cawang","station_id":"CW","i_lat":-6.242512,"is_transit":false,"i_long":106.856607,"transit":false,"time":2,"distance":1230,"line":2},{"time":3,"is_transit":false,"line":2,"station_name":"Duren Kalibata","distance":1546,"i_long":106.85449,"i_lat":-6.255332,"transit":false,"station_id":"DRN"},{"distance":824,"line":2,"i_lat":-6.263214,"is_transit":false,"time":2,"i_long":106.851577,"station_id":"PSMB","station_name":"Pasar Minggu Baru","transit":false},{"time":2,"line":2,"transit":false,"distance":2380,"i_lat":-6.2842400000000005,"station_id":"PSM","i_long":106.843999,"is_transit":false,"station_name":"Pasar Minggu"},{"transit":false,"is_transit":false,"time":4,"station_name":"Tanjung Barat","station_id":"TNT","distance":2820,"i_long":106.838896,"line":2,"i_lat":-6.3080680000000005},{"is_transit":false,"station_name":"Lenteng Agung","distance":2671,"i_lat":-6.330363,"transit":false,"time":3,"station_id":"LNA","i_long":106.832616,"line":2},{"i_lat":-6.339291,"station_id":"UP","transit":false,"is_transit":false,"time":2,"i_long":106.834175,"distance":1029,"line":2,"station_name":"Univ. Pancasila"},{"transit":false,"time":3,"distance":2264,"line":2,"station_id":"UI","i_lat":-6.360749,"is_transit":false,"i_long":106.831474,"station_name":"Univ. Indonesia"},{"distance":1109,"i_long":106.831114,"i_lat":-6.369073,"time":2,"station_id":"POC","transit":false,"is_transit":false,"line":2,"station_name":"Pondok Cina"},{"time":4,"i_lat":-6.391065,"line":2,"distance":2727,"i_long":106.819451,"station_id":"DPB","is_transit":false,"transit":false,"station_name":"Depokbaru"},{"distance":1584,"station_id":"DP","i_long":106.816926,"station_name":"Depok","transit":false,"i_lat":-6.405256,"line":2,"is_transit":false,"time":3},{"is_transit":false,"time":6,"i_lat":-6.448811,"distance":5084,"i_long":106.800298,"station_name":"Citayam","line":2,"transit":false,"station_id":"CTA"},{"station_name":"Bojonggede","transit":false,"i_long":106.792719,"distance":5197,"is_transit":false,"time":5,"i_lat":-6.493243,"station_id":"BJD","line":2}],[{"transit":false,"station_id":"TNG","is_transit":false,"time":0,"distance":0,"i_long":106.632761,"station_name":"Tangerang","line":5,"i_lat":-6.176583},{"time":3,"i_lat":-6.17331,"station_name":"Tanah Tinggi","transit":false,"station_id":"TTI","is_transit":false,"distance":1547,"i_long":106.64657,"line":5},{"i_long":106.665036,"time":3,"line":5,"transit":false,"is_transit":false,"distance":2028,"i_lat":-6.171811,"station_id":"BPR","station_name":"Batuceper"},{"station_name":"Poris","station_id":"PI","is_transit":false,"distance":1834,"i_lat":-6.169933,"i_long":106.679458,"transit":false,"time":3,"line":5},{"station_name":"Kalideres","i_lat":-6.166068,"transit":false,"time":3,"distance":2548,"station_id":"KDS","is_transit":false,"i_long":106.701612,"line":5},{"station_name":"Rawa Buaya","transit":false,"line":5,"time":3,"station_id":"RW","is_transit":false,"i_lat":-6.162758,"distance":2504,"i_long":106.723064},{"i_lat":-6.159876,"distance":1152,"i_long":106.737035,"line":5,"station_name":"Bojongindah","transit":false,"station_id":"BOI","is_transit":false,"time":4},{"i_lat":-6.1587309999999995,"distance":2334,"line":5,"station_id":"TKO","transit":false,"time":2,"i_long":106.756522,"station_name":"Taman Kota","is_transit":false},{"time":2,"i_lat":-6.161433,"distance":1614,"i_long":106.771379,"station_id":"PSG","is_transit":false,"transit":false,"station_name":"Pesing","line":5},{"is_transit":false,"line":5,"i_lat":-6.162021,"station_name":"Grogol","station_id":"GGL","time":2,"distance":2036,"transit":false,"i_long":106.788277},{"i_long":106.800832,"station_name":"Duri","station_id":"DU","line":1,"time":3,"transit":true,"is_transit":true,"i_lat":-6.155215,"distance":1700},{"station_id":"AK","i_long":106.79867,"station_name":"Angke","i_lat":-6.144674,"time":4,"transit":false,"distance":1230,"is_transit":false,"line":1},{"is_transit":true,"transit":true,"distance":4102,"station_id":"KPB","i_long":106.826365,"line":4,"station_name":"Kampung Bandan","time":9,"i_lat":-6.132549},{"i_lat":-6.137569,"i_long":106.812439,"station_name":"Jakarta Kota","time":3,"station_id":"JAKK","is_transit":true,"distance":1364,"line":2,"transit":true},{"distance":1264,"line":2,"i_long":106.820901,"is_transit":false,"station_id":"JAY","station_name":"Jayakarta","time":4,"transit":false,"i_lat":-6.141205},{"transit":false,"station_id":"MGB","distance":1080,"time":2,"i_lat":-6.149769,"is_transit":false,"station_name":"Manggabesar","i_long":106.82482,"line":2},{"is_transit":false,"i_lat":-6.160725,"i_long":106.827103,"station_name":"Sawah Besar","transit":false,"station_id":"SW","line":2,"time":2,"distance":906},{"line":2,"transit":false,"station_name":"Juanda","station_id":"JUA","distance":1149,"i_long":106.828284,"time":2,"i_lat":-6.166716,"is_transit":false},{"distance":2015,"line":2,"i_long":106.832183,"is_transit":false,"station_id":"GDD","i_lat":-6.186295,"transit":false,"time":4,"station_name":"Gondangdia"},{"i_long":106.840169,"is_transit":false,"line":2,"station_name":"Cikini","distance":1750,"i_lat":-6.198556,"transit":false,"time":3,"station_id":"CKI"},{"is_transit":false,"station_name":"Manggarai","distance":1590,"transit":false,"station_id":"MRI","time":4,"i_long":106.84912,"line":2,"i_lat":-6.209883},{"is_transit":false,"transit":false,"line":2,"station_id":"TEB","station_name":"Tebet","time":4,"i_lat":-6.226659,"i_long":106.857948,"distance":2610},{"i_long":106.856607,"transit":false,"time":2,"distance":1230,"i_lat":-6.242512,"station_name":"Cawang","station_id":"CW","line":2,"is_transit":false},{"distance":1546,"i_lat":-6.255332,"is_transit":false,"i_long":106.85449,"station_name":"Duren Kalibata","time":3,"station_id":"DRN","line":2,"transit":false},{"transit":false,"i_long":106.851577,"station_id":"PSMB","i_lat":-6.263214,"station_name":"Pasar Minggu Baru","line":2,"time":2,"distance":824,"is_transit":false},{"station_id":"PSM","time":2,"distance":2380,"is_transit":false,"line":2,"i_long":106.843999,"station_name":"Pasar Minggu","i_lat":-6.2842400000000005,"transit":false},{"station_name":"Tanjung Barat","is_transit":false,"transit":false,"time":4,"distance":2820,"i_lat":-6.3080680000000005,"i_long":106.838896,"line":2,"station_id":"TNT"},{"i_lat":-6.330363,"line":2,"is_transit":false,"station_id":"LNA","distance":2671,"time":3,"transit":false,"station_name":"Lenteng Agung","i_long":106.832616},{"i_lat":-6.339291,"i_long":106.834175,"line":2,"station_name":"Univ. Pancasila","distance":1029,"is_transit":false,"station_id":"UP","transit":false,"time":2},{"transit":false,"time":3,"station_id":"UI","station_name":"Univ. Indonesia","distance":2264,"i_long":106.831474,"line":2,"is_transit":false,"i_lat":-6.360749},{"distance":1109,"station_name":"Pondok Cina","i_long":106.831114,"line":2,"transit":false,"time":2,"station_id":"POC","is_transit":false,"i_lat":-6.369073},{"line":2,"is_transit":false,"distance":2727,"i_lat":-6.391065,"i_long":106.819451,"station_name":"Depokbaru","transit":false,"station_id":"DPB","time":4},{"distance":1584,"station_name":"Depok","station_id":"DP","i_lat":-6.405256,"time":3,"is_transit":false,"i_long":106.816926,"transit":false,"line":2},{"i_lat":-6.448811,"i_long":106.800298,"time":6,"station_id":"CTA","line":2,"distance":5084,"transit":false,"station_name":"Citayam","is_transit":false},{"is_transit":false,"line":2,"station_id":"BJD","time":5,"distance":5197,"i_long":106.792719,"i_lat":-6.493243,"transit":false,"station_name":"Bojonggede"}],[{"station_id":"TNG","i_long":106.632761,"transit":false,"is_transit":false,"time":0,"distance":0,"i_lat":-6.176583,"line":5,"station_name":"Tangerang"},{"distance":1547,"station_id":"TTI","is_transit":false,"station_name":"Tanah Tinggi","transit":false,"line":5,"i_lat":-6.17331,"time":3,"i_long":106.64657},{"is_transit":false,"distance":2028,"line":5,"time":3,"transit":false,"station_id":"BPR","i_lat":-6.171811,"i_long":106.665036,"station_name":"Batuceper"},{"time":3,"station_id":"PI","is_transit":false,"distance":1834,"i_long":106.679458,"line":5,"transit":false,"i_lat":-6.169933,"station_name":"Poris"},{"station_id":"KDS","distance":2548,"line":5,"is_transit":false,"i_lat":-6.166068,"time":3,"i_long":106.701612,"transit":false,"station_name":"Kalideres"},{"station_id":"RW","station_name":"Rawa Buaya","time":3,"is_transit":false,"i_long":106.723064,"i_lat":-6.162758,"transit":false,"line":5,"distance":2504},{"distance":1152,"time":4,"line":5,"station_name":"Bojongindah","i_lat":-6.159876,"station_id":"BOI","transit":false,"is_transit":false,"i_long":106.737035},{"distance":2334,"i_long":106.756522,"station_name":"Taman Kota","is_transit":false,"i_lat":-6.1587309999999995,"time":2,"line":5,"transit":false,"station_id":"TKO"},{"station_id":"PSG","line":5,"distance":1614,"time":2,"station_name":"Pesing","is_transit":false,"i_long":106.771379,"transit":false,"i_lat":-6.161433},{"transit":false,"i_long":106.788277,"line":5,"time":2,"distance":2036,"station_id":"GGL","i_lat":-6.162021,"station_name":"Grogol","is_transit":false},{"station_id":"DU","i_lat":-6.155215,"time":3,"line":1,"i_long":106.800832,"station_name":"Duri","transit":true,"is_transit":true,"distance":1700},{"i_long":106.79867,"transit":false,"time":4,"distance":1230,"station_id":"AK","is_transit":false,"station_name":"Angke","i_lat":-6.144674,"line":1},{"line":4,"station_id":"KPB","i_lat":-6.132549,"i_long":106.826365,"time":9,"distance":4102,"is_transit":true,"transit":true,"station_name":"Kampung Bandan"},{"station_name":"Rajawali","transit":false,"station_id":"RJW","time":3,"i_long":106.836569,"is_transit":false,"i_lat":-6.14505,"distance":1444,"line":11},{"time":5,"station_name":"Kemayoran","station_id":"KMO","distance":1901,"i_long":106.839204,"line":11,"transit":false,"i_lat":-6.161728,"is_transit":false},{"transit":false,"line":11,"distance":1436,"station_id":"PSE","i_lat":-6.174784,"station_name":"Pasar Senen","is_transit":false,"i_long":106.84368,"time":4},{"line":11,"distance":1567,"i_long":106.850107,"time":8,"transit":false,"station_name":"Gang Sentiong","is_transit":false,"i_lat":-6.185975,"station_id":"GST"},{"line":11,"transit":false,"station_name":"Kramat","distance":973,"station_id":"KMT","i_lat":-6.193792,"time":1,"is_transit":false,"i_long":106.855437},{"transit":false,"is_transit":false,"distance":1829,"station_id":"POK","time":2,"i_lat":-6.209188,"i_long":106.861737,"line":11,"station_name":"Pondok Jati"},{"station_id":"JNG","transit":true,"i_lat":-6.215091,"time":9,"i_long":106.86807400000001,"distance":1236,"line":1,"is_transit":true,"station_name":"Jatinegara"},{"transit":false,"station_id":"MTR","time":2,"i_lat":-6.212485,"is_transit":false,"line":1,"distance":1377,"i_long":106.858896,"station_name":"Matraman"},{"station_id":"MRI","i_lat":-6.209883,"i_long":106.84912,"transit":true,"line":2,"distance":1275,"is_transit":true,"time":2,"station_name":"Manggarai"},{"is_transit":false,"transit":false,"distance":2610,"i_lat":-6.226659,"station_name":"Tebet","line":2,"time":4,"station_id":"TEB","i_long":106.857948},{"transit":false,"time":2,"line":2,"distance":1230,"station_id":"CW","i_long":106.856607,"station_name":"Cawang","is_transit":false,"i_lat":-6.242512},{"station_id":"DRN","time":3,"transit":false,"distance":1546,"i_lat":-6.255332,"line":2,"station_name":"Duren Kalibata","is_transit":false,"i_long":106.85449},{"station_name":"Pasar Minggu Baru","is_transit":false,"time":2,"station_id":"PSMB","i_lat":-6.263214,"line":2,"transit":false,"i_long":106.851577,"distance":824},{"line":2,"station_id":"PSM","i_lat":-6.2842400000000005,"is_transit":false,"station_name":"Pasar Minggu","distance":2380,"time":2,"i_long":106.843999,"transit":false},{"transit":false,"station_id":"TNT","time":4,"distance":2820,"i_lat":-6.3080680000000005,"is_transit":false,"station_name":"Tanjung Barat","i_long":106.838896,"line":2},{"transit":false,"station_id":"LNA","is_transit":false,"i_lat":-6.330363,"line":2,"station_name":"Lenteng Agung","time":3,"i_long":106.832616,"distance":2671},{"line":2,"is_transit":false,"time":2,"station_name":"Univ. Pancasila","i_long":106.834175,"transit":false,"station_id":"UP","distance":1029,"i_lat":-6.339291},{"i_long":106.831474,"i_lat":-6.360749,"transit":false,"time":3,"station_id":"UI","station_name":"Univ. Indonesia","line":2,"distance":2264,"is_transit":false},{"i_long":106.831114,"i_lat":-6.369073,"distance":1109,"station_name":"Pondok Cina","transit":false,"station_id":"POC","time":2,"is_transit":false,"line":2},{"is_transit":false,"transit":false,"station_id":"DPB","station_name":"Depokbaru","i_long":106.819451,"distance":2727,"time":4,"i_lat":-6.391065,"line":2},{"is_transit":false,"station_name":"Depok","distance":1584,"i_long":106.816926,"line":2,"transit":false,"i_lat":-6.405256,"time":3,"station_id":"DP"},{"i_lat":-6.448811,"transit":false,"station_name":"Citayam","station_id":"CTA","is_transit":false,"i_long":106.800298,"time":6,"line":2,"distance":5084},{"line":2,"time":5,"transit":false,"is_transit":false,"i_lat":-6.493243,"distance":5197,"station_name":"Bojonggede","i_long":106.792719,"station_id":"BJD"}]]}