{"data":[[{"transit":false,"time":0,"is_transit":false,"i_lat":-6.176583,"line":5,"station_name":"Tangerang","i_long":106.632761,"distance":0,"station_id":"TNG"},{"is_transit":false,"transit":false,"station_name":"Tanah Tinggi","i_lat":-6.17331,"time":3,"station_id":"TTI","i_long":106.64657,"distance":1547,"line":5},{"line":5,"distance":2028,"transit":false,"i_lat":-6.171811,"station_id":"BPR","is_transit":false,"time":3,"i_long":106.665036,"station_name":"Batuceper"},{"is_transit":false,"line":5,"i_lat":-6.169933,"station_name":"Poris","station_id":"PI","distance":1834,"transit":false,"time":3,"i_long":106.679458},{"i_long":106.701612,"is_transit":false,"station_id":"KDS","time":3,"distance":2548,"station_name":"Kalideres","i_lat":-6.166068,"transit":false,"line":5},{"distance":2504,"i_long":106.723064,"station_id":"RW","i_lat":-6.162758,"station_name":"Rawa Buaya","time":3,"line":5,"is_transit":false,"transit":false},{"i_long":106.737035,"line":5,"station_name":"Bojongindah","distance":1152,"is_transit":false,"time":4,"i_lat":-6.159876,"station_id":"BOI","transit":false},{"i_lat":-6.1587309999999995,"is_transit":false,"i_long":106.756522,"station_name":"Taman Kota","transit":false,"line":5,"station_id":"TKO","distance":2334,"time":2},{"station_id":"PSG","line":5,"i_lat":-6.161433,"i_long":106.771379,"transit":false,"station_name":"Pesing","time":2,"distance":1614,"is_transit":false},{"time":2,"is_transit":false,"station_name":"Grogol","transit":false,"station_id":"GRG","i_lat":-6.162021,"i_long":106.788277,"line":5,"distance":2036},{"distance":1700,"is_transit":true,"station_name":"Duri","line":1,"station_id":"DU","time":3,"i_lat":-6.155215,"transit":true,"i_long":106.800832},{"station_id":"AK","distance":1230,"i_lat":-6.144674,"i_long":106.79867,"line":1,"is_transit":false,"station_name":"Angke","transit":false,"time":4}],[{"i_long":106.632761,"station_name":"Tangerang","is_transit":false,"time":0,"line":5,"distance":0,"i_lat":-6.176583,"station_id":"TNG","transit":false},{"is_transit":false,"station_name":"Tanah Tinggi","i_lat":-6.17331,"line":5,"transit":false,"distance":1547,"station_id":"TTI","i_long":106.64657,"time":3},{"station_id":"BPR","is_transit":false,"station_name":"Batuceper","transit":false,"distance":2028,"i_lat":-6.171811,"i_long":106.665036,"line":5,"time":3},{"station_id":"PI","is_transit":false,"i_lat":-6.169933,"i_long":106.679458,"transit":false,"station_name":"Poris","line":5,"time":3,"distance":1834},{"i_long":106.701612,"station_name":"Kalideres","is_transit":false,"transit":false,"i_lat":-6.166068,"line":5,"distance":2548,"time":3,"station_id":"KDS"},{"i_long":106.723064,"station_name":"Rawa Buaya","transit":false,"station_id":"RW","time":3,"i_lat":-6.162758,"line":5,"distance":2504,"is_transit":false},{"station_id":"BOI","transit":false,"time":4,"i_lat":-6.159876,"is_transit":false,"i_long":106.737035,"distance":1152,"station_name":"Bojongindah","line":5},{"time":2,"i_lat":-6.1587309999999995,"line":5,"distance":2334,"station_id":"TKO","station_name":"Taman Kota","is_transit":false,"transit":false,"i_long":106.756522},{"distance":1614,"transit":false,"station_id":"PSG","is_transit":false,"time":2,"line":5,"station_name":"Pesing","i_lat":-6.161433,"i_long":106.771379},{"time":2,"distance":2036,"station_name":"Grogol","i_lat":-6.162021,"transit":false,"line":5,"station_id":"GRG","is_transit":false,"i_long":106.788277},{"station_id":"DU","transit":true,"time":3,"station_name":"Duri","distance":1700,"line":1,"i_lat":-6.155215,"i_long":106.800832,"is_transit":true},{"line":1,"time":8,"i_lat":-6.185545,"i_long":106.811091,"distance":3632,"station_name":"Tanah Abang","is_transit":false,"transit":false,"station_id":"THB"},{"line":1,"time":5,"is_transit":false,"station_id":"KAT","i_long":106.816351,"station_name":"Karet","distance":2029,"transit":false,"i_lat":-6.20132},{"station_name":"Sudirman Baru","time":1,"line":1,"transit":false,"i_long":106.819881,"i_lat":-6.201433,"is_transit":false,"distance":471,"station_id":"SUDB"},{"station_id":"SUD","transit":false,"time":1,"i_lat":-6.202263,"i_long":106.822649,"distance":280,"station_name":"Sudirman","is_transit":false,"line":1},{"is_transit":true,"station_name":"Manggarai","transit":true,"i_lat":-6.209883,"time":4,"station_id":"MRI","i_long":106.84912,"line":2,"distance":3186},{"transit":false,"station_id":"CKI","distance":1590,"i_long":106.840169,"time":4,"station_name":"Cikini","line":2,"is_transit":false,"i_lat":-6.198556},{"line":2,"time":3,"is_transit":false,"distance":1750,"i_long":106.832183,"transit":false,"station_id":"GDD","i_lat":-6.186295,"station_name":"Gondangdia"},{"distance":2015,"transit":false,"i_lat":-6.166716,"is_transit":false,"time":4,"station_name":"Juanda","line":2,"i_long":106.828284,"station_id":"JUA"},{"line":2,"station_name":"Sawah Besar","transit":false,"station_id":"SW","i_lat":-6.160725,"distance":1149,"time":2,"is_transit":false,"i_long":106.827103},{"is_transit":false,"distance":906,"station_name":"Manggabesar","i_lat":-6.149769,"line":2,"time":2,"transit":false,"i_long":106.82482,"station_id":"MGB"},{"transit":false,"i_long":106.820901,"distance":1080,"line":2,"is_transit":false,"time":2,"station_name":"Jayakarta","station_id":"JAY","i_lat":-6.141205},{"distance":1264,"time":4,"i_long":106.812439,"line":2,"station_id":"JAKK","is_transit":true,"i_lat":-6.137569,"transit":true,"station_name":"Jakarta Kota"},{"time":3,"distance":1364,"is_transit":true,"transit":true,"i_long":106.826365,"line":4,"station_id":"KPB","station_name":"Kampung Bandan","i_lat":-6.132549},{"time":9,"i_lat":-6.144674,"line":1,"i_long":106.79867,"transit":false,"distance":4102,"station_id":"AK","is_transit":false,"station_name":"Angke"}],[{"is_transit":false,"i_lat":-6.176583,"station_id":"TNG","transit":false,"i_long":106.632761,"time":0,"distance":0,"line":5,"station_name":"Tangerang"},{"i_long":106.64657,"time":3,"line":5,"station_id":"TTI","is_transit":false,"station_name":"Tanah Tinggi","transit":false,"distance":1547,"i_lat":-6.17331},{"station_name":"Batuceper","distance":2028,"line":5,"time":3,"is_transit":false,"station_id":"BPR","transit":false,"i_lat":-6.171811,"i_long":106.665036},{"line":5,"distance":1834,"time":3,"transit":false,"i_long":106.679458,"station_id":"PI","i_lat":-6.169933,"is_transit":false,"station_name":"Poris"},{"time":3,"station_id":"KDS","transit":false,"distance":2548,"i_lat":-6.166068,"i_long":106.701612,"line":5,"station_name":"Kalideres","is_transit":false},{"line":5,"distance":2504,"time":3,"i_lat":-6.162758,"i_long":106.723064,"station_id":"RW","is_transit":false,"transit":false,"station_name":"Rawa Buaya"},{"time":4,"station_name":"Bojongindah","is_transit":false,"i_long":106.737035,"line":5,"station_id":"BOI","transit":false,"i_lat":-6.159876,"distance":1152},{"distance":2334,"is_transit":false,"i_lat":-6.1587309999999995,"transit":false,"station_id":"TKO","i_long":106.756522,"line":5,"station_name":"Taman Kota","time":2},{"time":2,"transit":false,"line":5,"is_transit":false,"distance":1614,"station_name":"Pesing","i_long":106.771379,"i_lat":-6.161433,"station_id":"PSG"},{"time":2,"transit":false,"distance":2036,"station_id":"GRG","is_transit":false,"i_lat":-6.162021,"station_name":"Grogol","i_long":106.788277,"line":5},{"time":3,"is_transit":true,"transit":true,"line":1,"i_long":106.800832,"distance":1700,"station_id":"DU","station_name":"Duri","i_lat":-6.155215},{"station_name":"Tanah Abang","i_lat":-6.185545,"time":8,"i_long":106.811091,"transit":false,"station_id":"THB","is_transit":false,"distance":3632,"line":1},{"station_name":"Karet","i_lat":-6.20132,"is_transit":false,"station_id":"KAT","i_long":106.816351,"line":1,"time":5,"distance":2029,"transit":false},{"line":1,"transit":false,"time":1,"station_id":"SUDB","distance":471,"i_long":106.819881,"i_lat":-6.201433,"station_name":"Sudirman Baru","is_transit":false},{"station_id":"SUD","i_lat":-6.202263,"transit":false,"i_long":106.822649,"line":1,"time":1,"distance":280,"is_transit":false,"station_name":"Sudirman"},{"i_lat":-6.209883,"i_long":106.84912,"distance":3186,"transit":false,"station_name":"Manggarai","time":4,"line":2,"is_transit":false,"station_id":"MRI"},{"time":2,"i_lat":-6.212485,"i_long":106.858896,"is_transit":false,"distance":1275,"transit":false,"station_name":"Matraman","station_id":"MTR","line":1},{"is_transit":true,"i_lat":-6.215091,"station_id":"JNG","station_name":"Jatinegara","time":8,"i_long":106.86807400000001,"line":1,"distance":1377,"transit":true},{"transit":false,"i_long":106.861737,"i_lat":-6.209188,"station_id":"POK","is_transit":false,"station_name":"Pondok Jati","line":11,"distance":1236,"time":2},{"time":2,"station_id":"KMT","transit":false,"i_long":106.855437,"station_name":"Kramat","distance":1829,"line":11,"is_transit":false,"i_lat":-6.193792},{"transit":false,"station_name":"Gang Sentiong","i_long":106.850107,"line":11,"distance":973,"station_id":"GST","i_lat":-6.185975,"is_transit":false,"time":1},{"i_long":106.84368,"line":11,"station_id":"PSE","distance":1567,"time":8,"station_name":"Pasar Senen","transit":false,"i_lat":-6.174784,"is_transit":false},{"i_lat":-6.161728,"line":11,"station_id":"KMO","i_long":106.839204,"distance":1436,"transit":false,"time":4,"station_name":"Kemayoran","is_transit":false},{"line":11,"station_name":"Rajawali","station_id":"RJW","is_transit":false,"distance":1901,"i_lat":-6.14505,"transit":false,"time":5,"i_long":106.836569},{"transit":true,"i_long":106.826365,"line":4,"station_name":"Kampung Bandan","distance":1444,"i_lat":-6.132549,"station_id":"KPB","is_transit":true,"time":3},{"i_long":106.79867,"distance":4102,"transit":false,"station_name":"Angke","station_id":"AK","is_transit":false,"i_lat":-6.144674,"line":1,"time":9}]]}