{"data":[[{"transit":false,"i_long":106.632761,"distance":0,"is_transit":false,"station_id":"TNG","time":0,"station_name":"Tangerang","i_lat":-6.176583,"line":5},{"is_transit":false,"i_lat":-6.17331,"distance":1547,"station_id":"TTI","transit":false,"time":3,"station_name":"Tanah Tinggi","line":5,"i_long":106.64657},{"transit":false,"station_id":"BPR","station_name":"Batuceper","is_transit":false,"i_long":106.665036,"time":3,"line":5,"i_lat":-6.171811,"distance":2028},{"distance":1834,"i_lat":-6.169933,"station_id":"PI","time":3,"i_long":106.679458,"line":5,"is_transit":false,"transit":false,"station_name":"Poris"},{"is_transit":false,"line":5,"i_lat":-6.166068,"station_name":"Kalideres","station_id":"KDS","i_long":106.701612,"distance":2548,"time":3,"transit":false},{"i_long":106.723064,"station_name":"Rawa Buaya","line":5,"distance":2504,"transit":false,"i_lat":-6.162758,"is_transit":false,"station_id":"RW","time":3},{"i_long":106.737035,"distance":1152,"station_name":"Bojongindah","station_id":"BOI","transit":false,"is_transit":false,"i_lat":-6.159876,"time":4,"line":5},{"line":5,"station_id":"TKO","time":2,"is_transit":false,"i_long":106.756522,"distance":2334,"transit":false,"station_name":"Taman Kota","i_lat":-6.1587309999999995},{"station_id":"PSG","time":2,"i_lat":-6.161433,"i_long":106.771379,"transit":false,"is_transit":false,"station_name":"Pesing","line":5,"distance":1614},{"transit":false,"is_transit":false,"line":5,"station_id":"GGL","station_name":"Grogol","time":2,"i_lat":-6.162021,"i_long":106.788277,"distance":2036},{"station_name":"Duri","line":1,"i_lat":-6.155215,"is_transit":true,"i_long":106.800832,"time":3,"distance":1700,"station_id":"DU","transit":true},{"i_lat":-6.185545,"distance":3632,"is_transit":false,"transit":false,"line":1,"i_long":106.811091,"station_id":"THB","station_name":"Tanah Abang","time":8},{"line":1,"time":5,"station_id":"KAT","i_lat":-6.20132,"i_long":106.816351,"distance":2029,"is_transit":false,"transit":false,"station_name":"Karet"},{"is_transit":false,"station_id":"SUDB","station_name":"Sudirman Baru","i_long":106.819881,"line":1,"time":1,"transit":false,"distance":471,"i_lat":-6.201433},{"line":1,"time":1,"station_name":"Sudirman","is_transit":false,"i_lat":-6.202263,"i_long":106.822649,"station_id":"SUD","distance":280,"transit":false},{"time":4,"line":2,"station_id":"MRI","is_transit":false,"distance":3186,"transit":false,"station_name":"Manggarai","i_long":106.84912,"i_lat":-6.209883},{"i_lat":-6.212485,"time":2,"is_transit":false,"line":1,"distance":1275,"station_id":"MTR","transit":false,"station_name":"Matraman","i_long":106.858896},{"distance":1377,"transit":false,"i_long":106.86807400000001,"time":8,"is_transit":false,"i_lat":-6.215091,"station_id":"JNG","line":1,"station_name":"Jatinegara"}],[{"line":5,"i_lat":-6.176583,"is_transit":false,"distance":0,"time":0,"transit":false,"station_name":"Tangerang","station_id":"TNG","i_long":106.632761},{"station_id":"TTI","station_name":"Tanah Tinggi","time":3,"distance":1547,"i_lat":-6.17331,"transit":false,"line":5,"is_transit":false,"i_long":106.64657},{"line":5,"station_name":"Batuceper","i_lat":-6.171811,"transit":false,"time":3,"distance":2028,"i_long":106.665036,"is_transit":false,"station_id":"BPR"},{"time":3,"distance":1834,"is_transit":false,"i_long":106.679458,"line":5,"station_id":"PI","transit":false,"i_lat":-6.169933,"station_name":"Poris"},{"station_name":"Kalideres","is_transit":false,"line":5,"time":3,"i_long":106.701612,"i_lat":-6.166068,"transit":false,"distance":2548,"station_id":"KDS"},{"time":3,"i_lat":-6.162758,"line":5,"transit":false,"i_long":106.723064,"is_transit":false,"station_id":"RW","distance":2504,"station_name":"Rawa Buaya"},{"is_transit":false,"time":4,"i_long":106.737035,"station_name":"Bojongindah","i_lat":-6.159876,"station_id":"BOI","line":5,"distance":1152,"transit":false},{"is_transit":false,"transit":false,"distance":2334,"time":2,"line":5,"i_lat":-6.1587309999999995,"i_long":106.756522,"station_name":"Taman Kota","station_id":"TKO"},{"transit":false,"distance":1614,"time":2,"station_name":"Pesing","i_long":106.771379,"i_lat":-6.161433,"is_transit":false,"station_id":"PSG","line":5},{"i_lat":-6.162021,"transit":false,"time":2,"station_name":"Grogol","is_transit":false,"distance":2036,"line":5,"i_long":106.788277,"station_id":"GGL"},{"station_id":"DU","station_name":"Duri","i_lat":-6.155215,"line":1,"is_transit":true,"distance":1700,"transit":true,"time":3,"i_long":106.800832},{"i_lat":-6.144674,"station_name":"Angke","i_long":106.79867,"is_transit":false,"distance":1230,"station_id":"AK","line":1,"transit":false,"time":4},{"time":9,"station_id":"KPB","i_lat":-6.132549,"is_transit":true,"i_long":106.826365,"station_name":"Kampung Bandan","distance":4102,"line":4,"transit":true},{"line":11,"station_id":"RJW","transit":false,"distance":1444,"is_transit":false,"time":3,"station_name":"Rajawali","i_lat":-6.14505,"i_long":106.836569},{"line":11,"transit":false,"time":5,"station_id":"KMO","is_transit":false,"distance":1901,"station_name":"Kemayoran","i_long":106.839204,"i_lat":-6.161728},{"is_transit":false,"time":4,"i_long":106.84368,"i_lat":-6.174784,"transit":false,"station_id":"PSE","distance":1436,"station_name":"Pasar Senen","line":11},{"line":11,"is_transit":false,"i_lat":-6.185975,"station_name":"Gang Sentiong","transit":false,"i_long":106.850107,"time":8,"station_id":"GST","distance":1567},{"i_lat":-6.193792,"distance":973,"i_long":106.855437,"is_transit":false,"time":1,"station_name":"Kramat","line":11,"transit":false,"station_id":"KMT"},{"i_lat":-6.209188,"is_transit":false,"station_id":"POK","transit":false,"station_name":"Pondok Jati","distance":1829,"line":11,"i_long":106.861737,"time":2},{"transit":false,"station_name":"Jatinegara","station_id":"JNG","i_lat":-6.215091,"line":1,"is_transit":false,"i_long":106.86807400000001,"time":9,"distance":1236}],[{"station_name":"Tangerang","station_id":"TNG","line":5,"distance":0,"i_long":106.632761,"i_lat":-6.176583,"transit":false,"is_transit":false,"time":0},{"station_name":"Tanah Tinggi","station_id":"TTI","is_transit":false,"i_lat":-6.17331,"time":3,"transit":false,"line":5,"i_long":106.64657,"distance":1547},{"transit":false,"i_lat":-6.171811,"line":5,"station_name":"Batuceper","distance":2028,"station_id":"BPR","i_long":106.665036,"time":3,"is_transit":false},{"time":3,"i_lat":-6.169933,"i_long":106.679458,"line":5,"station_name":"Poris","is_transit":false,"transit":false,"distance":1834,"station_id":"PI"},{"station_id":"KDS","i_lat":-6.166068,"is_transit":false,"line":5,"distance":2548,"i_long":106.701612,"time":3,"transit":false,"station_name":"Kalideres"},{"station_id":"RW","distance":2504,"i_lat":-6.162758,"line":5,"is_transit":false,"time":3,"station_name":"Rawa Buaya","i_long":106.723064,"transit":false},{"i_long":106.737035,"station_name":"Bojongindah","is_transit":false,"time":4,"station_id":"BOI","distance":1152,"i_lat":-6.159876,"line":5,"transit":false},{"time":2,"distance":2334,"line":5,"is_transit":false,"station_id":"TKO","station_name":"Taman Kota","transit":false,"i_lat":-6.1587309999999995,"i_long":106.756522},{"transit":false,"station_name":"Pesing","distance":1614,"time":2,"station_id":"PSG","i_lat":-6.161433,"is_transit":false,"i_long":106.771379,"line":5},{"station_name":"Grogol","line":5,"is_transit":false,"time":2,"transit":false,"station_id":"GGL","i_lat":-6.162021,"i_long":106.788277,"distance":2036},{"distance":1700,"transit":true,"station_name":"Duri","i_long":106.800832,"is_transit":true,"time":3,"station_id":"DU","line":1,"i_lat":-6.155215},{"is_transit":false,"time":4,"i_long":106.79867,"transit":false,"i_lat":-6.144674,"distance":1230,"station_name":"Angke","line":1,"station_id":"AK"},{"station_name":"Kampung Bandan","time":9,"distance":4102,"transit":true,"station_id":"KPB","i_lat":-6.132549,"is_transit":true,"i_long":106.826365,"line":4},{"station_id":"JAKK","is_transit":true,"transit":true,"station_name":"Jakarta Kota","distance":1364,"time":3,"i_lat":-6.137569,"i_long":106.812439,"line":2},{"transit":false,"is_transit":false,"line":2,"station_id":"JAY","i_long":106.820901,"distance":1264,"time":4,"station_name":"Jayakarta","i_lat":-6.141205},{"station_name":"Manggabesar","distance":1080,"i_lat":-6.149769,"is_transit":false,"i_long":106.82482,"transit":false,"time":2,"station_id":"MGB","line":2},{"line":2,"i_long":106.827103,"i_lat":-6.160725,"station_name":"Sawah Besar","transit":false,"distance":906,"station_id":"SW","is_transit":false,"time":2},{"distance":1149,"transit":false,"station_name":"Juanda","i_lat":-6.166716,"station_id":"JUA","time":2,"line":2,"is_transit":false,"i_long":106.828284},{"i_long":106.832183,"time":4,"station_id":"GDD","transit":false,"i_lat":-6.186295,"distance":2015,"is_transit":false,"line":2,"station_name":"Gondangdia"},{"i_lat":-6.198556,"line":2,"is_transit":false,"transit":false,"i_long":106.840169,"station_id":"CKI","distance":1750,"time":3,"station_name":"Cikini"},{"transit":true,"i_long":106.84912,"station_name":"Manggarai","is_transit":true,"i_lat":-6.209883,"time":4,"distance":1590,"line":2,"station_id":"MRI"},{"transit":false,"station_id":"MTR","is_transit":false,"time":2,"i_lat":-6.212485,"i_long":106.858896,"distance":1275,"line":1,"station_name":"Matraman"},{"line":1,"i_lat":-6.215091,"station_name":"Jatinegara","time":8,"transit":false,"distance":1377,"is_transit":false,"i_long":106.86807400000001,"station_id":"JNG"}],[{"line":5,"distance":0,"transit":false,"is_transit":false,"time":0,"station_id":"TNG","station_name":"Tangerang","i_lat":-6.176583,"i_long":106.632761},{"time":3,"is_transit":false,"station_id":"TTI","i_long":106.64657,"distance":1547,"i_lat":-6.17331,"line":5,"station_name":"Tanah Tinggi","transit":false},{"i_long":106.665036,"line":5,"i_lat":-6.171811,"is_transit":false,"station_name":"Batuceper","transit":false,"station_id":"BPR","distance":2028,"time":3},{"i_long":106.679458,"time":3,"is_transit":false,"station_id":"PI","line":5,"distance":1834,"transit":false,"station_name":"Poris","i_lat":-6.169933},{"i_long":106.701612,"station_id":"KDS","line":5,"transit":false,"is_transit":false,"station_name":"Kalideres","distance":2548,"time":3,"i_lat":-6.166068},{"is_transit":false,"station_name":"Rawa Buaya","line":5,"transit":false,"station_id":"RW","distance":2504,"time":3,"i_lat":-6.162758,"i_long":106.723064},{"is_transit":false,"time":4,"i_long":106.737035,"transit":false,"line":5,"station_name":"Bojongindah","distance":1152,"station_id":"BOI","i_lat":-6.159876},{"is_transit":false,"station_name":"Taman Kota","i_lat":-6.1587309999999995,"distance":2334,"transit":false,"line":5,"time":2,"station_id":"TKO","i_long":106.756522},{"transit":false,"time":2,"station_id":"PSG","i_long":106.771379,"line":5,"station_name":"Pesing","is_transit":false,"distance":1614,"i_lat":-6.161433},{"distance":2036,"station_id":"GGL","i_lat":-6.162021,"is_transit":false,"transit":false,"time":2,"line":5,"station_name":"Grogol","i_long":106.788277},{"i_long":106.800832,"station_id":"DU","distance":1700,"transit":true,"station_name":"Duri","i_lat":-6.155215,"time":3,"line":1,"is_transit":true},{"is_transit":false,"station_id":"THB","time":8,"line":1,"transit":false,"i_lat":-6.185545,"i_long":106.811091,"station_name":"Tanah Abang","distance":3632},{"is_transit":false,"line":1,"distance":2029,"station_name":"Karet","time":5,"station_id":"KAT","i_lat":-6.20132,"transit":false,"i_long":106.816351},{"time":1,"i_long":106.819881,"distance":471,"station_name":"Sudirman Baru","station_id":"SUDB","line":1,"i_lat":-6.201433,"transit":false,"is_transit":false},{"is_transit":false,"distance":280,"line":1,"time":1,"station_id":"SUD","station_name":"Sudirman","i_lat":-6.202263,"i_long":106.822649,"transit":false},{"distance":3186,"transit":true,"station_name":"Manggarai","i_lat":-6.209883,"i_long":106.84912,"time":4,"station_id":"MRI","line":2,"is_transit":true},{"distance":1590,"is_transit":false,"line":2,"time":4,"station_id":"CKI","i_long":106.840169,"transit":false,"station_name":"Cikini","i_lat":-6.198556},{"is_transit":false,"i_long":106.832183,"station_id":"GDD","station_name":"Gondangdia","transit":false,"distance":1750,"i_lat":-6.186295,"line":2,"time":3},{"station_name":"Juanda","line":2,"is_transit":false,"time":4,"transit":false,"station_id":"JUA","distance":2015,"i_lat":-6.166716,"i_long":106.828284},{"station_name":"Sawah Besar","time":2,"distance":1149,"is_transit":false,"transit":false,"station_id":"SW","i_long":106.827103,"line":2,"i_lat":-6.160725},{"distance":906,"is_transit":false,"transit":false,"time":2,"station_name":"Manggabesar","line":2,"i_long":106.82482,"i_lat":-6.149769,"station_id":"MGB"},{"is_transit":false,"station_id":"JAY","distance":1080,"station_name":"Jayakarta","line":2,"time":2,"i_long":106.820901,"i_lat":-6.141205,"transit":false},{"station_name":"Jakarta Kota","line":2,"is_transit":true,"distance":1264,"i_lat":-6.137569,"time":4,"i_long":106.812439,"station_id":"JAKK","transit":true},{"distance":1364,"is_transit":true,"transit":true,"station_name":"Kampung Bandan","station_id":"KPB","i_lat":-6.132549,"line":4,"i_long":106.826365,"time":3},{"i_long":106.836569,"transit":false,"is_transit":false,"time":3,"station_name":"Rajawali","i_lat":-6.14505,"line":11,"station_id":"RJW","distance":1444},{"time":5,"line":11,"i_lat":-6.161728,"station_name":"Kemayoran","i_long":106.839204,"transit":false,"distance":1901,"station_id":"KMO","is_transit":false},{"is_transit":false,"i_lat":-6.174784,"i_long":106.84368,"distance":1436,"time":4,"station_id":"PSE","station_name":"Pasar Senen","line":11,"transit":false},{"is_transit":false,"station_id":"GST","transit":false,"distance":1567,"time":8,"station_name":"Gang Sentiong","i_long":106.850107,"line":11,"i_lat":-6.185975},{"i_lat":-6.193792,"i_long":106.855437,"line":11,"transit":false,"station_name":"Kramat","is_transit":false,"station_id":"KMT","time":1,"distance":973},{"is_transit":false,"distance":1829,"time":2,"station_id":"POK","i_lat":-6.209188,"station_name":"Pondok Jati","transit":false,"i_long":106.861737,"line":11},{"distance":1236,"i_long":106.86807400000001,"line":1,"station_id":"JNG","i_lat":-6.215091,"transit":false,"is_transit":false,"station_name":"Jatinegara","time":9}]]}