{"data":[[{"station_id":"TNG","i_long":106.632761,"station_name":"Tangerang","time":0,"distance":0,"line":5,"is_transit":false,"transit":false,"i_lat":-6.176583},{"line":5,"station_id":"TTI","i_lat":-6.17331,"i_long":106.64657,"station_name":"Tanah Tinggi","time":3,"is_transit":false,"distance":1547,"transit":false},{"distance":2028,"transit":false,"station_name":"Batuceper","i_lat":-6.171811,"is_transit":false,"time":3,"i_long":106.665036,"line":5,"station_id":"BPR"},{"transit":false,"i_lat":-6.169933,"time":3,"station_id":"PI","i_long":106.679458,"distance":1834,"station_name":"Poris","line":5,"is_transit":false},{"i_lat":-6.166068,"distance":2548,"transit":false,"is_transit":false,"line":5,"station_id":"KDS","i_long":106.701612,"station_name":"Kalideres","time":3},{"time":3,"station_id":"RW","is_transit":false,"distance":2504,"line":5,"i_lat":-6.162758,"i_long":106.723064,"transit":false,"station_name":"Rawa Buaya"},{"line":5,"i_lat":-6.159876,"i_long":106.737035,"transit":false,"is_transit":false,"station_id":"BOI","time":4,"distance":1152,"station_name":"Bojongindah"},{"station_name":"Taman Kota","i_lat":-6.1587309999999995,"distance":2334,"is_transit":false,"time":2,"line":5,"i_long":106.756522,"transit":false,"station_id":"TKO"},{"i_long":106.771379,"line":5,"is_transit":false,"distance":1614,"transit":false,"time":2,"station_id":"PSG","i_lat":-6.161433,"station_name":"Pesing"},{"station_id":"GGL","distance":2036,"transit":false,"i_long":106.788277,"time":2,"i_lat":-6.162021,"station_name":"Grogol","is_transit":false,"line":5},{"distance":1700,"station_name":"Duri","transit":true,"i_lat":-6.155215,"is_transit":true,"i_long":106.800832,"line":1,"time":3,"station_id":"DU"},{"line":1,"transit":false,"distance":1230,"time":4,"i_long":106.79867,"station_id":"AK","i_lat":-6.144674,"station_name":"Angke","is_transit":false},{"transit":true,"time":9,"i_long":106.826365,"station_name":"Kampung Bandan","i_lat":-6.132549,"station_id":"KPB","distance":4102,"line":4,"is_transit":true},{"i_lat":-6.137569,"i_long":106.812439,"line":2,"station_name":"Jakarta Kota","time":3,"is_transit":true,"station_id":"JAKK","distance":1364,"transit":true},{"transit":false,"station_name":"Jayakarta","distance":1264,"is_transit":false,"i_long":106.820901,"station_id":"JAY","time":4,"i_lat":-6.141205,"line":2}],[{"time":0,"is_transit":false,"line":5,"station_name":"Tangerang","station_id":"TNG","i_lat":-6.176583,"transit":false,"distance":0,"i_long":106.632761},{"time":3,"transit":false,"distance":1547,"i_lat":-6.17331,"station_id":"TTI","i_long":106.64657,"line":5,"station_name":"Tanah Tinggi","is_transit":false},{"line":5,"distance":2028,"transit":false,"time":3,"i_long":106.665036,"station_id":"BPR","i_lat":-6.171811,"station_name":"Batuceper","is_transit":false},{"distance":1834,"i_lat":-6.169933,"i_long":106.679458,"line":5,"transit":false,"time":3,"is_transit":false,"station_id":"PI","station_name":"Poris"},{"is_transit":false,"time":3,"distance":2548,"line":5,"i_lat":-6.166068,"station_name":"Kalideres","i_long":106.701612,"station_id":"KDS","transit":false},{"time":3,"distance":2504,"transit":false,"i_lat":-6.162758,"i_long":106.723064,"line":5,"station_id":"RW","station_name":"Rawa Buaya","is_transit":false},{"station_name":"Bojongindah","distance":1152,"i_lat":-6.159876,"transit":false,"is_transit":false,"station_id":"BOI","time":4,"i_long":106.737035,"line":5},{"station_id":"TKO","is_transit":false,"i_lat":-6.1587309999999995,"i_long":106.756522,"time":2,"transit":false,"line":5,"distance":2334,"station_name":"Taman Kota"},{"i_long":106.771379,"is_transit":false,"line":5,"i_lat":-6.161433,"transit":false,"station_id":"PSG","time":2,"distance":1614,"station_name":"Pesing"},{"line":5,"i_lat":-6.162021,"station_name":"Grogol","time":2,"i_long":106.788277,"station_id":"GGL","is_transit":false,"transit":false,"distance":2036},{"transit":true,"station_name":"Duri","distance":1700,"time":3,"i_long":106.800832,"station_id":"DU","i_lat":-6.155215,"is_transit":true,"line":1},{"distance":3632,"line":1,"i_long":106.811091,"station_id":"THB","time":8,"station_name":"Tanah Abang","is_transit":false,"transit":false,"i_lat":-6.185545},{"distance":2029,"time":5,"i_long":106.816351,"is_transit":false,"line":1,"i_lat":-6.20132,"station_id":"KAT","transit":false,"station_name":"Karet"},{"time":1,"i_long":106.819881,"is_transit":false,"transit":false,"line":1,"station_name":"Sudirman Baru","station_id":"SUDB","distance":471,"i_lat":-6.201433},{"distance":280,"line":1,"i_lat":-6.202263,"i_long":106.822649,"time":1,"transit":false,"station_name":"Sudirman","station_id":"SUD","is_transit":false},{"distance":3186,"transit":true,"station_id":"MRI","i_lat":-6.209883,"i_long":106.84912,"is_transit":true,"line":2,"station_name":"Manggarai","time":4},{"station_name":"Cikini","line":2,"i_lat":-6.198556,"is_transit":false,"distance":1590,"time":4,"station_id":"CKI","i_long":106.840169,"transit":false},{"i_lat":-6.186295,"time":3,"line":2,"is_transit":false,"i_long":106.832183,"transit":false,"station_name":"Gondangdia","station_id":"GDD","distance":1750},{"time":4,"station_id":"JUA","station_name":"Juanda","distance":2015,"is_transit":false,"i_long":106.828284,"line":2,"transit":false,"i_lat":-6.166716},{"line":2,"transit":false,"station_name":"Sawah Besar","station_id":"SW","i_lat":-6.160725,"distance":1149,"is_transit":false,"time":2,"i_long":106.827103},{"i_lat":-6.149769,"station_name":"Manggabesar","distance":906,"line":2,"station_id":"MGB","transit":false,"i_long":106.82482,"is_transit":false,"time":2},{"station_name":"Jayakarta","line":2,"i_lat":-6.141205,"i_long":106.820901,"time":2,"transit":false,"is_transit":false,"distance":1080,"station_id":"JAY"}],[{"station_name":"Tangerang","i_lat":-6.176583,"i_long":106.632761,"distance":0,"line":5,"transit":false,"time":0,"station_id":"TNG","is_transit":false},{"station_id":"TTI","i_lat":-6.17331,"transit":false,"distance":1547,"i_long":106.64657,"station_name":"Tanah Tinggi","is_transit":false,"time":3,"line":5},{"station_name":"Batuceper","distance":2028,"line":5,"i_lat":-6.171811,"time":3,"transit":false,"i_long":106.665036,"station_id":"BPR","is_transit":false},{"station_name":"Poris","time":3,"station_id":"PI","distance":1834,"i_lat":-6.169933,"transit":false,"is_transit":false,"i_long":106.679458,"line":5},{"station_name":"Kalideres","i_lat":-6.166068,"is_transit":false,"i_long":106.701612,"line":5,"distance":2548,"transit":false,"station_id":"KDS","time":3},{"station_id":"RW","i_lat":-6.162758,"transit":false,"time":3,"distance":2504,"i_long":106.723064,"station_name":"Rawa Buaya","is_transit":false,"line":5},{"transit":false,"station_name":"Bojongindah","distance":1152,"line":5,"station_id":"BOI","i_lat":-6.159876,"is_transit":false,"time":4,"i_long":106.737035},{"is_transit":false,"distance":2334,"time":2,"i_lat":-6.1587309999999995,"line":5,"station_name":"Taman Kota","i_long":106.756522,"station_id":"TKO","transit":false},{"i_lat":-6.161433,"station_name":"Pesing","station_id":"PSG","distance":1614,"is_transit":false,"i_long":106.771379,"time":2,"transit":false,"line":5},{"is_transit":false,"transit":false,"station_name":"Grogol","time":2,"distance":2036,"i_lat":-6.162021,"i_long":106.788277,"line":5,"station_id":"GGL"},{"station_name":"Duri","is_transit":true,"line":1,"time":3,"distance":1700,"i_long":106.800832,"station_id":"DU","i_lat":-6.155215,"transit":true},{"time":8,"station_name":"Tanah Abang","i_long":106.811091,"i_lat":-6.185545,"line":1,"station_id":"THB","distance":3632,"transit":false,"is_transit":false},{"station_id":"KAT","i_long":106.816351,"transit":false,"time":5,"i_lat":-6.20132,"distance":2029,"station_name":"Karet","is_transit":false,"line":1},{"line":1,"station_id":"SUDB","station_name":"Sudirman Baru","distance":471,"time":1,"transit":false,"i_long":106.819881,"is_transit":false,"i_lat":-6.201433},{"i_lat":-6.202263,"line":1,"station_id":"SUD","time":1,"i_long":106.822649,"transit":false,"is_transit":false,"station_name":"Sudirman","distance":280},{"i_lat":-6.209883,"transit":false,"line":2,"i_long":106.84912,"is_transit":false,"time":4,"station_id":"MRI","station_name":"Manggarai","distance":3186},{"i_lat":-6.212485,"station_id":"MTR","line":1,"is_transit":false,"time":2,"i_long":106.858896,"transit":false,"distance":1275,"station_name":"Matraman"},{"i_lat":-6.215091,"station_id":"JNG","i_long":106.86807400000001,"line":1,"station_name":"Jatinegara","is_transit":true,"distance":1377,"transit":true,"time":8},{"line":11,"time":2,"i_lat":-6.209188,"is_transit":false,"station_name":"Pondok Jati","station_id":"POK","distance":1236,"transit":false,"i_long":106.861737},{"is_transit":false,"station_name":"Kramat","distance":1829,"i_long":106.855437,"line":11,"transit":false,"i_lat":-6.193792,"time":2,"station_id":"KMT"},{"i_lat":-6.185975,"transit":false,"station_name":"Gang Sentiong","station_id":"GST","is_transit":false,"i_long":106.850107,"time":1,"line":11,"distance":973},{"line":11,"time":8,"transit":false,"is_transit":false,"i_lat":-6.174784,"distance":1567,"station_name":"Pasar Senen","i_long":106.84368,"station_id":"PSE"},{"transit":false,"is_transit":false,"distance":1436,"line":11,"station_name":"Kemayoran","station_id":"KMO","i_long":106.839204,"time":4,"i_lat":-6.161728},{"i_lat":-6.14505,"transit":false,"time":5,"line":11,"distance":1901,"i_long":106.836569,"station_id":"RJW","station_name":"Rajawali","is_transit":false},{"line":4,"distance":1444,"station_name":"Kampung Bandan","is_transit":true,"time":3,"transit":true,"station_id":"KPB","i_long":106.826365,"i_lat":-6.132549},{"time":3,"i_lat":-6.137569,"line":2,"station_name":"Jakarta Kota","i_long":106.812439,"distance":1364,"station_id":"JAKK","transit":true,"is_transit":true},{"distance":1264,"transit":false,"is_transit":false,"time":4,"line":2,"station_name":"Jayakarta","i_lat":-6.141205,"i_long":106.820901,"station_id":"JAY"}],[{"is_transit":false,"time":0,"i_long":106.632761,"station_id":"TNG","transit":false,"line":5,"station_name":"Tangerang","i_lat":-6.176583,"distance":0},{"transit":false,"i_lat":-6.17331,"i_long":106.64657,"is_transit":false,"distance":1547,"station_id":"TTI","station_name":"Tanah Tinggi","time":3,"line":5},{"i_long":106.665036,"transit":false,"time":3,"station_name":"Batuceper","station_id":"BPR","i_lat":-6.171811,"line":5,"is_transit":false,"distance":2028},{"transit":false,"distance":1834,"time":3,"is_transit":false,"station_name":"Poris","i_long":106.679458,"i_lat":-6.169933,"line":5,"station_id":"PI"},{"i_long":106.701612,"i_lat":-6.166068,"station_name":"Kalideres","transit":false,"station_id":"KDS","is_transit":false,"time":3,"distance":2548,"line":5},{"is_transit":false,"distance":2504,"station_id":"RW","i_long":106.723064,"station_name":"Rawa Buaya","line":5,"transit":false,"i_lat":-6.162758,"time":3},{"is_transit":false,"time":4,"distance":1152,"i_long":106.737035,"line":5,"i_lat":-6.159876,"station_name":"Bojongindah","station_id":"BOI","transit":false},{"station_name":"Taman Kota","is_transit":false,"line":5,"station_id":"TKO","distance":2334,"i_lat":-6.1587309999999995,"transit":false,"i_long":106.756522,"time":2},{"station_id":"PSG","is_transit":false,"i_long":106.771379,"i_lat":-6.161433,"transit":false,"station_name":"Pesing","line":5,"time":2,"distance":1614},{"station_id":"GGL","station_name":"Grogol","i_long":106.788277,"distance":2036,"time":2,"is_transit":false,"i_lat":-6.162021,"line":5,"transit":false},{"line":1,"station_name":"Duri","distance":1700,"transit":true,"is_transit":true,"i_lat":-6.155215,"station_id":"DU","i_long":106.800832,"time":3},{"station_id":"AK","is_transit":false,"distance":1230,"i_long":106.79867,"i_lat":-6.144674,"transit":false,"time":4,"line":1,"station_name":"Angke"},{"distance":4102,"time":9,"is_transit":true,"i_long":106.826365,"i_lat":-6.132549,"line":4,"station_name":"Kampung Bandan","station_id":"KPB","transit":true},{"i_long":106.836569,"time":3,"station_name":"Rajawali","distance":1444,"is_transit":false,"i_lat":-6.14505,"line":11,"station_id":"RJW","transit":false},{"i_long":106.839204,"station_name":"Kemayoran","station_id":"KMO","i_lat":-6.161728,"line":11,"transit":false,"distance":1901,"time":5,"is_transit":false},{"i_lat":-6.174784,"i_long":106.84368,"distance":1436,"time":4,"station_id":"PSE","transit":false,"is_transit":false,"station_name":"Pasar Senen","line":11},{"i_long":106.850107,"line":11,"transit":false,"station_id":"GST","time":8,"i_lat":-6.185975,"station_name":"Gang Sentiong","is_transit":false,"distance":1567},{"i_long":106.855437,"line":11,"station_name":"Kramat","transit":false,"station_id":"KMT","is_transit":false,"i_lat":-6.193792,"time":1,"distance":973},{"i_lat":-6.209188,"time":2,"is_transit":false,"station_name":"Pondok Jati","station_id":"POK","i_long":106.861737,"line":11,"transit":false,"distance":1829},{"time":9,"station_name":"Jatinegara","i_lat":-6.215091,"transit":true,"is_transit":true,"i_long":106.86807400000001,"distance":1236,"line":1,"station_id":"JNG"},{"station_id":"MTR","is_transit":false,"line":1,"transit":false,"station_name":"Matraman","distance":1377,"i_lat":-6.212485,"time":2,"i_long":106.858896},{"i_long":106.84912,"station_id":"MRI","i_lat":-6.209883,"transit":true,"line":2,"is_transit":true,"station_name":"Manggarai","time":2,"distance":1275},{"distance":1590,"time":4,"i_long":106.840169,"transit":false,"i_lat":-6.198556,"station_name":"Cikini","station_id":"CKI","line":2,"is_transit":false},{"station_name":"Gondangdia","station_id":"GDD","is_transit":false,"i_long":106.832183,"line":2,"transit":false,"time":3,"i_lat":-6.186295,"distance":1750},{"is_transit":false,"transit":false,"station_id":"JUA","time":4,"i_lat":-6.166716,"i_long":106.828284,"line":2,"station_name":"Juanda","distance":2015},{"distance":1149,"i_lat":-6.160725,"station_id":"SW","station_name":"Sawah Besar","i_long":106.827103,"line":2,"is_transit":false,"transit":false,"time":2},{"is_transit":false,"time":2,"transit":false,"station_name":"Manggabesar","distance":906,"line":2,"station_id":"MGB","i_long":106.82482,"i_lat":-6.149769},{"station_name":"Jayakarta","line":2,"i_lat":-6.141205,"station_id":"JAY","time":2,"distance":1080,"is_transit":false,"i_long":106.820901,"transit":false}]]}