{"data":[[{"station_id":"TNG","distance":0,"line":5,"transit":false,"station_name":"Tangerang","i_lat":-6.176583,"is_transit":false,"time":0,"i_long":106.632761},{"is_transit":false,"station_id":"TTI","i_long":106.64657,"distance":1547,"i_lat":-6.17331,"time":3,"line":5,"station_name":"Tanah Tinggi","transit":false},{"station_id":"BPR","i_long":106.665036,"time":3,"is_transit":false,"transit":false,"distance":2028,"line":5,"station_name":"Batuceper","i_lat":-6.171811},{"i_long":106.679458,"time":3,"i_lat":-6.169933,"station_id":"PI","transit":false,"distance":1834,"is_transit":false,"line":5,"station_name":"Poris"},{"is_transit":false,"station_name":"Kalideres","station_id":"KDS","distance":2548,"transit":false,"time":3,"i_lat":-6.166068,"i_long":106.701612,"line":5},{"station_id":"RW","line":5,"is_transit":false,"i_long":106.723064,"distance":2504,"i_lat":-6.162758,"transit":false,"time":3,"station_name":"Rawa Buaya"},{"i_long":106.737035,"station_id":"BOI","station_name":"Bojongindah","is_transit":false,"time":4,"transit":false,"i_lat":-6.159876,"line":5,"distance":1152},{"distance":2334,"station_id":"TKO","line":5,"transit":false,"time":2,"i_long":106.756522,"station_name":"Taman Kota","is_transit":false,"i_lat":-6.1587309999999995},{"distance":1614,"transit":false,"station_name":"Pesing","line":5,"time":2,"i_long":106.771379,"station_id":"PSG","i_lat":-6.161433,"is_transit":false},{"time":2,"is_transit":false,"distance":2036,"i_long":106.788277,"station_id":"GGL","line":5,"i_lat":-6.162021,"station_name":"Grogol","transit":false},{"transit":true,"station_name":"Duri","is_transit":true,"time":3,"station_id":"DU","i_long":106.800832,"line":1,"distance":1700,"i_lat":-6.155215},{"i_lat":-6.185545,"distance":3632,"time":8,"transit":true,"station_name":"Tanah Abang","station_id":"THB","line":1,"i_long":106.811091,"is_transit":true},{"distance":3191,"station_name":"Palmerah","transit":false,"time":6,"line":6,"i_lat":-6.207404,"is_transit":false,"i_long":106.79689,"station_id":"PLM"},{"is_transit":false,"transit":false,"i_long":106.780334,"distance":3737,"station_id":"KBY","station_name":"Kebayoran","i_lat":-6.237242,"line":6,"time":7},{"transit":false,"is_transit":false,"station_name":"Pondokranji","station_id":"PDJ","time":8,"i_lat":-6.276362,"line":6,"i_long":106.74273,"distance":6218},{"station_id":"JMU","i_long":106.728916,"time":3,"station_name":"Jurangmangu","transit":false,"is_transit":false,"line":6,"i_lat":-6.288927,"distance":2179},{"is_transit":false,"distance":1994,"line":6,"time":4,"i_long":106.712277,"i_lat":-6.296963,"transit":false,"station_name":"Sudimara","station_id":"SDM"},{"transit":false,"station_id":"RU","distance":4566,"i_long":106.675475,"time":6,"line":6,"is_transit":false,"i_lat":-6.314823,"station_name":"Rawa Buntu"},{"station_name":"Serpong","transit":false,"station_id":"SRP","i_long":106.66566,"distance":2413,"line":6,"is_transit":false,"time":4,"i_lat":-6.319871},{"station_id":"CSK","line":3,"i_long":106.640411,"distance":1784,"transit":false,"time":4,"is_transit":false,"i_lat":-6.32484,"station_name":"Cisauk"},{"i_lat":-6.329547,"transit":false,"is_transit":false,"distance":2519,"line":3,"station_name":"Cicayur","i_long":106.617853,"time":4,"station_id":"CC"},{"line":6,"station_id":"PRP","i_long":106.568863,"transit":false,"station_name":"Parung Panjang","time":8,"distance":5968,"is_transit":false,"i_lat":-6.3441410000000005},{"station_name":"Cilejit","time":9,"station_id":"CJT","transit":false,"is_transit":false,"i_long":106.508482,"distance":7025,"i_lat":-6.354349,"line":3},{"line":0,"transit":false,"distance":2675,"i_lat":-6.338021,"is_transit":false,"station_id":"DAR","station_name":"Daru","time":6,"i_long":106.491338},{"line":6,"transit":false,"time":5,"station_name":"Tenjo","i_long":106.460812,"i_lat":-6.327251,"distance":3902,"is_transit":false,"station_id":"TEJ"},{"transit":false,"station_id":"TGS","line":6,"station_name":"Tigaraksa","is_transit":false,"i_long":106.425991,"i_lat":-6.328533,"time":5,"distance":2974},{"transit":false,"time":3,"station_id":"CKY","is_transit":false,"i_long":106.411216,"station_name":"Cikoya","line":3,"i_lat":-6.33561,"distance":2651}],[{"transit":false,"i_lat":-6.176583,"line":5,"station_name":"Tangerang","station_id":"TNG","distance":0,"i_long":106.632761,"is_transit":false,"time":0},{"station_id":"TTI","line":5,"is_transit":false,"i_long":106.64657,"i_lat":-6.17331,"station_name":"Tanah Tinggi","distance":1547,"time":3,"transit":false},{"transit":false,"time":3,"line":5,"is_transit":false,"i_lat":-6.171811,"i_long":106.665036,"station_name":"Batuceper","station_id":"BPR","distance":2028},{"i_lat":-6.169933,"i_long":106.679458,"line":5,"transit":false,"distance":1834,"is_transit":false,"station_name":"Poris","station_id":"PI","time":3},{"line":5,"is_transit":false,"time":3,"transit":false,"station_name":"Kalideres","i_long":106.701612,"station_id":"KDS","distance":2548,"i_lat":-6.166068},{"is_transit":false,"distance":2504,"i_long":106.723064,"station_name":"Rawa Buaya","station_id":"RW","line":5,"transit":false,"time":3,"i_lat":-6.162758},{"i_lat":-6.159876,"station_name":"Bojongindah","is_transit":false,"line":5,"transit":false,"station_id":"BOI","time":4,"distance":1152,"i_long":106.737035},{"is_transit":false,"time":2,"i_lat":-6.1587309999999995,"i_long":106.756522,"distance":2334,"line":5,"transit":false,"station_id":"TKO","station_name":"Taman Kota"},{"transit":false,"station_name":"Pesing","is_transit":false,"i_long":106.771379,"i_lat":-6.161433,"time":2,"distance":1614,"line":5,"station_id":"PSG"},{"transit":false,"station_id":"GGL","line":5,"is_transit":false,"i_lat":-6.162021,"distance":2036,"i_long":106.788277,"station_name":"Grogol","time":2},{"station_name":"Duri","station_id":"DU","i_long":106.800832,"time":3,"line":1,"distance":1700,"is_transit":true,"transit":true,"i_lat":-6.155215},{"station_name":"Angke","line":1,"station_id":"AK","distance":1230,"time":4,"i_long":106.79867,"i_lat":-6.144674,"is_transit":false,"transit":false},{"i_long":106.826365,"line":4,"transit":true,"station_id":"KPB","time":9,"distance":4102,"is_transit":true,"i_lat":-6.132549,"station_name":"Kampung Bandan"},{"i_lat":-6.137569,"station_id":"JAKK","transit":true,"i_long":106.812439,"time":3,"station_name":"Jakarta Kota","distance":1364,"is_transit":true,"line":2},{"i_lat":-6.141205,"transit":false,"line":2,"distance":1264,"i_long":106.820901,"time":4,"station_id":"JAY","is_transit":false,"station_name":"Jayakarta"},{"line":2,"i_long":106.82482,"is_transit":false,"transit":false,"station_name":"Manggabesar","time":2,"distance":1080,"i_lat":-6.149769,"station_id":"MGB"},{"station_name":"Sawah Besar","i_lat":-6.160725,"station_id":"SW","is_transit":false,"time":2,"distance":906,"i_long":106.827103,"transit":false,"line":2},{"i_lat":-6.166716,"i_long":106.828284,"time":2,"station_id":"JUA","line":2,"distance":1149,"transit":false,"station_name":"Juanda","is_transit":false},{"is_transit":false,"line":2,"station_id":"GDD","time":4,"distance":2015,"i_long":106.832183,"i_lat":-6.186295,"transit":false,"station_name":"Gondangdia"},{"station_id":"CKI","i_long":106.840169,"transit":false,"is_transit":false,"time":3,"distance":1750,"i_lat":-6.198556,"line":2,"station_name":"Cikini"},{"distance":1590,"station_id":"MRI","is_transit":true,"station_name":"Manggarai","transit":true,"line":2,"i_lat":-6.209883,"time":4,"i_long":106.84912},{"is_transit":false,"distance":3186,"line":1,"time":4,"transit":false,"station_id":"SUD","i_lat":-6.202263,"i_long":106.822649,"station_name":"Sudirman"},{"time":1,"station_id":"SUDB","is_transit":false,"distance":280,"i_long":106.819881,"line":1,"transit":false,"i_lat":-6.201433,"station_name":"Sudirman Baru"},{"station_id":"KAT","distance":471,"line":1,"is_transit":false,"i_lat":-6.20132,"time":1,"i_long":106.816351,"transit":false,"station_name":"Karet"},{"station_id":"THB","station_name":"Tanah Abang","time":5,"is_transit":true,"i_long":106.811091,"i_lat":-6.185545,"transit":true,"line":1,"distance":2029},{"distance":3191,"time":6,"line":6,"station_name":"Palmerah","i_lat":-6.207404,"station_id":"PLM","transit":false,"is_transit":false,"i_long":106.79689},{"station_name":"Kebayoran","time":7,"distance":3737,"station_id":"KBY","i_long":106.780334,"i_lat":-6.237242,"is_transit":false,"line":6,"transit":false},{"transit":false,"station_name":"Pondokranji","station_id":"PDJ","distance":6218,"is_transit":false,"i_lat":-6.276362,"i_long":106.74273,"line":6,"time":8},{"is_transit":false,"distance":2179,"i_long":106.728916,"transit":false,"station_name":"Jurangmangu","station_id":"JMU","time":3,"i_lat":-6.288927,"line":6},{"distance":1994,"time":4,"is_transit":false,"station_name":"Sudimara","i_lat":-6.296963,"transit":false,"line":6,"i_long":106.712277,"station_id":"SDM"},{"is_transit":false,"distance":4566,"station_id":"RU","station_name":"Rawa Buntu","transit":false,"i_long":106.675475,"line":6,"time":6,"i_lat":-6.314823},{"time":4,"line":6,"is_transit":false,"transit":false,"distance":2413,"station_id":"SRP","i_lat":-6.319871,"i_long":106.66566,"station_name":"Serpong"},{"station_name":"Cisauk","line":3,"transit":false,"is_transit":false,"time":4,"i_long":106.640411,"station_id":"CSK","distance":1784,"i_lat":-6.32484},{"station_id":"CC","line":3,"station_name":"Cicayur","is_transit":false,"i_long":106.617853,"time":4,"distance":2519,"transit":false,"i_lat":-6.329547},{"is_transit":false,"line":6,"transit":false,"time":8,"distance":5968,"i_lat":-6.3441410000000005,"station_name":"Parung Panjang","station_id":"PRP","i_long":106.568863},{"time":9,"is_transit":false,"distance":7025,"transit":false,"station_id":"CJT","i_long":106.508482,"line":3,"station_name":"Cilejit","i_lat":-6.354349},{"distance":2675,"transit":false,"time":6,"is_transit":false,"line":0,"station_name":"Daru","i_long":106.491338,"i_lat":-6.338021,"station_id":"DAR"},{"i_lat":-6.327251,"station_id":"TEJ","i_long":106.460812,"station_name":"Tenjo","time":5,"distance":3902,"is_transit":false,"line":6,"transit":false},{"distance":2974,"is_transit":false,"line":6,"transit":false,"i_long":106.425991,"time":5,"station_id":"TGS","station_name":"Tigaraksa","i_lat":-6.328533},{"time":3,"distance":2651,"station_name":"Cikoya","is_transit":false,"i_lat":-6.33561,"line":3,"station_id":"CKY","transit":false,"i_long":106.411216}],[{"transit":false,"line":5,"station_name":"Tangerang","station_id":"TNG","is_transit":false,"i_long":106.632761,"time":0,"distance":0,"i_lat":-6.176583},{"transit":false,"station_name":"Tanah Tinggi","is_transit":false,"time":3,"line":5,"i_lat":-6.17331,"distance":1547,"i_long":106.64657,"station_id":"TTI"},{"transit":false,"i_long":106.665036,"line":5,"station_id":"BPR","time":3,"distance":2028,"i_lat":-6.171811,"station_name":"Batuceper","is_transit":false},{"i_lat":-6.169933,"i_long":106.679458,"distance":1834,"is_transit":false,"line":5,"time":3,"station_name":"Poris","station_id":"PI","transit":false},{"transit":false,"i_long":106.701612,"station_name":"Kalideres","line":5,"station_id":"KDS","distance":2548,"is_transit":false,"time":3,"i_lat":-6.166068},{"transit":false,"station_id":"RW","i_lat":-6.162758,"station_name":"Rawa Buaya","line":5,"distance":2504,"time":3,"i_long":106.723064,"is_transit":false},{"station_id":"BOI","i_long":106.737035,"is_transit":false,"time":4,"transit":false,"distance":1152,"i_lat":-6.159876,"station_name":"Bojongindah","line":5},{"i_long":106.756522,"i_lat":-6.1587309999999995,"line":5,"is_transit":false,"time":2,"station_name":"Taman Kota","transit":false,"station_id":"TKO","distance":2334},{"transit":false,"station_id":"PSG","i_lat":-6.161433,"i_long":106.771379,"line":5,"is_transit":false,"station_name":"Pesing","time":2,"distance":1614},{"station_name":"Grogol","time":2,"i_lat":-6.162021,"line":5,"station_id":"GGL","is_transit":false,"distance":2036,"transit":false,"i_long":106.788277},{"station_id":"DU","distance":1700,"i_lat":-6.155215,"i_long":106.800832,"transit":true,"line":1,"station_name":"Duri","time":3,"is_transit":true},{"transit":false,"station_id":"AK","line":1,"time":4,"i_lat":-6.144674,"station_name":"Angke","is_transit":false,"distance":1230,"i_long":106.79867},{"line":4,"i_lat":-6.132549,"station_name":"Kampung Bandan","transit":true,"time":9,"station_id":"KPB","is_transit":true,"i_long":106.826365,"distance":4102},{"distance":1444,"is_transit":false,"transit":false,"time":3,"line":11,"i_long":106.836569,"station_name":"Rajawali","station_id":"RJW","i_lat":-6.14505},{"station_name":"Kemayoran","is_transit":false,"time":5,"i_lat":-6.161728,"line":11,"transit":false,"station_id":"KMO","distance":1901,"i_long":106.839204},{"line":11,"time":4,"distance":1436,"station_name":"Pasar Senen","i_lat":-6.174784,"transit":false,"station_id":"PSE","i_long":106.84368,"is_transit":false},{"time":8,"distance":1567,"is_transit":false,"station_name":"Gang Sentiong","transit":false,"i_long":106.850107,"station_id":"GST","i_lat":-6.185975,"line":11},{"transit":false,"i_lat":-6.193792,"line":11,"i_long":106.855437,"distance":973,"is_transit":false,"station_id":"KMT","station_name":"Kramat","time":1},{"is_transit":false,"i_lat":-6.209188,"line":11,"transit":false,"i_long":106.861737,"time":2,"station_name":"Pondok Jati","distance":1829,"station_id":"POK"},{"transit":true,"station_id":"JNG","is_transit":true,"time":9,"i_lat":-6.215091,"i_long":106.86807400000001,"line":1,"station_name":"Jatinegara","distance":1236},{"station_id":"MTR","distance":1377,"i_long":106.858896,"line":1,"i_lat":-6.212485,"time":2,"transit":false,"station_name":"Matraman","is_transit":false},{"distance":1275,"transit":false,"is_transit":false,"time":2,"station_id":"MRI","i_lat":-6.209883,"i_long":106.84912,"station_name":"Manggarai","line":2},{"i_long":106.822649,"station_id":"SUD","transit":false,"time":4,"line":1,"is_transit":false,"i_lat":-6.202263,"station_name":"Sudirman","distance":3186},{"time":1,"line":1,"distance":280,"is_transit":false,"i_long":106.819881,"station_id":"SUDB","i_lat":-6.201433,"transit":false,"station_name":"Sudirman Baru"},{"transit":false,"i_lat":-6.20132,"i_long":106.816351,"line":1,"station_name":"Karet","is_transit":false,"station_id":"KAT","time":1,"distance":471},{"i_lat":-6.185545,"transit":true,"station_id":"THB","time":5,"line":1,"station_name":"Tanah Abang","distance":2029,"i_long":106.811091,"is_transit":true},{"is_transit":false,"transit":false,"line":6,"distance":3191,"station_id":"PLM","i_long":106.79689,"i_lat":-6.207404,"station_name":"Palmerah","time":6},{"line":6,"station_id":"KBY","transit":false,"station_name":"Kebayoran","time":7,"i_lat":-6.237242,"distance":3737,"i_long":106.780334,"is_transit":false},{"distance":6218,"station_name":"Pondokranji","line":6,"time":8,"is_transit":false,"transit":false,"station_id":"PDJ","i_lat":-6.276362,"i_long":106.74273},{"i_long":106.728916,"transit":false,"station_id":"JMU","is_transit":false,"time":3,"distance":2179,"line":6,"station_name":"Jurangmangu","i_lat":-6.288927},{"station_name":"Sudimara","transit":false,"distance":1994,"i_long":106.712277,"station_id":"SDM","line":6,"time":4,"i_lat":-6.296963,"is_transit":false},{"station_name":"Rawa Buntu","i_long":106.675475,"transit":false,"line":6,"station_id":"RU","is_transit":false,"time":6,"distance":4566,"i_lat":-6.314823},{"station_name":"Serpong","time":4,"station_id":"SRP","i_long":106.66566,"line":6,"i_lat":-6.319871,"is_transit":false,"transit":false,"distance":2413},{"distance":1784,"i_lat":-6.32484,"i_long":106.640411,"station_id":"CSK","transit":false,"time":4,"line":3,"station_name":"Cisauk","is_transit":false},{"i_lat":-6.329547,"line":3,"distance":2519,"station_id":"CC","station_name":"Cicayur","transit":false,"is_transit":false,"i_long":106.617853,"time":4},{"station_id":"PRP","is_transit":false,"distance":5968,"i_lat":-6.3441410000000005,"i_long":106.568863,"station_name":"Parung Panjang","transit":false,"time":8,"line":6},{"i_long":106.508482,"station_id":"CJT","transit":false,"time":9,"distance":7025,"line":3,"station_name":"Cilejit","is_transit":false,"i_lat":-6.354349},{"transit":false,"is_transit":false,"distance":2675,"station_id":"DAR","station_name":"Daru","time":6,"i_lat":-6.338021,"i_long":106.491338,"line":0},{"station_id":"TEJ","i_long":106.460812,"is_transit":false,"transit":false,"time":5,"station_name":"Tenjo","distance":3902,"i_lat":-6.327251,"line":6},{"transit":false,"station_id":"TGS","distance":2974,"i_long":106.425991,"line":6,"station_name":"Tigaraksa","time":5,"i_lat":-6.328533,"is_transit":false},{"is_transit":false,"time":3,"distance":2651,"i_lat":-6.33561,"transit":false,"station_name":"Cikoya","station_id":"CKY","i_long":106.411216,"line":3}]]}