{"data":[[{"is_transit":false,"station_name":"Tangerang","time":0,"distance":0,"i_long":106.632761,"station_id":"TNG","i_lat":-6.176583,"transit":false,"line":5},{"i_lat":-6.17331,"station_id":"TTI","station_name":"Tanah Tinggi","i_long":106.64657,"line":5,"distance":1547,"transit":false,"time":3,"is_transit":false},{"is_transit":false,"distance":2028,"i_lat":-6.171811,"station_id":"BPR","time":3,"i_long":106.665036,"transit":false,"station_name":"Batuceper","line":5},{"i_lat":-6.169933,"line":5,"i_long":106.679458,"station_id":"PI","time":3,"transit":false,"is_transit":false,"station_name":"Poris","distance":1834},{"station_id":"KDS","time":3,"is_transit":false,"i_long":106.701612,"i_lat":-6.166068,"transit":false,"distance":2548,"station_name":"Kalideres","line":5},{"line":5,"distance":2504,"is_transit":false,"i_lat":-6.162758,"transit":false,"i_long":106.723064,"station_name":"Rawa Buaya","time":3,"station_id":"RW"},{"station_name":"Bojongindah","station_id":"BOI","i_lat":-6.159876,"distance":1152,"i_long":106.737035,"transit":false,"line":5,"time":4,"is_transit":false},{"line":5,"time":2,"transit":false,"station_id":"TKO","is_transit":false,"distance":2334,"i_lat":-6.1587309999999995,"station_name":"Taman Kota","i_long":106.756522},{"line":5,"distance":1614,"is_transit":false,"station_id":"PSG","time":2,"i_lat":-6.161433,"transit":false,"station_name":"Pesing","i_long":106.771379},{"is_transit":false,"i_long":106.788277,"station_id":"GGL","time":2,"distance":2036,"line":5,"transit":false,"station_name":"Grogol","i_lat":-6.162021},{"line":1,"transit":true,"i_lat":-6.155215,"station_id":"DU","i_long":106.800832,"is_transit":true,"distance":1700,"station_name":"Duri","time":3},{"is_transit":false,"line":1,"transit":false,"station_name":"Angke","i_long":106.79867,"i_lat":-6.144674,"time":4,"distance":1230,"station_id":"AK"},{"station_id":"KPB","station_name":"Kampung Bandan","i_long":106.826365,"distance":4102,"i_lat":-6.132549,"time":9,"transit":true,"line":4,"is_transit":true},{"i_lat":-6.137569,"station_id":"JAKK","transit":true,"distance":1364,"line":2,"i_long":106.812439,"is_transit":true,"time":3,"station_name":"Jakarta Kota"},{"station_id":"JAY","station_name":"Jayakarta","distance":1264,"time":4,"transit":false,"is_transit":false,"line":2,"i_long":106.820901,"i_lat":-6.141205}],[{"station_name":"Tangerang","distance":0,"transit":false,"is_transit":false,"i_lat":-6.176583,"i_long":106.632761,"station_id":"TNG","time":0,"line":5},{"is_transit":false,"station_name":"Tanah Tinggi","distance":1547,"i_long":106.64657,"line":5,"time":3,"transit":false,"i_lat":-6.17331,"station_id":"TTI"},{"line":5,"i_long":106.665036,"transit":false,"is_transit":false,"time":3,"station_name":"Batuceper","station_id":"BPR","distance":2028,"i_lat":-6.171811},{"i_lat":-6.169933,"station_name":"Poris","station_id":"PI","distance":1834,"transit":false,"i_long":106.679458,"is_transit":false,"time":3,"line":5},{"station_name":"Kalideres","i_lat":-6.166068,"i_long":106.701612,"line":5,"distance":2548,"transit":false,"station_id":"KDS","is_transit":false,"time":3},{"distance":2504,"time":3,"line":5,"station_name":"Rawa Buaya","i_lat":-6.162758,"transit":false,"i_long":106.723064,"station_id":"RW","is_transit":false},{"station_id":"BOI","i_long":106.737035,"station_name":"Bojongindah","i_lat":-6.159876,"time":4,"distance":1152,"is_transit":false,"line":5,"transit":false},{"station_id":"TKO","transit":false,"station_name":"Taman Kota","time":2,"distance":2334,"is_transit":false,"i_lat":-6.1587309999999995,"i_long":106.756522,"line":5},{"is_transit":false,"i_lat":-6.161433,"line":5,"time":2,"distance":1614,"station_name":"Pesing","station_id":"PSG","i_long":106.771379,"transit":false},{"distance":2036,"station_id":"GGL","station_name":"Grogol","i_long":106.788277,"line":5,"time":2,"i_lat":-6.162021,"is_transit":false,"transit":false},{"distance":1700,"station_name":"Duri","i_lat":-6.155215,"time":3,"transit":true,"is_transit":true,"line":1,"station_id":"DU","i_long":106.800832},{"station_name":"Tanah Abang","i_lat":-6.185545,"time":8,"line":1,"i_long":106.811091,"station_id":"THB","distance":3632,"is_transit":false,"transit":false},{"i_long":106.816351,"is_transit":false,"station_name":"Karet","distance":2029,"time":5,"station_id":"KAT","line":1,"transit":false,"i_lat":-6.20132},{"distance":471,"line":1,"is_transit":false,"time":1,"station_id":"SUDB","i_lat":-6.201433,"transit":false,"station_name":"Sudirman Baru","i_long":106.819881},{"i_long":106.822649,"is_transit":false,"distance":280,"line":1,"station_id":"SUD","transit":false,"station_name":"Sudirman","time":1,"i_lat":-6.202263},{"transit":true,"station_name":"Manggarai","is_transit":true,"time":4,"distance":3186,"i_long":106.84912,"line":2,"station_id":"MRI","i_lat":-6.209883},{"distance":1590,"i_long":106.840169,"station_name":"Cikini","is_transit":false,"line":2,"transit":false,"time":4,"i_lat":-6.198556,"station_id":"CKI"},{"distance":1750,"i_long":106.832183,"station_name":"Gondangdia","transit":false,"line":2,"station_id":"GDD","i_lat":-6.186295,"is_transit":false,"time":3},{"i_long":106.828284,"line":2,"is_transit":false,"i_lat":-6.166716,"distance":2015,"station_id":"JUA","transit":false,"time":4,"station_name":"Juanda"},{"time":2,"transit":false,"i_long":106.827103,"station_name":"Sawah Besar","is_transit":false,"line":2,"station_id":"SW","distance":1149,"i_lat":-6.160725},{"is_transit":false,"distance":906,"line":2,"time":2,"station_id":"MGB","station_name":"Manggabesar","i_lat":-6.149769,"i_long":106.82482,"transit":false},{"station_name":"Jayakarta","i_lat":-6.141205,"line":2,"distance":1080,"i_long":106.820901,"transit":false,"is_transit":false,"station_id":"JAY","time":2}],[{"station_id":"TNG","line":5,"transit":false,"i_lat":-6.176583,"distance":0,"i_long":106.632761,"is_transit":false,"time":0,"station_name":"Tangerang"},{"i_lat":-6.17331,"is_transit":false,"i_long":106.64657,"station_name":"Tanah Tinggi","time":3,"distance":1547,"transit":false,"line":5,"station_id":"TTI"},{"transit":false,"time":3,"is_transit":false,"i_long":106.665036,"station_id":"BPR","distance":2028,"i_lat":-6.171811,"station_name":"Batuceper","line":5},{"distance":1834,"transit":false,"is_transit":false,"station_name":"Poris","line":5,"time":3,"station_id":"PI","i_lat":-6.169933,"i_long":106.679458},{"is_transit":false,"distance":2548,"i_long":106.701612,"i_lat":-6.166068,"station_id":"KDS","time":3,"station_name":"Kalideres","transit":false,"line":5},{"i_long":106.723064,"transit":false,"station_name":"Rawa Buaya","i_lat":-6.162758,"station_id":"RW","time":3,"is_transit":false,"line":5,"distance":2504},{"i_lat":-6.159876,"i_long":106.737035,"transit":false,"distance":1152,"line":5,"time":4,"station_id":"BOI","is_transit":false,"station_name":"Bojongindah"},{"time":2,"station_name":"Taman Kota","is_transit":false,"i_long":106.756522,"line":5,"i_lat":-6.1587309999999995,"distance":2334,"transit":false,"station_id":"TKO"},{"i_long":106.771379,"line":5,"is_transit":false,"transit":false,"i_lat":-6.161433,"station_id":"PSG","station_name":"Pesing","time":2,"distance":1614},{"transit":false,"is_transit":false,"station_name":"Grogol","i_lat":-6.162021,"station_id":"GGL","line":5,"time":2,"distance":2036,"i_long":106.788277},{"is_transit":true,"transit":true,"i_long":106.800832,"time":3,"i_lat":-6.155215,"station_name":"Duri","station_id":"DU","distance":1700,"line":1},{"line":1,"transit":false,"station_name":"Tanah Abang","time":8,"station_id":"THB","distance":3632,"i_lat":-6.185545,"i_long":106.811091,"is_transit":false},{"transit":false,"i_lat":-6.20132,"station_id":"KAT","is_transit":false,"i_long":106.816351,"station_name":"Karet","time":5,"distance":2029,"line":1},{"is_transit":false,"transit":false,"station_name":"Sudirman Baru","station_id":"SUDB","time":1,"distance":471,"line":1,"i_lat":-6.201433,"i_long":106.819881},{"distance":280,"transit":false,"time":1,"station_id":"SUD","i_lat":-6.202263,"i_long":106.822649,"is_transit":false,"line":1,"station_name":"Sudirman"},{"i_long":106.84912,"station_name":"Manggarai","time":4,"transit":false,"is_transit":false,"distance":3186,"i_lat":-6.209883,"line":2,"station_id":"MRI"},{"distance":1275,"i_long":106.858896,"is_transit":false,"station_name":"Matraman","time":2,"station_id":"MTR","line":1,"transit":false,"i_lat":-6.212485},{"distance":1377,"time":8,"station_id":"JNG","i_long":106.86807400000001,"station_name":"Jatinegara","transit":true,"is_transit":true,"i_lat":-6.215091,"line":1},{"line":11,"station_name":"Pondok Jati","is_transit":false,"distance":1236,"station_id":"POK","transit":false,"time":2,"i_long":106.861737,"i_lat":-6.209188},{"line":11,"station_id":"KMT","is_transit":false,"i_long":106.855437,"station_name":"Kramat","time":2,"distance":1829,"transit":false,"i_lat":-6.193792},{"i_long":106.850107,"is_transit":false,"transit":false,"distance":973,"i_lat":-6.185975,"station_id":"GST","line":11,"station_name":"Gang Sentiong","time":1},{"station_name":"Pasar Senen","station_id":"PSE","time":8,"i_long":106.84368,"i_lat":-6.174784,"line":11,"distance":1567,"transit":false,"is_transit":false},{"i_long":106.839204,"i_lat":-6.161728,"line":11,"station_name":"Kemayoran","station_id":"KMO","transit":false,"is_transit":false,"time":4,"distance":1436},{"i_long":106.836569,"i_lat":-6.14505,"is_transit":false,"station_name":"Rajawali","time":5,"distance":1901,"station_id":"RJW","line":11,"transit":false},{"distance":1444,"is_transit":true,"station_name":"Kampung Bandan","i_long":106.826365,"station_id":"KPB","transit":true,"line":4,"i_lat":-6.132549,"time":3},{"distance":1364,"transit":true,"line":2,"is_transit":true,"station_id":"JAKK","i_lat":-6.137569,"time":3,"station_name":"Jakarta Kota","i_long":106.812439},{"station_name":"Jayakarta","time":4,"distance":1264,"i_long":106.820901,"station_id":"JAY","line":2,"i_lat":-6.141205,"is_transit":false,"transit":false}],[{"line":5,"transit":false,"station_name":"Tangerang","station_id":"TNG","time":0,"i_lat":-6.176583,"i_long":106.632761,"is_transit":false,"distance":0},{"is_transit":false,"distance":1547,"transit":false,"i_lat":-6.17331,"station_id":"TTI","time":3,"i_long":106.64657,"line":5,"station_name":"Tanah Tinggi"},{"station_name":"Batuceper","i_long":106.665036,"distance":2028,"time":3,"station_id":"BPR","is_transit":false,"transit":false,"line":5,"i_lat":-6.171811},{"is_transit":false,"time":3,"station_name":"Poris","i_long":106.679458,"i_lat":-6.169933,"line":5,"distance":1834,"station_id":"PI","transit":false},{"station_name":"Kalideres","is_transit":false,"station_id":"KDS","distance":2548,"i_lat":-6.166068,"time":3,"line":5,"transit":false,"i_long":106.701612},{"station_name":"Rawa Buaya","transit":false,"i_long":106.723064,"time":3,"distance":2504,"i_lat":-6.162758,"station_id":"RW","is_transit":false,"line":5},{"station_id":"BOI","is_transit":false,"i_long":106.737035,"time":4,"station_name":"Bojongindah","distance":1152,"transit":false,"line":5,"i_lat":-6.159876},{"distance":2334,"i_long":106.756522,"i_lat":-6.1587309999999995,"time":2,"transit":false,"station_id":"TKO","line":5,"is_transit":false,"station_name":"Taman Kota"},{"line":5,"distance":1614,"i_long":106.771379,"station_name":"Pesing","station_id":"PSG","i_lat":-6.161433,"is_transit":false,"time":2,"transit":false},{"i_long":106.788277,"is_transit":false,"station_name":"Grogol","time":2,"distance":2036,"station_id":"GGL","line":5,"transit":false,"i_lat":-6.162021},{"distance":1700,"transit":true,"i_lat":-6.155215,"time":3,"is_transit":true,"line":1,"station_id":"DU","station_name":"Duri","i_long":106.800832},{"i_long":106.79867,"station_id":"AK","transit":false,"time":4,"distance":1230,"i_lat":-6.144674,"station_name":"Angke","is_transit":false,"line":1},{"line":4,"is_transit":true,"station_name":"Kampung Bandan","i_lat":-6.132549,"i_long":106.826365,"transit":true,"distance":4102,"station_id":"KPB","time":9},{"distance":1444,"is_transit":false,"time":3,"station_id":"RJW","station_name":"Rajawali","i_lat":-6.14505,"i_long":106.836569,"line":11,"transit":false},{"station_id":"KMO","transit":false,"distance":1901,"time":5,"line":11,"i_lat":-6.161728,"station_name":"Kemayoran","i_long":106.839204,"is_transit":false},{"is_transit":false,"station_name":"Pasar Senen","station_id":"PSE","i_lat":-6.174784,"line":11,"distance":1436,"transit":false,"time":4,"i_long":106.84368},{"is_transit":false,"station_id":"GST","distance":1567,"transit":false,"station_name":"Gang Sentiong","time":8,"i_lat":-6.185975,"i_long":106.850107,"line":11},{"is_transit":false,"transit":false,"i_lat":-6.193792,"line":11,"station_name":"Kramat","distance":973,"i_long":106.855437,"time":1,"station_id":"KMT"},{"distance":1829,"is_transit":false,"transit":false,"station_id":"POK","time":2,"station_name":"Pondok Jati","i_lat":-6.209188,"i_long":106.861737,"line":11},{"is_transit":true,"station_id":"JNG","station_name":"Jatinegara","line":1,"transit":true,"time":9,"distance":1236,"i_long":106.86807400000001,"i_lat":-6.215091},{"is_transit":false,"transit":false,"station_id":"MTR","time":2,"i_long":106.858896,"station_name":"Matraman","distance":1377,"i_lat":-6.212485,"line":1},{"is_transit":true,"i_long":106.84912,"time":2,"distance":1275,"transit":true,"station_id":"MRI","line":2,"station_name":"Manggarai","i_lat":-6.209883},{"i_long":106.840169,"i_lat":-6.198556,"is_transit":false,"transit":false,"station_name":"Cikini","distance":1590,"station_id":"CKI","time":4,"line":2},{"station_name":"Gondangdia","i_lat":-6.186295,"distance":1750,"transit":false,"is_transit":false,"line":2,"time":3,"i_long":106.832183,"station_id":"GDD"},{"station_name":"Juanda","transit":false,"is_transit":false,"distance":2015,"time":4,"line":2,"station_id":"JUA","i_long":106.828284,"i_lat":-6.166716},{"station_name":"Sawah Besar","i_lat":-6.160725,"time":2,"transit":false,"distance":1149,"station_id":"SW","i_long":106.827103,"line":2,"is_transit":false},{"line":2,"i_lat":-6.149769,"transit":false,"time":2,"is_transit":false,"distance":906,"i_long":106.82482,"station_name":"Manggabesar","station_id":"MGB"},{"is_transit":false,"station_id":"JAY","i_lat":-6.141205,"transit":false,"time":2,"i_long":106.820901,"line":2,"station_name":"Jayakarta","distance":1080}]]}