{"data":[[{"i_long":106.632761,"line":5,"is_transit":false,"time":0,"distance":0,"station_name":"Tangerang","i_lat":-6.176583,"transit":false,"station_id":"TNG"},{"time":3,"i_long":106.64657,"station_id":"THI","line":5,"transit":false,"station_name":"Tanah Tinggi","is_transit":false,"distance":1547,"i_lat":-6.17331},{"is_transit":false,"line":5,"station_id":"BPR","i_lat":-6.171811,"distance":2028,"i_long":106.665036,"station_name":"Batuceper","transit":false,"time":3},{"line":5,"is_transit":false,"i_lat":-6.169933,"transit":false,"station_name":"Poris","station_id":"PI","distance":1834,"time":3,"i_long":106.679458},{"station_name":"Kalideres","transit":false,"line":5,"i_lat":-6.166068,"i_long":106.701612,"time":3,"station_id":"KDS","is_transit":false,"distance":2548},{"time":3,"i_long":106.723064,"line":5,"station_id":"RW","transit":false,"distance":2504,"i_lat":-6.162758,"station_name":"Rawa Buaya","is_transit":false},{"distance":1152,"transit":false,"station_id":"BOI","i_lat":-6.159876,"i_long":106.737035,"line":5,"is_transit":false,"station_name":"Bojongindah","time":4},{"i_lat":-6.1587309999999995,"distance":2334,"station_id":"TKO","line":5,"i_long":106.756522,"time":2,"is_transit":false,"station_name":"Taman Kota","transit":false},{"is_transit":false,"i_long":106.771379,"i_lat":-6.161433,"transit":false,"station_name":"Pesing","distance":1614,"time":2,"line":5,"station_id":"PSG"},{"station_name":"Grogol","time":2,"i_lat":-6.162021,"is_transit":false,"transit":false,"i_long":106.788277,"distance":2036,"line":5,"station_id":"GRG"},{"i_lat":-6.155215,"is_transit":true,"i_long":106.800832,"transit":true,"station_id":"DU","time":3,"distance":1700,"line":1,"station_name":"Duri"},{"distance":3632,"station_id":"THB","station_name":"Tanah Abang","i_lat":-6.185545,"line":1,"transit":false,"time":8,"i_long":106.811091,"is_transit":false},{"transit":false,"time":5,"station_name":"Karet","station_id":"KAT","i_lat":-6.20132,"i_long":106.816351,"line":1,"distance":2029,"is_transit":false},{"transit":false,"is_transit":false,"distance":471,"line":1,"i_long":106.819881,"station_id":"SUDB","i_lat":-6.201433,"station_name":"Sudirman Baru","time":1},{"line":1,"i_lat":-6.202263,"i_long":106.822649,"is_transit":false,"distance":280,"station_name":"Sudirman","transit":false,"time":1,"station_id":"SUD"},{"is_transit":true,"distance":3186,"transit":true,"i_lat":-6.209883,"i_long":106.84912,"station_id":"MRI","station_name":"Manggarai","line":2,"time":4},{"i_lat":-6.226659,"i_long":106.857948,"transit":false,"is_transit":false,"line":2,"station_name":"Tebet","station_id":"TEB","distance":2610,"time":4},{"time":2,"i_lat":-6.242512,"station_name":"Cawang","line":2,"distance":1230,"transit":false,"station_id":"CW","i_long":106.856607,"is_transit":false},{"transit":false,"station_id":"DRN","line":2,"time":3,"distance":1546,"i_long":106.85449,"i_lat":-6.255332,"station_name":"Duren Kalibata","is_transit":false},{"is_transit":false,"station_id":"PSMB","i_long":106.851577,"station_name":"Pasar Minggu Baru","i_lat":-6.263214,"line":2,"distance":824,"time":2,"transit":false},{"i_lat":-6.2842400000000005,"is_transit":false,"station_id":"PSM","line":2,"distance":2380,"time":2,"transit":false,"station_name":"Pasar Minggu","i_long":106.843999},{"is_transit":false,"line":2,"i_lat":-6.3080680000000005,"transit":false,"station_id":"TNT","station_name":"Tanjung Barat","i_long":106.838896,"time":4,"distance":2820},{"line":2,"transit":false,"distance":2671,"time":3,"station_name":"Lenteng Agung","i_lat":-6.330363,"is_transit":false,"station_id":"LNA","i_long":106.832616},{"station_name":"Univ. Pancasila","distance":1029,"i_long":106.834175,"transit":false,"time":2,"is_transit":false,"i_lat":-6.339291,"station_id":"UP","line":2},{"line":2,"time":3,"station_id":"UI","i_lat":-6.360749,"is_transit":false,"transit":false,"distance":2264,"station_name":"Univ. Indonesia","i_long":106.831474},{"i_lat":-6.369073,"time":2,"station_id":"POC","i_long":106.831114,"line":2,"distance":1109,"transit":false,"is_transit":false,"station_name":"Pondok Cina"},{"i_lat":-6.391065,"distance":2727,"time":4,"line":2,"station_name":"Depokbaru","station_id":"DPB","transit":false,"is_transit":false,"i_long":106.819451}],[{"line":5,"distance":0,"is_transit":false,"transit":false,"station_name":"Tangerang","time":0,"i_long":106.632761,"station_id":"TNG","i_lat":-6.176583},{"line":5,"is_transit":false,"station_id":"THI","i_lat":-6.17331,"transit":false,"distance":1547,"time":3,"station_name":"Tanah Tinggi","i_long":106.64657},{"transit":false,"is_transit":false,"station_name":"Batuceper","distance":2028,"station_id":"BPR","time":3,"line":5,"i_lat":-6.171811,"i_long":106.665036},{"is_transit":false,"i_lat":-6.169933,"transit":false,"time":3,"distance":1834,"station_id":"PI","line":5,"station_name":"Poris","i_long":106.679458},{"transit":false,"is_transit":false,"station_name":"Kalideres","i_lat":-6.166068,"i_long":106.701612,"time":3,"distance":2548,"station_id":"KDS","line":5},{"is_transit":false,"station_name":"Rawa Buaya","station_id":"RW","transit":false,"i_lat":-6.162758,"i_long":106.723064,"distance":2504,"line":5,"time":3},{"i_long":106.737035,"is_transit":false,"i_lat":-6.159876,"station_id":"BOI","time":4,"line":5,"station_name":"Bojongindah","distance":1152,"transit":false},{"i_lat":-6.1587309999999995,"station_name":"Taman Kota","time":2,"i_long":106.756522,"line":5,"transit":false,"distance":2334,"is_transit":false,"station_id":"TKO"},{"transit":false,"i_long":106.771379,"station_id":"PSG","time":2,"station_name":"Pesing","i_lat":-6.161433,"line":5,"distance":1614,"is_transit":false},{"station_name":"Grogol","time":2,"i_lat":-6.162021,"is_transit":false,"i_long":106.788277,"distance":2036,"transit":false,"station_id":"GRG","line":5},{"i_long":106.800832,"i_lat":-6.155215,"distance":1700,"transit":true,"station_id":"DU","station_name":"Duri","line":1,"is_transit":true,"time":3},{"is_transit":false,"station_id":"AK","time":4,"distance":1230,"i_lat":-6.144674,"line":1,"i_long":106.79867,"transit":false,"station_name":"Angke"},{"line":4,"is_transit":true,"i_long":106.826365,"distance":4102,"transit":true,"station_name":"Kampung Bandan","time":9,"i_lat":-6.132549,"station_id":"KPB"},{"station_name":"Jakarta Kota","time":3,"line":2,"is_transit":true,"distance":1364,"station_id":"JAKK","i_lat":-6.137569,"transit":true,"i_long":106.812439},{"is_transit":false,"station_name":"Jayakarta","station_id":"JAY","distance":1264,"transit":false,"time":4,"i_long":106.820901,"line":2,"i_lat":-6.141205},{"distance":1080,"station_id":"MGB","i_lat":-6.149769,"transit":false,"line":2,"station_name":"Manggabesar","is_transit":false,"time":2,"i_long":106.82482},{"is_transit":false,"station_id":"SW","i_lat":-6.160725,"i_long":106.827103,"line":2,"distance":906,"transit":false,"station_name":"Sawah Besar","time":2},{"time":2,"line":2,"station_id":"JUA","distance":1149,"is_transit":false,"i_lat":-6.166716,"station_name":"Juanda","i_long":106.828284,"transit":false},{"time":4,"station_id":"GDD","i_lat":-6.186295,"is_transit":false,"transit":false,"i_long":106.832183,"distance":2015,"station_name":"Gondangdia","line":2},{"i_long":106.840169,"is_transit":false,"line":2,"time":3,"i_lat":-6.198556,"distance":1750,"transit":false,"station_id":"CKI","station_name":"Cikini"},{"station_name":"Manggarai","distance":1590,"is_transit":false,"i_lat":-6.209883,"station_id":"MRI","time":4,"i_long":106.84912,"line":2,"transit":false},{"i_long":106.857948,"distance":2610,"line":2,"time":4,"station_name":"Tebet","is_transit":false,"transit":false,"i_lat":-6.226659,"station_id":"TEB"},{"station_id":"CW","distance":1230,"station_name":"Cawang","line":2,"is_transit":false,"i_lat":-6.242512,"i_long":106.856607,"transit":false,"time":2},{"distance":1546,"station_id":"DRN","time":3,"transit":false,"i_lat":-6.255332,"i_long":106.85449,"station_name":"Duren Kalibata","line":2,"is_transit":false},{"is_transit":false,"line":2,"station_name":"Pasar Minggu Baru","time":2,"i_lat":-6.263214,"i_long":106.851577,"transit":false,"station_id":"PSMB","distance":824},{"is_transit":false,"station_id":"PSM","i_long":106.843999,"transit":false,"line":2,"distance":2380,"time":2,"station_name":"Pasar Minggu","i_lat":-6.2842400000000005},{"distance":2820,"station_id":"TNT","i_lat":-6.3080680000000005,"is_transit":false,"transit":false,"time":4,"i_long":106.838896,"station_name":"Tanjung Barat","line":2},{"station_name":"Lenteng Agung","line":2,"distance":2671,"is_transit":false,"time":3,"transit":false,"station_id":"LNA","i_lat":-6.330363,"i_long":106.832616},{"distance":1029,"time":2,"station_name":"Univ. Pancasila","station_id":"UP","i_lat":-6.339291,"line":2,"i_long":106.834175,"is_transit":false,"transit":false},{"line":2,"transit":false,"time":3,"station_id":"UI","distance":2264,"station_name":"Univ. Indonesia","is_transit":false,"i_lat":-6.360749,"i_long":106.831474},{"is_transit":false,"transit":false,"time":2,"i_lat":-6.369073,"line":2,"distance":1109,"station_id":"POC","station_name":"Pondok Cina","i_long":106.831114},{"station_name":"Depokbaru","transit":false,"station_id":"DPB","i_long":106.819451,"distance":2727,"is_transit":false,"time":4,"i_lat":-6.391065,"line":2}],[{"is_transit":false,"i_lat":-6.176583,"i_long":106.632761,"line":5,"transit":false,"station_id":"TNG","distance":0,"station_name":"Tangerang","time":0},{"transit":false,"i_lat":-6.17331,"line":5,"station_name":"Tanah Tinggi","i_long":106.64657,"distance":1547,"is_transit":false,"station_id":"THI","time":3},{"station_name":"Batuceper","distance":2028,"i_long":106.665036,"is_transit":false,"line":5,"transit":false,"station_id":"BPR","time":3,"i_lat":-6.171811},{"distance":1834,"is_transit":false,"station_id":"PI","i_long":106.679458,"line":5,"i_lat":-6.169933,"station_name":"Poris","transit":false,"time":3},{"station_name":"Kalideres","i_lat":-6.166068,"distance":2548,"is_transit":false,"time":3,"i_long":106.701612,"station_id":"KDS","transit":false,"line":5},{"time":3,"transit":false,"station_name":"Rawa Buaya","line":5,"is_transit":false,"station_id":"RW","i_long":106.723064,"i_lat":-6.162758,"distance":2504},{"station_name":"Bojongindah","line":5,"transit":false,"distance":1152,"i_long":106.737035,"time":4,"station_id":"BOI","i_lat":-6.159876,"is_transit":false},{"station_id":"TKO","distance":2334,"station_name":"Taman Kota","i_long":106.756522,"line":5,"transit":false,"time":2,"i_lat":-6.1587309999999995,"is_transit":false},{"is_transit":false,"station_name":"Pesing","i_long":106.771379,"i_lat":-6.161433,"transit":false,"distance":1614,"line":5,"station_id":"PSG","time":2},{"line":5,"transit":false,"distance":2036,"station_name":"Grogol","time":2,"i_lat":-6.162021,"station_id":"GRG","is_transit":false,"i_long":106.788277},{"distance":1700,"transit":true,"station_name":"Duri","time":3,"i_lat":-6.155215,"i_long":106.800832,"line":1,"station_id":"DU","is_transit":true},{"line":1,"i_lat":-6.144674,"time":4,"i_long":106.79867,"is_transit":false,"station_id":"AK","transit":false,"station_name":"Angke","distance":1230},{"station_id":"KPB","station_name":"Kampung Bandan","i_long":106.826365,"transit":true,"time":9,"i_lat":-6.132549,"distance":4102,"line":4,"is_transit":true},{"distance":1444,"is_transit":false,"i_lat":-6.14505,"transit":false,"time":3,"line":11,"station_id":"RJW","station_name":"Rajawali","i_long":106.836569},{"is_transit":false,"transit":false,"distance":1901,"station_id":"KMO","time":5,"i_lat":-6.161728,"i_long":106.839204,"station_name":"Kemayoran","line":11},{"line":11,"station_name":"Pasar Senen","is_transit":false,"station_id":"PSE","time":4,"distance":1436,"i_lat":-6.174784,"i_long":106.84368,"transit":false},{"station_name":"Gang Sentiong","station_id":"GST","time":8,"i_lat":-6.185975,"i_long":106.850107,"is_transit":false,"line":11,"distance":1567,"transit":false},{"line":11,"is_transit":false,"station_id":"KMT","station_name":"Kramat","time":1,"i_lat":-6.193792,"i_long":106.855437,"distance":973,"transit":false},{"station_name":"Pondok Jati","i_long":106.861737,"i_lat":-6.209188,"is_transit":false,"station_id":"POK","time":2,"transit":false,"line":11,"distance":1829},{"time":9,"i_long":106.86807400000001,"line":1,"transit":true,"i_lat":-6.215091,"is_transit":true,"station_id":"JNG","station_name":"Jatinegara","distance":1236},{"station_id":"MTR","transit":false,"is_transit":false,"distance":1377,"i_long":106.858896,"i_lat":-6.212485,"time":2,"line":1,"station_name":"Matraman"},{"station_name":"Manggarai","transit":true,"distance":1275,"i_lat":-6.209883,"i_long":106.84912,"line":2,"station_id":"MRI","is_transit":true,"time":2},{"distance":2610,"station_id":"TEB","transit":false,"i_long":106.857948,"is_transit":false,"time":4,"line":2,"i_lat":-6.226659,"station_name":"Tebet"},{"i_long":106.856607,"station_name":"Cawang","i_lat":-6.242512,"is_transit":false,"distance":1230,"time":2,"station_id":"CW","line":2,"transit":false},{"line":2,"station_id":"DRN","station_name":"Duren Kalibata","transit":false,"is_transit":false,"i_long":106.85449,"distance":1546,"i_lat":-6.255332,"time":3},{"distance":824,"i_long":106.851577,"is_transit":false,"time":2,"transit":false,"station_id":"PSMB","i_lat":-6.263214,"station_name":"Pasar Minggu Baru","line":2},{"distance":2380,"line":2,"station_name":"Pasar Minggu","station_id":"PSM","i_lat":-6.2842400000000005,"transit":false,"time":2,"is_transit":false,"i_long":106.843999},{"time":4,"i_long":106.838896,"i_lat":-6.3080680000000005,"line":2,"transit":false,"distance":2820,"station_id":"TNT","station_name":"Tanjung Barat","is_transit":false},{"station_id":"LNA","line":2,"transit":false,"is_transit":false,"station_name":"Lenteng Agung","i_long":106.832616,"time":3,"distance":2671,"i_lat":-6.330363},{"is_transit":false,"station_id":"UP","transit":false,"line":2,"distance":1029,"station_name":"Univ. Pancasila","i_lat":-6.339291,"time":2,"i_long":106.834175},{"line":2,"time":3,"i_lat":-6.360749,"i_long":106.831474,"is_transit":false,"transit":false,"distance":2264,"station_id":"UI","station_name":"Univ. Indonesia"},{"time":2,"line":2,"station_id":"POC","transit":false,"distance":1109,"station_name":"Pondok Cina","i_lat":-6.369073,"is_transit":false,"i_long":106.831114},{"distance":2727,"station_id":"DPB","time":4,"transit":false,"station_name":"Depokbaru","i_long":106.819451,"is_transit":false,"i_lat":-6.391065,"line":2}]]}