{"data":[[{"line":5,"distance":0,"station_id":"TNG","transit":false,"station_name":"Tangerang","i_long":106.632761,"time":0,"is_transit":false,"i_lat":-6.176583},{"is_transit":false,"time":3,"station_id":"TTI","i_lat":-6.17331,"transit":false,"line":5,"station_name":"Tanah Tinggi","i_long":106.64657,"distance":1547},{"distance":2028,"is_transit":false,"i_long":106.665036,"station_name":"Batuceper","time":3,"station_id":"BPR","i_lat":-6.171811,"transit":false,"line":0},{"is_transit":false,"station_id":"PI","time":3,"distance":1834,"i_long":106.679458,"i_lat":-6.169933,"transit":false,"station_name":"Poris","line":5},{"is_transit":false,"line":5,"transit":false,"time":3,"station_name":"Kalideres","i_lat":-6.166068,"distance":2548,"station_id":"KDS","i_long":106.701612},{"transit":false,"station_id":"RW","distance":2504,"station_name":"Rawa Buaya","i_lat":-6.162758,"i_long":106.723064,"line":5,"time":3,"is_transit":false},{"line":0,"distance":1152,"is_transit":false,"station_name":"Bojongindah","transit":false,"i_long":106.737035,"i_lat":-6.159876,"time":4,"station_id":"BOI"}]]}