{"data":[[{"station_id":"TNG","distance":0,"time":0,"is_transit":false,"i_lat":-6.176583,"station_name":"Tangerang","i_long":106.632761,"line":5,"transit":false},{"station_name":"Tanah Tinggi","i_long":106.64657,"line":5,"is_transit":false,"station_id":"TTI","transit":false,"distance":1547,"time":3,"i_lat":-6.17331},{"is_transit":false,"i_long":106.665036,"distance":2028,"station_name":"Batuceper","i_lat":-6.171811,"station_id":"BPR","transit":false,"time":3,"line":0},{"station_name":"Poris","transit":false,"i_long":106.679458,"line":5,"i_lat":-6.169933,"station_id":"PI","distance":1834,"time":3,"is_transit":false},{"line":5,"transit":false,"i_lat":-6.166068,"distance":2548,"station_name":"Kalideres","i_long":106.701612,"time":3,"station_id":"KDS","is_transit":false},{"transit":false,"time":3,"is_transit":false,"station_id":"RW","distance":2504,"i_long":106.723064,"i_lat":-6.162758,"line":5,"station_name":"Rawa Buaya"},{"station_id":"BOI","distance":1152,"station_name":"Bojongindah","time":4,"is_transit":false,"i_lat":-6.159876,"transit":false,"line":0,"i_long":106.737035},{"is_transit":false,"station_id":"TKO","i_lat":-6.1587309999999995,"line":5,"transit":false,"i_long":106.756522,"time":2,"station_name":"Taman Kota","distance":2334},{"station_id":"PSG","is_transit":false,"distance":1614,"transit":false,"time":2,"i_lat":-6.161433,"station_name":"Pesing","line":5,"i_long":106.771379},{"station_id":"GGL","i_lat":-6.162021,"time":2,"station_name":"Grogol","distance":2036,"transit":false,"is_transit":false,"i_long":106.788277,"line":5},{"i_lat":-6.155215,"is_transit":true,"distance":1700,"station_name":"Duri","station_id":"DU","time":3,"transit":true,"i_long":106.800832,"line":1},{"transit":false,"is_transit":true,"line":1,"distance":3632,"i_long":106.811091,"station_name":"Tanah Abang","station_id":"THB","time":8,"i_lat":-6.185545},{"line":1,"i_lat":-6.20132,"station_name":"Karet","distance":2029,"time":5,"transit":false,"i_long":106.816351,"is_transit":false,"station_id":"KAT"},{"station_id":"SUDB","is_transit":false,"station_name":"Sudirman Baru","transit":false,"i_long":106.819881,"i_lat":-6.201433,"time":1,"line":1,"distance":471},{"transit":false,"station_name":"Sudirman","line":1,"is_transit":false,"station_id":"SUD","time":1,"distance":280,"i_lat":-6.202263,"i_long":106.822649},{"distance":3186,"time":4,"transit":false,"station_name":"Manggarai","station_id":"MRI","i_long":106.84912,"is_transit":true,"line":0,"i_lat":-6.209883},{"i_lat":-6.212485,"line":1,"distance":1275,"is_transit":false,"station_id":"MTR","station_name":"Matraman","time":2,"transit":false,"i_long":106.858896}],[{"time":0,"station_name":"Tangerang","i_long":106.632761,"transit":false,"station_id":"TNG","line":5,"is_transit":false,"i_lat":-6.176583,"distance":0},{"station_name":"Tanah Tinggi","transit":false,"time":3,"is_transit":false,"station_id":"TTI","line":5,"i_lat":-6.17331,"i_long":106.64657,"distance":1547},{"is_transit":false,"station_id":"BPR","distance":2028,"transit":false,"time":3,"i_long":106.665036,"station_name":"Batuceper","i_lat":-6.171811,"line":0},{"is_transit":false,"distance":1834,"time":3,"i_lat":-6.169933,"station_name":"Poris","i_long":106.679458,"transit":false,"line":5,"station_id":"PI"},{"station_name":"Kalideres","time":3,"is_transit":false,"i_lat":-6.166068,"i_long":106.701612,"distance":2548,"station_id":"KDS","line":5,"transit":false},{"station_id":"RW","is_transit":false,"i_long":106.723064,"line":5,"i_lat":-6.162758,"station_name":"Rawa Buaya","time":3,"distance":2504,"transit":false},{"distance":1152,"i_long":106.737035,"station_name":"Bojongindah","i_lat":-6.159876,"time":4,"station_id":"BOI","is_transit":false,"line":0,"transit":false},{"transit":false,"time":2,"i_lat":-6.1587309999999995,"i_long":106.756522,"is_transit":false,"line":5,"distance":2334,"station_id":"TKO","station_name":"Taman Kota"},{"station_id":"PSG","is_transit":false,"time":2,"distance":1614,"station_name":"Pesing","transit":false,"line":5,"i_long":106.771379,"i_lat":-6.161433},{"transit":false,"distance":2036,"is_transit":false,"time":2,"i_long":106.788277,"line":5,"station_id":"GGL","i_lat":-6.162021,"station_name":"Grogol"},{"station_name":"Duri","time":3,"i_lat":-6.155215,"i_long":106.800832,"line":1,"is_transit":true,"station_id":"DU","transit":true,"distance":1700},{"i_long":106.79867,"line":0,"station_name":"Angke","transit":false,"time":4,"distance":1230,"station_id":"AK","is_transit":false,"i_lat":-6.144674},{"i_long":106.826365,"transit":true,"station_id":"KPB","station_name":"Kampung Bandan","i_lat":-6.132549,"line":0,"time":9,"is_transit":true,"distance":4102},{"time":3,"is_transit":false,"i_lat":-6.14505,"transit":false,"line":11,"station_name":"Rajawali","station_id":"RJW","i_long":106.836569,"distance":1444},{"station_name":"Kemayoran","transit":false,"station_id":"KMO","time":5,"i_long":106.839204,"is_transit":false,"i_lat":-6.161728,"distance":1901,"line":11},{"time":4,"i_long":106.84368,"distance":1436,"transit":false,"is_transit":false,"station_id":"PSE","station_name":"Pasar Senen","i_lat":-6.174784,"line":11},{"time":8,"i_lat":-6.185975,"transit":false,"distance":1567,"station_id":"GST","i_long":106.850107,"is_transit":false,"station_name":"Gang Sentiong","line":11},{"i_lat":-6.193792,"station_name":"Kramat","is_transit":false,"i_long":106.855437,"distance":973,"transit":false,"line":11,"time":1,"station_id":"KMT"},{"time":2,"station_name":"Pondok Jati","i_lat":-6.209188,"line":11,"distance":1829,"is_transit":false,"station_id":"POK","transit":false,"i_long":106.861737},{"i_long":106.86807400000001,"line":0,"station_id":"JNG","is_transit":true,"transit":true,"station_name":"Jatinegara","time":9,"i_lat":-6.215091,"distance":1236},{"distance":1377,"station_id":"MTR","time":2,"i_lat":-6.212485,"transit":false,"i_long":106.858896,"station_name":"Matraman","is_transit":false,"line":1}],[{"is_transit":false,"line":5,"distance":0,"i_long":106.632761,"station_id":"TNG","i_lat":-6.176583,"station_name":"Tangerang","transit":false,"time":0},{"is_transit":false,"i_long":106.64657,"station_name":"Tanah Tinggi","time":3,"line":5,"i_lat":-6.17331,"transit":false,"distance":1547,"station_id":"TTI"},{"station_name":"Batuceper","distance":2028,"transit":false,"is_transit":false,"i_long":106.665036,"i_lat":-6.171811,"line":0,"station_id":"BPR","time":3},{"i_lat":-6.169933,"i_long":106.679458,"time":3,"distance":1834,"station_name":"Poris","station_id":"PI","is_transit":false,"transit":false,"line":5},{"transit":false,"i_lat":-6.166068,"distance":2548,"i_long":106.701612,"time":3,"line":5,"station_id":"KDS","is_transit":false,"station_name":"Kalideres"},{"transit":false,"distance":2504,"is_transit":false,"line":5,"station_name":"Rawa Buaya","station_id":"RW","i_long":106.723064,"i_lat":-6.162758,"time":3},{"i_lat":-6.159876,"is_transit":false,"station_id":"BOI","station_name":"Bojongindah","line":0,"distance":1152,"i_long":106.737035,"time":4,"transit":false},{"station_name":"Taman Kota","station_id":"TKO","time":2,"line":5,"i_long":106.756522,"transit":false,"is_transit":false,"i_lat":-6.1587309999999995,"distance":2334},{"distance":1614,"is_transit":false,"station_id":"PSG","transit":false,"i_lat":-6.161433,"i_long":106.771379,"station_name":"Pesing","line":5,"time":2},{"i_lat":-6.162021,"line":5,"distance":2036,"i_long":106.788277,"is_transit":false,"station_name":"Grogol","transit":false,"station_id":"GGL","time":2},{"i_lat":-6.155215,"distance":1700,"is_transit":true,"station_name":"Duri","transit":true,"i_long":106.800832,"station_id":"DU","time":3,"line":1},{"station_name":"Angke","distance":1230,"is_transit":false,"i_lat":-6.144674,"time":4,"i_long":106.79867,"line":0,"station_id":"AK","transit":false},{"station_name":"Kampung Bandan","time":9,"i_lat":-6.132549,"station_id":"KPB","i_long":106.826365,"line":0,"is_transit":true,"distance":4102,"transit":false},{"station_name":"Jakarta Kota","transit":true,"is_transit":true,"distance":1364,"time":3,"i_long":106.812439,"station_id":"JAKK","i_lat":-6.137569,"line":0},{"i_long":106.820901,"line":7,"station_name":"Jayakarta","station_id":"JAY","time":4,"i_lat":-6.141205,"transit":false,"is_transit":false,"distance":1264},{"time":2,"distance":1080,"transit":false,"is_transit":false,"i_lat":-6.149769,"i_long":106.82482,"station_name":"Manggabesar","line":2,"station_id":"MGB"},{"i_lat":-6.160725,"station_id":"SW","line":2,"time":2,"station_name":"Sawah Besar","distance":906,"transit":false,"i_long":106.827103,"is_transit":false},{"transit":false,"station_name":"Juanda","i_lat":-6.166716,"line":2,"station_id":"JUA","distance":1149,"is_transit":false,"time":2,"i_long":106.828284},{"station_id":"GDD","time":4,"line":2,"i_long":106.832183,"station_name":"Gondangdia","transit":false,"is_transit":false,"distance":2015,"i_lat":-6.186295},{"i_long":106.840169,"transit":false,"is_transit":false,"station_id":"CKI","time":3,"i_lat":-6.198556,"station_name":"Cikini","distance":1750,"line":0},{"station_id":"MRI","i_lat":-6.209883,"time":4,"distance":1590,"transit":true,"is_transit":true,"station_name":"Manggarai","i_long":106.84912,"line":0},{"time":2,"distance":1275,"station_name":"Matraman","transit":false,"i_long":106.858896,"line":1,"i_lat":-6.212485,"is_transit":false,"station_id":"MTR"}],[{"i_lat":-6.176583,"line":5,"distance":0,"station_name":"Tangerang","transit":false,"i_long":106.632761,"station_id":"TNG","is_transit":false,"time":0},{"station_name":"Tanah Tinggi","is_transit":false,"station_id":"TTI","i_lat":-6.17331,"transit":false,"time":3,"line":5,"distance":1547,"i_long":106.64657},{"line":0,"i_long":106.665036,"i_lat":-6.171811,"station_id":"BPR","is_transit":false,"station_name":"Batuceper","distance":2028,"transit":false,"time":3},{"is_transit":false,"line":5,"distance":1834,"time":3,"transit":false,"i_long":106.679458,"i_lat":-6.169933,"station_id":"PI","station_name":"Poris"},{"distance":2548,"i_long":106.701612,"is_transit":false,"station_name":"Kalideres","transit":false,"i_lat":-6.166068,"line":5,"time":3,"station_id":"KDS"},{"line":5,"distance":2504,"station_id":"RW","i_lat":-6.162758,"station_name":"Rawa Buaya","transit":false,"i_long":106.723064,"is_transit":false,"time":3},{"distance":1152,"transit":false,"time":4,"i_long":106.737035,"station_name":"Bojongindah","line":0,"i_lat":-6.159876,"is_transit":false,"station_id":"BOI"},{"line":5,"distance":2334,"station_name":"Taman Kota","is_transit":false,"station_id":"TKO","transit":false,"time":2,"i_lat":-6.1587309999999995,"i_long":106.756522},{"is_transit":false,"i_lat":-6.161433,"i_long":106.771379,"line":5,"distance":1614,"transit":false,"station_id":"PSG","time":2,"station_name":"Pesing"},{"station_name":"Grogol","time":2,"i_lat":-6.162021,"transit":false,"is_transit":false,"line":5,"i_long":106.788277,"station_id":"GGL","distance":2036},{"distance":1700,"is_transit":true,"station_id":"DU","time":3,"line":1,"i_lat":-6.155215,"i_long":106.800832,"station_name":"Duri","transit":true},{"i_long":106.811091,"station_name":"Tanah Abang","line":1,"time":8,"is_transit":true,"station_id":"THB","i_lat":-6.185545,"transit":false,"distance":3632},{"transit":false,"is_transit":false,"station_name":"Karet","time":5,"i_long":106.816351,"station_id":"KAT","i_lat":-6.20132,"line":1,"distance":2029},{"i_long":106.819881,"i_lat":-6.201433,"station_id":"SUDB","is_transit":false,"time":1,"line":1,"transit":false,"distance":471,"station_name":"Sudirman Baru"},{"time":1,"distance":280,"station_name":"Sudirman","transit":false,"station_id":"SUD","line":1,"i_long":106.822649,"i_lat":-6.202263,"is_transit":false},{"time":4,"distance":3186,"is_transit":true,"i_lat":-6.209883,"line":0,"station_id":"MRI","i_long":106.84912,"station_name":"Manggarai","transit":true},{"transit":false,"time":4,"is_transit":false,"distance":1590,"i_lat":-6.198556,"line":0,"i_long":106.840169,"station_id":"CKI","station_name":"Cikini"},{"transit":false,"time":3,"i_lat":-6.186295,"line":2,"i_long":106.832183,"station_id":"GDD","distance":1750,"is_transit":false,"station_name":"Gondangdia"},{"distance":2015,"i_lat":-6.166716,"station_name":"Juanda","time":4,"is_transit":false,"line":2,"i_long":106.828284,"station_id":"JUA","transit":false},{"station_name":"Sawah Besar","i_long":106.827103,"line":2,"distance":1149,"transit":false,"time":2,"station_id":"SW","is_transit":false,"i_lat":-6.160725},{"i_long":106.82482,"line":2,"station_name":"Manggabesar","transit":false,"station_id":"MGB","time":2,"distance":906,"is_transit":false,"i_lat":-6.149769},{"i_long":106.820901,"distance":1080,"is_transit":false,"i_lat":-6.141205,"line":7,"station_id":"JAY","station_name":"Jayakarta","time":2,"transit":false},{"i_long":106.812439,"i_lat":-6.137569,"station_id":"JAKK","station_name":"Jakarta Kota","distance":1264,"transit":true,"is_transit":true,"line":0,"time":4},{"time":3,"distance":1364,"station_id":"KPB","station_name":"Kampung Bandan","i_lat":-6.132549,"transit":true,"i_long":106.826365,"line":0,"is_transit":true},{"line":11,"i_long":106.836569,"station_id":"RJW","i_lat":-6.14505,"station_name":"Rajawali","is_transit":false,"time":3,"transit":false,"distance":1444},{"i_lat":-6.161728,"transit":false,"station_id":"KMO","is_transit":false,"station_name":"Kemayoran","time":5,"distance":1901,"i_long":106.839204,"line":11},{"station_id":"PSE","i_lat":-6.174784,"time":4,"is_transit":false,"station_name":"Pasar Senen","distance":1436,"transit":false,"i_long":106.84368,"line":11},{"station_id":"GST","distance":1567,"i_lat":-6.185975,"is_transit":false,"i_long":106.850107,"transit":false,"line":11,"time":8,"station_name":"Gang Sentiong"},{"time":1,"station_id":"KMT","station_name":"Kramat","distance":973,"is_transit":false,"transit":false,"line":11,"i_lat":-6.193792,"i_long":106.855437},{"line":11,"time":2,"station_name":"Pondok Jati","transit":false,"i_lat":-6.209188,"i_long":106.861737,"is_transit":false,"station_id":"POK","distance":1829},{"distance":1236,"transit":true,"time":9,"i_long":106.86807400000001,"line":0,"station_id":"JNG","station_name":"Jatinegara","is_transit":true,"i_lat":-6.215091},{"station_name":"Matraman","i_lat":-6.212485,"i_long":106.858896,"line":1,"transit":false,"time":2,"distance":1377,"is_transit":false,"station_id":"MTR"}]]}