{"data":[[{"station_name":"Tangerang","i_lat":-6.176583,"line":5,"time":0,"station_id":"TNG","is_transit":false,"distance":0,"i_long":106.632761,"transit":false},{"station_name":"Tanah Tinggi","i_lat":-6.17331,"time":3,"i_long":106.64657,"transit":false,"distance":1547,"line":5,"station_id":"TTI","is_transit":false},{"station_id":"BPR","transit":false,"line":5,"i_lat":-6.171811,"distance":2028,"time":3,"station_name":"Batuceper","is_transit":false,"i_long":106.665036},{"station_name":"Poris","is_transit":false,"station_id":"PI","transit":false,"time":3,"i_long":106.679458,"distance":1834,"i_lat":-6.169933,"line":5},{"is_transit":false,"transit":false,"i_lat":-6.166068,"station_name":"Kalideres","time":3,"i_long":106.701612,"line":5,"station_id":"KDS","distance":2548},{"station_id":"RW","i_lat":-6.162758,"i_long":106.723064,"distance":2504,"line":5,"transit":false,"is_transit":false,"time":3,"station_name":"Rawa Buaya"},{"station_name":"Bojongindah","is_transit":false,"time":4,"station_id":"BOI","distance":1152,"line":5,"i_lat":-6.159876,"transit":false,"i_long":106.737035},{"is_transit":false,"i_lat":-6.1587309999999995,"transit":false,"station_id":"TKO","i_long":106.756522,"distance":2334,"time":2,"line":5,"station_name":"Taman Kota"},{"is_transit":false,"i_lat":-6.161433,"i_long":106.771379,"time":2,"line":5,"station_name":"Pesing","transit":false,"distance":1614,"station_id":"PSG"},{"station_name":"Grogol","station_id":"GRG","i_long":106.788277,"is_transit":false,"distance":2036,"i_lat":-6.162021,"line":5,"transit":false,"time":2},{"is_transit":true,"station_name":"Duri","time":3,"distance":1700,"transit":true,"i_long":106.800832,"line":1,"station_id":"DU","i_lat":-6.155215},{"transit":false,"i_long":106.811091,"station_id":"THB","distance":3632,"is_transit":false,"time":8,"station_name":"Tanah Abang","line":1,"i_lat":-6.185545},{"is_transit":false,"transit":false,"station_id":"KAT","i_long":106.816351,"time":5,"distance":2029,"station_name":"Karet","i_lat":-6.20132,"line":1},{"station_id":"SUDB","line":1,"station_name":"Sudirman Baru","i_long":106.819881,"transit":false,"time":1,"distance":471,"i_lat":-6.201433,"is_transit":false},{"station_name":"Sudirman","i_lat":-6.202263,"distance":280,"i_long":106.822649,"transit":false,"line":1,"is_transit":false,"time":1,"station_id":"SUD"},{"i_lat":-6.209883,"station_id":"MRI","station_name":"Manggarai","time":4,"line":2,"is_transit":true,"distance":3186,"transit":true,"i_long":106.84912},{"distance":2610,"line":2,"station_name":"Tebet","time":4,"i_lat":-6.226659,"station_id":"TEB","i_long":106.857948,"is_transit":false,"transit":false},{"i_long":106.856607,"i_lat":-6.242512,"station_name":"Cawang","station_id":"CW","transit":false,"distance":1230,"line":2,"time":2,"is_transit":false},{"line":2,"station_name":"Duren Kalibata","time":3,"is_transit":false,"i_long":106.85449,"distance":1546,"i_lat":-6.255332,"transit":false,"station_id":"DRN"},{"distance":824,"i_long":106.851577,"station_name":"Pasar Minggu Baru","line":2,"is_transit":false,"station_id":"PSMB","time":2,"transit":false,"i_lat":-6.263214},{"is_transit":false,"line":2,"station_id":"PSM","distance":2380,"station_name":"Pasar Minggu","transit":false,"time":2,"i_lat":-6.2842400000000005,"i_long":106.843999}],[{"i_lat":-6.176583,"station_id":"TNG","line":5,"station_name":"Tangerang","transit":false,"time":0,"i_long":106.632761,"is_transit":false,"distance":0},{"distance":1547,"station_name":"Tanah Tinggi","line":5,"is_transit":false,"transit":false,"time":3,"station_id":"TTI","i_lat":-6.17331,"i_long":106.64657},{"i_lat":-6.171811,"i_long":106.665036,"line":5,"station_id":"BPR","time":3,"distance":2028,"station_name":"Batuceper","transit":false,"is_transit":false},{"station_id":"PI","is_transit":false,"distance":1834,"i_lat":-6.169933,"line":5,"station_name":"Poris","time":3,"transit":false,"i_long":106.679458},{"distance":2548,"station_name":"Kalideres","line":5,"i_long":106.701612,"i_lat":-6.166068,"transit":false,"time":3,"is_transit":false,"station_id":"KDS"},{"station_id":"RW","distance":2504,"i_long":106.723064,"transit":false,"line":5,"is_transit":false,"i_lat":-6.162758,"time":3,"station_name":"Rawa Buaya"},{"transit":false,"i_lat":-6.159876,"i_long":106.737035,"time":4,"is_transit":false,"distance":1152,"station_name":"Bojongindah","line":5,"station_id":"BOI"},{"line":5,"transit":false,"i_long":106.756522,"time":2,"station_name":"Taman Kota","station_id":"TKO","is_transit":false,"distance":2334,"i_lat":-6.1587309999999995},{"transit":false,"station_name":"Pesing","i_lat":-6.161433,"is_transit":false,"station_id":"PSG","time":2,"distance":1614,"line":5,"i_long":106.771379},{"i_long":106.788277,"transit":false,"station_id":"GRG","i_lat":-6.162021,"station_name":"Grogol","time":2,"is_transit":false,"distance":2036,"line":5},{"station_name":"Duri","distance":1700,"station_id":"DU","i_lat":-6.155215,"i_long":106.800832,"line":1,"is_transit":true,"time":3,"transit":true},{"i_long":106.79867,"station_id":"AK","station_name":"Angke","line":1,"is_transit":false,"i_lat":-6.144674,"distance":1230,"time":4,"transit":false},{"transit":true,"i_long":106.826365,"i_lat":-6.132549,"station_id":"KPB","time":9,"is_transit":true,"distance":4102,"line":4,"station_name":"Kampung Bandan"},{"station_id":"JAKK","time":3,"transit":true,"distance":1364,"station_name":"Jakarta Kota","is_transit":true,"i_lat":-6.137569,"line":2,"i_long":106.812439},{"transit":false,"station_name":"Jayakarta","station_id":"JAY","time":4,"is_transit":false,"i_long":106.820901,"i_lat":-6.141205,"distance":1264,"line":2},{"station_name":"Manggabesar","transit":false,"is_transit":false,"station_id":"MGB","line":2,"i_lat":-6.149769,"i_long":106.82482,"time":2,"distance":1080},{"transit":false,"time":2,"is_transit":false,"i_long":106.827103,"station_id":"SW","i_lat":-6.160725,"line":2,"station_name":"Sawah Besar","distance":906},{"station_name":"Juanda","is_transit":false,"line":2,"transit":false,"station_id":"JUA","time":2,"distance":1149,"i_lat":-6.166716,"i_long":106.828284},{"station_id":"GDD","transit":false,"station_name":"Gondangdia","is_transit":false,"i_lat":-6.186295,"line":2,"time":4,"distance":2015,"i_long":106.832183},{"i_lat":-6.198556,"time":3,"line":2,"i_long":106.840169,"station_name":"Cikini","distance":1750,"transit":false,"station_id":"CKI","is_transit":false},{"station_id":"MRI","is_transit":false,"i_lat":-6.209883,"i_long":106.84912,"transit":false,"line":2,"station_name":"Manggarai","time":4,"distance":1590},{"distance":2610,"is_transit":false,"i_long":106.857948,"station_id":"TEB","line":2,"time":4,"station_name":"Tebet","transit":false,"i_lat":-6.226659},{"distance":1230,"i_long":106.856607,"i_lat":-6.242512,"time":2,"station_name":"Cawang","is_transit":false,"line":2,"station_id":"CW","transit":false},{"i_lat":-6.255332,"distance":1546,"station_name":"Duren Kalibata","is_transit":false,"i_long":106.85449,"time":3,"station_id":"DRN","line":2,"transit":false},{"line":2,"distance":824,"i_long":106.851577,"is_transit":false,"station_name":"Pasar Minggu Baru","transit":false,"station_id":"PSMB","time":2,"i_lat":-6.263214},{"station_id":"PSM","station_name":"Pasar Minggu","is_transit":false,"time":2,"i_long":106.843999,"line":2,"distance":2380,"transit":false,"i_lat":-6.2842400000000005}],[{"distance":0,"line":5,"i_lat":-6.176583,"i_long":106.632761,"station_name":"Tangerang","transit":false,"station_id":"TNG","time":0,"is_transit":false},{"station_name":"Tanah Tinggi","distance":1547,"i_long":106.64657,"line":5,"is_transit":false,"transit":false,"station_id":"TTI","time":3,"i_lat":-6.17331},{"is_transit":false,"station_name":"Batuceper","distance":2028,"time":3,"transit":false,"i_lat":-6.171811,"station_id":"BPR","line":5,"i_long":106.665036},{"i_lat":-6.169933,"transit":false,"line":5,"station_id":"PI","is_transit":false,"i_long":106.679458,"time":3,"distance":1834,"station_name":"Poris"},{"station_name":"Kalideres","i_lat":-6.166068,"line":5,"transit":false,"is_transit":false,"distance":2548,"station_id":"KDS","i_long":106.701612,"time":3},{"station_name":"Rawa Buaya","time":3,"is_transit":false,"distance":2504,"i_long":106.723064,"line":5,"transit":false,"station_id":"RW","i_lat":-6.162758},{"is_transit":false,"i_long":106.737035,"line":5,"time":4,"i_lat":-6.159876,"distance":1152,"station_id":"BOI","station_name":"Bojongindah","transit":false},{"time":2,"i_lat":-6.1587309999999995,"i_long":106.756522,"line":5,"is_transit":false,"distance":2334,"station_id":"TKO","transit":false,"station_name":"Taman Kota"},{"distance":1614,"station_id":"PSG","is_transit":false,"i_lat":-6.161433,"transit":false,"time":2,"line":5,"station_name":"Pesing","i_long":106.771379},{"transit":false,"time":2,"station_id":"GRG","is_transit":false,"distance":2036,"line":5,"i_lat":-6.162021,"station_name":"Grogol","i_long":106.788277},{"i_lat":-6.155215,"station_name":"Duri","time":3,"is_transit":true,"station_id":"DU","i_long":106.800832,"distance":1700,"line":1,"transit":true},{"line":1,"i_lat":-6.144674,"distance":1230,"station_name":"Angke","is_transit":false,"transit":false,"station_id":"AK","i_long":106.79867,"time":4},{"is_transit":true,"i_long":106.826365,"distance":4102,"station_name":"Kampung Bandan","line":4,"i_lat":-6.132549,"transit":true,"station_id":"KPB","time":9},{"time":3,"i_lat":-6.14505,"i_long":106.836569,"station_name":"Rajawali","is_transit":false,"station_id":"RJW","distance":1444,"line":11,"transit":false},{"time":5,"station_name":"Kemayoran","station_id":"KMO","distance":1901,"i_long":106.839204,"transit":false,"is_transit":false,"i_lat":-6.161728,"line":11},{"station_name":"Pasar Senen","transit":false,"is_transit":false,"distance":1436,"time":4,"line":11,"station_id":"PSE","i_long":106.84368,"i_lat":-6.174784},{"station_name":"Gang Sentiong","i_lat":-6.185975,"transit":false,"time":8,"distance":1567,"station_id":"GST","i_long":106.850107,"line":11,"is_transit":false},{"i_lat":-6.193792,"transit":false,"station_id":"KMT","station_name":"Kramat","i_long":106.855437,"distance":973,"time":1,"line":11,"is_transit":false},{"station_id":"POK","station_name":"Pondok Jati","distance":1829,"transit":false,"time":2,"is_transit":false,"i_long":106.861737,"i_lat":-6.209188,"line":11},{"station_name":"Jatinegara","is_transit":true,"i_lat":-6.215091,"i_long":106.86807400000001,"line":1,"time":9,"station_id":"JNG","transit":true,"distance":1236},{"station_name":"Matraman","distance":1377,"i_long":106.858896,"station_id":"MTR","i_lat":-6.212485,"transit":false,"is_transit":false,"time":2,"line":1},{"transit":true,"i_lat":-6.209883,"distance":1275,"station_name":"Manggarai","time":2,"is_transit":true,"i_long":106.84912,"station_id":"MRI","line":2},{"transit":false,"i_long":106.857948,"station_name":"Tebet","line":2,"is_transit":false,"i_lat":-6.226659,"time":4,"station_id":"TEB","distance":2610},{"line":2,"i_lat":-6.242512,"i_long":106.856607,"station_name":"Cawang","time":2,"distance":1230,"transit":false,"is_transit":false,"station_id":"CW"},{"transit":false,"station_name":"Duren Kalibata","line":2,"is_transit":false,"station_id":"DRN","time":3,"distance":1546,"i_lat":-6.255332,"i_long":106.85449},{"station_name":"Pasar Minggu Baru","station_id":"PSMB","distance":824,"i_lat":-6.263214,"transit":false,"line":2,"i_long":106.851577,"time":2,"is_transit":false},{"is_transit":false,"station_name":"Pasar Minggu","distance":2380,"line":2,"i_long":106.843999,"time":2,"transit":false,"station_id":"PSM","i_lat":-6.2842400000000005}]]}