{"data":[[{"i_lat":-6.176583,"i_long":106.632761,"transit":false,"station_name":"Tangerang","time":0,"distance":0,"station_id":"TNG","line":5,"is_transit":false},{"is_transit":false,"i_lat":-6.17331,"station_name":"Tanah Tinggi","station_id":"THI","time":3,"distance":1547,"i_long":106.64657,"line":5,"transit":false},{"i_lat":-6.171811,"transit":false,"station_id":"BPR","is_transit":false,"i_long":106.665036,"line":5,"station_name":"Batuceper","time":3,"distance":2028},{"station_id":"PI","i_long":106.679458,"station_name":"Poris","time":3,"i_lat":-6.169933,"line":5,"transit":false,"distance":1834,"is_transit":false},{"distance":2548,"i_long":106.701612,"line":5,"time":3,"station_id":"KDS","is_transit":false,"station_name":"Kalideres","i_lat":-6.166068,"transit":false},{"is_transit":false,"distance":2504,"transit":false,"line":5,"time":3,"i_long":106.723064,"i_lat":-6.162758,"station_id":"RW","station_name":"Rawa Buaya"},{"line":5,"is_transit":false,"i_lat":-6.159876,"time":4,"transit":false,"station_name":"Bojongindah","station_id":"BOI","distance":1152,"i_long":106.737035},{"transit":false,"i_long":106.756522,"station_id":"TKO","line":5,"is_transit":false,"distance":2334,"station_name":"Taman Kota","time":2,"i_lat":-6.1587309999999995},{"station_id":"PSG","time":2,"is_transit":false,"distance":1614,"transit":false,"i_lat":-6.161433,"station_name":"Pesing","i_long":106.771379,"line":5},{"transit":false,"station_id":"GRG","time":2,"i_lat":-6.162021,"is_transit":false,"station_name":"Grogol","distance":2036,"line":5,"i_long":106.788277},{"time":3,"transit":true,"station_name":"Duri","distance":1700,"i_lat":-6.155215,"station_id":"DU","is_transit":true,"line":1,"i_long":106.800832},{"i_lat":-6.185545,"line":1,"transit":false,"station_id":"THB","station_name":"Tanah Abang","i_long":106.811091,"is_transit":false,"time":8,"distance":3632},{"i_lat":-6.20132,"transit":false,"is_transit":false,"time":5,"distance":2029,"line":1,"station_name":"Karet","i_long":106.816351,"station_id":"KAT"},{"transit":false,"line":1,"distance":471,"station_id":"SUDB","is_transit":false,"station_name":"Sudirman Baru","time":1,"i_lat":-6.201433,"i_long":106.819881},{"transit":false,"station_name":"Sudirman","is_transit":false,"i_long":106.822649,"i_lat":-6.202263,"station_id":"SUD","time":1,"distance":280,"line":1},{"transit":false,"distance":3186,"time":4,"station_id":"MRI","station_name":"Manggarai","i_long":106.84912,"line":2,"is_transit":false,"i_lat":-6.209883},{"station_id":"MTR","i_long":106.858896,"line":1,"time":2,"station_name":"Matraman","is_transit":false,"i_lat":-6.212485,"distance":1275,"transit":false},{"is_transit":false,"time":8,"station_id":"JNG","i_long":106.86807400000001,"station_name":"Jatinegara","i_lat":-6.215091,"distance":1377,"transit":false,"line":1}],[{"i_lat":-6.176583,"station_id":"TNG","line":5,"time":0,"i_long":106.632761,"station_name":"Tangerang","is_transit":false,"transit":false,"distance":0},{"is_transit":false,"time":3,"transit":false,"line":5,"station_id":"THI","i_lat":-6.17331,"station_name":"Tanah Tinggi","i_long":106.64657,"distance":1547},{"transit":false,"i_lat":-6.171811,"line":5,"distance":2028,"station_id":"BPR","time":3,"i_long":106.665036,"station_name":"Batuceper","is_transit":false},{"is_transit":false,"transit":false,"station_id":"PI","distance":1834,"i_long":106.679458,"i_lat":-6.169933,"line":5,"time":3,"station_name":"Poris"},{"is_transit":false,"station_id":"KDS","transit":false,"line":5,"time":3,"station_name":"Kalideres","i_long":106.701612,"distance":2548,"i_lat":-6.166068},{"distance":2504,"station_id":"RW","time":3,"transit":false,"is_transit":false,"station_name":"Rawa Buaya","line":5,"i_long":106.723064,"i_lat":-6.162758},{"line":5,"distance":1152,"is_transit":false,"time":4,"i_long":106.737035,"station_name":"Bojongindah","station_id":"BOI","transit":false,"i_lat":-6.159876},{"line":5,"distance":2334,"is_transit":false,"transit":false,"i_long":106.756522,"station_id":"TKO","i_lat":-6.1587309999999995,"time":2,"station_name":"Taman Kota"},{"line":5,"transit":false,"station_id":"PSG","distance":1614,"i_lat":-6.161433,"is_transit":false,"time":2,"i_long":106.771379,"station_name":"Pesing"},{"distance":2036,"station_name":"Grogol","station_id":"GRG","is_transit":false,"line":5,"transit":false,"i_long":106.788277,"i_lat":-6.162021,"time":2},{"station_name":"Duri","i_long":106.800832,"distance":1700,"transit":true,"line":1,"time":3,"is_transit":true,"station_id":"DU","i_lat":-6.155215},{"time":4,"i_lat":-6.144674,"transit":false,"is_transit":false,"station_id":"AK","line":1,"distance":1230,"i_long":106.79867,"station_name":"Angke"},{"distance":4102,"i_lat":-6.132549,"time":9,"line":4,"is_transit":true,"station_name":"Kampung Bandan","transit":true,"i_long":106.826365,"station_id":"KPB"},{"i_long":106.836569,"line":11,"distance":1444,"i_lat":-6.14505,"is_transit":false,"time":3,"station_id":"RJW","station_name":"Rajawali","transit":false},{"transit":false,"time":5,"line":11,"i_long":106.839204,"i_lat":-6.161728,"distance":1901,"station_name":"Kemayoran","station_id":"KMO","is_transit":false},{"line":11,"distance":1436,"i_lat":-6.174784,"i_long":106.84368,"is_transit":false,"time":4,"station_name":"Pasar Senen","transit":false,"station_id":"PSE"},{"time":8,"station_id":"GST","distance":1567,"station_name":"Gang Sentiong","transit":false,"i_lat":-6.185975,"i_long":106.850107,"is_transit":false,"line":11},{"is_transit":false,"station_id":"KMT","distance":973,"time":1,"i_long":106.855437,"line":11,"station_name":"Kramat","transit":false,"i_lat":-6.193792},{"transit":false,"i_lat":-6.209188,"line":11,"time":2,"is_transit":false,"distance":1829,"station_name":"Pondok Jati","i_long":106.861737,"station_id":"POK"},{"time":9,"is_transit":false,"i_lat":-6.215091,"station_name":"Jatinegara","line":1,"transit":false,"station_id":"JNG","i_long":106.86807400000001,"distance":1236}],[{"time":0,"station_name":"Tangerang","station_id":"TNG","distance":0,"line":5,"is_transit":false,"transit":false,"i_long":106.632761,"i_lat":-6.176583},{"i_lat":-6.17331,"station_id":"THI","i_long":106.64657,"distance":1547,"station_name":"Tanah Tinggi","is_transit":false,"line":5,"time":3,"transit":false},{"station_id":"BPR","station_name":"Batuceper","distance":2028,"transit":false,"i_lat":-6.171811,"time":3,"i_long":106.665036,"is_transit":false,"line":5},{"transit":false,"time":3,"i_long":106.679458,"distance":1834,"i_lat":-6.169933,"line":5,"station_name":"Poris","station_id":"PI","is_transit":false},{"time":3,"line":5,"is_transit":false,"i_long":106.701612,"station_name":"Kalideres","station_id":"KDS","i_lat":-6.166068,"distance":2548,"transit":false},{"transit":false,"is_transit":false,"station_id":"RW","i_lat":-6.162758,"i_long":106.723064,"line":5,"distance":2504,"time":3,"station_name":"Rawa Buaya"},{"line":5,"station_name":"Bojongindah","distance":1152,"transit":false,"station_id":"BOI","i_long":106.737035,"is_transit":false,"time":4,"i_lat":-6.159876},{"is_transit":false,"station_id":"TKO","transit":false,"i_lat":-6.1587309999999995,"distance":2334,"time":2,"i_long":106.756522,"line":5,"station_name":"Taman Kota"},{"time":2,"i_lat":-6.161433,"i_long":106.771379,"station_name":"Pesing","station_id":"PSG","distance":1614,"is_transit":false,"transit":false,"line":5},{"transit":false,"distance":2036,"station_id":"GRG","i_lat":-6.162021,"time":2,"station_name":"Grogol","is_transit":false,"line":5,"i_long":106.788277},{"station_name":"Duri","line":1,"time":3,"is_transit":true,"distance":1700,"transit":true,"station_id":"DU","i_lat":-6.155215,"i_long":106.800832},{"i_lat":-6.144674,"i_long":106.79867,"station_id":"AK","transit":false,"line":1,"is_transit":false,"time":4,"station_name":"Angke","distance":1230},{"station_id":"KPB","i_lat":-6.132549,"is_transit":true,"i_long":106.826365,"line":4,"distance":4102,"station_name":"Kampung Bandan","time":9,"transit":true},{"transit":true,"distance":1364,"i_lat":-6.137569,"time":3,"is_transit":true,"station_name":"Jakarta Kota","i_long":106.812439,"station_id":"JAKK","line":2},{"i_lat":-6.141205,"station_name":"Jayakarta","distance":1264,"transit":false,"is_transit":false,"time":4,"station_id":"JAY","i_long":106.820901,"line":2},{"is_transit":false,"distance":1080,"transit":false,"i_long":106.82482,"time":2,"station_id":"MGB","i_lat":-6.149769,"station_name":"Manggabesar","line":2},{"i_lat":-6.160725,"distance":906,"is_transit":false,"time":2,"transit":false,"line":2,"station_id":"SW","i_long":106.827103,"station_name":"Sawah Besar"},{"station_name":"Juanda","distance":1149,"transit":false,"i_lat":-6.166716,"i_long":106.828284,"is_transit":false,"time":2,"line":2,"station_id":"JUA"},{"time":4,"station_name":"Gondangdia","distance":2015,"transit":false,"i_lat":-6.186295,"is_transit":false,"station_id":"GDD","i_long":106.832183,"line":2},{"i_lat":-6.198556,"time":3,"is_transit":false,"i_long":106.840169,"line":2,"station_name":"Cikini","distance":1750,"station_id":"CKI","transit":false},{"line":2,"station_name":"Manggarai","transit":true,"i_long":106.84912,"i_lat":-6.209883,"distance":1590,"is_transit":true,"time":4,"station_id":"MRI"},{"distance":1275,"i_long":106.858896,"time":2,"line":1,"is_transit":false,"station_name":"Matraman","transit":false,"station_id":"MTR","i_lat":-6.212485},{"station_id":"JNG","station_name":"Jatinegara","line":1,"is_transit":false,"time":8,"i_lat":-6.215091,"i_long":106.86807400000001,"distance":1377,"transit":false}],[{"transit":false,"distance":0,"time":0,"i_lat":-6.176583,"i_long":106.632761,"station_name":"Tangerang","station_id":"TNG","is_transit":false,"line":5},{"i_lat":-6.17331,"is_transit":false,"i_long":106.64657,"line":5,"time":3,"station_name":"Tanah Tinggi","distance":1547,"transit":false,"station_id":"THI"},{"station_name":"Batuceper","is_transit":false,"i_long":106.665036,"i_lat":-6.171811,"transit":false,"station_id":"BPR","distance":2028,"time":3,"line":5},{"line":5,"distance":1834,"station_id":"PI","i_lat":-6.169933,"i_long":106.679458,"transit":false,"station_name":"Poris","time":3,"is_transit":false},{"station_id":"KDS","i_long":106.701612,"distance":2548,"station_name":"Kalideres","transit":false,"i_lat":-6.166068,"line":5,"is_transit":false,"time":3},{"transit":false,"distance":2504,"station_name":"Rawa Buaya","is_transit":false,"i_lat":-6.162758,"i_long":106.723064,"line":5,"time":3,"station_id":"RW"},{"station_id":"BOI","time":4,"line":5,"i_long":106.737035,"distance":1152,"is_transit":false,"station_name":"Bojongindah","transit":false,"i_lat":-6.159876},{"station_id":"TKO","line":5,"i_long":106.756522,"i_lat":-6.1587309999999995,"station_name":"Taman Kota","time":2,"transit":false,"is_transit":false,"distance":2334},{"distance":1614,"is_transit":false,"i_long":106.771379,"time":2,"station_name":"Pesing","transit":false,"station_id":"PSG","i_lat":-6.161433,"line":5},{"station_id":"GRG","i_lat":-6.162021,"station_name":"Grogol","line":5,"is_transit":false,"i_long":106.788277,"distance":2036,"time":2,"transit":false},{"time":3,"is_transit":true,"i_lat":-6.155215,"station_name":"Duri","transit":true,"station_id":"DU","distance":1700,"i_long":106.800832,"line":1},{"i_lat":-6.185545,"is_transit":false,"time":8,"i_long":106.811091,"station_id":"THB","transit":false,"distance":3632,"line":1,"station_name":"Tanah Abang"},{"distance":2029,"line":1,"i_lat":-6.20132,"time":5,"station_name":"Karet","station_id":"KAT","i_long":106.816351,"is_transit":false,"transit":false},{"line":1,"station_id":"SUDB","is_transit":false,"station_name":"Sudirman Baru","time":1,"distance":471,"transit":false,"i_long":106.819881,"i_lat":-6.201433},{"time":1,"i_long":106.822649,"station_id":"SUD","i_lat":-6.202263,"is_transit":false,"transit":false,"line":1,"distance":280,"station_name":"Sudirman"},{"i_lat":-6.209883,"distance":3186,"time":4,"line":2,"station_name":"Manggarai","transit":true,"is_transit":true,"station_id":"MRI","i_long":106.84912},{"transit":false,"line":2,"i_long":106.840169,"is_transit":false,"distance":1590,"time":4,"station_id":"CKI","i_lat":-6.198556,"station_name":"Cikini"},{"station_name":"Gondangdia","time":3,"distance":1750,"station_id":"GDD","i_lat":-6.186295,"is_transit":false,"i_long":106.832183,"line":2,"transit":false},{"line":2,"time":4,"station_name":"Juanda","i_long":106.828284,"is_transit":false,"distance":2015,"i_lat":-6.166716,"transit":false,"station_id":"JUA"},{"is_transit":false,"time":2,"station_id":"SW","station_name":"Sawah Besar","i_lat":-6.160725,"i_long":106.827103,"transit":false,"line":2,"distance":1149},{"station_id":"MGB","is_transit":false,"transit":false,"i_lat":-6.149769,"distance":906,"station_name":"Manggabesar","i_long":106.82482,"time":2,"line":2},{"i_long":106.820901,"time":2,"station_name":"Jayakarta","station_id":"JAY","distance":1080,"line":2,"transit":false,"is_transit":false,"i_lat":-6.141205},{"time":4,"station_name":"Jakarta Kota","transit":true,"station_id":"JAKK","line":2,"distance":1264,"is_transit":true,"i_lat":-6.137569,"i_long":106.812439},{"station_name":"Kampung Bandan","transit":true,"distance":1364,"is_transit":true,"time":3,"line":4,"station_id":"KPB","i_long":106.826365,"i_lat":-6.132549},{"station_name":"Rajawali","i_lat":-6.14505,"distance":1444,"time":3,"transit":false,"station_id":"RJW","i_long":106.836569,"line":11,"is_transit":false},{"line":11,"i_lat":-6.161728,"transit":false,"is_transit":false,"time":5,"distance":1901,"i_long":106.839204,"station_name":"Kemayoran","station_id":"KMO"},{"is_transit":false,"station_id":"PSE","i_lat":-6.174784,"transit":false,"time":4,"i_long":106.84368,"line":11,"station_name":"Pasar Senen","distance":1436},{"i_long":106.850107,"line":11,"station_name":"Gang Sentiong","time":8,"transit":false,"i_lat":-6.185975,"station_id":"GST","is_transit":false,"distance":1567},{"i_lat":-6.193792,"line":11,"time":1,"is_transit":false,"i_long":106.855437,"station_name":"Kramat","transit":false,"station_id":"KMT","distance":973},{"station_id":"POK","i_lat":-6.209188,"transit":false,"i_long":106.861737,"is_transit":false,"line":11,"time":2,"distance":1829,"station_name":"Pondok Jati"},{"station_name":"Jatinegara","line":1,"time":9,"i_long":106.86807400000001,"transit":false,"station_id":"JNG","distance":1236,"i_lat":-6.215091,"is_transit":false}]]}