{"data":[[{"station_name":"Tanjung Barat","distance":0,"i_long":106.838896,"line":2,"time":0,"station_id":"TNT","is_transit":false,"i_lat":-6.3080680000000005,"transit":false},{"i_lat":-6.2842400000000005,"station_id":"PSM","is_transit":false,"station_name":"Pasar Minggu","transit":false,"time":4,"line":2,"distance":2820,"i_long":106.843999},{"i_long":106.851577,"transit":false,"time":2,"distance":2380,"station_id":"PSMB","i_lat":-6.263214,"line":2,"is_transit":false,"station_name":"Pasar Minggu Baru"},{"distance":824,"time":2,"station_id":"DRN","line":0,"transit":false,"is_transit":false,"station_name":"Duren Kalibata","i_lat":-6.255332,"i_long":106.85449},{"i_lat":-6.242512,"i_long":106.856607,"station_id":"CW","station_name":"Cawang","transit":false,"distance":1546,"time":3,"line":0,"is_transit":false},{"is_transit":false,"station_name":"Tebet","transit":false,"station_id":"TEB","distance":1230,"time":2,"i_lat":-6.226659,"i_long":106.857948,"line":2},{"distance":2610,"transit":true,"i_lat":-6.209883,"line":0,"time":4,"is_transit":true,"station_id":"MRI","station_name":"Manggarai","i_long":106.84912},{"station_id":"SUD","transit":false,"i_long":106.822649,"distance":3186,"station_name":"Sudirman","line":1,"is_transit":false,"time":4,"i_lat":-6.202263},{"i_long":106.819881,"is_transit":false,"station_id":"SUDB","distance":280,"station_name":"Sudirman Baru","i_lat":-6.201433,"time":1,"line":1,"transit":false},{"distance":471,"station_name":"Karet","i_lat":-6.20132,"is_transit":false,"i_long":106.816351,"transit":false,"station_id":"KAT","time":1,"line":1},{"station_name":"Tanah Abang","line":1,"is_transit":true,"station_id":"THB","time":5,"transit":false,"i_lat":-6.185545,"i_long":106.811091,"distance":2029},{"transit":true,"distance":3632,"i_lat":-6.155215,"time":8,"i_long":106.800832,"line":1,"is_transit":true,"station_name":"Duri","station_id":"DU"},{"i_long":106.788277,"transit":false,"distance":1700,"station_name":"Grogol","is_transit":false,"time":3,"station_id":"GGL","line":5,"i_lat":-6.162021},{"transit":false,"i_lat":-6.161433,"station_name":"Pesing","station_id":"PSG","is_transit":false,"time":2,"distance":2036,"i_long":106.771379,"line":5},{"distance":1614,"is_transit":false,"station_name":"Taman Kota","time":2,"i_lat":-6.1587309999999995,"transit":false,"i_long":106.756522,"line":5,"station_id":"TKO"}],[{"station_name":"Tanjung Barat","i_lat":-6.3080680000000005,"i_long":106.838896,"transit":false,"distance":0,"station_id":"TNT","time":0,"is_transit":false,"line":2},{"is_transit":false,"i_lat":-6.2842400000000005,"transit":false,"station_id":"PSM","line":2,"distance":2820,"station_name":"Pasar Minggu","time":4,"i_long":106.843999},{"i_lat":-6.263214,"is_transit":false,"i_long":106.851577,"line":2,"distance":2380,"station_id":"PSMB","station_name":"Pasar Minggu Baru","time":2,"transit":false},{"i_lat":-6.255332,"line":0,"station_id":"DRN","station_name":"Duren Kalibata","time":2,"i_long":106.85449,"is_transit":false,"distance":824,"transit":false},{"transit":false,"line":0,"i_long":106.856607,"time":3,"i_lat":-6.242512,"station_name":"Cawang","distance":1546,"station_id":"CW","is_transit":false},{"transit":false,"line":2,"station_id":"TEB","is_transit":false,"station_name":"Tebet","i_lat":-6.226659,"time":2,"distance":1230,"i_long":106.857948},{"station_id":"MRI","line":0,"i_lat":-6.209883,"distance":2610,"time":4,"transit":true,"station_name":"Manggarai","i_long":106.84912,"is_transit":true},{"i_lat":-6.198556,"station_name":"Cikini","is_transit":false,"time":4,"line":0,"transit":false,"i_long":106.840169,"distance":1590,"station_id":"CKI"},{"line":2,"i_long":106.832183,"station_id":"GDD","distance":1750,"time":3,"i_lat":-6.186295,"station_name":"Gondangdia","is_transit":false,"transit":false},{"is_transit":false,"station_id":"JUA","station_name":"Juanda","time":4,"i_lat":-6.166716,"i_long":106.828284,"line":2,"transit":false,"distance":2015},{"is_transit":false,"distance":1149,"station_name":"Sawah Besar","station_id":"SW","time":2,"i_long":106.827103,"i_lat":-6.160725,"transit":false,"line":2},{"distance":906,"time":2,"i_long":106.82482,"station_id":"MGB","i_lat":-6.149769,"line":2,"transit":false,"station_name":"Manggabesar","is_transit":false},{"is_transit":false,"distance":1080,"transit":false,"station_name":"Jayakarta","time":2,"i_long":106.820901,"line":7,"i_lat":-6.141205,"station_id":"JAY"},{"i_lat":-6.137569,"i_long":106.812439,"station_id":"JAKK","time":4,"distance":1264,"is_transit":true,"transit":true,"line":0,"station_name":"Jakarta Kota"},{"station_id":"KPB","line":0,"time":3,"i_long":106.826365,"is_transit":true,"transit":false,"distance":1364,"i_lat":-6.132549,"station_name":"Kampung Bandan"},{"is_transit":false,"transit":false,"i_lat":-6.144674,"time":9,"station_id":"AK","line":0,"i_long":106.79867,"distance":4102,"station_name":"Angke"},{"i_lat":-6.155215,"transit":true,"time":4,"distance":1230,"station_name":"Duri","i_long":106.800832,"is_transit":true,"station_id":"DU","line":1},{"distance":1700,"station_name":"Grogol","i_lat":-6.162021,"i_long":106.788277,"is_transit":false,"time":3,"station_id":"GGL","transit":false,"line":5},{"is_transit":false,"station_id":"PSG","i_lat":-6.161433,"transit":false,"distance":2036,"time":2,"station_name":"Pesing","i_long":106.771379,"line":5},{"station_name":"Taman Kota","i_long":106.756522,"time":2,"line":5,"i_lat":-6.1587309999999995,"distance":1614,"transit":false,"station_id":"TKO","is_transit":false}],[{"transit":false,"station_name":"Tanjung Barat","is_transit":false,"time":0,"i_long":106.838896,"i_lat":-6.3080680000000005,"line":2,"distance":0,"station_id":"TNT"},{"line":2,"transit":false,"station_id":"PSM","i_long":106.843999,"time":4,"distance":2820,"station_name":"Pasar Minggu","is_transit":false,"i_lat":-6.2842400000000005},{"transit":false,"time":2,"distance":2380,"station_id":"PSMB","station_name":"Pasar Minggu Baru","i_lat":-6.263214,"line":2,"is_transit":false,"i_long":106.851577},{"i_lat":-6.255332,"transit":false,"is_transit":false,"time":2,"i_long":106.85449,"station_name":"Duren Kalibata","station_id":"DRN","line":0,"distance":824},{"transit":false,"station_name":"Cawang","line":0,"is_transit":false,"i_long":106.856607,"distance":1546,"station_id":"CW","time":3,"i_lat":-6.242512},{"line":2,"distance":1230,"station_name":"Tebet","transit":false,"is_transit":false,"station_id":"TEB","i_long":106.857948,"i_lat":-6.226659,"time":2},{"i_lat":-6.209883,"i_long":106.84912,"line":0,"station_id":"MRI","distance":2610,"time":4,"station_name":"Manggarai","transit":true,"is_transit":true},{"is_transit":false,"station_id":"MTR","i_long":106.858896,"line":1,"i_lat":-6.212485,"station_name":"Matraman","time":2,"transit":false,"distance":1275},{"line":0,"distance":1377,"is_transit":true,"i_lat":-6.215091,"transit":true,"station_name":"Jatinegara","i_long":106.86807400000001,"time":8,"station_id":"JNG"},{"is_transit":false,"line":11,"transit":false,"distance":1236,"station_id":"POK","time":2,"i_lat":-6.209188,"station_name":"Pondok Jati","i_long":106.861737},{"distance":1829,"time":2,"i_lat":-6.193792,"station_id":"KMT","i_long":106.855437,"transit":false,"line":11,"is_transit":false,"station_name":"Kramat"},{"station_name":"Gang Sentiong","station_id":"GST","distance":973,"is_transit":false,"i_lat":-6.185975,"transit":false,"line":11,"i_long":106.850107,"time":1},{"time":8,"station_id":"PSE","station_name":"Pasar Senen","distance":1567,"transit":false,"i_long":106.84368,"is_transit":false,"line":11,"i_lat":-6.174784},{"station_id":"KMO","transit":false,"time":4,"i_lat":-6.161728,"line":11,"is_transit":false,"station_name":"Kemayoran","i_long":106.839204,"distance":1436},{"distance":1901,"station_id":"RJW","i_lat":-6.14505,"is_transit":false,"station_name":"Rajawali","line":11,"time":5,"transit":false,"i_long":106.836569},{"station_name":"Kampung Bandan","i_long":106.826365,"station_id":"KPB","distance":1444,"is_transit":true,"time":3,"line":0,"transit":true,"i_lat":-6.132549},{"line":0,"station_name":"Angke","i_lat":-6.144674,"distance":4102,"time":9,"i_long":106.79867,"transit":false,"is_transit":false,"station_id":"AK"},{"station_id":"DU","is_transit":true,"line":1,"i_long":106.800832,"time":4,"station_name":"Duri","i_lat":-6.155215,"transit":true,"distance":1230},{"station_id":"GGL","station_name":"Grogol","i_long":106.788277,"distance":1700,"is_transit":false,"time":3,"transit":false,"i_lat":-6.162021,"line":5},{"is_transit":false,"time":2,"i_long":106.771379,"i_lat":-6.161433,"station_name":"Pesing","transit":false,"station_id":"PSG","line":5,"distance":2036},{"station_id":"TKO","line":5,"i_lat":-6.1587309999999995,"transit":false,"is_transit":false,"time":2,"i_long":106.756522,"station_name":"Taman Kota","distance":1614}]]}