{"data":[[{"line":2,"station_id":"TNT","distance":0,"transit":false,"is_transit":false,"time":0,"i_lat":-6.3080680000000005,"station_name":"Tanjung Barat","i_long":106.838896},{"time":4,"station_name":"Pasar Minggu","station_id":"PSM","is_transit":false,"transit":false,"distance":2820,"i_lat":-6.2842400000000005,"line":2,"i_long":106.843999},{"station_name":"Pasar Minggu Baru","distance":2380,"station_id":"PSMB","i_lat":-6.263214,"line":2,"i_long":106.851577,"transit":false,"is_transit":false,"time":2},{"time":2,"i_long":106.85449,"distance":824,"station_id":"DRN","i_lat":-6.255332,"transit":false,"line":0,"station_name":"Duren Kalibata","is_transit":false},{"time":3,"i_lat":-6.242512,"station_name":"Cawang","station_id":"CW","is_transit":false,"distance":1546,"transit":false,"i_long":106.856607,"line":0},{"i_lat":-6.226659,"line":2,"distance":1230,"is_transit":false,"time":2,"i_long":106.857948,"station_name":"Tebet","transit":false,"station_id":"TEB"},{"is_transit":true,"i_lat":-6.209883,"line":0,"distance":2610,"i_long":106.84912,"station_name":"Manggarai","time":4,"transit":true,"station_id":"MRI"},{"station_name":"Cikini","station_id":"CKI","is_transit":false,"transit":false,"line":0,"time":4,"i_lat":-6.198556,"distance":1590,"i_long":106.840169}],[{"i_lat":-6.3080680000000005,"distance":0,"station_name":"Tanjung Barat","time":0,"transit":false,"line":2,"station_id":"TNT","i_long":106.838896,"is_transit":false},{"station_name":"Pasar Minggu","time":4,"station_id":"PSM","transit":false,"i_lat":-6.2842400000000005,"is_transit":false,"distance":2820,"i_long":106.843999,"line":2},{"time":2,"station_id":"PSMB","i_long":106.851577,"distance":2380,"is_transit":false,"transit":false,"station_name":"Pasar Minggu Baru","i_lat":-6.263214,"line":2},{"station_name":"Duren Kalibata","station_id":"DRN","distance":824,"transit":false,"line":0,"is_transit":false,"time":2,"i_lat":-6.255332,"i_long":106.85449},{"station_id":"CW","i_long":106.856607,"distance":1546,"transit":false,"line":0,"station_name":"Cawang","is_transit":false,"time":3,"i_lat":-6.242512},{"station_name":"Tebet","i_long":106.857948,"station_id":"TEB","line":2,"time":2,"distance":1230,"is_transit":false,"i_lat":-6.226659,"transit":false},{"i_long":106.84912,"line":0,"station_id":"MRI","station_name":"Manggarai","time":4,"i_lat":-6.209883,"is_transit":true,"transit":true,"distance":2610},{"station_name":"Sudirman","distance":3186,"station_id":"SUD","transit":false,"i_lat":-6.202263,"time":4,"line":1,"is_transit":false,"i_long":106.822649},{"station_id":"SUDB","line":1,"distance":280,"is_transit":false,"station_name":"Sudirman Baru","transit":false,"time":1,"i_lat":-6.201433,"i_long":106.819881},{"line":1,"station_name":"Karet","i_lat":-6.20132,"transit":false,"station_id":"KAT","distance":471,"is_transit":false,"time":1,"i_long":106.816351},{"station_id":"THB","transit":false,"i_lat":-6.185545,"distance":2029,"line":1,"i_long":106.811091,"is_transit":true,"time":5,"station_name":"Tanah Abang"},{"distance":3632,"station_name":"Duri","i_long":106.800832,"line":1,"time":8,"transit":true,"is_transit":true,"station_id":"DU","i_lat":-6.155215},{"line":0,"transit":false,"time":4,"i_lat":-6.144674,"is_transit":false,"station_id":"AK","distance":1230,"i_long":106.79867,"station_name":"Angke"},{"transit":false,"i_long":106.826365,"line":0,"is_transit":true,"distance":4102,"station_name":"Kampung Bandan","station_id":"KPB","time":9,"i_lat":-6.132549},{"time":3,"i_long":106.812439,"line":0,"distance":1364,"station_name":"Jakarta Kota","transit":true,"station_id":"JAKK","is_transit":true,"i_lat":-6.137569},{"station_name":"Jayakarta","station_id":"JAY","line":7,"distance":1264,"is_transit":false,"time":4,"i_lat":-6.141205,"i_long":106.820901,"transit":false},{"transit":false,"line":2,"time":2,"distance":1080,"is_transit":false,"station_name":"Manggabesar","station_id":"MGB","i_lat":-6.149769,"i_long":106.82482},{"time":2,"i_lat":-6.160725,"transit":false,"line":2,"distance":906,"is_transit":false,"i_long":106.827103,"station_name":"Sawah Besar","station_id":"SW"},{"is_transit":false,"line":2,"time":2,"i_long":106.828284,"distance":1149,"station_id":"JUA","station_name":"Juanda","transit":false,"i_lat":-6.166716},{"is_transit":false,"transit":false,"time":4,"station_id":"GDD","station_name":"Gondangdia","i_lat":-6.186295,"distance":2015,"i_long":106.832183,"line":2},{"station_name":"Cikini","station_id":"CKI","distance":1750,"i_lat":-6.198556,"is_transit":false,"transit":false,"line":0,"i_long":106.840169,"time":3}],[{"i_lat":-6.3080680000000005,"transit":false,"line":2,"time":0,"is_transit":false,"station_id":"TNT","station_name":"Tanjung Barat","i_long":106.838896,"distance":0},{"station_name":"Pasar Minggu","time":4,"station_id":"PSM","distance":2820,"line":2,"transit":false,"i_lat":-6.2842400000000005,"i_long":106.843999,"is_transit":false},{"i_long":106.851577,"time":2,"distance":2380,"is_transit":false,"line":2,"transit":false,"station_id":"PSMB","i_lat":-6.263214,"station_name":"Pasar Minggu Baru"},{"line":0,"time":2,"i_long":106.85449,"is_transit":false,"station_id":"DRN","distance":824,"i_lat":-6.255332,"station_name":"Duren Kalibata","transit":false},{"i_long":106.856607,"station_id":"CW","station_name":"Cawang","transit":false,"distance":1546,"i_lat":-6.242512,"is_transit":false,"line":0,"time":3},{"station_id":"TEB","transit":false,"is_transit":false,"station_name":"Tebet","line":2,"distance":1230,"time":2,"i_lat":-6.226659,"i_long":106.857948},{"station_name":"Manggarai","i_long":106.84912,"time":4,"line":0,"distance":2610,"station_id":"MRI","is_transit":true,"i_lat":-6.209883,"transit":true},{"i_lat":-6.212485,"distance":1275,"is_transit":false,"station_name":"Matraman","station_id":"MTR","transit":false,"time":2,"i_long":106.858896,"line":1},{"is_transit":true,"station_id":"JNG","station_name":"Jatinegara","i_long":106.86807400000001,"transit":true,"i_lat":-6.215091,"line":0,"time":8,"distance":1377},{"is_transit":false,"transit":false,"station_id":"POK","distance":1236,"i_lat":-6.209188,"i_long":106.861737,"line":11,"time":2,"station_name":"Pondok Jati"},{"distance":1829,"i_lat":-6.193792,"time":2,"station_id":"KMT","is_transit":false,"station_name":"Kramat","i_long":106.855437,"line":11,"transit":false},{"line":11,"distance":973,"is_transit":false,"station_name":"Gang Sentiong","transit":false,"i_lat":-6.185975,"station_id":"GST","i_long":106.850107,"time":1},{"i_lat":-6.174784,"i_long":106.84368,"station_id":"PSE","line":11,"transit":false,"time":8,"distance":1567,"is_transit":false,"station_name":"Pasar Senen"},{"station_name":"Kemayoran","distance":1436,"time":4,"is_transit":false,"i_lat":-6.161728,"station_id":"KMO","i_long":106.839204,"line":11,"transit":false},{"station_name":"Rajawali","transit":false,"i_lat":-6.14505,"time":5,"line":11,"i_long":106.836569,"distance":1901,"station_id":"RJW","is_transit":false},{"station_id":"KPB","i_long":106.826365,"distance":1444,"transit":true,"station_name":"Kampung Bandan","i_lat":-6.132549,"is_transit":true,"time":3,"line":0},{"line":0,"is_transit":true,"transit":true,"station_id":"JAKK","station_name":"Jakarta Kota","time":3,"distance":1364,"i_lat":-6.137569,"i_long":106.812439},{"station_name":"Jayakarta","transit":false,"i_lat":-6.141205,"i_long":106.820901,"distance":1264,"time":4,"line":7,"station_id":"JAY","is_transit":false},{"line":2,"i_lat":-6.149769,"time":2,"i_long":106.82482,"is_transit":false,"station_name":"Manggabesar","transit":false,"station_id":"MGB","distance":1080},{"i_lat":-6.160725,"is_transit":false,"i_long":106.827103,"station_name":"Sawah Besar","distance":906,"station_id":"SW","transit":false,"time":2,"line":2},{"distance":1149,"is_transit":false,"transit":false,"i_lat":-6.166716,"station_id":"JUA","station_name":"Juanda","i_long":106.828284,"line":2,"time":2},{"transit":false,"line":2,"is_transit":false,"i_lat":-6.186295,"distance":2015,"station_id":"GDD","time":4,"station_name":"Gondangdia","i_long":106.832183},{"station_id":"CKI","i_lat":-6.198556,"distance":1750,"transit":false,"is_transit":false,"station_name":"Cikini","time":3,"i_long":106.840169,"line":0}]]}