{"data":[[{"station_name":"Tanjung Barat","transit":false,"i_lat":-6.3080680000000005,"time":0,"i_long":106.838896,"distance":0,"station_id":"TNT","is_transit":false,"line":2},{"is_transit":false,"time":4,"station_id":"PSM","i_long":106.843999,"transit":false,"station_name":"Pasar Minggu","distance":2820,"line":2,"i_lat":-6.2842400000000005},{"is_transit":false,"i_lat":-6.263214,"time":2,"i_long":106.851577,"distance":2380,"line":2,"station_name":"Pasar Minggu Baru","transit":false,"station_id":"PSMB"},{"i_long":106.85449,"line":2,"station_id":"DRN","i_lat":-6.255332,"station_name":"Duren Kalibata","time":2,"distance":824,"transit":false,"is_transit":false},{"transit":false,"time":3,"i_lat":-6.242512,"station_id":"CW","i_long":106.856607,"station_name":"Cawang","is_transit":false,"line":2,"distance":1546},{"station_name":"Tebet","line":2,"is_transit":false,"time":2,"transit":false,"i_long":106.857948,"station_id":"TEB","distance":1230,"i_lat":-6.226659},{"distance":2610,"transit":true,"station_id":"MRI","i_lat":-6.209883,"time":4,"line":2,"is_transit":true,"i_long":106.84912,"station_name":"Manggarai"},{"i_long":106.858896,"i_lat":-6.212485,"station_name":"Matraman","distance":1275,"transit":false,"time":2,"is_transit":false,"station_id":"MTR","line":1},{"i_lat":-6.215091,"line":1,"transit":false,"station_name":"Jatinegara","station_id":"JNG","i_long":106.86807400000001,"time":8,"is_transit":false,"distance":1377},{"i_lat":-6.2135,"station_name":"Klender","distance":3395,"is_transit":false,"station_id":"KLD","i_long":106.899548,"line":1,"transit":false,"time":3},{"station_id":"BUA","station_name":"Buaran","distance":3100,"is_transit":false,"time":2,"transit":false,"i_lat":-6.215568,"i_long":106.922662,"line":1}],[{"line":2,"transit":false,"i_long":106.838896,"i_lat":-6.3080680000000005,"distance":0,"station_name":"Tanjung Barat","is_transit":false,"station_id":"TNT","time":0},{"time":4,"station_id":"PSM","i_long":106.843999,"station_name":"Pasar Minggu","distance":2820,"transit":false,"i_lat":-6.2842400000000005,"line":2,"is_transit":false},{"station_name":"Pasar Minggu Baru","i_lat":-6.263214,"transit":false,"line":2,"time":2,"distance":2380,"station_id":"PSMB","is_transit":false,"i_long":106.851577},{"i_lat":-6.255332,"station_name":"Duren Kalibata","is_transit":false,"transit":false,"line":2,"distance":824,"station_id":"DRN","i_long":106.85449,"time":2},{"i_long":106.856607,"transit":false,"is_transit":false,"station_name":"Cawang","distance":1546,"time":3,"i_lat":-6.242512,"line":2,"station_id":"CW"},{"i_lat":-6.226659,"station_name":"Tebet","i_long":106.857948,"distance":1230,"transit":false,"is_transit":false,"line":2,"station_id":"TEB","time":2},{"time":4,"distance":2610,"line":2,"station_id":"MRI","i_long":106.84912,"i_lat":-6.209883,"is_transit":true,"transit":true,"station_name":"Manggarai"},{"station_name":"Sudirman","i_long":106.822649,"distance":3186,"i_lat":-6.202263,"time":4,"transit":false,"is_transit":false,"station_id":"SUD","line":1},{"time":1,"station_name":"Sudirman Baru","i_lat":-6.201433,"line":1,"is_transit":false,"distance":280,"station_id":"SUDB","transit":false,"i_long":106.819881},{"station_id":"KAT","is_transit":false,"station_name":"Karet","distance":471,"transit":false,"i_long":106.816351,"time":1,"line":1,"i_lat":-6.20132},{"transit":false,"is_transit":false,"time":5,"distance":2029,"i_lat":-6.185545,"station_id":"THB","station_name":"Tanah Abang","i_long":106.811091,"line":1},{"line":1,"i_lat":-6.155215,"station_id":"DU","transit":false,"is_transit":false,"station_name":"Duri","distance":3632,"time":8,"i_long":106.800832},{"is_transit":false,"station_id":"AK","transit":false,"i_lat":-6.144674,"station_name":"Angke","time":4,"distance":1230,"i_long":106.79867,"line":1},{"station_name":"Kampung Bandan","line":4,"is_transit":true,"distance":4102,"transit":true,"i_lat":-6.132549,"station_id":"KPB","time":9,"i_long":106.826365},{"station_name":"Rajawali","line":11,"i_long":106.836569,"is_transit":false,"distance":1444,"time":3,"station_id":"RJW","i_lat":-6.14505,"transit":false},{"station_name":"Kemayoran","station_id":"KMO","time":5,"is_transit":false,"i_long":106.839204,"line":11,"transit":false,"distance":1901,"i_lat":-6.161728},{"station_name":"Pasar Senen","distance":1436,"transit":false,"time":4,"station_id":"PSE","i_long":106.84368,"is_transit":false,"i_lat":-6.174784,"line":11},{"line":11,"transit":false,"is_transit":false,"time":8,"distance":1567,"station_name":"Gang Sentiong","i_lat":-6.185975,"station_id":"GST","i_long":106.850107},{"station_id":"KMT","station_name":"Kramat","is_transit":false,"i_long":106.855437,"distance":973,"time":1,"i_lat":-6.193792,"line":11,"transit":false},{"distance":1829,"time":2,"station_name":"Pondok Jati","transit":false,"is_transit":false,"i_lat":-6.209188,"line":11,"i_long":106.861737,"station_id":"POK"},{"i_lat":-6.215091,"transit":true,"station_id":"JNG","station_name":"Jatinegara","is_transit":true,"i_long":106.86807400000001,"line":1,"distance":1236,"time":9},{"line":1,"station_name":"Klender","is_transit":false,"time":3,"transit":false,"station_id":"KLD","i_long":106.899548,"i_lat":-6.2135,"distance":3395},{"line":1,"distance":3100,"is_transit":false,"time":2,"i_long":106.922662,"i_lat":-6.215568,"station_name":"Buaran","station_id":"BUA","transit":false}],[{"line":2,"station_id":"TNT","is_transit":false,"i_lat":-6.3080680000000005,"station_name":"Tanjung Barat","transit":false,"i_long":106.838896,"time":0,"distance":0},{"i_long":106.843999,"station_name":"Pasar Minggu","station_id":"PSM","i_lat":-6.2842400000000005,"line":2,"distance":2820,"is_transit":false,"time":4,"transit":false},{"station_id":"PSMB","i_lat":-6.263214,"transit":false,"i_long":106.851577,"is_transit":false,"line":2,"time":2,"distance":2380,"station_name":"Pasar Minggu Baru"},{"is_transit":false,"i_long":106.85449,"station_name":"Duren Kalibata","transit":false,"station_id":"DRN","i_lat":-6.255332,"time":2,"line":2,"distance":824},{"is_transit":false,"transit":false,"station_name":"Cawang","time":3,"station_id":"CW","i_long":106.856607,"distance":1546,"i_lat":-6.242512,"line":2},{"time":2,"distance":1230,"station_name":"Tebet","station_id":"TEB","i_long":106.857948,"is_transit":false,"transit":false,"i_lat":-6.226659,"line":2},{"line":2,"is_transit":false,"time":4,"transit":false,"distance":2610,"station_id":"MRI","i_lat":-6.209883,"station_name":"Manggarai","i_long":106.84912},{"i_long":106.840169,"station_id":"CKI","line":2,"station_name":"Cikini","time":4,"distance":1590,"transit":false,"i_lat":-6.198556,"is_transit":false},{"is_transit":false,"i_lat":-6.186295,"distance":1750,"transit":false,"line":2,"station_name":"Gondangdia","station_id":"GDD","i_long":106.832183,"time":3},{"i_lat":-6.166716,"station_id":"JUA","i_long":106.828284,"is_transit":false,"line":2,"station_name":"Juanda","time":4,"distance":2015,"transit":false},{"line":2,"i_long":106.827103,"is_transit":false,"transit":false,"station_name":"Sawah Besar","distance":1149,"time":2,"station_id":"SW","i_lat":-6.160725},{"station_id":"MGB","is_transit":false,"time":2,"transit":false,"station_name":"Manggabesar","distance":906,"i_lat":-6.149769,"i_long":106.82482,"line":2},{"distance":1080,"is_transit":false,"transit":false,"station_name":"Jayakarta","station_id":"JAY","i_lat":-6.141205,"i_long":106.820901,"time":2,"line":2},{"station_id":"JAKK","station_name":"Jakarta Kota","is_transit":true,"i_lat":-6.137569,"distance":1264,"i_long":106.812439,"line":2,"transit":true,"time":4},{"station_name":"Kampung Bandan","distance":1364,"i_lat":-6.132549,"is_transit":true,"time":3,"transit":true,"station_id":"KPB","i_long":106.826365,"line":4},{"distance":1444,"station_id":"RJW","i_long":106.836569,"line":11,"transit":false,"i_lat":-6.14505,"station_name":"Rajawali","is_transit":false,"time":3},{"line":11,"distance":1901,"is_transit":false,"station_id":"KMO","station_name":"Kemayoran","i_long":106.839204,"time":5,"transit":false,"i_lat":-6.161728},{"station_id":"PSE","is_transit":false,"line":11,"transit":false,"i_long":106.84368,"i_lat":-6.174784,"time":4,"distance":1436,"station_name":"Pasar Senen"},{"time":8,"line":11,"station_name":"Gang Sentiong","station_id":"GST","transit":false,"is_transit":false,"distance":1567,"i_lat":-6.185975,"i_long":106.850107},{"is_transit":false,"transit":false,"distance":973,"i_lat":-6.193792,"time":1,"station_id":"KMT","station_name":"Kramat","i_long":106.855437,"line":11},{"is_transit":false,"i_long":106.861737,"distance":1829,"time":2,"transit":false,"station_id":"POK","station_name":"Pondok Jati","i_lat":-6.209188,"line":11},{"i_lat":-6.215091,"i_long":106.86807400000001,"station_name":"Jatinegara","station_id":"JNG","time":9,"distance":1236,"transit":true,"is_transit":true,"line":1},{"i_lat":-6.2135,"is_transit":false,"station_id":"KLD","time":3,"transit":false,"line":1,"distance":3395,"station_name":"Klender","i_long":106.899548},{"line":1,"station_name":"Buaran","station_id":"BUA","transit":false,"distance":3100,"is_transit":false,"i_lat":-6.215568,"time":2,"i_long":106.922662}]]}