{"data":[[{"is_transit":false,"station_name":"Tanjung Barat","distance":0,"time":0,"station_id":"TNT","line":2,"transit":false,"i_lat":-6.3080680000000005,"i_long":106.838896},{"is_transit":false,"i_long":106.843999,"line":2,"time":4,"distance":2820,"transit":false,"station_id":"PSM","i_lat":-6.2842400000000005,"station_name":"Pasar Minggu"},{"line":2,"station_name":"Pasar Minggu Baru","i_lat":-6.263214,"time":2,"is_transit":false,"distance":2380,"station_id":"PSMB","transit":false,"i_long":106.851577},{"is_transit":false,"distance":824,"i_long":106.85449,"station_name":"Duren Kalibata","i_lat":-6.255332,"line":2,"station_id":"DRN","transit":false,"time":2},{"time":3,"i_long":106.856607,"line":2,"is_transit":false,"transit":false,"station_id":"CW","distance":1546,"station_name":"Cawang","i_lat":-6.242512},{"i_long":106.857948,"station_name":"Tebet","time":2,"is_transit":false,"line":2,"transit":false,"distance":1230,"station_id":"TEB","i_lat":-6.226659},{"time":4,"i_long":106.84912,"i_lat":-6.209883,"station_id":"MRI","is_transit":true,"line":2,"transit":true,"distance":2610,"station_name":"Manggarai"},{"distance":3186,"time":4,"station_id":"SUD","station_name":"Sudirman","is_transit":false,"transit":false,"i_lat":-6.202263,"i_long":106.822649,"line":1},{"station_name":"Sudirman Baru","time":1,"line":1,"station_id":"SUDB","transit":false,"i_long":106.819881,"i_lat":-6.201433,"distance":280,"is_transit":false},{"line":1,"station_name":"Karet","is_transit":false,"i_lat":-6.20132,"transit":false,"i_long":106.816351,"distance":471,"station_id":"KAT","time":1},{"distance":2029,"is_transit":false,"station_name":"Tanah Abang","i_lat":-6.185545,"time":5,"station_id":"THB","i_long":106.811091,"transit":false,"line":1},{"distance":3632,"time":8,"line":1,"station_name":"Duri","i_lat":-6.155215,"station_id":"DU","is_transit":true,"i_long":106.800832,"transit":true},{"transit":false,"i_lat":-6.162021,"station_name":"Grogol","line":5,"is_transit":false,"distance":1700,"time":3,"station_id":"GGL","i_long":106.788277},{"time":2,"i_lat":-6.161433,"i_long":106.771379,"distance":2036,"is_transit":false,"transit":false,"station_name":"Pesing","line":5,"station_id":"PSG"},{"time":2,"station_name":"Taman Kota","is_transit":false,"distance":1614,"i_lat":-6.1587309999999995,"station_id":"TKO","transit":false,"i_long":106.756522,"line":5},{"is_transit":false,"i_long":106.737035,"transit":false,"station_name":"Bojongindah","distance":2334,"station_id":"BOI","time":2,"line":5,"i_lat":-6.159876},{"time":4,"station_name":"Rawa Buaya","station_id":"RW","is_transit":false,"transit":false,"i_long":106.723064,"line":5,"distance":1152,"i_lat":-6.162758}],[{"i_lat":-6.3080680000000005,"transit":false,"station_name":"Tanjung Barat","is_transit":false,"distance":0,"time":0,"station_id":"TNT","line":2,"i_long":106.838896},{"station_id":"PSM","time":4,"station_name":"Pasar Minggu","is_transit":false,"i_lat":-6.2842400000000005,"i_long":106.843999,"transit":false,"distance":2820,"line":2},{"station_name":"Pasar Minggu Baru","is_transit":false,"transit":false,"station_id":"PSMB","i_lat":-6.263214,"i_long":106.851577,"time":2,"line":2,"distance":2380},{"line":2,"is_transit":false,"distance":824,"transit":false,"i_long":106.85449,"station_id":"DRN","station_name":"Duren Kalibata","time":2,"i_lat":-6.255332},{"station_id":"CW","is_transit":false,"transit":false,"station_name":"Cawang","distance":1546,"i_lat":-6.242512,"line":2,"time":3,"i_long":106.856607},{"station_id":"TEB","i_long":106.857948,"line":2,"transit":false,"station_name":"Tebet","i_lat":-6.226659,"distance":1230,"is_transit":false,"time":2},{"i_long":106.84912,"is_transit":false,"station_name":"Manggarai","distance":2610,"line":2,"station_id":"MRI","i_lat":-6.209883,"time":4,"transit":false},{"station_id":"CKI","i_lat":-6.198556,"i_long":106.840169,"line":2,"station_name":"Cikini","time":4,"distance":1590,"is_transit":false,"transit":false},{"station_name":"Gondangdia","i_lat":-6.186295,"is_transit":false,"station_id":"GDD","time":3,"i_long":106.832183,"distance":1750,"transit":false,"line":2},{"distance":2015,"is_transit":false,"transit":false,"station_name":"Juanda","i_lat":-6.166716,"time":4,"station_id":"JUA","line":2,"i_long":106.828284},{"i_long":106.827103,"transit":false,"distance":1149,"station_name":"Sawah Besar","station_id":"SW","i_lat":-6.160725,"is_transit":false,"time":2,"line":2},{"station_name":"Manggabesar","station_id":"MGB","time":2,"line":2,"distance":906,"i_long":106.82482,"i_lat":-6.149769,"is_transit":false,"transit":false},{"station_name":"Jayakarta","is_transit":false,"i_lat":-6.141205,"line":2,"i_long":106.820901,"station_id":"JAY","time":2,"transit":false,"distance":1080},{"i_long":106.812439,"is_transit":true,"distance":1264,"station_name":"Jakarta Kota","station_id":"JAKK","time":4,"i_lat":-6.137569,"line":2,"transit":true},{"line":4,"station_name":"Kampung Bandan","i_lat":-6.132549,"distance":1364,"i_long":106.826365,"time":3,"is_transit":true,"transit":true,"station_id":"KPB"},{"station_id":"AK","is_transit":false,"time":9,"distance":4102,"station_name":"Angke","transit":false,"i_long":106.79867,"i_lat":-6.144674,"line":1},{"i_lat":-6.155215,"time":4,"is_transit":true,"station_name":"Duri","distance":1230,"station_id":"DU","transit":true,"i_long":106.800832,"line":1},{"line":5,"is_transit":false,"i_lat":-6.162021,"time":3,"station_name":"Grogol","station_id":"GGL","transit":false,"i_long":106.788277,"distance":1700},{"transit":false,"station_id":"PSG","station_name":"Pesing","is_transit":false,"distance":2036,"i_lat":-6.161433,"time":2,"i_long":106.771379,"line":5},{"i_long":106.756522,"line":5,"station_name":"Taman Kota","transit":false,"time":2,"i_lat":-6.1587309999999995,"distance":1614,"station_id":"TKO","is_transit":false},{"transit":false,"time":2,"is_transit":false,"distance":2334,"i_lat":-6.159876,"i_long":106.737035,"station_name":"Bojongindah","station_id":"BOI","line":5},{"distance":1152,"i_long":106.723064,"time":4,"station_id":"RW","is_transit":false,"i_lat":-6.162758,"line":5,"transit":false,"station_name":"Rawa Buaya"}],[{"is_transit":false,"i_lat":-6.3080680000000005,"i_long":106.838896,"station_name":"Tanjung Barat","time":0,"distance":0,"station_id":"TNT","line":2,"transit":false},{"is_transit":false,"station_name":"Pasar Minggu","i_long":106.843999,"transit":false,"line":2,"time":4,"station_id":"PSM","distance":2820,"i_lat":-6.2842400000000005},{"line":2,"is_transit":false,"i_lat":-6.263214,"transit":false,"station_id":"PSMB","time":2,"distance":2380,"i_long":106.851577,"station_name":"Pasar Minggu Baru"},{"line":2,"i_lat":-6.255332,"i_long":106.85449,"is_transit":false,"distance":824,"station_id":"DRN","time":2,"station_name":"Duren Kalibata","transit":false},{"station_name":"Cawang","i_lat":-6.242512,"line":2,"is_transit":false,"i_long":106.856607,"transit":false,"distance":1546,"station_id":"CW","time":3},{"station_name":"Tebet","distance":1230,"i_long":106.857948,"i_lat":-6.226659,"transit":false,"time":2,"line":2,"station_id":"TEB","is_transit":false},{"i_long":106.84912,"distance":2610,"is_transit":true,"transit":true,"time":4,"line":2,"station_name":"Manggarai","i_lat":-6.209883,"station_id":"MRI"},{"line":1,"i_long":106.858896,"is_transit":false,"distance":1275,"station_name":"Matraman","station_id":"MTR","time":2,"transit":false,"i_lat":-6.212485},{"distance":1377,"is_transit":true,"time":8,"i_long":106.86807400000001,"station_id":"JNG","station_name":"Jatinegara","line":1,"transit":true,"i_lat":-6.215091},{"line":11,"is_transit":false,"transit":false,"station_name":"Pondok Jati","distance":1236,"i_lat":-6.209188,"i_long":106.861737,"time":2,"station_id":"POK"},{"line":11,"station_id":"KMT","time":2,"i_lat":-6.193792,"transit":false,"is_transit":false,"distance":1829,"station_name":"Kramat","i_long":106.855437},{"is_transit":false,"line":11,"i_lat":-6.185975,"transit":false,"station_id":"GST","distance":973,"station_name":"Gang Sentiong","time":1,"i_long":106.850107},{"is_transit":false,"transit":false,"station_id":"PSE","distance":1567,"i_lat":-6.174784,"time":8,"i_long":106.84368,"line":11,"station_name":"Pasar Senen"},{"i_long":106.839204,"transit":false,"station_id":"KMO","i_lat":-6.161728,"distance":1436,"station_name":"Kemayoran","is_transit":false,"line":11,"time":4},{"time":5,"station_id":"RJW","is_transit":false,"line":11,"station_name":"Rajawali","transit":false,"distance":1901,"i_lat":-6.14505,"i_long":106.836569},{"i_long":106.826365,"distance":1444,"transit":true,"i_lat":-6.132549,"station_id":"KPB","station_name":"Kampung Bandan","is_transit":true,"time":3,"line":4},{"i_lat":-6.144674,"transit":false,"time":9,"is_transit":false,"station_id":"AK","distance":4102,"station_name":"Angke","line":1,"i_long":106.79867},{"distance":1230,"i_long":106.800832,"transit":true,"line":1,"station_name":"Duri","time":4,"i_lat":-6.155215,"is_transit":true,"station_id":"DU"},{"time":3,"distance":1700,"station_name":"Grogol","line":5,"transit":false,"i_lat":-6.162021,"i_long":106.788277,"station_id":"GGL","is_transit":false},{"i_long":106.771379,"transit":false,"distance":2036,"time":2,"station_id":"PSG","is_transit":false,"i_lat":-6.161433,"line":5,"station_name":"Pesing"},{"station_id":"TKO","line":5,"station_name":"Taman Kota","distance":1614,"time":2,"is_transit":false,"transit":false,"i_lat":-6.1587309999999995,"i_long":106.756522},{"distance":2334,"i_lat":-6.159876,"line":5,"is_transit":false,"station_id":"BOI","time":2,"station_name":"Bojongindah","i_long":106.737035,"transit":false},{"is_transit":false,"i_lat":-6.162758,"time":4,"station_name":"Rawa Buaya","transit":false,"station_id":"RW","distance":1152,"i_long":106.723064,"line":5}]]}