{"data":[[{"station_id":"TNT","transit":false,"is_transit":false,"station_name":"Tanjung Barat","i_long":106.838896,"distance":0,"time":0,"i_lat":-6.3080680000000005,"line":2},{"i_long":106.843999,"station_name":"Pasar Minggu","transit":false,"line":2,"is_transit":false,"i_lat":-6.2842400000000005,"distance":2820,"station_id":"PSM","time":4},{"station_id":"PSMB","i_long":106.851577,"transit":false,"is_transit":false,"time":2,"line":2,"station_name":"Pasar Minggu Baru","distance":2380,"i_lat":-6.263214},{"i_long":106.85449,"distance":824,"is_transit":false,"i_lat":-6.255332,"station_name":"Duren Kalibata","line":2,"time":2,"transit":false,"station_id":"DRN"},{"is_transit":false,"distance":1546,"time":3,"i_lat":-6.242512,"line":2,"transit":false,"station_id":"CW","i_long":106.856607,"station_name":"Cawang"},{"transit":false,"station_name":"Tebet","time":2,"i_long":106.857948,"is_transit":false,"distance":1230,"i_lat":-6.226659,"station_id":"TEB","line":2},{"station_id":"MRI","distance":2610,"transit":true,"line":2,"is_transit":true,"i_lat":-6.209883,"i_long":106.84912,"time":4,"station_name":"Manggarai"},{"station_name":"Matraman","i_long":106.858896,"is_transit":false,"distance":1275,"time":2,"station_id":"MTR","line":1,"i_lat":-6.212485,"transit":false},{"station_id":"JNG","i_lat":-6.215091,"line":1,"station_name":"Jatinegara","i_long":106.86807400000001,"transit":true,"is_transit":true,"time":8,"distance":1377},{"transit":false,"distance":1236,"is_transit":false,"station_name":"Pondok Jati","line":11,"time":2,"station_id":"POK","i_lat":-6.209188,"i_long":106.861737},{"station_name":"Kramat","distance":1829,"i_lat":-6.193792,"i_long":106.855437,"is_transit":false,"line":11,"station_id":"KMT","time":2,"transit":false},{"distance":973,"line":11,"i_long":106.850107,"i_lat":-6.185975,"time":1,"station_name":"Gang Sentiong","station_id":"GST","is_transit":false,"transit":false},{"transit":false,"is_transit":false,"time":8,"station_name":"Pasar Senen","station_id":"PSE","distance":1567,"i_long":106.84368,"line":11,"i_lat":-6.174784}],[{"transit":false,"station_name":"Tanjung Barat","station_id":"TNT","distance":0,"i_long":106.838896,"i_lat":-6.3080680000000005,"is_transit":false,"time":0,"line":2},{"is_transit":false,"line":2,"i_lat":-6.2842400000000005,"i_long":106.843999,"transit":false,"distance":2820,"station_id":"PSM","time":4,"station_name":"Pasar Minggu"},{"station_id":"PSMB","line":2,"time":2,"distance":2380,"station_name":"Pasar Minggu Baru","i_long":106.851577,"i_lat":-6.263214,"transit":false,"is_transit":false},{"station_name":"Duren Kalibata","i_lat":-6.255332,"distance":824,"transit":false,"time":2,"line":2,"i_long":106.85449,"station_id":"DRN","is_transit":false},{"distance":1546,"i_lat":-6.242512,"is_transit":false,"line":2,"station_name":"Cawang","i_long":106.856607,"station_id":"CW","time":3,"transit":false},{"time":2,"line":2,"i_lat":-6.226659,"distance":1230,"is_transit":false,"transit":false,"station_id":"TEB","i_long":106.857948,"station_name":"Tebet"},{"time":4,"transit":true,"is_transit":true,"i_lat":-6.209883,"distance":2610,"line":2,"station_name":"Manggarai","i_long":106.84912,"station_id":"MRI"},{"transit":false,"is_transit":false,"i_lat":-6.202263,"station_id":"SUD","i_long":106.822649,"distance":3186,"line":1,"time":4,"station_name":"Sudirman"},{"line":1,"station_id":"SUDB","distance":280,"time":1,"station_name":"Sudirman Baru","transit":false,"is_transit":false,"i_lat":-6.201433,"i_long":106.819881},{"station_id":"KAT","transit":false,"line":1,"time":1,"i_long":106.816351,"is_transit":false,"i_lat":-6.20132,"station_name":"Karet","distance":471},{"station_id":"THB","i_lat":-6.185545,"transit":false,"is_transit":false,"i_long":106.811091,"station_name":"Tanah Abang","line":1,"time":5,"distance":2029},{"transit":false,"is_transit":false,"i_long":106.800832,"time":8,"station_name":"Duri","station_id":"DU","distance":3632,"line":1,"i_lat":-6.155215},{"station_name":"Angke","line":1,"distance":1230,"is_transit":false,"i_long":106.79867,"transit":false,"i_lat":-6.144674,"station_id":"AK","time":4},{"station_id":"KPB","i_lat":-6.132549,"is_transit":true,"time":9,"distance":4102,"i_long":106.826365,"line":4,"transit":true,"station_name":"Kampung Bandan"},{"distance":1444,"transit":false,"i_lat":-6.14505,"i_long":106.836569,"is_transit":false,"station_id":"RJW","time":3,"line":11,"station_name":"Rajawali"},{"time":5,"transit":false,"station_id":"KMO","i_lat":-6.161728,"i_long":106.839204,"station_name":"Kemayoran","is_transit":false,"line":11,"distance":1901},{"station_id":"PSE","i_lat":-6.174784,"station_name":"Pasar Senen","i_long":106.84368,"line":11,"transit":false,"is_transit":false,"distance":1436,"time":4}],[{"distance":0,"transit":false,"is_transit":false,"i_lat":-6.3080680000000005,"line":2,"i_long":106.838896,"time":0,"station_id":"TNT","station_name":"Tanjung Barat"},{"line":2,"station_name":"Pasar Minggu","i_lat":-6.2842400000000005,"transit":false,"i_long":106.843999,"time":4,"station_id":"PSM","is_transit":false,"distance":2820},{"is_transit":false,"transit":false,"station_name":"Pasar Minggu Baru","station_id":"PSMB","distance":2380,"line":2,"time":2,"i_lat":-6.263214,"i_long":106.851577},{"is_transit":false,"station_name":"Duren Kalibata","i_lat":-6.255332,"i_long":106.85449,"station_id":"DRN","distance":824,"time":2,"line":2,"transit":false},{"station_id":"CW","i_long":106.856607,"i_lat":-6.242512,"line":2,"distance":1546,"is_transit":false,"transit":false,"time":3,"station_name":"Cawang"},{"distance":1230,"station_name":"Tebet","station_id":"TEB","line":2,"transit":false,"time":2,"i_long":106.857948,"is_transit":false,"i_lat":-6.226659},{"line":2,"i_lat":-6.209883,"time":4,"station_name":"Manggarai","transit":false,"distance":2610,"i_long":106.84912,"is_transit":false,"station_id":"MRI"},{"transit":false,"station_id":"CKI","time":4,"distance":1590,"line":2,"station_name":"Cikini","i_long":106.840169,"i_lat":-6.198556,"is_transit":false},{"i_lat":-6.186295,"station_name":"Gondangdia","station_id":"GDD","distance":1750,"line":2,"transit":false,"is_transit":false,"time":3,"i_long":106.832183},{"station_id":"JUA","transit":false,"i_lat":-6.166716,"i_long":106.828284,"is_transit":false,"line":2,"time":4,"distance":2015,"station_name":"Juanda"},{"station_id":"SW","is_transit":false,"time":2,"line":2,"distance":1149,"station_name":"Sawah Besar","transit":false,"i_lat":-6.160725,"i_long":106.827103},{"i_long":106.82482,"i_lat":-6.149769,"distance":906,"is_transit":false,"station_name":"Manggabesar","station_id":"MGB","transit":false,"time":2,"line":2},{"transit":false,"station_name":"Jayakarta","is_transit":false,"distance":1080,"time":2,"i_long":106.820901,"station_id":"JAY","i_lat":-6.141205,"line":2},{"station_name":"Jakarta Kota","station_id":"JAKK","time":4,"transit":true,"i_lat":-6.137569,"i_long":106.812439,"line":2,"is_transit":true,"distance":1264},{"i_long":106.826365,"line":4,"station_id":"KPB","transit":true,"station_name":"Kampung Bandan","is_transit":true,"i_lat":-6.132549,"time":3,"distance":1364},{"time":3,"line":11,"distance":1444,"station_id":"RJW","station_name":"Rajawali","transit":false,"is_transit":false,"i_lat":-6.14505,"i_long":106.836569},{"distance":1901,"line":11,"is_transit":false,"transit":false,"station_id":"KMO","time":5,"i_lat":-6.161728,"i_long":106.839204,"station_name":"Kemayoran"},{"station_name":"Pasar Senen","time":4,"distance":1436,"line":11,"i_lat":-6.174784,"transit":false,"is_transit":false,"i_long":106.84368,"station_id":"PSE"}]]}