{"data":[[{"i_lat":-6.3080680000000005,"station_id":"TNT","is_transit":false,"line":2,"i_long":106.838896,"time":0,"station_name":"Tanjung Barat","transit":false,"distance":0},{"is_transit":false,"station_name":"Pasar Minggu","i_long":106.843999,"station_id":"PSM","line":2,"time":4,"i_lat":-6.2842400000000005,"transit":false,"distance":2820},{"transit":false,"is_transit":false,"station_name":"Pasar Minggu Baru","time":2,"line":2,"i_long":106.851577,"i_lat":-6.263214,"distance":2380,"station_id":"PSMB"},{"line":0,"station_id":"DRN","is_transit":false,"i_lat":-6.255332,"transit":false,"distance":824,"i_long":106.85449,"station_name":"Duren Kalibata","time":2},{"distance":1546,"is_transit":false,"transit":false,"i_lat":-6.242512,"line":0,"station_name":"Cawang","i_long":106.856607,"time":3,"station_id":"CW"},{"station_name":"Tebet","time":2,"is_transit":false,"i_lat":-6.226659,"station_id":"TEB","i_long":106.857948,"distance":1230,"transit":false,"line":2},{"i_long":106.84912,"transit":true,"line":0,"is_transit":true,"station_name":"Manggarai","distance":2610,"station_id":"MRI","i_lat":-6.209883,"time":4},{"i_lat":-6.202263,"transit":false,"time":4,"distance":3186,"is_transit":false,"station_name":"Sudirman","station_id":"SUD","i_long":106.822649,"line":1},{"station_id":"SUDB","i_lat":-6.201433,"is_transit":false,"line":1,"transit":false,"station_name":"Sudirman Baru","distance":280,"time":1,"i_long":106.819881}],[{"i_long":106.838896,"i_lat":-6.3080680000000005,"station_name":"Tanjung Barat","station_id":"TNT","transit":false,"time":0,"distance":0,"is_transit":false,"line":2},{"line":2,"transit":false,"distance":2820,"i_lat":-6.2842400000000005,"time":4,"station_name":"Pasar Minggu","i_long":106.843999,"is_transit":false,"station_id":"PSM"},{"line":2,"transit":false,"time":2,"distance":2380,"station_name":"Pasar Minggu Baru","i_long":106.851577,"i_lat":-6.263214,"is_transit":false,"station_id":"PSMB"},{"line":0,"i_long":106.85449,"time":2,"station_name":"Duren Kalibata","distance":824,"station_id":"DRN","transit":false,"i_lat":-6.255332,"is_transit":false},{"time":3,"distance":1546,"is_transit":false,"transit":false,"i_long":106.856607,"station_name":"Cawang","station_id":"CW","i_lat":-6.242512,"line":0},{"is_transit":false,"station_name":"Tebet","line":2,"i_long":106.857948,"time":2,"distance":1230,"transit":false,"i_lat":-6.226659,"station_id":"TEB"},{"distance":2610,"station_name":"Manggarai","time":4,"is_transit":true,"i_lat":-6.209883,"station_id":"MRI","line":0,"transit":true,"i_long":106.84912},{"i_long":106.840169,"station_id":"CKI","distance":1590,"is_transit":false,"i_lat":-6.198556,"line":0,"station_name":"Cikini","transit":false,"time":4},{"is_transit":false,"i_long":106.832183,"line":2,"time":3,"i_lat":-6.186295,"distance":1750,"transit":false,"station_id":"GDD","station_name":"Gondangdia"},{"line":2,"station_id":"JUA","station_name":"Juanda","time":4,"i_lat":-6.166716,"i_long":106.828284,"distance":2015,"is_transit":false,"transit":false},{"station_id":"SW","station_name":"Sawah Besar","time":2,"i_lat":-6.160725,"line":2,"is_transit":false,"i_long":106.827103,"transit":false,"distance":1149},{"is_transit":false,"station_name":"Manggabesar","line":2,"i_long":106.82482,"distance":906,"station_id":"MGB","time":2,"transit":false,"i_lat":-6.149769},{"i_long":106.820901,"station_name":"Jayakarta","i_lat":-6.141205,"is_transit":false,"transit":false,"time":2,"line":7,"distance":1080,"station_id":"JAY"},{"i_lat":-6.137569,"transit":true,"station_name":"Jakarta Kota","distance":1264,"i_long":106.812439,"time":4,"line":0,"is_transit":true,"station_id":"JAKK"},{"i_lat":-6.132549,"time":3,"line":0,"transit":false,"distance":1364,"is_transit":true,"station_name":"Kampung Bandan","station_id":"KPB","i_long":106.826365},{"distance":4102,"station_name":"Angke","time":9,"station_id":"AK","is_transit":false,"transit":false,"i_long":106.79867,"line":0,"i_lat":-6.144674},{"is_transit":true,"i_long":106.800832,"transit":true,"distance":1230,"station_id":"DU","station_name":"Duri","time":4,"i_lat":-6.155215,"line":1},{"station_id":"THB","time":8,"is_transit":true,"station_name":"Tanah Abang","line":1,"i_lat":-6.185545,"i_long":106.811091,"transit":false,"distance":3632},{"station_name":"Karet","time":5,"i_long":106.816351,"line":1,"distance":2029,"is_transit":false,"transit":false,"station_id":"KAT","i_lat":-6.20132},{"line":1,"station_name":"Sudirman Baru","is_transit":false,"time":1,"i_lat":-6.201433,"i_long":106.819881,"station_id":"SUDB","distance":471,"transit":false}],[{"is_transit":false,"transit":false,"i_lat":-6.3080680000000005,"i_long":106.838896,"distance":0,"line":2,"station_id":"TNT","time":0,"station_name":"Tanjung Barat"},{"i_lat":-6.2842400000000005,"station_id":"PSM","transit":false,"time":4,"station_name":"Pasar Minggu","is_transit":false,"line":2,"distance":2820,"i_long":106.843999},{"i_lat":-6.263214,"is_transit":false,"station_id":"PSMB","line":2,"station_name":"Pasar Minggu Baru","transit":false,"i_long":106.851577,"distance":2380,"time":2},{"station_id":"DRN","transit":false,"i_long":106.85449,"line":0,"station_name":"Duren Kalibata","time":2,"i_lat":-6.255332,"is_transit":false,"distance":824},{"line":0,"transit":false,"i_long":106.856607,"is_transit":false,"station_name":"Cawang","distance":1546,"i_lat":-6.242512,"station_id":"CW","time":3},{"i_long":106.857948,"is_transit":false,"transit":false,"line":2,"distance":1230,"time":2,"station_name":"Tebet","station_id":"TEB","i_lat":-6.226659},{"station_name":"Manggarai","line":0,"time":4,"i_lat":-6.209883,"i_long":106.84912,"station_id":"MRI","transit":true,"is_transit":true,"distance":2610},{"station_name":"Matraman","station_id":"MTR","is_transit":false,"i_lat":-6.212485,"line":1,"transit":false,"distance":1275,"i_long":106.858896,"time":2},{"i_lat":-6.215091,"distance":1377,"time":8,"station_name":"Jatinegara","line":0,"station_id":"JNG","is_transit":true,"transit":true,"i_long":106.86807400000001},{"time":2,"is_transit":false,"station_name":"Pondok Jati","i_lat":-6.209188,"line":11,"i_long":106.861737,"transit":false,"distance":1236,"station_id":"POK"},{"distance":1829,"station_id":"KMT","i_long":106.855437,"line":11,"station_name":"Kramat","is_transit":false,"transit":false,"time":2,"i_lat":-6.193792},{"i_lat":-6.185975,"station_name":"Gang Sentiong","transit":false,"time":1,"is_transit":false,"station_id":"GST","line":11,"i_long":106.850107,"distance":973},{"time":8,"is_transit":false,"station_name":"Pasar Senen","i_lat":-6.174784,"i_long":106.84368,"line":11,"station_id":"PSE","distance":1567,"transit":false},{"is_transit":false,"line":11,"i_long":106.839204,"transit":false,"distance":1436,"station_id":"KMO","station_name":"Kemayoran","i_lat":-6.161728,"time":4},{"i_lat":-6.14505,"i_long":106.836569,"is_transit":false,"line":11,"station_name":"Rajawali","distance":1901,"time":5,"station_id":"RJW","transit":false},{"transit":true,"station_id":"KPB","station_name":"Kampung Bandan","is_transit":true,"distance":1444,"time":3,"line":0,"i_lat":-6.132549,"i_long":106.826365},{"time":9,"i_lat":-6.144674,"station_id":"AK","transit":false,"i_long":106.79867,"is_transit":false,"line":0,"distance":4102,"station_name":"Angke"},{"i_long":106.800832,"is_transit":true,"time":4,"distance":1230,"line":1,"station_name":"Duri","station_id":"DU","transit":true,"i_lat":-6.155215},{"station_name":"Tanah Abang","i_long":106.811091,"is_transit":true,"distance":3632,"time":8,"station_id":"THB","transit":false,"line":1,"i_lat":-6.185545},{"distance":2029,"station_id":"KAT","i_lat":-6.20132,"is_transit":false,"transit":false,"time":5,"i_long":106.816351,"station_name":"Karet","line":1},{"distance":471,"station_id":"SUDB","station_name":"Sudirman Baru","transit":false,"i_long":106.819881,"is_transit":false,"line":1,"time":1,"i_lat":-6.201433}]]}