{"data":[[{"transit":false,"time":0,"line":2,"station_name":"Tanjung Barat","station_id":"TNT","i_lat":-6.3080680000000005,"i_long":106.838896,"distance":0,"is_transit":false},{"i_lat":-6.2842400000000005,"station_name":"Pasar Minggu","is_transit":false,"distance":2820,"station_id":"PSM","i_long":106.843999,"line":2,"transit":false,"time":4},{"transit":false,"i_lat":-6.263214,"i_long":106.851577,"line":2,"is_transit":false,"station_name":"Pasar Minggu Baru","station_id":"PSMB","distance":2380,"time":2},{"i_lat":-6.255332,"distance":824,"i_long":106.85449,"transit":false,"is_transit":false,"line":2,"time":2,"station_name":"Duren Kalibata","station_id":"DRN"},{"is_transit":false,"transit":false,"distance":1546,"station_id":"CW","station_name":"Cawang","line":2,"i_long":106.856607,"i_lat":-6.242512,"time":3},{"line":2,"transit":false,"time":2,"distance":1230,"i_long":106.857948,"is_transit":false,"i_lat":-6.226659,"station_name":"Tebet","station_id":"TEB"},{"time":4,"station_id":"MRI","i_lat":-6.209883,"line":2,"i_long":106.84912,"transit":true,"station_name":"Manggarai","distance":2610,"is_transit":true},{"station_name":"Sudirman","station_id":"SUD","time":4,"is_transit":false,"distance":3186,"line":1,"i_lat":-6.202263,"i_long":106.822649,"transit":false},{"i_lat":-6.201433,"line":1,"i_long":106.819881,"is_transit":false,"station_name":"Sudirman Baru","time":1,"distance":280,"station_id":"SUDB","transit":false},{"distance":471,"is_transit":false,"time":1,"transit":false,"station_name":"Karet","station_id":"KAT","i_lat":-6.20132,"i_long":106.816351,"line":1},{"i_lat":-6.185545,"station_id":"THB","line":1,"i_long":106.811091,"station_name":"Tanah Abang","is_transit":false,"time":5,"transit":false,"distance":2029}],[{"station_id":"TNT","transit":false,"i_lat":-6.3080680000000005,"i_long":106.838896,"station_name":"Tanjung Barat","distance":0,"line":2,"is_transit":false,"time":0},{"i_long":106.843999,"is_transit":false,"transit":false,"station_name":"Pasar Minggu","time":4,"i_lat":-6.2842400000000005,"station_id":"PSM","line":2,"distance":2820},{"i_long":106.851577,"time":2,"distance":2380,"station_name":"Pasar Minggu Baru","station_id":"PSMB","is_transit":false,"line":2,"transit":false,"i_lat":-6.263214},{"station_name":"Duren Kalibata","distance":824,"i_long":106.85449,"is_transit":false,"station_id":"DRN","i_lat":-6.255332,"time":2,"line":2,"transit":false},{"line":2,"i_lat":-6.242512,"distance":1546,"transit":false,"is_transit":false,"station_id":"CW","station_name":"Cawang","time":3,"i_long":106.856607},{"i_lat":-6.226659,"time":2,"is_transit":false,"station_id":"TEB","distance":1230,"station_name":"Tebet","i_long":106.857948,"line":2,"transit":false},{"i_long":106.84912,"station_id":"MRI","is_transit":false,"transit":false,"time":4,"station_name":"Manggarai","distance":2610,"i_lat":-6.209883,"line":2},{"i_long":106.840169,"transit":false,"station_id":"CKI","time":4,"station_name":"Cikini","is_transit":false,"line":2,"i_lat":-6.198556,"distance":1590},{"is_transit":false,"transit":false,"station_name":"Gondangdia","i_lat":-6.186295,"time":3,"station_id":"GDD","distance":1750,"i_long":106.832183,"line":2},{"time":4,"i_lat":-6.166716,"i_long":106.828284,"line":2,"is_transit":false,"station_id":"JUA","transit":false,"station_name":"Juanda","distance":2015},{"station_id":"SW","line":2,"distance":1149,"station_name":"Sawah Besar","i_lat":-6.160725,"time":2,"i_long":106.827103,"is_transit":false,"transit":false},{"i_lat":-6.149769,"line":2,"time":2,"station_id":"MGB","station_name":"Manggabesar","distance":906,"transit":false,"is_transit":false,"i_long":106.82482},{"station_id":"JAY","i_lat":-6.141205,"i_long":106.820901,"distance":1080,"transit":false,"is_transit":false,"line":2,"time":2,"station_name":"Jayakarta"},{"station_name":"Jakarta Kota","i_long":106.812439,"i_lat":-6.137569,"line":2,"station_id":"JAKK","distance":1264,"transit":true,"time":4,"is_transit":true},{"station_name":"Kampung Bandan","line":4,"transit":true,"distance":1364,"i_long":106.826365,"station_id":"KPB","is_transit":true,"time":3,"i_lat":-6.132549},{"i_long":106.79867,"line":1,"station_id":"AK","is_transit":false,"time":9,"i_lat":-6.144674,"transit":false,"station_name":"Angke","distance":4102},{"station_id":"DU","line":1,"transit":false,"is_transit":false,"station_name":"Duri","time":4,"distance":1230,"i_long":106.800832,"i_lat":-6.155215},{"i_lat":-6.185545,"is_transit":false,"line":1,"transit":false,"distance":3632,"station_name":"Tanah Abang","time":8,"i_long":106.811091,"station_id":"THB"}],[{"distance":0,"i_long":106.838896,"i_lat":-6.3080680000000005,"line":2,"station_id":"TNT","transit":false,"station_name":"Tanjung Barat","is_transit":false,"time":0},{"i_lat":-6.2842400000000005,"time":4,"station_id":"PSM","is_transit":false,"line":2,"distance":2820,"i_long":106.843999,"station_name":"Pasar Minggu","transit":false},{"is_transit":false,"time":2,"distance":2380,"i_long":106.851577,"station_name":"Pasar Minggu Baru","i_lat":-6.263214,"station_id":"PSMB","line":2,"transit":false},{"line":2,"station_name":"Duren Kalibata","transit":false,"is_transit":false,"distance":824,"time":2,"i_lat":-6.255332,"station_id":"DRN","i_long":106.85449},{"is_transit":false,"distance":1546,"station_name":"Cawang","station_id":"CW","time":3,"i_lat":-6.242512,"i_long":106.856607,"transit":false,"line":2},{"line":2,"station_id":"TEB","i_lat":-6.226659,"is_transit":false,"i_long":106.857948,"transit":false,"station_name":"Tebet","distance":1230,"time":2},{"transit":true,"i_lat":-6.209883,"line":2,"station_name":"Manggarai","distance":2610,"is_transit":true,"time":4,"station_id":"MRI","i_long":106.84912},{"distance":1275,"station_name":"Matraman","station_id":"MTR","transit":false,"is_transit":false,"i_lat":-6.212485,"i_long":106.858896,"time":2,"line":1},{"i_long":106.86807400000001,"line":1,"distance":1377,"transit":true,"i_lat":-6.215091,"station_name":"Jatinegara","is_transit":true,"station_id":"JNG","time":8},{"station_name":"Pondok Jati","transit":false,"is_transit":false,"station_id":"POK","line":11,"i_lat":-6.209188,"i_long":106.861737,"distance":1236,"time":2},{"distance":1829,"i_lat":-6.193792,"station_name":"Kramat","transit":false,"station_id":"KMT","time":2,"is_transit":false,"i_long":106.855437,"line":11},{"is_transit":false,"distance":973,"time":1,"station_id":"GST","station_name":"Gang Sentiong","i_lat":-6.185975,"i_long":106.850107,"transit":false,"line":11},{"transit":false,"distance":1567,"i_long":106.84368,"station_id":"PSE","is_transit":false,"line":11,"i_lat":-6.174784,"station_name":"Pasar Senen","time":8},{"line":11,"distance":1436,"is_transit":false,"i_lat":-6.161728,"time":4,"i_long":106.839204,"transit":false,"station_id":"KMO","station_name":"Kemayoran"},{"line":11,"time":5,"i_lat":-6.14505,"transit":false,"is_transit":false,"distance":1901,"station_id":"RJW","i_long":106.836569,"station_name":"Rajawali"},{"time":3,"transit":true,"station_id":"KPB","i_lat":-6.132549,"line":4,"station_name":"Kampung Bandan","i_long":106.826365,"is_transit":true,"distance":1444},{"i_long":106.79867,"station_id":"AK","time":9,"transit":false,"station_name":"Angke","is_transit":false,"i_lat":-6.144674,"distance":4102,"line":1},{"i_long":106.800832,"station_name":"Duri","station_id":"DU","time":4,"line":1,"is_transit":false,"transit":false,"distance":1230,"i_lat":-6.155215},{"line":1,"transit":false,"time":8,"i_lat":-6.185545,"station_name":"Tanah Abang","station_id":"THB","i_long":106.811091,"is_transit":false,"distance":3632}]]}