{"data":[[{"transit":false,"station_id":"TNT","time":0,"distance":0,"i_lat":-6.3080680000000005,"station_name":"Tanjung Barat","line":2,"i_long":106.838896,"is_transit":false},{"station_id":"PSM","station_name":"Pasar Minggu","is_transit":false,"distance":2820,"i_lat":-6.2842400000000005,"line":2,"time":4,"transit":false,"i_long":106.843999},{"distance":2380,"i_long":106.851577,"station_id":"PSMB","i_lat":-6.263214,"time":2,"is_transit":false,"transit":false,"line":2,"station_name":"Pasar Minggu Baru"},{"time":2,"transit":false,"distance":824,"station_name":"Duren Kalibata","i_lat":-6.255332,"station_id":"DRN","is_transit":false,"line":2,"i_long":106.85449},{"line":2,"transit":false,"i_long":106.856607,"station_id":"CW","time":3,"is_transit":false,"i_lat":-6.242512,"station_name":"Cawang","distance":1546},{"i_lat":-6.226659,"i_long":106.857948,"is_transit":false,"transit":false,"line":2,"station_id":"TEB","station_name":"Tebet","distance":1230,"time":2},{"i_lat":-6.209883,"station_name":"Manggarai","i_long":106.84912,"time":4,"line":2,"transit":false,"distance":2610,"station_id":"MRI","is_transit":false},{"time":4,"i_long":106.840169,"distance":1590,"is_transit":false,"station_name":"Cikini","station_id":"CKI","transit":false,"i_lat":-6.198556,"line":2},{"distance":1750,"time":3,"i_long":106.832183,"station_id":"GDD","i_lat":-6.186295,"line":2,"transit":false,"station_name":"Gondangdia","is_transit":false}],[{"station_id":"TNT","time":0,"i_long":106.838896,"is_transit":false,"distance":0,"line":2,"transit":false,"station_name":"Tanjung Barat","i_lat":-6.3080680000000005},{"transit":false,"i_lat":-6.2842400000000005,"time":4,"is_transit":false,"station_id":"PSM","station_name":"Pasar Minggu","i_long":106.843999,"line":2,"distance":2820},{"station_id":"PSMB","i_long":106.851577,"line":2,"station_name":"Pasar Minggu Baru","distance":2380,"transit":false,"is_transit":false,"i_lat":-6.263214,"time":2},{"transit":false,"station_id":"DRN","i_lat":-6.255332,"i_long":106.85449,"line":2,"station_name":"Duren Kalibata","time":2,"is_transit":false,"distance":824},{"distance":1546,"i_long":106.856607,"transit":false,"i_lat":-6.242512,"station_id":"CW","line":2,"station_name":"Cawang","time":3,"is_transit":false},{"time":2,"distance":1230,"station_id":"TEB","line":2,"station_name":"Tebet","transit":false,"is_transit":false,"i_lat":-6.226659,"i_long":106.857948},{"station_id":"MRI","i_long":106.84912,"line":2,"distance":2610,"time":4,"is_transit":true,"transit":true,"station_name":"Manggarai","i_lat":-6.209883},{"transit":false,"line":1,"distance":3186,"station_id":"SUD","station_name":"Sudirman","i_lat":-6.202263,"i_long":106.822649,"time":4,"is_transit":false},{"line":1,"station_id":"SUDB","time":1,"is_transit":false,"i_long":106.819881,"transit":false,"station_name":"Sudirman Baru","distance":280,"i_lat":-6.201433},{"time":1,"transit":false,"distance":471,"i_long":106.816351,"line":1,"station_id":"KAT","station_name":"Karet","i_lat":-6.20132,"is_transit":false},{"station_name":"Tanah Abang","distance":2029,"station_id":"THB","line":1,"i_lat":-6.185545,"time":5,"is_transit":false,"i_long":106.811091,"transit":false},{"i_lat":-6.155215,"transit":false,"station_id":"DU","distance":3632,"line":1,"is_transit":false,"time":8,"i_long":106.800832,"station_name":"Duri"},{"transit":false,"time":4,"station_id":"AK","is_transit":false,"i_lat":-6.144674,"i_long":106.79867,"line":1,"distance":1230,"station_name":"Angke"},{"transit":true,"i_lat":-6.132549,"i_long":106.826365,"distance":4102,"time":9,"station_id":"KPB","line":4,"station_name":"Kampung Bandan","is_transit":true},{"is_transit":true,"transit":true,"line":2,"distance":1364,"station_id":"JAKK","i_long":106.812439,"time":3,"station_name":"Jakarta Kota","i_lat":-6.137569},{"i_long":106.820901,"line":2,"time":4,"transit":false,"station_name":"Jayakarta","i_lat":-6.141205,"station_id":"JAY","is_transit":false,"distance":1264},{"is_transit":false,"i_long":106.82482,"distance":1080,"time":2,"station_id":"MGB","station_name":"Manggabesar","transit":false,"line":2,"i_lat":-6.149769},{"time":2,"is_transit":false,"i_long":106.827103,"line":2,"transit":false,"distance":906,"station_name":"Sawah Besar","i_lat":-6.160725,"station_id":"SW"},{"line":2,"station_id":"JUA","i_long":106.828284,"station_name":"Juanda","time":2,"distance":1149,"transit":false,"i_lat":-6.166716,"is_transit":false},{"i_lat":-6.186295,"station_id":"GDD","station_name":"Gondangdia","time":4,"is_transit":false,"line":2,"distance":2015,"i_long":106.832183,"transit":false}],[{"station_id":"TNT","distance":0,"i_long":106.838896,"transit":false,"i_lat":-6.3080680000000005,"time":0,"is_transit":false,"station_name":"Tanjung Barat","line":2},{"is_transit":false,"i_lat":-6.2842400000000005,"station_id":"PSM","distance":2820,"line":2,"station_name":"Pasar Minggu","i_long":106.843999,"time":4,"transit":false},{"time":2,"i_long":106.851577,"transit":false,"i_lat":-6.263214,"distance":2380,"is_transit":false,"station_id":"PSMB","line":2,"station_name":"Pasar Minggu Baru"},{"time":2,"line":2,"i_long":106.85449,"transit":false,"distance":824,"i_lat":-6.255332,"station_id":"DRN","is_transit":false,"station_name":"Duren Kalibata"},{"distance":1546,"i_long":106.856607,"is_transit":false,"line":2,"time":3,"i_lat":-6.242512,"transit":false,"station_id":"CW","station_name":"Cawang"},{"station_name":"Tebet","i_lat":-6.226659,"transit":false,"line":2,"time":2,"distance":1230,"is_transit":false,"i_long":106.857948,"station_id":"TEB"},{"i_long":106.84912,"distance":2610,"i_lat":-6.209883,"station_name":"Manggarai","time":4,"line":2,"transit":true,"is_transit":true,"station_id":"MRI"},{"station_name":"Matraman","i_lat":-6.212485,"i_long":106.858896,"transit":false,"time":2,"line":1,"is_transit":false,"station_id":"MTR","distance":1275},{"distance":1377,"station_id":"JNG","i_long":106.86807400000001,"transit":true,"line":1,"time":8,"i_lat":-6.215091,"is_transit":true,"station_name":"Jatinegara"},{"i_lat":-6.209188,"is_transit":false,"station_name":"Pondok Jati","line":11,"transit":false,"time":2,"i_long":106.861737,"distance":1236,"station_id":"POK"},{"i_long":106.855437,"i_lat":-6.193792,"line":11,"station_id":"KMT","is_transit":false,"distance":1829,"station_name":"Kramat","time":2,"transit":false},{"station_id":"GST","station_name":"Gang Sentiong","time":1,"i_lat":-6.185975,"i_long":106.850107,"line":11,"is_transit":false,"distance":973,"transit":false},{"i_lat":-6.174784,"distance":1567,"station_name":"Pasar Senen","time":8,"i_long":106.84368,"line":11,"transit":false,"station_id":"PSE","is_transit":false},{"line":11,"station_name":"Kemayoran","is_transit":false,"distance":1436,"i_lat":-6.161728,"i_long":106.839204,"station_id":"KMO","transit":false,"time":4},{"transit":false,"i_long":106.836569,"is_transit":false,"station_id":"RJW","distance":1901,"line":11,"i_lat":-6.14505,"time":5,"station_name":"Rajawali"},{"time":3,"station_id":"KPB","i_long":106.826365,"line":4,"distance":1444,"station_name":"Kampung Bandan","transit":true,"i_lat":-6.132549,"is_transit":true},{"i_long":106.812439,"line":2,"i_lat":-6.137569,"station_name":"Jakarta Kota","is_transit":true,"time":3,"transit":true,"distance":1364,"station_id":"JAKK"},{"station_id":"JAY","distance":1264,"is_transit":false,"station_name":"Jayakarta","i_long":106.820901,"time":4,"transit":false,"line":2,"i_lat":-6.141205},{"i_lat":-6.149769,"station_name":"Manggabesar","time":2,"distance":1080,"i_long":106.82482,"line":2,"station_id":"MGB","is_transit":false,"transit":false},{"is_transit":false,"distance":906,"station_id":"SW","transit":false,"time":2,"i_lat":-6.160725,"i_long":106.827103,"line":2,"station_name":"Sawah Besar"},{"station_name":"Juanda","is_transit":false,"transit":false,"i_long":106.828284,"station_id":"JUA","time":2,"distance":1149,"i_lat":-6.166716,"line":2},{"station_name":"Gondangdia","i_long":106.832183,"time":4,"station_id":"GDD","line":2,"is_transit":false,"transit":false,"i_lat":-6.186295,"distance":2015}]]}