{"data":[[{"time":0,"transit":false,"line":2,"station_id":"TNT","is_transit":false,"distance":0,"i_lat":-6.3080680000000005,"station_name":"Tanjung Barat","i_long":106.838896},{"transit":false,"station_id":"PSM","distance":2820,"is_transit":false,"station_name":"Pasar Minggu","line":2,"i_lat":-6.2842400000000005,"time":4,"i_long":106.843999},{"station_name":"Pasar Minggu Baru","line":2,"station_id":"PSMB","is_transit":false,"distance":2380,"transit":false,"time":2,"i_lat":-6.263214,"i_long":106.851577},{"station_name":"Duren Kalibata","station_id":"DRN","time":2,"i_long":106.85449,"transit":false,"distance":824,"line":2,"i_lat":-6.255332,"is_transit":false},{"distance":1546,"transit":false,"time":3,"station_name":"Cawang","i_lat":-6.242512,"i_long":106.856607,"line":2,"is_transit":false,"station_id":"CW"},{"line":2,"station_name":"Tebet","time":2,"i_long":106.857948,"transit":false,"is_transit":false,"station_id":"TEB","i_lat":-6.226659,"distance":1230},{"time":4,"line":2,"i_long":106.84912,"transit":true,"i_lat":-6.209883,"station_name":"Manggarai","station_id":"MRI","is_transit":true,"distance":2610},{"station_name":"Sudirman","line":1,"distance":3186,"i_lat":-6.202263,"is_transit":false,"station_id":"SUD","i_long":106.822649,"time":4,"transit":false},{"i_lat":-6.201433,"i_long":106.819881,"line":1,"is_transit":false,"transit":false,"distance":280,"station_name":"Sudirman Baru","time":1,"station_id":"SUDB"},{"distance":471,"is_transit":false,"i_lat":-6.20132,"i_long":106.816351,"time":1,"line":1,"station_name":"Karet","transit":false,"station_id":"KAT"},{"time":5,"i_lat":-6.185545,"i_long":106.811091,"station_name":"Tanah Abang","line":1,"distance":2029,"station_id":"THB","transit":true,"is_transit":true},{"line":6,"distance":3191,"station_name":"Palmerah","time":6,"station_id":"PLM","transit":false,"i_lat":-6.207404,"is_transit":false,"i_long":106.79689},{"distance":3737,"station_name":"Kebayoran","is_transit":false,"line":6,"i_lat":-6.237242,"station_id":"KBY","time":7,"transit":false,"i_long":106.780334},{"is_transit":false,"i_lat":-6.276362,"distance":6218,"i_long":106.74273,"transit":false,"station_id":"PDJ","line":6,"station_name":"Pondokranji","time":8},{"distance":2179,"i_long":106.728916,"is_transit":false,"transit":false,"time":3,"station_name":"Jurangmangu","station_id":"JMU","i_lat":-6.288927,"line":6},{"station_name":"Sudimara","station_id":"SDM","is_transit":false,"distance":1994,"i_long":106.712277,"i_lat":-6.296963,"line":6,"time":4,"transit":false},{"distance":4566,"transit":false,"station_name":"Rawa Buntu","is_transit":false,"i_lat":-6.314823,"i_long":106.675475,"time":6,"line":6,"station_id":"RU"},{"is_transit":false,"station_id":"SRP","i_long":106.66566,"station_name":"Serpong","time":4,"line":6,"transit":false,"i_lat":-6.319871,"distance":2413},{"i_lat":-6.32484,"is_transit":false,"station_id":"CSK","line":3,"i_long":106.640411,"transit":false,"station_name":"Cisauk","time":4,"distance":1784},{"i_lat":-6.329547,"distance":2519,"time":4,"i_long":106.617853,"line":3,"station_name":"Cicayur","station_id":"CC","is_transit":false,"transit":false}],[{"is_transit":false,"i_long":106.838896,"station_name":"Tanjung Barat","station_id":"TNT","time":0,"transit":false,"i_lat":-6.3080680000000005,"line":2,"distance":0},{"transit":false,"i_long":106.843999,"distance":2820,"i_lat":-6.2842400000000005,"station_id":"PSM","time":4,"line":2,"station_name":"Pasar Minggu","is_transit":false},{"station_name":"Pasar Minggu Baru","time":2,"is_transit":false,"transit":false,"station_id":"PSMB","distance":2380,"i_lat":-6.263214,"i_long":106.851577,"line":2},{"station_name":"Duren Kalibata","time":2,"transit":false,"is_transit":false,"distance":824,"i_lat":-6.255332,"line":2,"station_id":"DRN","i_long":106.85449},{"line":2,"station_name":"Cawang","i_lat":-6.242512,"time":3,"is_transit":false,"i_long":106.856607,"distance":1546,"transit":false,"station_id":"CW"},{"line":2,"station_id":"TEB","i_lat":-6.226659,"is_transit":false,"station_name":"Tebet","i_long":106.857948,"distance":1230,"transit":false,"time":2},{"station_name":"Manggarai","is_transit":false,"time":4,"i_lat":-6.209883,"station_id":"MRI","transit":false,"line":2,"i_long":106.84912,"distance":2610},{"time":4,"i_long":106.840169,"station_name":"Cikini","is_transit":false,"transit":false,"distance":1590,"line":2,"i_lat":-6.198556,"station_id":"CKI"},{"line":2,"distance":1750,"station_name":"Gondangdia","transit":false,"is_transit":false,"time":3,"i_lat":-6.186295,"i_long":106.832183,"station_id":"GDD"},{"line":2,"i_lat":-6.166716,"i_long":106.828284,"station_name":"Juanda","station_id":"JUA","time":4,"is_transit":false,"transit":false,"distance":2015},{"line":2,"station_id":"SW","i_lat":-6.160725,"transit":false,"station_name":"Sawah Besar","time":2,"i_long":106.827103,"is_transit":false,"distance":1149},{"is_transit":false,"station_id":"MGB","distance":906,"station_name":"Manggabesar","i_lat":-6.149769,"line":2,"transit":false,"time":2,"i_long":106.82482},{"station_id":"JAY","time":2,"distance":1080,"is_transit":false,"i_lat":-6.141205,"line":2,"station_name":"Jayakarta","i_long":106.820901,"transit":false},{"is_transit":true,"i_lat":-6.137569,"i_long":106.812439,"transit":true,"station_id":"JAKK","time":4,"line":2,"distance":1264,"station_name":"Jakarta Kota"},{"is_transit":true,"i_lat":-6.132549,"distance":1364,"transit":true,"line":4,"station_id":"KPB","station_name":"Kampung Bandan","time":3,"i_long":106.826365},{"station_id":"AK","time":9,"distance":4102,"station_name":"Angke","transit":false,"i_lat":-6.144674,"is_transit":false,"line":1,"i_long":106.79867},{"is_transit":false,"station_name":"Duri","time":4,"transit":false,"i_lat":-6.155215,"station_id":"DU","distance":1230,"line":1,"i_long":106.800832},{"i_lat":-6.185545,"line":1,"time":8,"station_name":"Tanah Abang","i_long":106.811091,"is_transit":true,"distance":3632,"transit":true,"station_id":"THB"},{"station_name":"Palmerah","i_long":106.79689,"line":6,"station_id":"PLM","distance":3191,"is_transit":false,"time":6,"i_lat":-6.207404,"transit":false},{"i_lat":-6.237242,"station_id":"KBY","transit":false,"distance":3737,"line":6,"station_name":"Kebayoran","i_long":106.780334,"time":7,"is_transit":false},{"transit":false,"station_id":"PDJ","distance":6218,"i_lat":-6.276362,"station_name":"Pondokranji","is_transit":false,"line":6,"i_long":106.74273,"time":8},{"i_long":106.728916,"transit":false,"station_id":"JMU","distance":2179,"station_name":"Jurangmangu","time":3,"line":6,"is_transit":false,"i_lat":-6.288927},{"time":4,"i_long":106.712277,"station_id":"SDM","transit":false,"line":6,"is_transit":false,"i_lat":-6.296963,"distance":1994,"station_name":"Sudimara"},{"distance":4566,"i_long":106.675475,"station_id":"RU","time":6,"i_lat":-6.314823,"transit":false,"station_name":"Rawa Buntu","line":6,"is_transit":false},{"time":4,"i_long":106.66566,"transit":false,"station_name":"Serpong","i_lat":-6.319871,"line":6,"distance":2413,"station_id":"SRP","is_transit":false},{"station_name":"Cisauk","i_lat":-6.32484,"i_long":106.640411,"distance":1784,"transit":false,"line":3,"is_transit":false,"time":4,"station_id":"CSK"},{"line":3,"distance":2519,"i_long":106.617853,"station_name":"Cicayur","is_transit":false,"time":4,"transit":false,"i_lat":-6.329547,"station_id":"CC"}],[{"station_name":"Tanjung Barat","line":2,"transit":false,"distance":0,"i_long":106.838896,"is_transit":false,"time":0,"i_lat":-6.3080680000000005,"station_id":"TNT"},{"time":4,"line":2,"transit":false,"station_id":"PSM","i_lat":-6.2842400000000005,"station_name":"Pasar Minggu","is_transit":false,"distance":2820,"i_long":106.843999},{"i_lat":-6.263214,"distance":2380,"station_name":"Pasar Minggu Baru","i_long":106.851577,"station_id":"PSMB","is_transit":false,"transit":false,"time":2,"line":2},{"station_name":"Duren Kalibata","station_id":"DRN","transit":false,"is_transit":false,"i_lat":-6.255332,"distance":824,"i_long":106.85449,"time":2,"line":2},{"line":2,"transit":false,"station_name":"Cawang","time":3,"i_lat":-6.242512,"is_transit":false,"distance":1546,"station_id":"CW","i_long":106.856607},{"i_long":106.857948,"transit":false,"station_name":"Tebet","is_transit":false,"i_lat":-6.226659,"line":2,"station_id":"TEB","time":2,"distance":1230},{"station_name":"Manggarai","time":4,"is_transit":true,"i_lat":-6.209883,"line":2,"distance":2610,"transit":true,"station_id":"MRI","i_long":106.84912},{"transit":false,"is_transit":false,"time":2,"distance":1275,"station_name":"Matraman","station_id":"MTR","i_lat":-6.212485,"i_long":106.858896,"line":1},{"i_long":106.86807400000001,"station_id":"JNG","station_name":"Jatinegara","i_lat":-6.215091,"transit":true,"line":1,"is_transit":true,"time":8,"distance":1377},{"time":2,"line":11,"distance":1236,"station_name":"Pondok Jati","i_long":106.861737,"station_id":"POK","is_transit":false,"transit":false,"i_lat":-6.209188},{"i_long":106.855437,"station_id":"KMT","transit":false,"line":11,"is_transit":false,"time":2,"i_lat":-6.193792,"station_name":"Kramat","distance":1829},{"transit":false,"is_transit":false,"i_lat":-6.185975,"time":1,"line":11,"station_name":"Gang Sentiong","station_id":"GST","i_long":106.850107,"distance":973},{"is_transit":false,"i_lat":-6.174784,"transit":false,"distance":1567,"station_name":"Pasar Senen","station_id":"PSE","time":8,"i_long":106.84368,"line":11},{"i_long":106.839204,"station_name":"Kemayoran","line":11,"station_id":"KMO","transit":false,"time":4,"i_lat":-6.161728,"distance":1436,"is_transit":false},{"is_transit":false,"station_id":"RJW","distance":1901,"time":5,"transit":false,"station_name":"Rajawali","i_lat":-6.14505,"i_long":106.836569,"line":11},{"distance":1444,"i_long":106.826365,"i_lat":-6.132549,"is_transit":true,"transit":true,"line":4,"station_name":"Kampung Bandan","time":3,"station_id":"KPB"},{"station_name":"Angke","transit":false,"time":9,"station_id":"AK","is_transit":false,"distance":4102,"i_lat":-6.144674,"i_long":106.79867,"line":1},{"time":4,"station_id":"DU","i_lat":-6.155215,"is_transit":false,"i_long":106.800832,"transit":false,"line":1,"distance":1230,"station_name":"Duri"},{"is_transit":true,"distance":3632,"i_long":106.811091,"line":1,"i_lat":-6.185545,"transit":true,"station_id":"THB","station_name":"Tanah Abang","time":8},{"i_long":106.79689,"station_name":"Palmerah","is_transit":false,"station_id":"PLM","i_lat":-6.207404,"distance":3191,"time":6,"line":6,"transit":false},{"line":6,"transit":false,"station_id":"KBY","distance":3737,"time":7,"i_long":106.780334,"is_transit":false,"station_name":"Kebayoran","i_lat":-6.237242},{"is_transit":false,"distance":6218,"station_id":"PDJ","i_lat":-6.276362,"line":6,"transit":false,"time":8,"i_long":106.74273,"station_name":"Pondokranji"},{"i_lat":-6.288927,"transit":false,"time":3,"distance":2179,"i_long":106.728916,"line":6,"is_transit":false,"station_id":"JMU","station_name":"Jurangmangu"},{"line":6,"transit":false,"distance":1994,"i_long":106.712277,"i_lat":-6.296963,"is_transit":false,"station_name":"Sudimara","station_id":"SDM","time":4},{"station_id":"RU","i_lat":-6.314823,"i_long":106.675475,"time":6,"transit":false,"station_name":"Rawa Buntu","distance":4566,"line":6,"is_transit":false},{"line":6,"distance":2413,"is_transit":false,"i_lat":-6.319871,"transit":false,"time":4,"station_id":"SRP","station_name":"Serpong","i_long":106.66566},{"time":4,"i_long":106.640411,"i_lat":-6.32484,"station_id":"CSK","distance":1784,"line":3,"transit":false,"is_transit":false,"station_name":"Cisauk"},{"i_long":106.617853,"station_name":"Cicayur","time":4,"distance":2519,"line":3,"transit":false,"i_lat":-6.329547,"station_id":"CC","is_transit":false}]]}