{"data":[[{"i_long":106.838896,"is_transit":false,"transit":false,"station_name":"Tanjung Barat","time":0,"station_id":"TNT","i_lat":-6.3080680000000005,"line":2,"distance":0},{"station_id":"PSM","i_lat":-6.2842400000000005,"time":4,"distance":2820,"line":2,"station_name":"Pasar Minggu","transit":false,"is_transit":false,"i_long":106.843999},{"line":2,"transit":false,"time":2,"i_lat":-6.263214,"station_name":"Pasar Minggu Baru","is_transit":false,"distance":2380,"i_long":106.851577,"station_id":"PSMB"},{"i_lat":-6.255332,"line":2,"station_name":"Duren Kalibata","i_long":106.85449,"time":2,"transit":false,"is_transit":false,"distance":824,"station_id":"DRN"},{"station_name":"Cawang","distance":1546,"i_lat":-6.242512,"time":3,"station_id":"CW","is_transit":false,"line":2,"transit":false,"i_long":106.856607},{"transit":false,"line":2,"is_transit":false,"station_id":"TEB","distance":1230,"time":2,"i_lat":-6.226659,"station_name":"Tebet","i_long":106.857948},{"i_long":106.84912,"station_id":"MRI","transit":true,"line":2,"distance":2610,"station_name":"Manggarai","time":4,"i_lat":-6.209883,"is_transit":true},{"i_long":106.858896,"line":1,"distance":1275,"transit":false,"station_id":"MTR","station_name":"Matraman","is_transit":false,"i_lat":-6.212485,"time":2},{"i_lat":-6.215091,"is_transit":false,"i_long":106.86807400000001,"distance":1377,"time":8,"line":1,"station_name":"Jatinegara","station_id":"JNG","transit":false},{"i_lat":-6.2135,"time":3,"transit":false,"is_transit":false,"distance":3395,"line":1,"station_id":"KLD","station_name":"Klender","i_long":106.899548},{"i_long":106.922662,"distance":3100,"line":1,"time":2,"i_lat":-6.215568,"station_name":"Buaran","station_id":"BUA","is_transit":false,"transit":false},{"distance":1305,"station_id":"KLDB","time":1,"i_lat":-6.217455,"i_long":106.939679,"line":1,"is_transit":false,"station_name":"Klenderbaru","transit":false},{"i_long":106.951283,"station_name":"Cakung","station_id":"CUK","line":1,"time":8,"i_lat":-6.219053,"transit":false,"distance":1385,"is_transit":false},{"i_long":106.977657,"distance":3097,"is_transit":false,"station_name":"Kranji","station_id":"KRI","transit":false,"line":1,"time":3,"i_lat":-6.224515},{"is_transit":false,"station_id":"BKS","time":4,"transit":false,"i_long":106.997013,"i_lat":-6.236616,"distance":2520,"station_name":"Bekasi","line":1},{"station_name":"Bekasi Timur","transit":false,"distance":2368,"i_long":107.016735,"i_lat":-6.248029,"line":1,"time":2,"is_transit":false,"station_id":"BKST"},{"station_name":"Tambun","is_transit":false,"station_id":"TB","i_lat":-6.258864,"time":7,"i_long":107.055722,"line":1,"distance":4460,"transit":false},{"transit":false,"i_lat":-6.261877,"i_long":107.083084,"station_id":"CIT","line":1,"time":3,"is_transit":false,"distance":3420,"station_name":"Cibitung"},{"i_long":107.093313,"line":1,"distance":2800,"station_id":"TLM","i_lat":-6.262938,"time":2,"transit":false,"is_transit":false,"station_name":"Metland Telaga Murni"}],[{"transit":false,"distance":0,"time":0,"station_id":"TNT","i_long":106.838896,"is_transit":false,"station_name":"Tanjung Barat","i_lat":-6.3080680000000005,"line":2},{"station_id":"PSM","distance":2820,"station_name":"Pasar Minggu","i_long":106.843999,"time":4,"transit":false,"is_transit":false,"i_lat":-6.2842400000000005,"line":2},{"time":2,"distance":2380,"transit":false,"station_id":"PSMB","i_long":106.851577,"line":2,"station_name":"Pasar Minggu Baru","is_transit":false,"i_lat":-6.263214},{"i_long":106.85449,"is_transit":false,"station_name":"Duren Kalibata","station_id":"DRN","i_lat":-6.255332,"transit":false,"time":2,"distance":824,"line":2},{"transit":false,"time":3,"i_lat":-6.242512,"station_name":"Cawang","is_transit":false,"station_id":"CW","i_long":106.856607,"line":2,"distance":1546},{"transit":false,"i_lat":-6.226659,"distance":1230,"is_transit":false,"station_id":"TEB","line":2,"station_name":"Tebet","time":2,"i_long":106.857948},{"is_transit":true,"transit":true,"distance":2610,"time":4,"i_lat":-6.209883,"i_long":106.84912,"station_id":"MRI","station_name":"Manggarai","line":2},{"line":1,"i_lat":-6.202263,"is_transit":false,"transit":false,"distance":3186,"station_id":"SUD","i_long":106.822649,"station_name":"Sudirman","time":4},{"i_long":106.819881,"time":1,"line":1,"station_id":"SUDB","distance":280,"transit":false,"station_name":"Sudirman Baru","is_transit":false,"i_lat":-6.201433},{"time":1,"station_name":"Karet","line":1,"transit":false,"i_long":106.816351,"distance":471,"i_lat":-6.20132,"is_transit":false,"station_id":"KAT"},{"station_id":"THB","is_transit":false,"time":5,"transit":false,"station_name":"Tanah Abang","distance":2029,"i_long":106.811091,"line":1,"i_lat":-6.185545},{"line":1,"time":8,"i_long":106.800832,"station_id":"DU","transit":false,"station_name":"Duri","is_transit":false,"i_lat":-6.155215,"distance":3632},{"station_id":"AK","distance":1230,"i_long":106.79867,"station_name":"Angke","is_transit":false,"i_lat":-6.144674,"transit":false,"time":4,"line":1},{"is_transit":true,"transit":true,"distance":4102,"station_id":"KPB","time":9,"station_name":"Kampung Bandan","i_lat":-6.132549,"i_long":106.826365,"line":4},{"line":11,"station_id":"RJW","i_lat":-6.14505,"is_transit":false,"time":3,"distance":1444,"transit":false,"station_name":"Rajawali","i_long":106.836569},{"station_name":"Kemayoran","i_lat":-6.161728,"is_transit":false,"time":5,"transit":false,"station_id":"KMO","distance":1901,"i_long":106.839204,"line":11},{"transit":false,"i_long":106.84368,"station_name":"Pasar Senen","distance":1436,"line":11,"station_id":"PSE","is_transit":false,"time":4,"i_lat":-6.174784},{"transit":false,"station_id":"GST","station_name":"Gang Sentiong","time":8,"i_long":106.850107,"i_lat":-6.185975,"is_transit":false,"line":11,"distance":1567},{"line":11,"is_transit":false,"time":1,"transit":false,"i_long":106.855437,"i_lat":-6.193792,"distance":973,"station_name":"Kramat","station_id":"KMT"},{"i_long":106.861737,"i_lat":-6.209188,"time":2,"line":11,"station_id":"POK","station_name":"Pondok Jati","transit":false,"is_transit":false,"distance":1829},{"is_transit":true,"distance":1236,"station_name":"Jatinegara","time":9,"station_id":"JNG","line":1,"i_long":106.86807400000001,"transit":true,"i_lat":-6.215091},{"line":1,"station_name":"Klender","is_transit":false,"station_id":"KLD","i_lat":-6.2135,"i_long":106.899548,"distance":3395,"transit":false,"time":3},{"is_transit":false,"station_name":"Buaran","time":2,"i_long":106.922662,"station_id":"BUA","distance":3100,"i_lat":-6.215568,"line":1,"transit":false},{"is_transit":false,"station_name":"Klenderbaru","distance":1305,"station_id":"KLDB","i_lat":-6.217455,"i_long":106.939679,"line":1,"time":1,"transit":false},{"station_id":"CUK","i_lat":-6.219053,"i_long":106.951283,"line":1,"station_name":"Cakung","time":8,"is_transit":false,"transit":false,"distance":1385},{"i_lat":-6.224515,"i_long":106.977657,"line":1,"transit":false,"distance":3097,"station_id":"KRI","time":3,"station_name":"Kranji","is_transit":false},{"station_name":"Bekasi","station_id":"BKS","i_long":106.997013,"i_lat":-6.236616,"is_transit":false,"distance":2520,"line":1,"time":4,"transit":false},{"distance":2368,"station_id":"BKST","line":1,"time":2,"i_lat":-6.248029,"is_transit":false,"transit":false,"i_long":107.016735,"station_name":"Bekasi Timur"},{"transit":false,"line":1,"time":7,"i_lat":-6.258864,"station_name":"Tambun","i_long":107.055722,"distance":4460,"station_id":"TB","is_transit":false},{"time":3,"distance":3420,"i_lat":-6.261877,"station_name":"Cibitung","is_transit":false,"transit":false,"line":1,"station_id":"CIT","i_long":107.083084},{"transit":false,"station_id":"TLM","i_lat":-6.262938,"line":1,"time":2,"station_name":"Metland Telaga Murni","is_transit":false,"i_long":107.093313,"distance":2800}],[{"station_name":"Tanjung Barat","time":0,"i_lat":-6.3080680000000005,"i_long":106.838896,"transit":false,"is_transit":false,"station_id":"TNT","line":2,"distance":0},{"i_lat":-6.2842400000000005,"i_long":106.843999,"time":4,"line":2,"is_transit":false,"transit":false,"distance":2820,"station_name":"Pasar Minggu","station_id":"PSM"},{"station_name":"Pasar Minggu Baru","distance":2380,"station_id":"PSMB","transit":false,"is_transit":false,"line":2,"time":2,"i_lat":-6.263214,"i_long":106.851577},{"is_transit":false,"transit":false,"time":2,"i_long":106.85449,"i_lat":-6.255332,"distance":824,"station_name":"Duren Kalibata","station_id":"DRN","line":2},{"line":2,"transit":false,"is_transit":false,"i_lat":-6.242512,"i_long":106.856607,"distance":1546,"station_name":"Cawang","station_id":"CW","time":3},{"transit":false,"station_name":"Tebet","time":2,"station_id":"TEB","i_lat":-6.226659,"i_long":106.857948,"distance":1230,"line":2,"is_transit":false},{"i_long":106.84912,"line":2,"transit":false,"station_name":"Manggarai","is_transit":false,"time":4,"distance":2610,"i_lat":-6.209883,"station_id":"MRI"},{"i_long":106.840169,"transit":false,"distance":1590,"time":4,"is_transit":false,"station_id":"CKI","i_lat":-6.198556,"station_name":"Cikini","line":2},{"i_lat":-6.186295,"distance":1750,"i_long":106.832183,"station_id":"GDD","time":3,"is_transit":false,"transit":false,"station_name":"Gondangdia","line":2},{"i_long":106.828284,"line":2,"distance":2015,"station_id":"JUA","transit":false,"station_name":"Juanda","is_transit":false,"time":4,"i_lat":-6.166716},{"line":2,"transit":false,"station_name":"Sawah Besar","time":2,"is_transit":false,"distance":1149,"i_lat":-6.160725,"station_id":"SW","i_long":106.827103},{"distance":906,"i_lat":-6.149769,"station_name":"Manggabesar","transit":false,"i_long":106.82482,"station_id":"MGB","is_transit":false,"time":2,"line":2},{"transit":false,"distance":1080,"i_long":106.820901,"line":2,"station_name":"Jayakarta","station_id":"JAY","is_transit":false,"time":2,"i_lat":-6.141205},{"time":4,"i_lat":-6.137569,"i_long":106.812439,"station_name":"Jakarta Kota","distance":1264,"line":2,"station_id":"JAKK","transit":true,"is_transit":true},{"distance":1364,"time":3,"station_id":"KPB","i_lat":-6.132549,"line":4,"station_name":"Kampung Bandan","i_long":106.826365,"transit":true,"is_transit":true},{"i_lat":-6.14505,"transit":false,"is_transit":false,"time":3,"station_name":"Rajawali","distance":1444,"i_long":106.836569,"line":11,"station_id":"RJW"},{"time":5,"distance":1901,"i_long":106.839204,"station_name":"Kemayoran","station_id":"KMO","is_transit":false,"i_lat":-6.161728,"line":11,"transit":false},{"i_long":106.84368,"line":11,"is_transit":false,"time":4,"distance":1436,"station_id":"PSE","station_name":"Pasar Senen","i_lat":-6.174784,"transit":false},{"transit":false,"distance":1567,"i_long":106.850107,"time":8,"i_lat":-6.185975,"station_name":"Gang Sentiong","is_transit":false,"station_id":"GST","line":11},{"station_name":"Kramat","i_lat":-6.193792,"transit":false,"is_transit":false,"distance":973,"time":1,"station_id":"KMT","i_long":106.855437,"line":11},{"time":2,"line":11,"station_name":"Pondok Jati","distance":1829,"station_id":"POK","is_transit":false,"transit":false,"i_long":106.861737,"i_lat":-6.209188},{"line":1,"station_id":"JNG","distance":1236,"time":9,"is_transit":true,"station_name":"Jatinegara","i_lat":-6.215091,"transit":true,"i_long":106.86807400000001},{"line":1,"distance":3395,"time":3,"station_name":"Klender","is_transit":false,"i_lat":-6.2135,"transit":false,"i_long":106.899548,"station_id":"KLD"},{"transit":false,"station_name":"Buaran","line":1,"is_transit":false,"station_id":"BUA","i_lat":-6.215568,"distance":3100,"time":2,"i_long":106.922662},{"transit":false,"line":1,"station_id":"KLDB","distance":1305,"station_name":"Klenderbaru","time":1,"i_lat":-6.217455,"i_long":106.939679,"is_transit":false},{"i_lat":-6.219053,"is_transit":false,"station_id":"CUK","station_name":"Cakung","time":8,"line":1,"i_long":106.951283,"transit":false,"distance":1385},{"i_lat":-6.224515,"station_name":"Kranji","transit":false,"station_id":"KRI","time":3,"distance":3097,"i_long":106.977657,"line":1,"is_transit":false},{"i_lat":-6.236616,"station_name":"Bekasi","is_transit":false,"transit":false,"time":4,"distance":2520,"station_id":"BKS","i_long":106.997013,"line":1},{"is_transit":false,"line":1,"distance":2368,"i_long":107.016735,"station_id":"BKST","time":2,"station_name":"Bekasi Timur","transit":false,"i_lat":-6.248029},{"station_name":"Tambun","i_lat":-6.258864,"is_transit":false,"transit":false,"distance":4460,"i_long":107.055722,"line":1,"time":7,"station_id":"TB"},{"line":1,"time":3,"station_name":"Cibitung","is_transit":false,"station_id":"CIT","i_lat":-6.261877,"distance":3420,"i_long":107.083084,"transit":false},{"is_transit":false,"station_name":"Metland Telaga Murni","line":1,"transit":false,"time":2,"station_id":"TLM","i_long":107.093313,"distance":2800,"i_lat":-6.262938}]]}