{"data":[[{"station_name":"Tanjung Barat","line":2,"time":0,"station_id":"TNT","distance":0,"transit":false,"is_transit":false,"i_long":106.838896,"i_lat":-6.3080680000000005},{"station_name":"Pasar Minggu","time":4,"line":2,"distance":2820,"transit":false,"is_transit":false,"i_lat":-6.2842400000000005,"station_id":"PSM","i_long":106.843999},{"distance":2380,"time":2,"is_transit":false,"transit":false,"i_lat":-6.263214,"station_id":"PSMB","station_name":"Pasar Minggu Baru","line":2,"i_long":106.851577},{"i_long":106.85449,"is_transit":false,"station_name":"Duren Kalibata","distance":824,"i_lat":-6.255332,"time":2,"line":2,"transit":false,"station_id":"DRN"},{"distance":1546,"station_name":"Cawang","is_transit":false,"station_id":"CW","i_lat":-6.242512,"line":2,"i_long":106.856607,"transit":false,"time":3},{"line":2,"station_id":"TEB","i_lat":-6.226659,"station_name":"Tebet","distance":1230,"is_transit":false,"transit":false,"time":2,"i_long":106.857948},{"station_name":"Manggarai","line":2,"is_transit":false,"transit":false,"station_id":"MRI","i_lat":-6.209883,"distance":2610,"time":4,"i_long":106.84912},{"i_long":106.840169,"time":4,"is_transit":false,"i_lat":-6.198556,"distance":1590,"transit":false,"line":2,"station_id":"CKI","station_name":"Cikini"},{"transit":false,"distance":1750,"station_id":"GDD","i_lat":-6.186295,"i_long":106.832183,"line":2,"station_name":"Gondangdia","is_transit":false,"time":3},{"transit":false,"time":4,"distance":2015,"is_transit":false,"i_long":106.828284,"i_lat":-6.166716,"line":2,"station_id":"JUA","station_name":"Juanda"}],[{"is_transit":false,"station_id":"TNT","station_name":"Tanjung Barat","time":0,"transit":false,"line":2,"distance":0,"i_lat":-6.3080680000000005,"i_long":106.838896},{"i_long":106.843999,"is_transit":false,"distance":2820,"time":4,"transit":false,"i_lat":-6.2842400000000005,"station_id":"PSM","station_name":"Pasar Minggu","line":2},{"time":2,"distance":2380,"i_long":106.851577,"station_name":"Pasar Minggu Baru","transit":false,"is_transit":false,"line":2,"i_lat":-6.263214,"station_id":"PSMB"},{"distance":824,"line":2,"is_transit":false,"time":2,"station_name":"Duren Kalibata","i_lat":-6.255332,"i_long":106.85449,"transit":false,"station_id":"DRN"},{"i_lat":-6.242512,"transit":false,"time":3,"is_transit":false,"i_long":106.856607,"distance":1546,"station_name":"Cawang","line":2,"station_id":"CW"},{"station_name":"Tebet","i_long":106.857948,"transit":false,"is_transit":false,"line":2,"time":2,"distance":1230,"station_id":"TEB","i_lat":-6.226659},{"transit":true,"is_transit":true,"i_lat":-6.209883,"station_name":"Manggarai","station_id":"MRI","time":4,"line":2,"i_long":106.84912,"distance":2610},{"time":4,"line":1,"is_transit":false,"station_id":"SUD","transit":false,"i_lat":-6.202263,"station_name":"Sudirman","i_long":106.822649,"distance":3186},{"i_long":106.819881,"station_name":"Sudirman Baru","is_transit":false,"time":1,"line":1,"transit":false,"station_id":"SUDB","i_lat":-6.201433,"distance":280},{"i_lat":-6.20132,"distance":471,"station_id":"KAT","station_name":"Karet","transit":false,"is_transit":false,"line":1,"time":1,"i_long":106.816351},{"transit":false,"i_long":106.811091,"time":5,"station_name":"Tanah Abang","line":1,"distance":2029,"station_id":"THB","is_transit":false,"i_lat":-6.185545},{"distance":3632,"i_lat":-6.155215,"line":1,"station_id":"DU","station_name":"Duri","is_transit":false,"time":8,"transit":false,"i_long":106.800832},{"is_transit":false,"station_name":"Angke","transit":false,"i_long":106.79867,"time":4,"distance":1230,"i_lat":-6.144674,"station_id":"AK","line":1},{"transit":true,"distance":4102,"i_lat":-6.132549,"line":4,"station_name":"Kampung Bandan","time":9,"i_long":106.826365,"is_transit":true,"station_id":"KPB"},{"transit":true,"station_name":"Jakarta Kota","time":3,"is_transit":true,"distance":1364,"i_lat":-6.137569,"i_long":106.812439,"station_id":"JAKK","line":2},{"line":2,"station_id":"JAY","station_name":"Jayakarta","i_long":106.820901,"time":4,"transit":false,"is_transit":false,"distance":1264,"i_lat":-6.141205},{"station_name":"Manggabesar","station_id":"MGB","i_lat":-6.149769,"i_long":106.82482,"time":2,"distance":1080,"line":2,"is_transit":false,"transit":false},{"i_lat":-6.160725,"distance":906,"transit":false,"line":2,"is_transit":false,"time":2,"station_name":"Sawah Besar","station_id":"SW","i_long":106.827103},{"i_lat":-6.166716,"i_long":106.828284,"transit":false,"station_id":"JUA","station_name":"Juanda","line":2,"time":2,"distance":1149,"is_transit":false}],[{"distance":0,"time":0,"station_id":"TNT","i_lat":-6.3080680000000005,"line":2,"is_transit":false,"transit":false,"station_name":"Tanjung Barat","i_long":106.838896},{"line":2,"distance":2820,"i_long":106.843999,"station_id":"PSM","time":4,"is_transit":false,"i_lat":-6.2842400000000005,"transit":false,"station_name":"Pasar Minggu"},{"i_lat":-6.263214,"station_name":"Pasar Minggu Baru","time":2,"line":2,"station_id":"PSMB","is_transit":false,"transit":false,"distance":2380,"i_long":106.851577},{"station_id":"DRN","i_lat":-6.255332,"station_name":"Duren Kalibata","i_long":106.85449,"distance":824,"is_transit":false,"line":2,"time":2,"transit":false},{"station_name":"Cawang","station_id":"CW","time":3,"distance":1546,"i_long":106.856607,"line":2,"is_transit":false,"transit":false,"i_lat":-6.242512},{"station_id":"TEB","i_lat":-6.226659,"line":2,"transit":false,"is_transit":false,"station_name":"Tebet","time":2,"i_long":106.857948,"distance":1230},{"time":4,"transit":true,"is_transit":true,"i_lat":-6.209883,"i_long":106.84912,"distance":2610,"station_name":"Manggarai","station_id":"MRI","line":2},{"i_lat":-6.212485,"transit":false,"i_long":106.858896,"distance":1275,"station_id":"MTR","is_transit":false,"time":2,"station_name":"Matraman","line":1},{"line":1,"time":8,"i_lat":-6.215091,"i_long":106.86807400000001,"distance":1377,"is_transit":true,"transit":true,"station_id":"JNG","station_name":"Jatinegara"},{"distance":1236,"i_long":106.861737,"is_transit":false,"station_name":"Pondok Jati","i_lat":-6.209188,"line":11,"transit":false,"time":2,"station_id":"POK"},{"i_long":106.855437,"transit":false,"station_name":"Kramat","line":11,"is_transit":false,"time":2,"distance":1829,"i_lat":-6.193792,"station_id":"KMT"},{"i_long":106.850107,"is_transit":false,"station_name":"Gang Sentiong","distance":973,"time":1,"transit":false,"line":11,"station_id":"GST","i_lat":-6.185975},{"distance":1567,"is_transit":false,"i_long":106.84368,"transit":false,"station_name":"Pasar Senen","line":11,"i_lat":-6.174784,"time":8,"station_id":"PSE"},{"distance":1436,"is_transit":false,"line":11,"transit":false,"station_name":"Kemayoran","time":4,"station_id":"KMO","i_long":106.839204,"i_lat":-6.161728},{"is_transit":false,"transit":false,"line":11,"distance":1901,"i_lat":-6.14505,"station_id":"RJW","time":5,"i_long":106.836569,"station_name":"Rajawali"},{"i_lat":-6.132549,"time":3,"station_id":"KPB","i_long":106.826365,"line":4,"distance":1444,"is_transit":true,"transit":true,"station_name":"Kampung Bandan"},{"is_transit":true,"station_name":"Jakarta Kota","distance":1364,"time":3,"station_id":"JAKK","line":2,"transit":true,"i_lat":-6.137569,"i_long":106.812439},{"station_id":"JAY","line":2,"is_transit":false,"distance":1264,"i_long":106.820901,"transit":false,"station_name":"Jayakarta","time":4,"i_lat":-6.141205},{"station_name":"Manggabesar","i_long":106.82482,"is_transit":false,"time":2,"transit":false,"station_id":"MGB","i_lat":-6.149769,"line":2,"distance":1080},{"transit":false,"station_name":"Sawah Besar","time":2,"i_long":106.827103,"station_id":"SW","line":2,"distance":906,"i_lat":-6.160725,"is_transit":false},{"transit":false,"line":2,"time":2,"distance":1149,"i_lat":-6.166716,"station_id":"JUA","is_transit":false,"station_name":"Juanda","i_long":106.828284}]]}