{"data":[[{"i_long":106.838896,"distance":0,"station_name":"Tanjung Barat","is_transit":false,"transit":false,"i_lat":-6.3080680000000005,"line":2,"station_id":"TNT","time":0},{"time":3,"i_long":106.832616,"station_id":"LNA","transit":false,"station_name":"Lenteng Agung","is_transit":false,"i_lat":-6.330363,"line":2,"distance":2671},{"line":2,"distance":1029,"transit":false,"time":2,"is_transit":false,"station_id":"UP","i_lat":-6.339291,"i_long":106.834175,"station_name":"Univ. Pancasila"},{"time":3,"station_id":"UI","distance":2264,"is_transit":false,"i_lat":-6.360749,"transit":false,"line":2,"station_name":"Univ. Indonesia","i_long":106.831474},{"distance":1109,"station_name":"Pondok Cina","transit":false,"station_id":"POC","i_lat":-6.369073,"is_transit":false,"i_long":106.831114,"time":2,"line":2},{"transit":false,"i_long":106.819451,"time":4,"is_transit":false,"station_id":"DPB","station_name":"Depokbaru","line":2,"i_lat":-6.391065,"distance":2727},{"is_transit":false,"time":3,"transit":false,"station_id":"DP","distance":1584,"station_name":"Depok","i_long":106.816926,"i_lat":-6.405256,"line":2}]]}