{"data":[[{"line":2,"i_long":106.838896,"station_name":"Tanjung Barat","distance":0,"transit":false,"time":0,"station_id":"TNT","i_lat":-6.3080680000000005,"is_transit":false},{"i_lat":-6.330363,"i_long":106.832616,"line":2,"distance":2671,"is_transit":false,"station_name":"Lenteng Agung","time":3,"transit":false,"station_id":"LNA"},{"time":2,"distance":1029,"is_transit":false,"transit":false,"station_id":"UP","station_name":"Univ. Pancasila","line":2,"i_lat":-6.339291,"i_long":106.834175},{"time":3,"is_transit":false,"distance":2264,"i_lat":-6.360749,"i_long":106.831474,"station_id":"UI","transit":false,"line":2,"station_name":"Univ. Indonesia"},{"i_lat":-6.369073,"distance":1109,"line":2,"i_long":106.831114,"station_name":"Pondok Cina","time":2,"transit":false,"is_transit":false,"station_id":"POC"},{"i_lat":-6.391065,"station_id":"DPB","is_transit":false,"line":0,"station_name":"Depokbaru","i_long":106.819451,"transit":false,"time":4,"distance":2727},{"line":0,"is_transit":false,"i_long":106.816926,"transit":false,"station_name":"Depok","distance":1584,"station_id":"DP","time":3,"i_lat":-6.405256},{"station_name":"Citayam","transit":false,"station_id":"CTA","line":1,"is_transit":true,"distance":5084,"i_lat":-6.448811,"time":6,"i_long":106.800298},{"distance":5197,"transit":false,"time":5,"is_transit":false,"station_name":"Bojonggede","station_id":"BJD","i_lat":-6.493243,"i_long":106.792719,"line":0},{"time":5,"station_id":"CLT","station_name":"Cilebut","i_lat":-6.530544,"distance":4331,"is_transit":false,"transit":false,"i_long":106.800016,"line":0},{"i_lat":-6.594596,"i_long":106.790574,"line":1,"time":9,"distance":7514,"station_id":"BOO","is_transit":true,"station_name":"Bogor","transit":false}]]}