{"data":[[{"time":0,"transit":false,"i_long":106.838896,"station_name":"Tanjung Barat","line":2,"distance":0,"is_transit":false,"i_lat":-6.3080680000000005,"station_id":"TNT"},{"time":4,"i_lat":-6.2842400000000005,"station_id":"PSM","transit":false,"station_name":"Pasar Minggu","distance":2820,"i_long":106.843999,"is_transit":false,"line":2},{"station_id":"PSMB","station_name":"Pasar Minggu Baru","line":2,"i_long":106.851577,"distance":2380,"transit":false,"is_transit":false,"time":2,"i_lat":-6.263214},{"time":2,"distance":824,"is_transit":false,"station_name":"Duren Kalibata","i_lat":-6.255332,"i_long":106.85449,"transit":false,"station_id":"DRN","line":2},{"station_name":"Cawang","time":3,"is_transit":false,"station_id":"CW","i_lat":-6.242512,"i_long":106.856607,"line":2,"distance":1546,"transit":false},{"is_transit":false,"station_id":"TEB","time":2,"station_name":"Tebet","line":2,"distance":1230,"i_lat":-6.226659,"transit":false,"i_long":106.857948},{"station_name":"Manggarai","line":2,"time":4,"station_id":"MRI","distance":2610,"is_transit":true,"i_long":106.84912,"i_lat":-6.209883,"transit":true},{"station_id":"SUD","line":1,"i_long":106.822649,"transit":false,"is_transit":false,"station_name":"Sudirman","i_lat":-6.202263,"time":4,"distance":3186},{"line":1,"i_long":106.819881,"time":1,"is_transit":false,"station_name":"Sudirman Baru","transit":false,"i_lat":-6.201433,"distance":280,"station_id":"SUDB"},{"station_name":"Karet","transit":false,"i_lat":-6.20132,"time":1,"i_long":106.816351,"line":1,"distance":471,"is_transit":false,"station_id":"KAT"},{"time":5,"station_name":"Tanah Abang","line":1,"distance":2029,"i_long":106.811091,"station_id":"THB","i_lat":-6.185545,"is_transit":false,"transit":false},{"time":8,"station_id":"DU","is_transit":true,"i_lat":-6.155215,"i_long":106.800832,"station_name":"Duri","transit":true,"line":1,"distance":3632},{"is_transit":false,"time":3,"line":5,"station_id":"GGL","distance":1700,"i_lat":-6.162021,"station_name":"Grogol","i_long":106.788277,"transit":false},{"station_id":"PSG","line":5,"time":2,"transit":false,"is_transit":false,"i_lat":-6.161433,"station_name":"Pesing","distance":2036,"i_long":106.771379},{"station_id":"TKO","station_name":"Taman Kota","time":2,"is_transit":false,"transit":false,"i_lat":-6.1587309999999995,"i_long":106.756522,"distance":1614,"line":5}],[{"is_transit":false,"distance":0,"time":0,"i_lat":-6.3080680000000005,"line":2,"transit":false,"station_id":"TNT","station_name":"Tanjung Barat","i_long":106.838896},{"is_transit":false,"i_long":106.843999,"station_name":"Pasar Minggu","transit":false,"i_lat":-6.2842400000000005,"station_id":"PSM","distance":2820,"time":4,"line":2},{"i_lat":-6.263214,"station_name":"Pasar Minggu Baru","distance":2380,"line":2,"i_long":106.851577,"transit":false,"is_transit":false,"time":2,"station_id":"PSMB"},{"time":2,"line":2,"transit":false,"distance":824,"i_lat":-6.255332,"i_long":106.85449,"station_id":"DRN","station_name":"Duren Kalibata","is_transit":false},{"station_id":"CW","i_lat":-6.242512,"time":3,"is_transit":false,"i_long":106.856607,"distance":1546,"line":2,"station_name":"Cawang","transit":false},{"station_name":"Tebet","i_lat":-6.226659,"line":2,"transit":false,"time":2,"i_long":106.857948,"station_id":"TEB","distance":1230,"is_transit":false},{"line":2,"i_lat":-6.209883,"station_name":"Manggarai","i_long":106.84912,"distance":2610,"time":4,"is_transit":false,"transit":false,"station_id":"MRI"},{"i_lat":-6.198556,"distance":1590,"i_long":106.840169,"station_id":"CKI","is_transit":false,"time":4,"transit":false,"line":2,"station_name":"Cikini"},{"i_lat":-6.186295,"station_name":"Gondangdia","i_long":106.832183,"station_id":"GDD","distance":1750,"transit":false,"line":2,"time":3,"is_transit":false},{"station_id":"JUA","time":4,"distance":2015,"transit":false,"line":2,"station_name":"Juanda","is_transit":false,"i_lat":-6.166716,"i_long":106.828284},{"i_lat":-6.160725,"i_long":106.827103,"line":2,"is_transit":false,"transit":false,"distance":1149,"time":2,"station_name":"Sawah Besar","station_id":"SW"},{"transit":false,"distance":906,"time":2,"station_name":"Manggabesar","i_lat":-6.149769,"is_transit":false,"station_id":"MGB","line":2,"i_long":106.82482},{"line":2,"distance":1080,"station_name":"Jayakarta","i_lat":-6.141205,"is_transit":false,"i_long":106.820901,"station_id":"JAY","time":2,"transit":false},{"i_lat":-6.137569,"line":2,"is_transit":true,"transit":true,"station_id":"JAKK","station_name":"Jakarta Kota","i_long":106.812439,"time":4,"distance":1264},{"transit":true,"i_lat":-6.132549,"is_transit":true,"station_id":"KPB","time":3,"station_name":"Kampung Bandan","distance":1364,"line":4,"i_long":106.826365},{"station_id":"AK","i_lat":-6.144674,"is_transit":false,"line":1,"time":9,"transit":false,"station_name":"Angke","distance":4102,"i_long":106.79867},{"i_lat":-6.155215,"station_id":"DU","line":1,"is_transit":true,"time":4,"i_long":106.800832,"station_name":"Duri","transit":true,"distance":1230},{"distance":1700,"i_long":106.788277,"i_lat":-6.162021,"time":3,"line":5,"station_id":"GGL","transit":false,"is_transit":false,"station_name":"Grogol"},{"i_lat":-6.161433,"station_id":"PSG","is_transit":false,"station_name":"Pesing","i_long":106.771379,"line":5,"distance":2036,"transit":false,"time":2},{"line":5,"is_transit":false,"i_long":106.756522,"station_id":"TKO","distance":1614,"station_name":"Taman Kota","time":2,"transit":false,"i_lat":-6.1587309999999995}],[{"station_name":"Tanjung Barat","distance":0,"station_id":"TNT","i_lat":-6.3080680000000005,"transit":false,"time":0,"i_long":106.838896,"is_transit":false,"line":2},{"i_lat":-6.2842400000000005,"transit":false,"is_transit":false,"station_name":"Pasar Minggu","i_long":106.843999,"time":4,"station_id":"PSM","line":2,"distance":2820},{"is_transit":false,"i_lat":-6.263214,"line":2,"station_name":"Pasar Minggu Baru","station_id":"PSMB","transit":false,"i_long":106.851577,"time":2,"distance":2380},{"i_long":106.85449,"distance":824,"i_lat":-6.255332,"transit":false,"station_name":"Duren Kalibata","line":2,"station_id":"DRN","is_transit":false,"time":2},{"station_name":"Cawang","distance":1546,"transit":false,"i_long":106.856607,"station_id":"CW","time":3,"i_lat":-6.242512,"line":2,"is_transit":false},{"is_transit":false,"distance":1230,"time":2,"station_id":"TEB","i_lat":-6.226659,"line":2,"transit":false,"i_long":106.857948,"station_name":"Tebet"},{"distance":2610,"time":4,"station_name":"Manggarai","line":2,"transit":true,"i_lat":-6.209883,"station_id":"MRI","is_transit":true,"i_long":106.84912},{"line":1,"i_lat":-6.212485,"is_transit":false,"distance":1275,"transit":false,"station_name":"Matraman","station_id":"MTR","i_long":106.858896,"time":2},{"i_lat":-6.215091,"is_transit":true,"i_long":106.86807400000001,"distance":1377,"station_name":"Jatinegara","station_id":"JNG","transit":true,"time":8,"line":1},{"station_id":"POK","station_name":"Pondok Jati","i_long":106.861737,"line":11,"is_transit":false,"time":2,"distance":1236,"transit":false,"i_lat":-6.209188},{"time":2,"i_long":106.855437,"distance":1829,"station_id":"KMT","i_lat":-6.193792,"transit":false,"is_transit":false,"line":11,"station_name":"Kramat"},{"station_id":"GST","i_long":106.850107,"line":11,"time":1,"transit":false,"is_transit":false,"station_name":"Gang Sentiong","i_lat":-6.185975,"distance":973},{"is_transit":false,"transit":false,"i_lat":-6.174784,"distance":1567,"line":11,"station_id":"PSE","time":8,"i_long":106.84368,"station_name":"Pasar Senen"},{"station_name":"Kemayoran","station_id":"KMO","i_lat":-6.161728,"distance":1436,"time":4,"line":11,"is_transit":false,"transit":false,"i_long":106.839204},{"line":11,"station_name":"Rajawali","station_id":"RJW","time":5,"i_lat":-6.14505,"is_transit":false,"transit":false,"distance":1901,"i_long":106.836569},{"distance":1444,"station_name":"Kampung Bandan","i_long":106.826365,"line":4,"time":3,"is_transit":true,"station_id":"KPB","transit":true,"i_lat":-6.132549},{"time":9,"line":1,"station_name":"Angke","i_lat":-6.144674,"is_transit":false,"distance":4102,"station_id":"AK","i_long":106.79867,"transit":false},{"line":1,"distance":1230,"is_transit":true,"transit":true,"station_id":"DU","i_lat":-6.155215,"time":4,"station_name":"Duri","i_long":106.800832},{"time":3,"line":5,"is_transit":false,"i_lat":-6.162021,"station_id":"GGL","i_long":106.788277,"station_name":"Grogol","transit":false,"distance":1700},{"i_lat":-6.161433,"line":5,"station_id":"PSG","transit":false,"distance":2036,"time":2,"station_name":"Pesing","i_long":106.771379,"is_transit":false},{"station_id":"TKO","line":5,"time":2,"station_name":"Taman Kota","is_transit":false,"i_lat":-6.1587309999999995,"i_long":106.756522,"distance":1614,"transit":false}]]}