{"data":[[{"distance":0,"station_name":"Tanjung Barat","station_id":"TNT","i_long":106.838896,"line":2,"time":0,"is_transit":false,"i_lat":-6.3080680000000005,"transit":false},{"station_id":"PSM","station_name":"Pasar Minggu","i_long":106.843999,"is_transit":false,"line":2,"time":4,"distance":2820,"transit":false,"i_lat":-6.2842400000000005},{"i_long":106.851577,"time":2,"distance":2380,"i_lat":-6.263214,"is_transit":false,"transit":false,"line":2,"station_id":"PSMB","station_name":"Pasar Minggu Baru"},{"is_transit":false,"i_lat":-6.255332,"time":2,"transit":false,"i_long":106.85449,"station_name":"Duren Kalibata","line":2,"distance":824,"station_id":"DRN"},{"station_name":"Cawang","transit":false,"time":3,"distance":1546,"i_long":106.856607,"station_id":"CW","is_transit":false,"i_lat":-6.242512,"line":2},{"transit":false,"time":2,"i_lat":-6.226659,"i_long":106.857948,"line":2,"station_id":"TEB","is_transit":false,"distance":1230,"station_name":"Tebet"},{"i_lat":-6.209883,"station_id":"MRI","is_transit":true,"distance":2610,"time":4,"station_name":"Manggarai","transit":true,"i_long":106.84912,"line":2},{"is_transit":false,"transit":false,"i_long":106.858896,"i_lat":-6.212485,"line":1,"time":2,"distance":1275,"station_id":"MTR","station_name":"Matraman"},{"transit":false,"i_lat":-6.215091,"i_long":106.86807400000001,"station_id":"JNG","station_name":"Jatinegara","line":1,"is_transit":false,"distance":1377,"time":8},{"time":3,"station_id":"KLD","is_transit":false,"line":1,"i_lat":-6.2135,"i_long":106.899548,"distance":3395,"station_name":"Klender","transit":false},{"transit":false,"line":1,"i_lat":-6.215568,"time":2,"station_name":"Buaran","station_id":"BUA","is_transit":false,"distance":3100,"i_long":106.922662},{"line":1,"is_transit":false,"i_long":106.939679,"time":1,"station_name":"Klenderbaru","station_id":"KLDB","transit":false,"i_lat":-6.217455,"distance":1305},{"is_transit":false,"station_id":"CUK","distance":1385,"i_lat":-6.219053,"station_name":"Cakung","time":8,"line":1,"i_long":106.951283,"transit":false},{"i_long":106.977657,"is_transit":false,"time":3,"transit":false,"station_id":"KRI","i_lat":-6.224515,"line":1,"distance":3097,"station_name":"Kranji"},{"distance":2520,"is_transit":false,"transit":false,"line":1,"i_long":106.997013,"i_lat":-6.236616,"time":4,"station_name":"Bekasi","station_id":"BKS"},{"i_lat":-6.248029,"station_name":"Bekasi Timur","is_transit":false,"line":1,"time":2,"station_id":"BKST","distance":2368,"transit":false,"i_long":107.016735},{"transit":false,"station_name":"Tambun","i_long":107.055722,"distance":4460,"i_lat":-6.258864,"station_id":"TB","time":7,"line":1,"is_transit":false},{"i_long":107.083084,"time":3,"distance":3420,"is_transit":false,"transit":false,"station_name":"Cibitung","station_id":"CIT","i_lat":-6.261877,"line":1},{"transit":false,"distance":2800,"station_name":"Metland Telaga Murni","i_lat":-6.262938,"line":1,"is_transit":false,"time":2,"station_id":"TLM","i_long":107.093313}],[{"i_long":106.838896,"time":0,"is_transit":false,"station_id":"TNT","i_lat":-6.3080680000000005,"distance":0,"transit":false,"line":2,"station_name":"Tanjung Barat"},{"station_name":"Pasar Minggu","line":2,"is_transit":false,"i_lat":-6.2842400000000005,"station_id":"PSM","distance":2820,"transit":false,"i_long":106.843999,"time":4},{"i_lat":-6.263214,"distance":2380,"line":2,"station_id":"PSMB","station_name":"Pasar Minggu Baru","transit":false,"time":2,"i_long":106.851577,"is_transit":false},{"is_transit":false,"i_lat":-6.255332,"distance":824,"time":2,"transit":false,"station_name":"Duren Kalibata","i_long":106.85449,"line":2,"station_id":"DRN"},{"is_transit":false,"time":3,"i_lat":-6.242512,"line":2,"transit":false,"station_name":"Cawang","station_id":"CW","distance":1546,"i_long":106.856607},{"transit":false,"station_name":"Tebet","i_long":106.857948,"time":2,"line":2,"distance":1230,"is_transit":false,"station_id":"TEB","i_lat":-6.226659},{"transit":true,"distance":2610,"i_long":106.84912,"is_transit":true,"station_id":"MRI","line":2,"time":4,"i_lat":-6.209883,"station_name":"Manggarai"},{"transit":false,"station_name":"Sudirman","line":1,"station_id":"SUD","i_lat":-6.202263,"i_long":106.822649,"distance":3186,"is_transit":false,"time":4},{"time":1,"transit":false,"i_long":106.819881,"is_transit":false,"line":1,"station_name":"Sudirman Baru","distance":280,"i_lat":-6.201433,"station_id":"SUDB"},{"i_lat":-6.20132,"time":1,"distance":471,"transit":false,"station_name":"Karet","i_long":106.816351,"line":1,"is_transit":false,"station_id":"KAT"},{"distance":2029,"transit":false,"time":5,"i_lat":-6.185545,"line":1,"i_long":106.811091,"station_name":"Tanah Abang","station_id":"THB","is_transit":false},{"station_id":"DU","is_transit":false,"i_long":106.800832,"station_name":"Duri","distance":3632,"time":8,"i_lat":-6.155215,"transit":false,"line":1},{"station_name":"Angke","station_id":"AK","distance":1230,"line":1,"transit":false,"time":4,"i_long":106.79867,"is_transit":false,"i_lat":-6.144674},{"station_name":"Kampung Bandan","i_long":106.826365,"time":9,"is_transit":true,"line":4,"distance":4102,"i_lat":-6.132549,"transit":true,"station_id":"KPB"},{"is_transit":false,"distance":1444,"transit":false,"i_long":106.836569,"time":3,"station_name":"Rajawali","station_id":"RJW","line":11,"i_lat":-6.14505},{"station_id":"KMO","i_lat":-6.161728,"is_transit":false,"station_name":"Kemayoran","transit":false,"distance":1901,"i_long":106.839204,"time":5,"line":11},{"transit":false,"i_lat":-6.174784,"distance":1436,"station_id":"PSE","line":11,"station_name":"Pasar Senen","time":4,"is_transit":false,"i_long":106.84368},{"line":11,"distance":1567,"transit":false,"is_transit":false,"time":8,"station_name":"Gang Sentiong","i_lat":-6.185975,"station_id":"GST","i_long":106.850107},{"is_transit":false,"i_long":106.855437,"i_lat":-6.193792,"station_id":"KMT","station_name":"Kramat","transit":false,"distance":973,"time":1,"line":11},{"time":2,"distance":1829,"station_id":"POK","line":11,"is_transit":false,"i_long":106.861737,"station_name":"Pondok Jati","transit":false,"i_lat":-6.209188},{"i_lat":-6.215091,"transit":true,"station_id":"JNG","station_name":"Jatinegara","is_transit":true,"distance":1236,"i_long":106.86807400000001,"time":9,"line":1},{"station_name":"Klender","station_id":"KLD","i_lat":-6.2135,"transit":false,"line":1,"time":3,"distance":3395,"is_transit":false,"i_long":106.899548},{"i_lat":-6.215568,"distance":3100,"station_name":"Buaran","is_transit":false,"transit":false,"i_long":106.922662,"line":1,"station_id":"BUA","time":2},{"transit":false,"station_name":"Klenderbaru","i_lat":-6.217455,"line":1,"is_transit":false,"distance":1305,"i_long":106.939679,"station_id":"KLDB","time":1},{"station_name":"Cakung","transit":false,"i_lat":-6.219053,"i_long":106.951283,"time":8,"is_transit":false,"line":1,"station_id":"CUK","distance":1385},{"i_lat":-6.224515,"i_long":106.977657,"line":1,"time":3,"station_name":"Kranji","distance":3097,"is_transit":false,"transit":false,"station_id":"KRI"},{"is_transit":false,"distance":2520,"i_long":106.997013,"line":1,"time":4,"station_id":"BKS","transit":false,"i_lat":-6.236616,"station_name":"Bekasi"},{"station_id":"BKST","i_long":107.016735,"time":2,"line":1,"i_lat":-6.248029,"station_name":"Bekasi Timur","is_transit":false,"transit":false,"distance":2368},{"distance":4460,"station_id":"TB","transit":false,"time":7,"station_name":"Tambun","i_long":107.055722,"line":1,"is_transit":false,"i_lat":-6.258864},{"distance":3420,"station_id":"CIT","i_lat":-6.261877,"i_long":107.083084,"is_transit":false,"line":1,"time":3,"transit":false,"station_name":"Cibitung"},{"is_transit":false,"line":1,"transit":false,"station_id":"TLM","i_lat":-6.262938,"station_name":"Metland Telaga Murni","time":2,"distance":2800,"i_long":107.093313}],[{"distance":0,"station_name":"Tanjung Barat","i_lat":-6.3080680000000005,"i_long":106.838896,"transit":false,"station_id":"TNT","is_transit":false,"time":0,"line":2},{"transit":false,"time":4,"is_transit":false,"line":2,"i_lat":-6.2842400000000005,"station_name":"Pasar Minggu","station_id":"PSM","distance":2820,"i_long":106.843999},{"station_name":"Pasar Minggu Baru","distance":2380,"station_id":"PSMB","time":2,"line":2,"i_long":106.851577,"is_transit":false,"i_lat":-6.263214,"transit":false},{"station_id":"DRN","is_transit":false,"line":2,"i_lat":-6.255332,"station_name":"Duren Kalibata","transit":false,"i_long":106.85449,"distance":824,"time":2},{"station_id":"CW","distance":1546,"station_name":"Cawang","is_transit":false,"i_long":106.856607,"line":2,"i_lat":-6.242512,"transit":false,"time":3},{"station_id":"TEB","station_name":"Tebet","i_lat":-6.226659,"is_transit":false,"i_long":106.857948,"line":2,"transit":false,"time":2,"distance":1230},{"time":4,"i_long":106.84912,"station_name":"Manggarai","station_id":"MRI","distance":2610,"i_lat":-6.209883,"line":2,"transit":false,"is_transit":false},{"transit":false,"is_transit":false,"line":2,"distance":1590,"i_long":106.840169,"station_name":"Cikini","time":4,"i_lat":-6.198556,"station_id":"CKI"},{"time":3,"i_long":106.832183,"transit":false,"station_id":"GDD","distance":1750,"i_lat":-6.186295,"line":2,"is_transit":false,"station_name":"Gondangdia"},{"is_transit":false,"station_id":"JUA","distance":2015,"i_long":106.828284,"line":2,"station_name":"Juanda","transit":false,"i_lat":-6.166716,"time":4},{"station_id":"SW","is_transit":false,"line":2,"i_long":106.827103,"time":2,"transit":false,"i_lat":-6.160725,"distance":1149,"station_name":"Sawah Besar"},{"i_long":106.82482,"station_name":"Manggabesar","transit":false,"line":2,"i_lat":-6.149769,"station_id":"MGB","distance":906,"is_transit":false,"time":2},{"time":2,"distance":1080,"i_lat":-6.141205,"transit":false,"i_long":106.820901,"station_name":"Jayakarta","station_id":"JAY","line":2,"is_transit":false},{"distance":1264,"time":4,"transit":true,"station_id":"JAKK","line":2,"station_name":"Jakarta Kota","i_lat":-6.137569,"i_long":106.812439,"is_transit":true},{"distance":1364,"i_lat":-6.132549,"station_id":"KPB","transit":true,"i_long":106.826365,"station_name":"Kampung Bandan","is_transit":true,"line":4,"time":3},{"distance":1444,"is_transit":false,"station_id":"RJW","i_lat":-6.14505,"i_long":106.836569,"line":11,"time":3,"station_name":"Rajawali","transit":false},{"distance":1901,"i_long":106.839204,"station_name":"Kemayoran","line":11,"i_lat":-6.161728,"time":5,"transit":false,"is_transit":false,"station_id":"KMO"},{"transit":false,"station_id":"PSE","is_transit":false,"time":4,"distance":1436,"i_long":106.84368,"i_lat":-6.174784,"station_name":"Pasar Senen","line":11},{"station_id":"GST","i_lat":-6.185975,"station_name":"Gang Sentiong","is_transit":false,"time":8,"transit":false,"i_long":106.850107,"distance":1567,"line":11},{"transit":false,"distance":973,"station_name":"Kramat","line":11,"i_long":106.855437,"is_transit":false,"time":1,"i_lat":-6.193792,"station_id":"KMT"},{"station_name":"Pondok Jati","line":11,"station_id":"POK","transit":false,"is_transit":false,"time":2,"distance":1829,"i_long":106.861737,"i_lat":-6.209188},{"is_transit":true,"i_lat":-6.215091,"time":9,"line":1,"station_name":"Jatinegara","transit":true,"i_long":106.86807400000001,"station_id":"JNG","distance":1236},{"i_lat":-6.2135,"station_name":"Klender","time":3,"is_transit":false,"i_long":106.899548,"transit":false,"station_id":"KLD","line":1,"distance":3395},{"line":1,"time":2,"station_id":"BUA","is_transit":false,"i_long":106.922662,"i_lat":-6.215568,"transit":false,"station_name":"Buaran","distance":3100},{"line":1,"i_lat":-6.217455,"transit":false,"time":1,"i_long":106.939679,"is_transit":false,"distance":1305,"station_id":"KLDB","station_name":"Klenderbaru"},{"is_transit":false,"i_long":106.951283,"line":1,"distance":1385,"station_name":"Cakung","time":8,"station_id":"CUK","i_lat":-6.219053,"transit":false},{"is_transit":false,"station_name":"Kranji","i_lat":-6.224515,"transit":false,"i_long":106.977657,"distance":3097,"time":3,"line":1,"station_id":"KRI"},{"station_name":"Bekasi","is_transit":false,"transit":false,"i_lat":-6.236616,"time":4,"distance":2520,"line":1,"station_id":"BKS","i_long":106.997013},{"i_lat":-6.248029,"is_transit":false,"station_id":"BKST","line":1,"time":2,"distance":2368,"station_name":"Bekasi Timur","transit":false,"i_long":107.016735},{"station_id":"TB","is_transit":false,"transit":false,"line":1,"distance":4460,"station_name":"Tambun","i_lat":-6.258864,"i_long":107.055722,"time":7},{"transit":false,"time":3,"line":1,"i_lat":-6.261877,"is_transit":false,"distance":3420,"i_long":107.083084,"station_name":"Cibitung","station_id":"CIT"},{"transit":false,"time":2,"i_lat":-6.262938,"station_id":"TLM","line":1,"is_transit":false,"station_name":"Metland Telaga Murni","i_long":107.093313,"distance":2800}]]}