{"data":[[{"station_name":"Tanjung Barat","is_transit":false,"i_lat":-6.3080680000000005,"i_long":106.838896,"time":0,"line":2,"transit":false,"distance":0,"station_id":"TNT"},{"line":2,"station_name":"Pasar Minggu","time":4,"i_long":106.843999,"transit":false,"is_transit":false,"station_id":"PSM","i_lat":-6.2842400000000005,"distance":2820},{"time":2,"line":2,"i_long":106.851577,"transit":false,"i_lat":-6.263214,"station_name":"Pasar Minggu Baru","station_id":"PSMB","is_transit":false,"distance":2380},{"station_name":"Duren Kalibata","line":2,"distance":824,"i_lat":-6.255332,"is_transit":false,"station_id":"DRN","i_long":106.85449,"time":2,"transit":false},{"i_lat":-6.242512,"i_long":106.856607,"line":2,"is_transit":false,"transit":false,"distance":1546,"station_name":"Cawang","time":3,"station_id":"CW"},{"distance":1230,"is_transit":false,"i_lat":-6.226659,"i_long":106.857948,"time":2,"line":2,"station_name":"Tebet","transit":false,"station_id":"TEB"},{"time":4,"i_lat":-6.209883,"i_long":106.84912,"station_name":"Manggarai","line":2,"distance":2610,"station_id":"MRI","transit":false,"is_transit":false},{"line":2,"distance":1590,"station_name":"Cikini","time":4,"station_id":"CKI","transit":false,"i_lat":-6.198556,"is_transit":false,"i_long":106.840169}],[{"distance":0,"station_name":"Tanjung Barat","is_transit":false,"line":2,"i_lat":-6.3080680000000005,"station_id":"TNT","time":0,"transit":false,"i_long":106.838896},{"is_transit":false,"i_lat":-6.2842400000000005,"distance":2820,"i_long":106.843999,"transit":false,"station_id":"PSM","line":2,"station_name":"Pasar Minggu","time":4},{"distance":2380,"i_long":106.851577,"is_transit":false,"transit":false,"time":2,"station_name":"Pasar Minggu Baru","station_id":"PSMB","i_lat":-6.263214,"line":2},{"station_name":"Duren Kalibata","station_id":"DRN","is_transit":false,"distance":824,"i_long":106.85449,"i_lat":-6.255332,"line":2,"time":2,"transit":false},{"distance":1546,"transit":false,"station_name":"Cawang","is_transit":false,"i_lat":-6.242512,"i_long":106.856607,"time":3,"line":2,"station_id":"CW"},{"is_transit":false,"station_id":"TEB","i_long":106.857948,"station_name":"Tebet","time":2,"line":2,"transit":false,"i_lat":-6.226659,"distance":1230},{"i_lat":-6.209883,"is_transit":true,"station_id":"MRI","line":2,"i_long":106.84912,"transit":true,"station_name":"Manggarai","time":4,"distance":2610},{"i_lat":-6.202263,"distance":3186,"time":4,"i_long":106.822649,"line":1,"station_name":"Sudirman","station_id":"SUD","is_transit":false,"transit":false},{"is_transit":false,"i_long":106.819881,"station_name":"Sudirman Baru","station_id":"SUDB","time":1,"transit":false,"i_lat":-6.201433,"line":1,"distance":280},{"transit":false,"i_long":106.816351,"distance":471,"i_lat":-6.20132,"station_id":"KAT","time":1,"line":1,"station_name":"Karet","is_transit":false},{"station_name":"Tanah Abang","time":5,"is_transit":false,"transit":false,"station_id":"THB","distance":2029,"i_lat":-6.185545,"i_long":106.811091,"line":1},{"station_name":"Duri","time":8,"transit":false,"is_transit":false,"distance":3632,"i_lat":-6.155215,"line":1,"station_id":"DU","i_long":106.800832},{"line":1,"station_name":"Angke","i_lat":-6.144674,"time":4,"is_transit":false,"i_long":106.79867,"distance":1230,"transit":false,"station_id":"AK"},{"line":4,"station_id":"KPB","i_lat":-6.132549,"is_transit":true,"station_name":"Kampung Bandan","i_long":106.826365,"distance":4102,"transit":true,"time":9},{"station_name":"Jakarta Kota","is_transit":true,"time":3,"i_lat":-6.137569,"station_id":"JAKK","transit":true,"line":2,"i_long":106.812439,"distance":1364},{"time":4,"i_long":106.820901,"station_name":"Jayakarta","is_transit":false,"transit":false,"distance":1264,"line":2,"i_lat":-6.141205,"station_id":"JAY"},{"line":2,"distance":1080,"station_name":"Manggabesar","transit":false,"is_transit":false,"time":2,"i_lat":-6.149769,"i_long":106.82482,"station_id":"MGB"},{"distance":906,"station_name":"Sawah Besar","i_lat":-6.160725,"transit":false,"station_id":"SW","is_transit":false,"i_long":106.827103,"time":2,"line":2},{"station_name":"Juanda","i_lat":-6.166716,"line":2,"time":2,"station_id":"JUA","distance":1149,"transit":false,"is_transit":false,"i_long":106.828284},{"time":4,"station_id":"GDD","i_lat":-6.186295,"distance":2015,"transit":false,"station_name":"Gondangdia","is_transit":false,"line":2,"i_long":106.832183},{"transit":false,"station_id":"CKI","i_lat":-6.198556,"time":3,"is_transit":false,"station_name":"Cikini","i_long":106.840169,"line":2,"distance":1750}],[{"i_lat":-6.3080680000000005,"distance":0,"time":0,"station_id":"TNT","is_transit":false,"line":2,"station_name":"Tanjung Barat","transit":false,"i_long":106.838896},{"station_name":"Pasar Minggu","station_id":"PSM","i_lat":-6.2842400000000005,"line":2,"time":4,"is_transit":false,"distance":2820,"transit":false,"i_long":106.843999},{"i_long":106.851577,"station_id":"PSMB","is_transit":false,"transit":false,"time":2,"station_name":"Pasar Minggu Baru","distance":2380,"line":2,"i_lat":-6.263214},{"time":2,"is_transit":false,"distance":824,"i_long":106.85449,"station_name":"Duren Kalibata","transit":false,"i_lat":-6.255332,"line":2,"station_id":"DRN"},{"i_lat":-6.242512,"line":2,"time":3,"station_name":"Cawang","i_long":106.856607,"is_transit":false,"distance":1546,"transit":false,"station_id":"CW"},{"station_name":"Tebet","i_long":106.857948,"line":2,"station_id":"TEB","distance":1230,"is_transit":false,"time":2,"i_lat":-6.226659,"transit":false},{"i_lat":-6.209883,"station_id":"MRI","transit":true,"distance":2610,"line":2,"station_name":"Manggarai","i_long":106.84912,"time":4,"is_transit":true},{"transit":false,"station_id":"MTR","distance":1275,"i_lat":-6.212485,"station_name":"Matraman","is_transit":false,"line":1,"i_long":106.858896,"time":2},{"i_long":106.86807400000001,"transit":true,"station_id":"JNG","distance":1377,"station_name":"Jatinegara","time":8,"line":1,"is_transit":true,"i_lat":-6.215091},{"time":2,"i_long":106.861737,"station_id":"POK","transit":false,"line":11,"is_transit":false,"i_lat":-6.209188,"distance":1236,"station_name":"Pondok Jati"},{"distance":1829,"i_long":106.855437,"station_id":"KMT","time":2,"i_lat":-6.193792,"transit":false,"station_name":"Kramat","line":11,"is_transit":false},{"time":1,"i_long":106.850107,"transit":false,"station_name":"Gang Sentiong","i_lat":-6.185975,"line":11,"distance":973,"station_id":"GST","is_transit":false},{"station_name":"Pasar Senen","i_lat":-6.174784,"i_long":106.84368,"distance":1567,"transit":false,"line":11,"is_transit":false,"time":8,"station_id":"PSE"},{"line":11,"distance":1436,"i_long":106.839204,"station_name":"Kemayoran","is_transit":false,"time":4,"transit":false,"i_lat":-6.161728,"station_id":"KMO"},{"station_name":"Rajawali","line":11,"transit":false,"distance":1901,"i_long":106.836569,"is_transit":false,"time":5,"i_lat":-6.14505,"station_id":"RJW"},{"time":3,"line":4,"transit":true,"station_id":"KPB","i_lat":-6.132549,"station_name":"Kampung Bandan","is_transit":true,"distance":1444,"i_long":106.826365},{"i_lat":-6.137569,"distance":1364,"station_name":"Jakarta Kota","i_long":106.812439,"station_id":"JAKK","is_transit":true,"transit":true,"time":3,"line":2},{"time":4,"station_name":"Jayakarta","station_id":"JAY","distance":1264,"i_lat":-6.141205,"line":2,"is_transit":false,"i_long":106.820901,"transit":false},{"station_id":"MGB","i_lat":-6.149769,"station_name":"Manggabesar","i_long":106.82482,"is_transit":false,"distance":1080,"line":2,"transit":false,"time":2},{"station_name":"Sawah Besar","time":2,"station_id":"SW","distance":906,"is_transit":false,"i_lat":-6.160725,"transit":false,"i_long":106.827103,"line":2},{"i_long":106.828284,"time":2,"transit":false,"distance":1149,"i_lat":-6.166716,"line":2,"station_name":"Juanda","station_id":"JUA","is_transit":false},{"station_id":"GDD","is_transit":false,"transit":false,"i_lat":-6.186295,"station_name":"Gondangdia","line":2,"time":4,"i_long":106.832183,"distance":2015},{"time":3,"station_id":"CKI","transit":false,"is_transit":false,"i_lat":-6.198556,"distance":1750,"station_name":"Cikini","i_long":106.840169,"line":2}]]}