{"data":[[{"i_long":106.838896,"line":2,"station_id":"TNT","is_transit":false,"time":0,"transit":false,"station_name":"Tanjung Barat","distance":0,"i_lat":-6.3080680000000005},{"station_id":"PSM","i_long":106.843999,"station_name":"Pasar Minggu","line":2,"distance":2820,"i_lat":-6.2842400000000005,"time":4,"is_transit":false,"transit":false},{"transit":false,"station_name":"Pasar Minggu Baru","line":2,"time":2,"station_id":"PSMB","i_long":106.851577,"is_transit":false,"distance":2380,"i_lat":-6.263214},{"station_id":"DRN","distance":824,"i_lat":-6.255332,"time":2,"transit":false,"station_name":"Duren Kalibata","is_transit":false,"i_long":106.85449,"line":2},{"i_long":106.856607,"station_id":"CW","time":3,"transit":false,"distance":1546,"is_transit":false,"station_name":"Cawang","line":2,"i_lat":-6.242512},{"time":2,"station_id":"TEB","station_name":"Tebet","i_lat":-6.226659,"transit":false,"distance":1230,"i_long":106.857948,"is_transit":false,"line":2},{"transit":false,"i_long":106.84912,"time":4,"station_name":"Manggarai","station_id":"MRI","is_transit":false,"i_lat":-6.209883,"line":2,"distance":2610},{"distance":1590,"line":2,"transit":false,"i_long":106.840169,"time":4,"station_id":"CKI","is_transit":false,"station_name":"Cikini","i_lat":-6.198556}],[{"station_id":"TNT","time":0,"transit":false,"i_long":106.838896,"distance":0,"is_transit":false,"station_name":"Tanjung Barat","i_lat":-6.3080680000000005,"line":2},{"line":2,"station_name":"Pasar Minggu","is_transit":false,"transit":false,"i_long":106.843999,"time":4,"i_lat":-6.2842400000000005,"station_id":"PSM","distance":2820},{"transit":false,"distance":2380,"i_lat":-6.263214,"station_id":"PSMB","is_transit":false,"station_name":"Pasar Minggu Baru","i_long":106.851577,"line":2,"time":2},{"line":2,"distance":824,"time":2,"transit":false,"station_name":"Duren Kalibata","is_transit":false,"station_id":"DRN","i_long":106.85449,"i_lat":-6.255332},{"transit":false,"time":3,"i_long":106.856607,"i_lat":-6.242512,"line":2,"station_id":"CW","station_name":"Cawang","is_transit":false,"distance":1546},{"distance":1230,"i_lat":-6.226659,"station_id":"TEB","station_name":"Tebet","line":2,"time":2,"is_transit":false,"i_long":106.857948,"transit":false},{"transit":true,"i_long":106.84912,"station_name":"Manggarai","is_transit":true,"i_lat":-6.209883,"station_id":"MRI","line":2,"time":4,"distance":2610},{"is_transit":false,"station_id":"SUD","distance":3186,"transit":false,"time":4,"i_long":106.822649,"station_name":"Sudirman","i_lat":-6.202263,"line":1},{"time":1,"i_long":106.819881,"transit":false,"i_lat":-6.201433,"station_name":"Sudirman Baru","station_id":"SUDB","line":1,"is_transit":false,"distance":280},{"station_name":"Karet","line":1,"i_lat":-6.20132,"i_long":106.816351,"distance":471,"is_transit":false,"time":1,"station_id":"KAT","transit":false},{"station_id":"THB","station_name":"Tanah Abang","i_long":106.811091,"transit":false,"is_transit":false,"line":1,"time":5,"distance":2029,"i_lat":-6.185545},{"time":8,"is_transit":false,"line":1,"distance":3632,"station_id":"DU","i_lat":-6.155215,"transit":false,"station_name":"Duri","i_long":106.800832},{"distance":1230,"station_id":"AK","transit":false,"is_transit":false,"i_lat":-6.144674,"line":1,"station_name":"Angke","time":4,"i_long":106.79867},{"station_id":"KPB","i_lat":-6.132549,"station_name":"Kampung Bandan","i_long":106.826365,"line":4,"transit":true,"distance":4102,"is_transit":true,"time":9},{"i_lat":-6.137569,"time":3,"i_long":106.812439,"is_transit":true,"distance":1364,"station_id":"JAKK","transit":true,"line":2,"station_name":"Jakarta Kota"},{"station_id":"JAY","distance":1264,"time":4,"is_transit":false,"station_name":"Jayakarta","i_lat":-6.141205,"line":2,"i_long":106.820901,"transit":false},{"line":2,"station_name":"Manggabesar","i_lat":-6.149769,"station_id":"MGB","is_transit":false,"transit":false,"time":2,"distance":1080,"i_long":106.82482},{"station_id":"SW","station_name":"Sawah Besar","line":2,"transit":false,"time":2,"i_long":106.827103,"is_transit":false,"i_lat":-6.160725,"distance":906},{"is_transit":false,"transit":false,"station_name":"Juanda","line":2,"time":2,"station_id":"JUA","i_lat":-6.166716,"i_long":106.828284,"distance":1149},{"transit":false,"i_lat":-6.186295,"station_id":"GDD","i_long":106.832183,"time":4,"line":2,"is_transit":false,"distance":2015,"station_name":"Gondangdia"},{"line":2,"i_long":106.840169,"is_transit":false,"i_lat":-6.198556,"station_name":"Cikini","distance":1750,"transit":false,"time":3,"station_id":"CKI"}],[{"i_lat":-6.3080680000000005,"station_id":"TNT","transit":false,"distance":0,"time":0,"station_name":"Tanjung Barat","is_transit":false,"line":2,"i_long":106.838896},{"distance":2820,"time":4,"i_long":106.843999,"station_name":"Pasar Minggu","i_lat":-6.2842400000000005,"line":2,"is_transit":false,"transit":false,"station_id":"PSM"},{"is_transit":false,"station_name":"Pasar Minggu Baru","time":2,"transit":false,"distance":2380,"i_lat":-6.263214,"station_id":"PSMB","line":2,"i_long":106.851577},{"i_lat":-6.255332,"i_long":106.85449,"station_name":"Duren Kalibata","is_transit":false,"transit":false,"distance":824,"line":2,"time":2,"station_id":"DRN"},{"station_name":"Cawang","line":2,"distance":1546,"i_long":106.856607,"transit":false,"station_id":"CW","is_transit":false,"time":3,"i_lat":-6.242512},{"i_lat":-6.226659,"station_id":"TEB","i_long":106.857948,"is_transit":false,"transit":false,"time":2,"distance":1230,"station_name":"Tebet","line":2},{"station_name":"Manggarai","i_lat":-6.209883,"transit":true,"time":4,"i_long":106.84912,"line":2,"is_transit":true,"distance":2610,"station_id":"MRI"},{"distance":1275,"transit":false,"is_transit":false,"i_lat":-6.212485,"line":1,"station_name":"Matraman","time":2,"i_long":106.858896,"station_id":"MTR"},{"i_long":106.86807400000001,"station_name":"Jatinegara","station_id":"JNG","time":8,"transit":true,"i_lat":-6.215091,"line":1,"distance":1377,"is_transit":true},{"station_name":"Pondok Jati","transit":false,"i_lat":-6.209188,"i_long":106.861737,"distance":1236,"is_transit":false,"time":2,"station_id":"POK","line":11},{"distance":1829,"line":11,"transit":false,"station_id":"KMT","time":2,"is_transit":false,"i_long":106.855437,"station_name":"Kramat","i_lat":-6.193792},{"transit":false,"distance":973,"line":11,"i_long":106.850107,"is_transit":false,"station_name":"Gang Sentiong","time":1,"i_lat":-6.185975,"station_id":"GST"},{"is_transit":false,"station_id":"PSE","time":8,"station_name":"Pasar Senen","transit":false,"line":11,"i_long":106.84368,"distance":1567,"i_lat":-6.174784},{"station_id":"KMO","distance":1436,"is_transit":false,"transit":false,"time":4,"i_long":106.839204,"line":11,"i_lat":-6.161728,"station_name":"Kemayoran"},{"i_lat":-6.14505,"station_id":"RJW","time":5,"transit":false,"i_long":106.836569,"line":11,"distance":1901,"is_transit":false,"station_name":"Rajawali"},{"station_name":"Kampung Bandan","distance":1444,"station_id":"KPB","time":3,"i_lat":-6.132549,"transit":true,"i_long":106.826365,"line":4,"is_transit":true},{"is_transit":true,"station_id":"JAKK","time":3,"i_long":106.812439,"line":2,"transit":true,"distance":1364,"i_lat":-6.137569,"station_name":"Jakarta Kota"},{"station_id":"JAY","is_transit":false,"time":4,"i_long":106.820901,"station_name":"Jayakarta","line":2,"distance":1264,"transit":false,"i_lat":-6.141205},{"i_long":106.82482,"station_id":"MGB","distance":1080,"line":2,"time":2,"station_name":"Manggabesar","i_lat":-6.149769,"is_transit":false,"transit":false},{"station_id":"SW","is_transit":false,"station_name":"Sawah Besar","i_long":106.827103,"line":2,"time":2,"i_lat":-6.160725,"transit":false,"distance":906},{"station_name":"Juanda","i_long":106.828284,"line":2,"time":2,"distance":1149,"station_id":"JUA","transit":false,"is_transit":false,"i_lat":-6.166716},{"time":4,"i_lat":-6.186295,"transit":false,"distance":2015,"is_transit":false,"i_long":106.832183,"station_id":"GDD","station_name":"Gondangdia","line":2},{"i_long":106.840169,"is_transit":false,"station_id":"CKI","distance":1750,"line":2,"time":3,"station_name":"Cikini","i_lat":-6.198556,"transit":false}]]}