{"data":[[{"i_lat":-6.3080680000000005,"station_id":"TNT","transit":false,"distance":0,"i_long":106.838896,"is_transit":false,"line":2,"time":0,"station_name":"Tanjung Barat"},{"time":4,"station_id":"PSM","transit":false,"is_transit":false,"i_long":106.843999,"station_name":"Pasar Minggu","i_lat":-6.2842400000000005,"line":2,"distance":2820},{"station_name":"Pasar Minggu Baru","is_transit":false,"transit":false,"i_lat":-6.263214,"i_long":106.851577,"line":2,"time":2,"distance":2380,"station_id":"PSMB"},{"distance":824,"station_id":"DRN","transit":false,"line":2,"time":2,"station_name":"Duren Kalibata","i_lat":-6.255332,"is_transit":false,"i_long":106.85449},{"line":2,"distance":1546,"station_id":"CW","is_transit":false,"station_name":"Cawang","i_lat":-6.242512,"i_long":106.856607,"transit":false,"time":3},{"distance":1230,"transit":false,"station_name":"Tebet","i_lat":-6.226659,"line":2,"time":2,"is_transit":false,"station_id":"TEB","i_long":106.857948},{"is_transit":true,"transit":true,"i_lat":-6.209883,"time":4,"i_long":106.84912,"station_name":"Manggarai","line":2,"station_id":"MRI","distance":2610},{"station_id":"SUD","i_lat":-6.202263,"is_transit":false,"station_name":"Sudirman","i_long":106.822649,"distance":3186,"time":4,"transit":false,"line":1},{"time":1,"station_id":"SUDB","is_transit":false,"transit":false,"distance":280,"i_lat":-6.201433,"line":1,"station_name":"Sudirman Baru","i_long":106.819881},{"distance":471,"station_name":"Karet","is_transit":false,"transit":false,"time":1,"i_long":106.816351,"station_id":"KAT","line":1,"i_lat":-6.20132},{"is_transit":true,"distance":2029,"transit":true,"station_name":"Tanah Abang","i_lat":-6.185545,"i_long":106.811091,"line":1,"time":5,"station_id":"THB"},{"time":6,"line":6,"station_id":"PLM","is_transit":false,"distance":3191,"transit":false,"i_lat":-6.207404,"station_name":"Palmerah","i_long":106.79689},{"transit":false,"i_long":106.780334,"i_lat":-6.237242,"time":7,"line":6,"distance":3737,"is_transit":false,"station_name":"Kebayoran","station_id":"KBY"},{"i_lat":-6.276362,"i_long":106.74273,"transit":false,"station_name":"Pondokranji","is_transit":false,"line":6,"station_id":"PDJ","time":8,"distance":6218},{"transit":false,"time":3,"distance":2179,"station_id":"JMU","line":6,"is_transit":false,"station_name":"Jurangmangu","i_long":106.728916,"i_lat":-6.288927},{"distance":1994,"station_name":"Sudimara","is_transit":false,"station_id":"SDM","i_lat":-6.296963,"line":6,"time":4,"i_long":106.712277,"transit":false},{"line":6,"i_lat":-6.314823,"transit":false,"station_id":"RU","i_long":106.675475,"is_transit":false,"time":6,"distance":4566,"station_name":"Rawa Buntu"},{"distance":2413,"time":4,"transit":false,"i_long":106.66566,"i_lat":-6.319871,"station_name":"Serpong","station_id":"SRP","line":6,"is_transit":false},{"line":3,"is_transit":false,"i_lat":-6.32484,"station_id":"CSK","station_name":"Cisauk","i_long":106.640411,"transit":false,"distance":1784,"time":4},{"time":4,"i_long":106.617853,"line":3,"station_name":"Cicayur","station_id":"CC","i_lat":-6.329547,"is_transit":false,"distance":2519,"transit":false}],[{"line":2,"distance":0,"time":0,"station_id":"TNT","i_long":106.838896,"i_lat":-6.3080680000000005,"is_transit":false,"station_name":"Tanjung Barat","transit":false},{"station_id":"PSM","i_lat":-6.2842400000000005,"station_name":"Pasar Minggu","transit":false,"distance":2820,"is_transit":false,"line":2,"time":4,"i_long":106.843999},{"time":2,"station_id":"PSMB","i_lat":-6.263214,"line":2,"i_long":106.851577,"is_transit":false,"station_name":"Pasar Minggu Baru","distance":2380,"transit":false},{"station_name":"Duren Kalibata","i_long":106.85449,"is_transit":false,"time":2,"line":2,"station_id":"DRN","i_lat":-6.255332,"distance":824,"transit":false},{"time":3,"i_lat":-6.242512,"is_transit":false,"distance":1546,"i_long":106.856607,"line":2,"station_name":"Cawang","transit":false,"station_id":"CW"},{"distance":1230,"station_id":"TEB","station_name":"Tebet","i_lat":-6.226659,"line":2,"is_transit":false,"transit":false,"time":2,"i_long":106.857948},{"time":4,"line":2,"station_id":"MRI","station_name":"Manggarai","is_transit":false,"distance":2610,"i_long":106.84912,"transit":false,"i_lat":-6.209883},{"distance":1590,"i_long":106.840169,"time":4,"line":2,"transit":false,"i_lat":-6.198556,"is_transit":false,"station_id":"CKI","station_name":"Cikini"},{"station_name":"Gondangdia","station_id":"GDD","i_lat":-6.186295,"i_long":106.832183,"is_transit":false,"distance":1750,"transit":false,"time":3,"line":2},{"station_id":"JUA","transit":false,"line":2,"distance":2015,"station_name":"Juanda","is_transit":false,"i_long":106.828284,"i_lat":-6.166716,"time":4},{"i_lat":-6.160725,"i_long":106.827103,"station_name":"Sawah Besar","transit":false,"station_id":"SW","time":2,"line":2,"distance":1149,"is_transit":false},{"station_id":"MGB","station_name":"Manggabesar","time":2,"transit":false,"distance":906,"is_transit":false,"line":2,"i_long":106.82482,"i_lat":-6.149769},{"line":2,"station_id":"JAY","is_transit":false,"i_lat":-6.141205,"transit":false,"i_long":106.820901,"distance":1080,"station_name":"Jayakarta","time":2},{"station_id":"JAKK","station_name":"Jakarta Kota","time":4,"line":2,"i_long":106.812439,"distance":1264,"i_lat":-6.137569,"transit":true,"is_transit":true},{"station_id":"KPB","is_transit":true,"transit":true,"i_long":106.826365,"distance":1364,"time":3,"i_lat":-6.132549,"line":4,"station_name":"Kampung Bandan"},{"i_lat":-6.144674,"transit":false,"station_id":"AK","i_long":106.79867,"is_transit":false,"station_name":"Angke","time":9,"line":1,"distance":4102},{"transit":false,"distance":1230,"time":4,"i_lat":-6.155215,"station_name":"Duri","station_id":"DU","i_long":106.800832,"line":1,"is_transit":false},{"line":1,"station_name":"Tanah Abang","time":8,"is_transit":true,"i_long":106.811091,"i_lat":-6.185545,"distance":3632,"station_id":"THB","transit":true},{"i_lat":-6.207404,"station_name":"Palmerah","transit":false,"line":6,"station_id":"PLM","time":6,"i_long":106.79689,"distance":3191,"is_transit":false},{"is_transit":false,"i_long":106.780334,"transit":false,"time":7,"i_lat":-6.237242,"station_name":"Kebayoran","line":6,"distance":3737,"station_id":"KBY"},{"i_long":106.74273,"i_lat":-6.276362,"time":8,"is_transit":false,"station_name":"Pondokranji","distance":6218,"transit":false,"line":6,"station_id":"PDJ"},{"station_name":"Jurangmangu","i_lat":-6.288927,"line":6,"is_transit":false,"station_id":"JMU","i_long":106.728916,"transit":false,"time":3,"distance":2179},{"time":4,"station_name":"Sudimara","transit":false,"line":6,"i_long":106.712277,"is_transit":false,"i_lat":-6.296963,"station_id":"SDM","distance":1994},{"distance":4566,"i_lat":-6.314823,"line":6,"station_id":"RU","time":6,"transit":false,"i_long":106.675475,"station_name":"Rawa Buntu","is_transit":false},{"station_id":"SRP","i_long":106.66566,"transit":false,"distance":2413,"line":6,"is_transit":false,"time":4,"i_lat":-6.319871,"station_name":"Serpong"},{"time":4,"station_name":"Cisauk","i_long":106.640411,"station_id":"CSK","is_transit":false,"distance":1784,"line":3,"i_lat":-6.32484,"transit":false},{"station_id":"CC","is_transit":false,"distance":2519,"time":4,"station_name":"Cicayur","i_lat":-6.329547,"i_long":106.617853,"line":3,"transit":false}],[{"i_lat":-6.3080680000000005,"is_transit":false,"transit":false,"station_id":"TNT","time":0,"line":2,"i_long":106.838896,"station_name":"Tanjung Barat","distance":0},{"station_name":"Pasar Minggu","transit":false,"i_lat":-6.2842400000000005,"line":2,"time":4,"is_transit":false,"i_long":106.843999,"station_id":"PSM","distance":2820},{"distance":2380,"i_long":106.851577,"transit":false,"station_name":"Pasar Minggu Baru","time":2,"i_lat":-6.263214,"is_transit":false,"line":2,"station_id":"PSMB"},{"i_lat":-6.255332,"station_name":"Duren Kalibata","station_id":"DRN","i_long":106.85449,"transit":false,"distance":824,"time":2,"line":2,"is_transit":false},{"line":2,"transit":false,"time":3,"station_id":"CW","distance":1546,"station_name":"Cawang","i_long":106.856607,"is_transit":false,"i_lat":-6.242512},{"station_id":"TEB","time":2,"i_lat":-6.226659,"station_name":"Tebet","distance":1230,"i_long":106.857948,"is_transit":false,"line":2,"transit":false},{"station_id":"MRI","line":2,"station_name":"Manggarai","transit":true,"time":4,"i_lat":-6.209883,"i_long":106.84912,"is_transit":true,"distance":2610},{"line":1,"i_long":106.858896,"time":2,"distance":1275,"station_id":"MTR","station_name":"Matraman","i_lat":-6.212485,"is_transit":false,"transit":false},{"distance":1377,"station_id":"JNG","line":1,"is_transit":true,"station_name":"Jatinegara","time":8,"i_long":106.86807400000001,"transit":true,"i_lat":-6.215091},{"line":11,"transit":false,"distance":1236,"is_transit":false,"i_long":106.861737,"i_lat":-6.209188,"station_name":"Pondok Jati","time":2,"station_id":"POK"},{"time":2,"i_lat":-6.193792,"station_name":"Kramat","transit":false,"is_transit":false,"station_id":"KMT","distance":1829,"i_long":106.855437,"line":11},{"distance":973,"time":1,"i_lat":-6.185975,"station_name":"Gang Sentiong","is_transit":false,"i_long":106.850107,"line":11,"station_id":"GST","transit":false},{"distance":1567,"station_id":"PSE","line":11,"transit":false,"i_lat":-6.174784,"station_name":"Pasar Senen","time":8,"is_transit":false,"i_long":106.84368},{"distance":1436,"time":4,"station_name":"Kemayoran","line":11,"station_id":"KMO","is_transit":false,"i_lat":-6.161728,"transit":false,"i_long":106.839204},{"station_name":"Rajawali","line":11,"station_id":"RJW","i_lat":-6.14505,"distance":1901,"transit":false,"i_long":106.836569,"time":5,"is_transit":false},{"station_name":"Kampung Bandan","i_long":106.826365,"line":4,"is_transit":true,"transit":true,"i_lat":-6.132549,"time":3,"station_id":"KPB","distance":1444},{"i_lat":-6.144674,"station_name":"Angke","distance":4102,"transit":false,"time":9,"i_long":106.79867,"station_id":"AK","is_transit":false,"line":1},{"station_id":"DU","i_lat":-6.155215,"i_long":106.800832,"line":1,"time":4,"transit":false,"is_transit":false,"station_name":"Duri","distance":1230},{"is_transit":true,"station_name":"Tanah Abang","time":8,"station_id":"THB","i_lat":-6.185545,"i_long":106.811091,"transit":true,"distance":3632,"line":1},{"i_lat":-6.207404,"distance":3191,"i_long":106.79689,"station_name":"Palmerah","station_id":"PLM","time":6,"is_transit":false,"line":6,"transit":false},{"line":6,"is_transit":false,"i_lat":-6.237242,"station_id":"KBY","i_long":106.780334,"station_name":"Kebayoran","transit":false,"time":7,"distance":3737},{"station_name":"Pondokranji","is_transit":false,"time":8,"distance":6218,"i_long":106.74273,"i_lat":-6.276362,"station_id":"PDJ","transit":false,"line":6},{"time":3,"i_long":106.728916,"is_transit":false,"transit":false,"station_name":"Jurangmangu","i_lat":-6.288927,"distance":2179,"line":6,"station_id":"JMU"},{"i_long":106.712277,"station_id":"SDM","transit":false,"i_lat":-6.296963,"is_transit":false,"distance":1994,"time":4,"line":6,"station_name":"Sudimara"},{"i_lat":-6.314823,"is_transit":false,"transit":false,"distance":4566,"station_id":"RU","station_name":"Rawa Buntu","time":6,"i_long":106.675475,"line":6},{"i_lat":-6.319871,"station_name":"Serpong","line":6,"distance":2413,"is_transit":false,"station_id":"SRP","transit":false,"time":4,"i_long":106.66566},{"station_name":"Cisauk","is_transit":false,"time":4,"transit":false,"station_id":"CSK","i_long":106.640411,"line":3,"distance":1784,"i_lat":-6.32484},{"station_name":"Cicayur","time":4,"is_transit":false,"i_long":106.617853,"line":3,"distance":2519,"station_id":"CC","transit":false,"i_lat":-6.329547}]]}