{"data":[[{"station_name":"Tanjung Barat","i_lat":-6.3080680000000005,"i_long":106.838896,"is_transit":false,"transit":false,"distance":0,"line":2,"time":0,"station_id":"TNT"},{"station_id":"PSM","distance":2820,"transit":false,"is_transit":false,"i_lat":-6.2842400000000005,"time":4,"station_name":"Pasar Minggu","i_long":106.843999,"line":2},{"distance":2380,"station_name":"Pasar Minggu Baru","i_long":106.851577,"line":2,"transit":false,"time":2,"station_id":"PSMB","i_lat":-6.263214,"is_transit":false},{"is_transit":false,"distance":824,"station_id":"DRN","line":2,"i_lat":-6.255332,"i_long":106.85449,"time":2,"transit":false,"station_name":"Duren Kalibata"},{"i_long":106.856607,"is_transit":false,"i_lat":-6.242512,"transit":false,"line":2,"station_id":"CW","time":3,"distance":1546,"station_name":"Cawang"},{"i_long":106.857948,"transit":false,"station_id":"TEB","distance":1230,"time":2,"line":2,"i_lat":-6.226659,"is_transit":false,"station_name":"Tebet"},{"station_id":"MRI","transit":true,"is_transit":true,"time":4,"distance":2610,"i_lat":-6.209883,"i_long":106.84912,"station_name":"Manggarai","line":2},{"time":4,"is_transit":false,"station_id":"SUD","i_lat":-6.202263,"i_long":106.822649,"line":1,"transit":false,"distance":3186,"station_name":"Sudirman"},{"station_name":"Sudirman Baru","is_transit":false,"i_lat":-6.201433,"line":1,"transit":false,"distance":280,"station_id":"SUDB","i_long":106.819881,"time":1}],[{"distance":0,"station_id":"TNT","i_lat":-6.3080680000000005,"is_transit":false,"time":0,"station_name":"Tanjung Barat","line":2,"i_long":106.838896,"transit":false},{"i_lat":-6.2842400000000005,"line":2,"i_long":106.843999,"time":4,"station_name":"Pasar Minggu","station_id":"PSM","distance":2820,"is_transit":false,"transit":false},{"distance":2380,"station_id":"PSMB","i_lat":-6.263214,"i_long":106.851577,"station_name":"Pasar Minggu Baru","line":2,"is_transit":false,"transit":false,"time":2},{"i_long":106.85449,"station_id":"DRN","distance":824,"is_transit":false,"transit":false,"i_lat":-6.255332,"time":2,"line":2,"station_name":"Duren Kalibata"},{"station_id":"CW","i_lat":-6.242512,"time":3,"i_long":106.856607,"station_name":"Cawang","transit":false,"line":2,"distance":1546,"is_transit":false},{"time":2,"station_name":"Tebet","line":2,"i_long":106.857948,"station_id":"TEB","i_lat":-6.226659,"is_transit":false,"distance":1230,"transit":false},{"time":4,"i_lat":-6.209883,"i_long":106.84912,"line":2,"station_id":"MRI","transit":false,"distance":2610,"is_transit":false,"station_name":"Manggarai"},{"line":2,"i_lat":-6.198556,"time":4,"transit":false,"is_transit":false,"distance":1590,"station_id":"CKI","i_long":106.840169,"station_name":"Cikini"},{"line":2,"time":3,"i_lat":-6.186295,"station_id":"GDD","transit":false,"i_long":106.832183,"distance":1750,"station_name":"Gondangdia","is_transit":false},{"is_transit":false,"station_name":"Juanda","line":2,"station_id":"JUA","transit":false,"distance":2015,"i_long":106.828284,"time":4,"i_lat":-6.166716},{"distance":1149,"station_id":"SW","time":2,"is_transit":false,"i_lat":-6.160725,"line":2,"i_long":106.827103,"transit":false,"station_name":"Sawah Besar"},{"i_long":106.82482,"transit":false,"station_id":"MGB","i_lat":-6.149769,"distance":906,"time":2,"line":2,"station_name":"Manggabesar","is_transit":false},{"distance":1080,"i_lat":-6.141205,"i_long":106.820901,"line":2,"transit":false,"station_id":"JAY","time":2,"station_name":"Jayakarta","is_transit":false},{"is_transit":true,"transit":true,"i_lat":-6.137569,"time":4,"station_id":"JAKK","station_name":"Jakarta Kota","i_long":106.812439,"line":2,"distance":1264},{"distance":1364,"station_name":"Kampung Bandan","station_id":"KPB","line":4,"i_lat":-6.132549,"time":3,"is_transit":true,"transit":true,"i_long":106.826365},{"i_long":106.79867,"line":1,"station_name":"Angke","distance":4102,"i_lat":-6.144674,"time":9,"transit":false,"station_id":"AK","is_transit":false},{"i_long":106.800832,"line":1,"time":4,"station_name":"Duri","distance":1230,"is_transit":false,"i_lat":-6.155215,"transit":false,"station_id":"DU"},{"line":1,"station_name":"Tanah Abang","transit":false,"station_id":"THB","distance":3632,"i_lat":-6.185545,"i_long":106.811091,"time":8,"is_transit":false},{"time":5,"distance":2029,"station_name":"Karet","line":1,"station_id":"KAT","is_transit":false,"transit":false,"i_long":106.816351,"i_lat":-6.20132},{"transit":false,"station_id":"SUDB","i_lat":-6.201433,"i_long":106.819881,"station_name":"Sudirman Baru","time":1,"line":1,"is_transit":false,"distance":471}],[{"time":0,"station_id":"TNT","station_name":"Tanjung Barat","is_transit":false,"transit":false,"i_long":106.838896,"line":2,"distance":0,"i_lat":-6.3080680000000005},{"transit":false,"i_lat":-6.2842400000000005,"line":2,"distance":2820,"i_long":106.843999,"is_transit":false,"station_id":"PSM","time":4,"station_name":"Pasar Minggu"},{"transit":false,"station_id":"PSMB","time":2,"distance":2380,"i_lat":-6.263214,"is_transit":false,"i_long":106.851577,"station_name":"Pasar Minggu Baru","line":2},{"i_long":106.85449,"time":2,"station_id":"DRN","is_transit":false,"distance":824,"transit":false,"station_name":"Duren Kalibata","line":2,"i_lat":-6.255332},{"time":3,"line":2,"transit":false,"is_transit":false,"distance":1546,"station_name":"Cawang","i_lat":-6.242512,"station_id":"CW","i_long":106.856607},{"transit":false,"line":2,"i_long":106.857948,"is_transit":false,"time":2,"distance":1230,"station_id":"TEB","station_name":"Tebet","i_lat":-6.226659},{"station_id":"MRI","transit":true,"i_lat":-6.209883,"line":2,"i_long":106.84912,"time":4,"station_name":"Manggarai","is_transit":true,"distance":2610},{"station_id":"MTR","i_lat":-6.212485,"time":2,"distance":1275,"transit":false,"station_name":"Matraman","line":1,"is_transit":false,"i_long":106.858896},{"is_transit":true,"i_lat":-6.215091,"station_name":"Jatinegara","transit":true,"i_long":106.86807400000001,"line":1,"station_id":"JNG","time":8,"distance":1377},{"time":2,"station_name":"Pondok Jati","line":11,"i_long":106.861737,"transit":false,"i_lat":-6.209188,"is_transit":false,"distance":1236,"station_id":"POK"},{"i_lat":-6.193792,"i_long":106.855437,"line":11,"distance":1829,"station_id":"KMT","is_transit":false,"time":2,"station_name":"Kramat","transit":false},{"i_long":106.850107,"i_lat":-6.185975,"transit":false,"station_name":"Gang Sentiong","time":1,"line":11,"station_id":"GST","is_transit":false,"distance":973},{"i_long":106.84368,"transit":false,"distance":1567,"station_name":"Pasar Senen","i_lat":-6.174784,"time":8,"line":11,"station_id":"PSE","is_transit":false},{"is_transit":false,"transit":false,"i_lat":-6.161728,"line":11,"time":4,"i_long":106.839204,"distance":1436,"station_name":"Kemayoran","station_id":"KMO"},{"i_long":106.836569,"is_transit":false,"line":11,"station_id":"RJW","distance":1901,"time":5,"station_name":"Rajawali","i_lat":-6.14505,"transit":false},{"i_lat":-6.132549,"station_name":"Kampung Bandan","line":4,"station_id":"KPB","distance":1444,"i_long":106.826365,"transit":true,"is_transit":true,"time":3},{"time":9,"station_id":"AK","i_long":106.79867,"station_name":"Angke","is_transit":false,"distance":4102,"line":1,"i_lat":-6.144674,"transit":false},{"i_lat":-6.155215,"is_transit":false,"line":1,"distance":1230,"time":4,"station_name":"Duri","i_long":106.800832,"station_id":"DU","transit":false},{"is_transit":false,"distance":3632,"i_lat":-6.185545,"station_name":"Tanah Abang","station_id":"THB","i_long":106.811091,"line":1,"time":8,"transit":false},{"is_transit":false,"time":5,"line":1,"distance":2029,"i_long":106.816351,"station_id":"KAT","station_name":"Karet","i_lat":-6.20132,"transit":false},{"line":1,"station_id":"SUDB","station_name":"Sudirman Baru","time":1,"distance":471,"i_lat":-6.201433,"transit":false,"is_transit":false,"i_long":106.819881}]]}