{"data":[[{"distance":0,"i_long":106.838896,"is_transit":false,"station_name":"Tanjung Barat","line":2,"transit":false,"station_id":"TNT","time":0,"i_lat":-6.3080680000000005},{"time":4,"distance":2820,"is_transit":false,"station_id":"PSM","i_long":106.843999,"station_name":"Pasar Minggu","line":2,"i_lat":-6.2842400000000005,"transit":false},{"time":2,"i_lat":-6.263214,"station_name":"Pasar Minggu Baru","station_id":"PSMB","i_long":106.851577,"line":2,"is_transit":false,"transit":false,"distance":2380},{"i_long":106.85449,"i_lat":-6.255332,"distance":824,"line":0,"station_id":"DRN","station_name":"Duren Kalibata","is_transit":false,"transit":false,"time":2},{"i_lat":-6.242512,"distance":1546,"is_transit":false,"transit":false,"station_id":"CW","i_long":106.856607,"line":0,"time":3,"station_name":"Cawang"},{"station_id":"TEB","is_transit":false,"transit":false,"i_lat":-6.226659,"station_name":"Tebet","time":2,"i_long":106.857948,"distance":1230,"line":2},{"station_id":"MRI","i_long":106.84912,"is_transit":true,"distance":2610,"transit":true,"station_name":"Manggarai","time":4,"i_lat":-6.209883,"line":0},{"transit":false,"time":4,"station_id":"SUD","i_long":106.822649,"station_name":"Sudirman","is_transit":false,"i_lat":-6.202263,"line":1,"distance":3186},{"distance":280,"time":1,"i_lat":-6.201433,"is_transit":false,"station_name":"Sudirman Baru","transit":false,"station_id":"SUDB","line":1,"i_long":106.819881},{"station_id":"KAT","station_name":"Karet","transit":false,"distance":471,"time":1,"i_lat":-6.20132,"is_transit":false,"i_long":106.816351,"line":1},{"i_lat":-6.185545,"distance":2029,"station_id":"THB","transit":true,"time":5,"line":1,"station_name":"Tanah Abang","is_transit":true,"i_long":106.811091},{"station_name":"Palmerah","station_id":"PLM","transit":false,"time":6,"i_lat":-6.207404,"i_long":106.79689,"line":6,"distance":3191,"is_transit":false},{"time":7,"i_lat":-6.237242,"is_transit":false,"station_name":"Kebayoran","station_id":"KBY","transit":false,"i_long":106.780334,"line":6,"distance":3737},{"is_transit":false,"i_lat":-6.276362,"line":6,"station_name":"Pondokranji","time":8,"distance":6218,"i_long":106.74273,"transit":false,"station_id":"PDJ"},{"transit":false,"line":6,"station_name":"Jurangmangu","i_long":106.728916,"is_transit":false,"time":3,"i_lat":-6.288927,"distance":2179,"station_id":"JMU"},{"is_transit":false,"time":4,"line":6,"distance":1994,"transit":false,"i_lat":-6.296963,"i_long":106.712277,"station_name":"Sudimara","station_id":"SDM"},{"is_transit":false,"station_id":"RU","transit":false,"i_long":106.675475,"station_name":"Rawa Buntu","i_lat":-6.314823,"line":6,"distance":4566,"time":6},{"station_id":"SRP","i_lat":-6.319871,"transit":false,"i_long":106.66566,"station_name":"Serpong","time":4,"line":6,"is_transit":false,"distance":2413},{"is_transit":false,"i_lat":-6.32484,"time":4,"transit":false,"line":0,"i_long":106.640411,"station_id":"CSK","distance":1784,"station_name":"Cisauk"},{"station_name":"Cicayur","transit":false,"is_transit":false,"distance":2519,"line":0,"i_lat":-6.329547,"station_id":"CC","time":4,"i_long":106.617853}],[{"distance":0,"transit":false,"i_long":106.838896,"station_name":"Tanjung Barat","station_id":"TNT","time":0,"is_transit":false,"i_lat":-6.3080680000000005,"line":2},{"time":4,"station_id":"PSM","i_lat":-6.2842400000000005,"transit":false,"is_transit":false,"distance":2820,"station_name":"Pasar Minggu","i_long":106.843999,"line":2},{"station_name":"Pasar Minggu Baru","transit":false,"i_lat":-6.263214,"i_long":106.851577,"station_id":"PSMB","is_transit":false,"line":2,"time":2,"distance":2380},{"distance":824,"is_transit":false,"station_id":"DRN","station_name":"Duren Kalibata","transit":false,"time":2,"i_lat":-6.255332,"i_long":106.85449,"line":0},{"line":0,"distance":1546,"transit":false,"i_lat":-6.242512,"station_name":"Cawang","time":3,"i_long":106.856607,"is_transit":false,"station_id":"CW"},{"station_id":"TEB","station_name":"Tebet","transit":false,"time":2,"i_lat":-6.226659,"i_long":106.857948,"line":2,"is_transit":false,"distance":1230},{"station_id":"MRI","line":0,"i_long":106.84912,"is_transit":true,"time":4,"station_name":"Manggarai","distance":2610,"transit":true,"i_lat":-6.209883},{"i_lat":-6.198556,"station_name":"Cikini","distance":1590,"i_long":106.840169,"line":0,"time":4,"transit":false,"is_transit":false,"station_id":"CKI"},{"i_lat":-6.186295,"time":3,"i_long":106.832183,"station_name":"Gondangdia","transit":false,"distance":1750,"is_transit":false,"line":2,"station_id":"GDD"},{"i_long":106.828284,"transit":false,"station_id":"JUA","line":2,"time":4,"station_name":"Juanda","i_lat":-6.166716,"distance":2015,"is_transit":false},{"line":2,"distance":1149,"station_id":"SW","station_name":"Sawah Besar","transit":false,"time":2,"i_long":106.827103,"is_transit":false,"i_lat":-6.160725},{"station_name":"Manggabesar","is_transit":false,"time":2,"distance":906,"i_long":106.82482,"i_lat":-6.149769,"station_id":"MGB","transit":false,"line":2},{"line":7,"is_transit":false,"transit":false,"time":2,"station_id":"JAY","distance":1080,"station_name":"Jayakarta","i_lat":-6.141205,"i_long":106.820901},{"station_id":"JAKK","transit":true,"time":4,"i_long":106.812439,"station_name":"Jakarta Kota","line":0,"i_lat":-6.137569,"distance":1264,"is_transit":true},{"time":3,"line":0,"is_transit":true,"i_lat":-6.132549,"i_long":106.826365,"station_id":"KPB","distance":1364,"transit":false,"station_name":"Kampung Bandan"},{"time":9,"transit":false,"line":0,"distance":4102,"i_lat":-6.144674,"station_id":"AK","station_name":"Angke","is_transit":false,"i_long":106.79867},{"station_id":"DU","is_transit":true,"transit":true,"station_name":"Duri","time":4,"i_long":106.800832,"i_lat":-6.155215,"distance":1230,"line":1},{"i_lat":-6.185545,"transit":true,"is_transit":true,"line":1,"station_name":"Tanah Abang","time":8,"i_long":106.811091,"station_id":"THB","distance":3632},{"is_transit":false,"station_id":"PLM","time":6,"distance":3191,"line":6,"station_name":"Palmerah","i_lat":-6.207404,"i_long":106.79689,"transit":false},{"i_lat":-6.237242,"is_transit":false,"station_id":"KBY","transit":false,"line":6,"station_name":"Kebayoran","i_long":106.780334,"distance":3737,"time":7},{"station_name":"Pondokranji","time":8,"transit":false,"station_id":"PDJ","distance":6218,"i_lat":-6.276362,"is_transit":false,"line":6,"i_long":106.74273},{"time":3,"transit":false,"line":6,"is_transit":false,"distance":2179,"station_id":"JMU","station_name":"Jurangmangu","i_lat":-6.288927,"i_long":106.728916},{"i_lat":-6.296963,"transit":false,"i_long":106.712277,"distance":1994,"time":4,"station_id":"SDM","is_transit":false,"line":6,"station_name":"Sudimara"},{"transit":false,"line":6,"station_id":"RU","distance":4566,"i_long":106.675475,"is_transit":false,"time":6,"i_lat":-6.314823,"station_name":"Rawa Buntu"},{"station_id":"SRP","line":6,"time":4,"i_lat":-6.319871,"is_transit":false,"station_name":"Serpong","i_long":106.66566,"transit":false,"distance":2413},{"line":0,"transit":false,"station_name":"Cisauk","i_lat":-6.32484,"time":4,"i_long":106.640411,"is_transit":false,"distance":1784,"station_id":"CSK"},{"time":4,"is_transit":false,"station_name":"Cicayur","i_lat":-6.329547,"station_id":"CC","line":0,"i_long":106.617853,"transit":false,"distance":2519}],[{"i_long":106.838896,"time":0,"line":2,"station_name":"Tanjung Barat","distance":0,"station_id":"TNT","is_transit":false,"i_lat":-6.3080680000000005,"transit":false},{"transit":false,"is_transit":false,"distance":2820,"station_id":"PSM","time":4,"i_long":106.843999,"station_name":"Pasar Minggu","line":2,"i_lat":-6.2842400000000005},{"distance":2380,"station_name":"Pasar Minggu Baru","i_lat":-6.263214,"is_transit":false,"i_long":106.851577,"transit":false,"time":2,"line":2,"station_id":"PSMB"},{"transit":false,"is_transit":false,"distance":824,"time":2,"station_id":"DRN","station_name":"Duren Kalibata","i_long":106.85449,"line":0,"i_lat":-6.255332},{"line":0,"transit":false,"station_id":"CW","i_lat":-6.242512,"time":3,"distance":1546,"is_transit":false,"station_name":"Cawang","i_long":106.856607},{"line":2,"is_transit":false,"transit":false,"distance":1230,"station_name":"Tebet","station_id":"TEB","time":2,"i_lat":-6.226659,"i_long":106.857948},{"is_transit":true,"i_lat":-6.209883,"transit":true,"line":0,"time":4,"i_long":106.84912,"distance":2610,"station_id":"MRI","station_name":"Manggarai"},{"i_long":106.858896,"station_id":"MTR","station_name":"Matraman","transit":false,"is_transit":false,"i_lat":-6.212485,"time":2,"distance":1275,"line":1},{"transit":true,"distance":1377,"time":8,"line":0,"is_transit":true,"i_lat":-6.215091,"station_name":"Jatinegara","i_long":106.86807400000001,"station_id":"JNG"},{"distance":1236,"is_transit":false,"i_long":106.861737,"time":2,"station_name":"Pondok Jati","station_id":"POK","transit":false,"i_lat":-6.209188,"line":11},{"distance":1829,"station_name":"Kramat","transit":false,"line":11,"i_lat":-6.193792,"is_transit":false,"i_long":106.855437,"station_id":"KMT","time":2},{"time":1,"i_long":106.850107,"is_transit":false,"station_id":"GST","station_name":"Gang Sentiong","line":11,"transit":false,"i_lat":-6.185975,"distance":973},{"station_name":"Pasar Senen","line":11,"time":8,"is_transit":false,"i_lat":-6.174784,"transit":false,"i_long":106.84368,"distance":1567,"station_id":"PSE"},{"distance":1436,"time":4,"station_name":"Kemayoran","is_transit":false,"transit":false,"i_long":106.839204,"i_lat":-6.161728,"line":11,"station_id":"KMO"},{"station_id":"RJW","line":11,"time":5,"i_lat":-6.14505,"is_transit":false,"transit":false,"distance":1901,"i_long":106.836569,"station_name":"Rajawali"},{"is_transit":true,"station_id":"KPB","distance":1444,"time":3,"station_name":"Kampung Bandan","i_lat":-6.132549,"line":0,"transit":true,"i_long":106.826365},{"i_long":106.79867,"transit":false,"line":0,"time":9,"is_transit":false,"station_id":"AK","i_lat":-6.144674,"station_name":"Angke","distance":4102},{"time":4,"station_name":"Duri","distance":1230,"is_transit":true,"transit":true,"line":1,"station_id":"DU","i_long":106.800832,"i_lat":-6.155215},{"time":8,"i_lat":-6.185545,"distance":3632,"transit":true,"i_long":106.811091,"line":1,"is_transit":true,"station_id":"THB","station_name":"Tanah Abang"},{"i_long":106.79689,"distance":3191,"station_id":"PLM","transit":false,"station_name":"Palmerah","time":6,"is_transit":false,"i_lat":-6.207404,"line":6},{"station_name":"Kebayoran","i_lat":-6.237242,"is_transit":false,"time":7,"station_id":"KBY","i_long":106.780334,"distance":3737,"line":6,"transit":false},{"time":8,"station_name":"Pondokranji","distance":6218,"is_transit":false,"station_id":"PDJ","transit":false,"i_lat":-6.276362,"i_long":106.74273,"line":6},{"transit":false,"station_id":"JMU","time":3,"is_transit":false,"line":6,"i_lat":-6.288927,"distance":2179,"station_name":"Jurangmangu","i_long":106.728916},{"i_long":106.712277,"distance":1994,"station_id":"SDM","time":4,"line":6,"transit":false,"station_name":"Sudimara","is_transit":false,"i_lat":-6.296963},{"line":6,"station_name":"Rawa Buntu","time":6,"i_lat":-6.314823,"transit":false,"station_id":"RU","is_transit":false,"i_long":106.675475,"distance":4566},{"is_transit":false,"time":4,"i_lat":-6.319871,"line":6,"station_id":"SRP","transit":false,"distance":2413,"i_long":106.66566,"station_name":"Serpong"},{"station_id":"CSK","i_lat":-6.32484,"station_name":"Cisauk","i_long":106.640411,"distance":1784,"time":4,"transit":false,"line":0,"is_transit":false},{"transit":false,"line":0,"time":4,"i_long":106.617853,"i_lat":-6.329547,"distance":2519,"station_id":"CC","station_name":"Cicayur","is_transit":false}]]}