{"data":[[{"i_long":106.838896,"is_transit":false,"distance":0,"time":0,"i_lat":-6.3080680000000005,"line":2,"station_id":"TNT","station_name":"Tanjung Barat","transit":false},{"distance":2671,"transit":false,"i_lat":-6.330363,"is_transit":false,"time":3,"i_long":106.832616,"station_id":"LNA","line":2,"station_name":"Lenteng Agung"},{"line":2,"i_lat":-6.339291,"i_long":106.834175,"is_transit":false,"station_id":"UP","distance":1029,"time":2,"transit":false,"station_name":"Univ. Pancasila"},{"transit":false,"distance":2264,"is_transit":false,"i_lat":-6.360749,"i_long":106.831474,"station_id":"UI","time":3,"station_name":"Univ. Indonesia","line":2},{"distance":1109,"station_id":"POC","i_lat":-6.369073,"transit":false,"line":2,"time":2,"i_long":106.831114,"is_transit":false,"station_name":"Pondok Cina"},{"distance":2727,"station_name":"Depokbaru","i_lat":-6.391065,"station_id":"DPB","is_transit":false,"line":2,"transit":false,"i_long":106.819451,"time":4},{"station_name":"Depok","time":3,"distance":1584,"station_id":"DP","i_lat":-6.405256,"i_long":106.816926,"is_transit":false,"transit":false,"line":2},{"i_long":106.800298,"station_id":"CTA","distance":5084,"is_transit":false,"station_name":"Citayam","time":6,"transit":false,"i_lat":-6.448811,"line":2}]]}