{"data":[[{"station_id":"TNT","line":2,"distance":0,"transit":false,"i_lat":-6.3080680000000005,"is_transit":false,"station_name":"Tanjung Barat","i_long":106.838896,"time":0},{"is_transit":false,"transit":false,"i_long":106.832616,"line":2,"time":3,"distance":2671,"i_lat":-6.330363,"station_name":"Lenteng Agung","station_id":"LNA"},{"i_long":106.834175,"line":2,"transit":false,"station_id":"UP","is_transit":false,"station_name":"Univ. Pancasila","time":2,"distance":1029,"i_lat":-6.339291},{"station_id":"UI","is_transit":false,"i_long":106.831474,"time":3,"transit":false,"i_lat":-6.360749,"distance":2264,"line":2,"station_name":"Univ. Indonesia"},{"station_name":"Pondok Cina","is_transit":false,"i_lat":-6.369073,"time":2,"distance":1109,"station_id":"POC","i_long":106.831114,"line":2,"transit":false},{"station_name":"Depokbaru","station_id":"DPB","time":4,"distance":2727,"transit":false,"i_lat":-6.391065,"line":2,"i_long":106.819451,"is_transit":false},{"station_id":"DP","distance":1584,"transit":false,"is_transit":false,"i_lat":-6.405256,"i_long":106.816926,"time":3,"line":2,"station_name":"Depok"},{"is_transit":false,"time":6,"distance":5084,"i_lat":-6.448811,"i_long":106.800298,"line":2,"transit":false,"station_name":"Citayam","station_id":"CTA"},{"time":5,"distance":5197,"i_lat":-6.493243,"is_transit":false,"line":2,"station_name":"Bojonggede","station_id":"BJD","i_long":106.792719,"transit":false},{"station_id":"CLT","distance":4331,"i_lat":-6.530544,"i_long":106.800016,"transit":false,"line":2,"is_transit":false,"station_name":"Cilebut","time":5},{"distance":7514,"line":2,"station_name":"Bogor","i_long":106.790574,"transit":false,"time":9,"i_lat":-6.594596,"is_transit":false,"station_id":"BOO"}]]}