{"data":[[{"i_lat":-6.3080680000000005,"i_long":106.838896,"line":2,"is_transit":false,"time":0,"distance":0,"station_name":"Tanjung Barat","station_id":"TNT","transit":false},{"station_name":"Lenteng Agung","i_lat":-6.330363,"is_transit":false,"distance":2671,"time":3,"line":2,"transit":false,"station_id":"LNA","i_long":106.832616},{"station_name":"Univ. Pancasila","distance":1029,"i_long":106.834175,"station_id":"UP","is_transit":false,"line":2,"transit":false,"time":2,"i_lat":-6.339291},{"line":2,"transit":false,"time":3,"i_lat":-6.360749,"is_transit":false,"station_name":"Univ. Indonesia","i_long":106.831474,"station_id":"UI","distance":2264},{"station_id":"POC","time":2,"i_lat":-6.369073,"transit":false,"station_name":"Pondok Cina","is_transit":false,"distance":1109,"i_long":106.831114,"line":2},{"station_name":"Depokbaru","i_lat":-6.391065,"station_id":"DPB","time":4,"i_long":106.819451,"transit":false,"is_transit":false,"line":2,"distance":2727},{"transit":false,"station_id":"DP","time":3,"i_long":106.816926,"line":2,"is_transit":false,"station_name":"Depok","distance":1584,"i_lat":-6.405256}]]}