{"data":[[{"distance":0,"station_id":"TNT","is_transit":false,"transit":false,"time":0,"line":2,"station_name":"Tanjung Barat","i_lat":-6.3080680000000005,"i_long":106.838896},{"transit":false,"station_name":"Pasar Minggu","line":2,"time":4,"is_transit":false,"station_id":"PSM","i_long":106.843999,"distance":2820,"i_lat":-6.2842400000000005},{"time":2,"station_name":"Pasar Minggu Baru","i_lat":-6.263214,"transit":false,"i_long":106.851577,"is_transit":false,"line":2,"distance":2380,"station_id":"PSMB"},{"time":2,"station_id":"DRN","is_transit":false,"i_lat":-6.255332,"distance":824,"line":2,"transit":false,"i_long":106.85449,"station_name":"Duren Kalibata"},{"time":3,"is_transit":false,"distance":1546,"station_name":"Cawang","i_lat":-6.242512,"line":2,"i_long":106.856607,"station_id":"CW","transit":false}]]}