{"data":[[{"station_id":"TNT","time":0,"line":2,"distance":0,"station_name":"Tanjung Barat","is_transit":false,"i_lat":-6.3080680000000005,"i_long":106.838896,"transit":false},{"is_transit":false,"time":4,"line":2,"station_id":"PSM","distance":2820,"station_name":"Pasar Minggu","transit":false,"i_lat":-6.2842400000000005,"i_long":106.843999},{"transit":false,"time":2,"i_long":106.851577,"station_id":"PSMB","station_name":"Pasar Minggu Baru","line":2,"distance":2380,"i_lat":-6.263214,"is_transit":false},{"time":2,"station_name":"Duren Kalibata","distance":824,"is_transit":false,"station_id":"DRN","transit":false,"i_lat":-6.255332,"i_long":106.85449,"line":0},{"time":3,"station_id":"CW","station_name":"Cawang","i_lat":-6.242512,"transit":false,"i_long":106.856607,"distance":1546,"is_transit":false,"line":0},{"is_transit":false,"distance":1230,"station_name":"Tebet","line":2,"transit":false,"time":2,"i_lat":-6.226659,"i_long":106.857948,"station_id":"TEB"},{"i_lat":-6.209883,"line":0,"is_transit":true,"transit":true,"station_id":"MRI","i_long":106.84912,"distance":2610,"station_name":"Manggarai","time":4},{"station_id":"SUD","time":4,"transit":false,"is_transit":false,"station_name":"Sudirman","distance":3186,"line":1,"i_lat":-6.202263,"i_long":106.822649},{"line":1,"distance":280,"is_transit":false,"i_lat":-6.201433,"time":1,"i_long":106.819881,"station_id":"SUDB","station_name":"Sudirman Baru","transit":false},{"distance":471,"is_transit":false,"station_name":"Karet","i_lat":-6.20132,"time":1,"transit":false,"station_id":"KAT","line":1,"i_long":106.816351},{"i_long":106.811091,"station_id":"THB","time":5,"is_transit":true,"i_lat":-6.185545,"distance":2029,"transit":false,"station_name":"Tanah Abang","line":1},{"transit":true,"is_transit":true,"i_lat":-6.155215,"station_name":"Duri","line":1,"station_id":"DU","time":8,"i_long":106.800832,"distance":3632},{"station_name":"Grogol","transit":false,"i_long":106.788277,"is_transit":false,"distance":1700,"station_id":"GGL","time":3,"i_lat":-6.162021,"line":5},{"i_lat":-6.161433,"line":5,"is_transit":false,"station_id":"PSG","station_name":"Pesing","transit":false,"time":2,"distance":2036,"i_long":106.771379},{"i_lat":-6.1587309999999995,"line":5,"station_id":"TKO","station_name":"Taman Kota","transit":false,"time":2,"i_long":106.756522,"distance":1614,"is_transit":false},{"transit":false,"station_id":"BOI","time":2,"i_lat":-6.159876,"line":0,"i_long":106.737035,"distance":2334,"is_transit":false,"station_name":"Bojongindah"},{"transit":false,"distance":1152,"station_id":"RW","i_long":106.723064,"is_transit":false,"time":4,"line":5,"station_name":"Rawa Buaya","i_lat":-6.162758}],[{"is_transit":false,"time":0,"line":2,"i_lat":-6.3080680000000005,"transit":false,"distance":0,"i_long":106.838896,"station_id":"TNT","station_name":"Tanjung Barat"},{"distance":2820,"is_transit":false,"time":4,"station_id":"PSM","transit":false,"i_lat":-6.2842400000000005,"station_name":"Pasar Minggu","line":2,"i_long":106.843999},{"i_lat":-6.263214,"time":2,"i_long":106.851577,"station_name":"Pasar Minggu Baru","is_transit":false,"transit":false,"distance":2380,"station_id":"PSMB","line":2},{"is_transit":false,"station_name":"Duren Kalibata","transit":false,"time":2,"i_lat":-6.255332,"i_long":106.85449,"line":0,"distance":824,"station_id":"DRN"},{"is_transit":false,"i_long":106.856607,"transit":false,"station_name":"Cawang","i_lat":-6.242512,"line":0,"station_id":"CW","time":3,"distance":1546},{"distance":1230,"station_id":"TEB","i_long":106.857948,"line":2,"time":2,"transit":false,"is_transit":false,"station_name":"Tebet","i_lat":-6.226659},{"station_name":"Manggarai","i_lat":-6.209883,"transit":true,"station_id":"MRI","line":0,"time":4,"i_long":106.84912,"is_transit":true,"distance":2610},{"line":0,"transit":false,"i_lat":-6.198556,"i_long":106.840169,"time":4,"distance":1590,"station_name":"Cikini","is_transit":false,"station_id":"CKI"},{"i_long":106.832183,"i_lat":-6.186295,"time":3,"transit":false,"is_transit":false,"line":2,"station_id":"GDD","distance":1750,"station_name":"Gondangdia"},{"i_lat":-6.166716,"transit":false,"is_transit":false,"station_id":"JUA","i_long":106.828284,"distance":2015,"time":4,"station_name":"Juanda","line":2},{"distance":1149,"transit":false,"is_transit":false,"line":2,"i_lat":-6.160725,"station_id":"SW","station_name":"Sawah Besar","time":2,"i_long":106.827103},{"station_id":"MGB","is_transit":false,"distance":906,"station_name":"Manggabesar","transit":false,"time":2,"i_lat":-6.149769,"line":2,"i_long":106.82482},{"station_name":"Jayakarta","station_id":"JAY","is_transit":false,"time":2,"distance":1080,"transit":false,"line":7,"i_long":106.820901,"i_lat":-6.141205},{"distance":1264,"is_transit":true,"time":4,"line":0,"station_id":"JAKK","station_name":"Jakarta Kota","i_lat":-6.137569,"transit":true,"i_long":106.812439},{"station_id":"KPB","i_long":106.826365,"station_name":"Kampung Bandan","is_transit":true,"transit":false,"i_lat":-6.132549,"distance":1364,"time":3,"line":0},{"i_lat":-6.144674,"i_long":106.79867,"distance":4102,"line":0,"station_id":"AK","transit":false,"station_name":"Angke","is_transit":false,"time":9},{"line":1,"station_id":"DU","time":4,"i_long":106.800832,"is_transit":true,"station_name":"Duri","transit":true,"distance":1230,"i_lat":-6.155215},{"is_transit":false,"time":3,"station_id":"GGL","line":5,"i_lat":-6.162021,"distance":1700,"i_long":106.788277,"station_name":"Grogol","transit":false},{"station_id":"PSG","line":5,"distance":2036,"station_name":"Pesing","i_long":106.771379,"transit":false,"time":2,"i_lat":-6.161433,"is_transit":false},{"i_long":106.756522,"distance":1614,"station_name":"Taman Kota","time":2,"i_lat":-6.1587309999999995,"is_transit":false,"line":5,"transit":false,"station_id":"TKO"},{"is_transit":false,"time":2,"distance":2334,"i_long":106.737035,"station_name":"Bojongindah","station_id":"BOI","transit":false,"i_lat":-6.159876,"line":0},{"station_id":"RW","station_name":"Rawa Buaya","distance":1152,"i_long":106.723064,"i_lat":-6.162758,"transit":false,"time":4,"is_transit":false,"line":5}],[{"i_lat":-6.3080680000000005,"line":2,"time":0,"station_id":"TNT","transit":false,"distance":0,"i_long":106.838896,"station_name":"Tanjung Barat","is_transit":false},{"line":2,"is_transit":false,"station_id":"PSM","distance":2820,"time":4,"i_lat":-6.2842400000000005,"transit":false,"station_name":"Pasar Minggu","i_long":106.843999},{"station_name":"Pasar Minggu Baru","transit":false,"is_transit":false,"time":2,"line":2,"i_lat":-6.263214,"i_long":106.851577,"distance":2380,"station_id":"PSMB"},{"station_id":"DRN","distance":824,"station_name":"Duren Kalibata","transit":false,"i_lat":-6.255332,"time":2,"is_transit":false,"i_long":106.85449,"line":0},{"station_name":"Cawang","i_lat":-6.242512,"time":3,"distance":1546,"station_id":"CW","transit":false,"i_long":106.856607,"line":0,"is_transit":false},{"is_transit":false,"station_id":"TEB","time":2,"distance":1230,"i_long":106.857948,"station_name":"Tebet","i_lat":-6.226659,"transit":false,"line":2},{"is_transit":true,"distance":2610,"line":0,"station_name":"Manggarai","i_lat":-6.209883,"i_long":106.84912,"station_id":"MRI","transit":true,"time":4},{"distance":1275,"i_long":106.858896,"line":1,"station_name":"Matraman","transit":false,"station_id":"MTR","is_transit":false,"i_lat":-6.212485,"time":2},{"station_id":"JNG","station_name":"Jatinegara","time":8,"line":0,"transit":true,"i_lat":-6.215091,"i_long":106.86807400000001,"is_transit":true,"distance":1377},{"distance":1236,"transit":false,"time":2,"i_lat":-6.209188,"line":11,"i_long":106.861737,"is_transit":false,"station_name":"Pondok Jati","station_id":"POK"},{"is_transit":false,"time":2,"line":11,"transit":false,"distance":1829,"station_id":"KMT","i_long":106.855437,"station_name":"Kramat","i_lat":-6.193792},{"is_transit":false,"distance":973,"station_id":"GST","station_name":"Gang Sentiong","time":1,"i_lat":-6.185975,"i_long":106.850107,"transit":false,"line":11},{"is_transit":false,"line":11,"time":8,"i_long":106.84368,"station_name":"Pasar Senen","transit":false,"i_lat":-6.174784,"distance":1567,"station_id":"PSE"},{"station_id":"KMO","distance":1436,"i_long":106.839204,"is_transit":false,"i_lat":-6.161728,"line":11,"time":4,"station_name":"Kemayoran","transit":false},{"distance":1901,"time":5,"i_lat":-6.14505,"station_id":"RJW","station_name":"Rajawali","line":11,"i_long":106.836569,"transit":false,"is_transit":false},{"distance":1444,"is_transit":true,"line":0,"time":3,"station_id":"KPB","i_lat":-6.132549,"transit":true,"i_long":106.826365,"station_name":"Kampung Bandan"},{"time":9,"station_name":"Angke","station_id":"AK","is_transit":false,"line":0,"i_lat":-6.144674,"distance":4102,"transit":false,"i_long":106.79867},{"line":1,"i_lat":-6.155215,"transit":true,"is_transit":true,"station_id":"DU","i_long":106.800832,"time":4,"distance":1230,"station_name":"Duri"},{"i_lat":-6.162021,"i_long":106.788277,"transit":false,"line":5,"station_id":"GGL","station_name":"Grogol","distance":1700,"time":3,"is_transit":false},{"line":5,"time":2,"is_transit":false,"station_id":"PSG","transit":false,"i_long":106.771379,"distance":2036,"i_lat":-6.161433,"station_name":"Pesing"},{"distance":1614,"station_name":"Taman Kota","station_id":"TKO","is_transit":false,"transit":false,"i_lat":-6.1587309999999995,"time":2,"i_long":106.756522,"line":5},{"transit":false,"station_id":"BOI","is_transit":false,"time":2,"distance":2334,"i_lat":-6.159876,"i_long":106.737035,"line":0,"station_name":"Bojongindah"},{"distance":1152,"station_id":"RW","station_name":"Rawa Buaya","is_transit":false,"time":4,"transit":false,"i_long":106.723064,"i_lat":-6.162758,"line":5}]]}