{"data":[[{"transit":false,"i_long":106.838896,"time":0,"distance":0,"i_lat":-6.3080680000000005,"station_name":"Tanjung Barat","line":2,"station_id":"TNT","is_transit":false},{"time":4,"i_long":106.843999,"i_lat":-6.2842400000000005,"distance":2820,"line":2,"is_transit":false,"transit":false,"station_name":"Pasar Minggu","station_id":"PSM"},{"line":2,"is_transit":false,"transit":false,"time":2,"station_name":"Pasar Minggu Baru","distance":2380,"station_id":"PSMB","i_lat":-6.263214,"i_long":106.851577},{"station_id":"DRN","i_long":106.85449,"i_lat":-6.255332,"transit":false,"line":2,"distance":824,"time":2,"station_name":"Duren Kalibata","is_transit":false},{"line":2,"distance":1546,"i_long":106.856607,"station_id":"CW","is_transit":false,"i_lat":-6.242512,"station_name":"Cawang","time":3,"transit":false},{"is_transit":false,"i_long":106.857948,"time":2,"line":2,"station_id":"TEB","station_name":"Tebet","transit":false,"distance":1230,"i_lat":-6.226659},{"time":4,"station_id":"MRI","station_name":"Manggarai","transit":true,"i_lat":-6.209883,"distance":2610,"is_transit":true,"i_long":106.84912,"line":2},{"station_id":"SUD","transit":false,"i_long":106.822649,"line":1,"i_lat":-6.202263,"is_transit":false,"time":4,"distance":3186,"station_name":"Sudirman"},{"transit":false,"i_lat":-6.201433,"time":1,"distance":280,"station_name":"Sudirman Baru","i_long":106.819881,"station_id":"SUDB","line":1,"is_transit":false},{"time":1,"i_long":106.816351,"i_lat":-6.20132,"station_name":"Karet","is_transit":false,"station_id":"KAT","distance":471,"transit":false,"line":1},{"transit":false,"time":5,"distance":2029,"station_id":"THB","is_transit":false,"station_name":"Tanah Abang","i_lat":-6.185545,"i_long":106.811091,"line":1},{"i_lat":-6.155215,"station_id":"DU","transit":true,"distance":3632,"time":8,"line":1,"is_transit":true,"station_name":"Duri","i_long":106.800832},{"i_long":106.788277,"distance":1700,"i_lat":-6.162021,"is_transit":false,"station_id":"GRG","station_name":"Grogol","line":5,"time":3,"transit":false},{"i_lat":-6.161433,"distance":2036,"station_id":"PSG","station_name":"Pesing","time":2,"transit":false,"i_long":106.771379,"line":5,"is_transit":false},{"is_transit":false,"i_long":106.756522,"station_id":"TKO","transit":false,"i_lat":-6.1587309999999995,"distance":1614,"time":2,"station_name":"Taman Kota","line":5},{"station_name":"Bojongindah","distance":2334,"is_transit":false,"transit":false,"station_id":"BOI","line":5,"time":2,"i_lat":-6.159876,"i_long":106.737035},{"i_lat":-6.162758,"i_long":106.723064,"transit":false,"station_id":"RW","line":5,"is_transit":false,"distance":1152,"station_name":"Rawa Buaya","time":4},{"is_transit":false,"i_long":106.701612,"station_id":"KDS","station_name":"Kalideres","i_lat":-6.166068,"time":3,"distance":2504,"transit":false,"line":5},{"station_name":"Poris","time":3,"i_long":106.679458,"distance":2548,"i_lat":-6.169933,"station_id":"PI","line":5,"is_transit":false,"transit":false}],[{"transit":false,"station_id":"TNT","i_lat":-6.3080680000000005,"i_long":106.838896,"time":0,"is_transit":false,"line":2,"station_name":"Tanjung Barat","distance":0},{"station_id":"PSM","station_name":"Pasar Minggu","distance":2820,"is_transit":false,"line":2,"time":4,"i_lat":-6.2842400000000005,"transit":false,"i_long":106.843999},{"transit":false,"station_id":"PSMB","i_long":106.851577,"line":2,"distance":2380,"time":2,"is_transit":false,"station_name":"Pasar Minggu Baru","i_lat":-6.263214},{"transit":false,"station_id":"DRN","time":2,"i_lat":-6.255332,"is_transit":false,"station_name":"Duren Kalibata","i_long":106.85449,"line":2,"distance":824},{"transit":false,"i_lat":-6.242512,"distance":1546,"i_long":106.856607,"station_id":"CW","is_transit":false,"time":3,"line":2,"station_name":"Cawang"},{"station_id":"TEB","distance":1230,"is_transit":false,"i_long":106.857948,"line":2,"transit":false,"station_name":"Tebet","i_lat":-6.226659,"time":2},{"is_transit":false,"time":4,"distance":2610,"transit":false,"station_name":"Manggarai","station_id":"MRI","i_lat":-6.209883,"i_long":106.84912,"line":2},{"station_name":"Cikini","line":2,"time":4,"distance":1590,"is_transit":false,"i_long":106.840169,"station_id":"CKI","i_lat":-6.198556,"transit":false},{"distance":1750,"i_lat":-6.186295,"station_name":"Gondangdia","is_transit":false,"station_id":"GDD","time":3,"line":2,"transit":false,"i_long":106.832183},{"i_lat":-6.166716,"is_transit":false,"time":4,"i_long":106.828284,"distance":2015,"station_name":"Juanda","line":2,"station_id":"JUA","transit":false},{"i_lat":-6.160725,"transit":false,"distance":1149,"station_id":"SW","station_name":"Sawah Besar","i_long":106.827103,"time":2,"line":2,"is_transit":false},{"i_long":106.82482,"distance":906,"time":2,"is_transit":false,"i_lat":-6.149769,"station_id":"MGB","station_name":"Manggabesar","transit":false,"line":2},{"station_id":"JAY","transit":false,"time":2,"distance":1080,"station_name":"Jayakarta","i_lat":-6.141205,"line":2,"i_long":106.820901,"is_transit":false},{"is_transit":true,"station_id":"JAKK","line":2,"transit":true,"distance":1264,"station_name":"Jakarta Kota","i_lat":-6.137569,"i_long":106.812439,"time":4},{"time":3,"station_id":"KPB","line":4,"station_name":"Kampung Bandan","i_long":106.826365,"is_transit":true,"distance":1364,"transit":true,"i_lat":-6.132549},{"i_lat":-6.144674,"station_id":"AK","station_name":"Angke","distance":4102,"transit":false,"is_transit":false,"time":9,"line":1,"i_long":106.79867},{"transit":true,"is_transit":true,"station_name":"Duri","station_id":"DU","i_lat":-6.155215,"i_long":106.800832,"time":4,"line":1,"distance":1230},{"distance":1700,"transit":false,"is_transit":false,"i_lat":-6.162021,"i_long":106.788277,"line":5,"station_id":"GRG","time":3,"station_name":"Grogol"},{"distance":2036,"i_lat":-6.161433,"is_transit":false,"i_long":106.771379,"line":5,"transit":false,"station_name":"Pesing","time":2,"station_id":"PSG"},{"line":5,"is_transit":false,"time":2,"station_id":"TKO","transit":false,"station_name":"Taman Kota","i_lat":-6.1587309999999995,"distance":1614,"i_long":106.756522},{"is_transit":false,"i_lat":-6.159876,"distance":2334,"line":5,"station_name":"Bojongindah","transit":false,"i_long":106.737035,"time":2,"station_id":"BOI"},{"station_name":"Rawa Buaya","distance":1152,"transit":false,"i_lat":-6.162758,"line":5,"is_transit":false,"time":4,"station_id":"RW","i_long":106.723064},{"is_transit":false,"station_name":"Kalideres","transit":false,"line":5,"station_id":"KDS","i_lat":-6.166068,"distance":2504,"i_long":106.701612,"time":3},{"time":3,"distance":2548,"station_name":"Poris","is_transit":false,"transit":false,"i_lat":-6.169933,"i_long":106.679458,"line":5,"station_id":"PI"}],[{"station_name":"Tanjung Barat","line":2,"distance":0,"transit":false,"is_transit":false,"i_lat":-6.3080680000000005,"station_id":"TNT","i_long":106.838896,"time":0},{"line":2,"transit":false,"distance":2820,"station_name":"Pasar Minggu","time":4,"station_id":"PSM","i_lat":-6.2842400000000005,"is_transit":false,"i_long":106.843999},{"time":2,"transit":false,"i_lat":-6.263214,"station_name":"Pasar Minggu Baru","distance":2380,"line":2,"is_transit":false,"i_long":106.851577,"station_id":"PSMB"},{"station_name":"Duren Kalibata","time":2,"station_id":"DRN","line":2,"i_lat":-6.255332,"transit":false,"i_long":106.85449,"distance":824,"is_transit":false},{"transit":false,"line":2,"is_transit":false,"i_lat":-6.242512,"time":3,"station_id":"CW","i_long":106.856607,"station_name":"Cawang","distance":1546},{"time":2,"is_transit":false,"transit":false,"station_id":"TEB","i_lat":-6.226659,"line":2,"distance":1230,"i_long":106.857948,"station_name":"Tebet"},{"is_transit":true,"time":4,"i_lat":-6.209883,"i_long":106.84912,"transit":true,"distance":2610,"station_id":"MRI","line":2,"station_name":"Manggarai"},{"station_id":"MTR","is_transit":false,"line":1,"transit":false,"station_name":"Matraman","distance":1275,"i_lat":-6.212485,"i_long":106.858896,"time":2},{"station_name":"Jatinegara","time":8,"i_lat":-6.215091,"station_id":"JNG","line":1,"is_transit":true,"distance":1377,"transit":true,"i_long":106.86807400000001},{"transit":false,"station_name":"Pondok Jati","i_lat":-6.209188,"time":2,"distance":1236,"line":11,"i_long":106.861737,"station_id":"POK","is_transit":false},{"is_transit":false,"station_name":"Kramat","time":2,"transit":false,"station_id":"KMT","i_long":106.855437,"line":11,"distance":1829,"i_lat":-6.193792},{"station_name":"Gang Sentiong","transit":false,"is_transit":false,"distance":973,"line":11,"station_id":"GST","time":1,"i_lat":-6.185975,"i_long":106.850107},{"time":8,"is_transit":false,"distance":1567,"transit":false,"line":11,"i_lat":-6.174784,"i_long":106.84368,"station_name":"Pasar Senen","station_id":"PSE"},{"transit":false,"station_name":"Kemayoran","is_transit":false,"distance":1436,"time":4,"i_lat":-6.161728,"i_long":106.839204,"station_id":"KMO","line":11},{"i_lat":-6.14505,"station_id":"RJW","station_name":"Rajawali","transit":false,"i_long":106.836569,"is_transit":false,"distance":1901,"line":11,"time":5},{"transit":true,"i_long":106.826365,"line":4,"is_transit":true,"i_lat":-6.132549,"distance":1444,"station_id":"KPB","station_name":"Kampung Bandan","time":3},{"station_id":"AK","i_long":106.79867,"time":9,"i_lat":-6.144674,"line":1,"station_name":"Angke","transit":false,"distance":4102,"is_transit":false},{"line":1,"i_lat":-6.155215,"i_long":106.800832,"is_transit":true,"distance":1230,"station_id":"DU","time":4,"station_name":"Duri","transit":true},{"station_name":"Grogol","i_lat":-6.162021,"line":5,"is_transit":false,"i_long":106.788277,"transit":false,"distance":1700,"station_id":"GRG","time":3},{"station_name":"Pesing","distance":2036,"i_long":106.771379,"i_lat":-6.161433,"transit":false,"time":2,"line":5,"is_transit":false,"station_id":"PSG"},{"i_long":106.756522,"distance":1614,"is_transit":false,"transit":false,"time":2,"line":5,"station_name":"Taman Kota","i_lat":-6.1587309999999995,"station_id":"TKO"},{"line":5,"i_long":106.737035,"is_transit":false,"distance":2334,"station_name":"Bojongindah","station_id":"BOI","time":2,"transit":false,"i_lat":-6.159876},{"distance":1152,"is_transit":false,"time":4,"i_long":106.723064,"station_id":"RW","station_name":"Rawa Buaya","line":5,"transit":false,"i_lat":-6.162758},{"line":5,"is_transit":false,"distance":2504,"station_name":"Kalideres","transit":false,"i_lat":-6.166068,"i_long":106.701612,"time":3,"station_id":"KDS"},{"line":5,"station_id":"PI","time":3,"i_lat":-6.169933,"is_transit":false,"distance":2548,"transit":false,"station_name":"Poris","i_long":106.679458}]]}