{"data":[[{"time":0,"i_lat":-6.3080680000000005,"station_id":"TNT","station_name":"Tanjung Barat","distance":0,"is_transit":false,"line":2,"i_long":106.838896,"transit":false},{"distance":2820,"station_name":"Pasar Minggu","transit":false,"time":4,"i_long":106.843999,"line":2,"is_transit":false,"i_lat":-6.2842400000000005,"station_id":"PSM"},{"distance":2380,"is_transit":false,"i_long":106.851577,"line":2,"i_lat":-6.263214,"station_name":"Pasar Minggu Baru","transit":false,"time":2,"station_id":"PSMB"},{"line":0,"transit":false,"distance":824,"i_lat":-6.255332,"station_id":"DRN","station_name":"Duren Kalibata","time":2,"is_transit":false,"i_long":106.85449},{"distance":1546,"i_long":106.856607,"station_name":"Cawang","time":3,"i_lat":-6.242512,"station_id":"CW","is_transit":false,"line":0,"transit":false},{"i_lat":-6.226659,"is_transit":false,"i_long":106.857948,"line":2,"transit":false,"station_id":"TEB","distance":1230,"station_name":"Tebet","time":2},{"time":4,"is_transit":true,"station_name":"Manggarai","line":0,"station_id":"MRI","distance":2610,"i_lat":-6.209883,"transit":true,"i_long":106.84912},{"transit":false,"time":4,"i_lat":-6.198556,"distance":1590,"is_transit":false,"line":0,"station_name":"Cikini","station_id":"CKI","i_long":106.840169},{"transit":false,"i_lat":-6.186295,"line":2,"time":3,"station_id":"GDD","station_name":"Gondangdia","i_long":106.832183,"is_transit":false,"distance":1750}],[{"i_lat":-6.3080680000000005,"station_id":"TNT","transit":false,"distance":0,"is_transit":false,"time":0,"line":2,"station_name":"Tanjung Barat","i_long":106.838896},{"line":2,"station_id":"PSM","transit":false,"i_long":106.843999,"i_lat":-6.2842400000000005,"is_transit":false,"time":4,"station_name":"Pasar Minggu","distance":2820},{"station_name":"Pasar Minggu Baru","transit":false,"time":2,"line":2,"i_long":106.851577,"station_id":"PSMB","i_lat":-6.263214,"is_transit":false,"distance":2380},{"line":0,"time":2,"i_lat":-6.255332,"station_id":"DRN","transit":false,"is_transit":false,"station_name":"Duren Kalibata","distance":824,"i_long":106.85449},{"station_id":"CW","is_transit":false,"i_long":106.856607,"line":0,"station_name":"Cawang","distance":1546,"transit":false,"time":3,"i_lat":-6.242512},{"time":2,"station_id":"TEB","transit":false,"line":2,"is_transit":false,"station_name":"Tebet","i_lat":-6.226659,"i_long":106.857948,"distance":1230},{"station_id":"MRI","distance":2610,"station_name":"Manggarai","i_lat":-6.209883,"i_long":106.84912,"time":4,"is_transit":true,"transit":true,"line":0},{"distance":3186,"line":1,"is_transit":false,"i_lat":-6.202263,"station_name":"Sudirman","station_id":"SUD","transit":false,"time":4,"i_long":106.822649},{"line":1,"distance":280,"is_transit":false,"station_id":"SUDB","station_name":"Sudirman Baru","time":1,"i_long":106.819881,"transit":false,"i_lat":-6.201433},{"station_name":"Karet","station_id":"KAT","i_lat":-6.20132,"is_transit":false,"distance":471,"transit":false,"line":1,"time":1,"i_long":106.816351},{"line":1,"is_transit":true,"station_id":"THB","i_long":106.811091,"transit":false,"i_lat":-6.185545,"distance":2029,"station_name":"Tanah Abang","time":5},{"time":8,"i_long":106.800832,"line":1,"station_name":"Duri","i_lat":-6.155215,"is_transit":true,"transit":true,"distance":3632,"station_id":"DU"},{"distance":1230,"i_long":106.79867,"is_transit":false,"i_lat":-6.144674,"station_id":"AK","time":4,"station_name":"Angke","transit":false,"line":0},{"line":0,"distance":4102,"time":9,"i_lat":-6.132549,"is_transit":true,"station_name":"Kampung Bandan","transit":false,"i_long":106.826365,"station_id":"KPB"},{"station_name":"Jakarta Kota","line":0,"is_transit":true,"i_lat":-6.137569,"time":3,"transit":true,"i_long":106.812439,"station_id":"JAKK","distance":1364},{"is_transit":false,"station_id":"JAY","distance":1264,"i_lat":-6.141205,"i_long":106.820901,"line":7,"time":4,"station_name":"Jayakarta","transit":false},{"is_transit":false,"transit":false,"time":2,"line":2,"i_long":106.82482,"distance":1080,"station_id":"MGB","i_lat":-6.149769,"station_name":"Manggabesar"},{"station_name":"Sawah Besar","is_transit":false,"distance":906,"transit":false,"line":2,"station_id":"SW","i_long":106.827103,"time":2,"i_lat":-6.160725},{"time":2,"i_lat":-6.166716,"station_id":"JUA","is_transit":false,"station_name":"Juanda","distance":1149,"transit":false,"i_long":106.828284,"line":2},{"time":4,"distance":2015,"transit":false,"station_name":"Gondangdia","station_id":"GDD","line":2,"is_transit":false,"i_lat":-6.186295,"i_long":106.832183}],[{"i_long":106.838896,"station_id":"TNT","is_transit":false,"i_lat":-6.3080680000000005,"station_name":"Tanjung Barat","transit":false,"distance":0,"time":0,"line":2},{"i_long":106.843999,"line":2,"transit":false,"station_name":"Pasar Minggu","is_transit":false,"time":4,"distance":2820,"station_id":"PSM","i_lat":-6.2842400000000005},{"i_lat":-6.263214,"i_long":106.851577,"line":2,"station_id":"PSMB","is_transit":false,"transit":false,"time":2,"distance":2380,"station_name":"Pasar Minggu Baru"},{"transit":false,"station_id":"DRN","i_lat":-6.255332,"i_long":106.85449,"time":2,"line":0,"distance":824,"is_transit":false,"station_name":"Duren Kalibata"},{"i_lat":-6.242512,"distance":1546,"is_transit":false,"line":0,"station_name":"Cawang","transit":false,"time":3,"station_id":"CW","i_long":106.856607},{"i_long":106.857948,"station_name":"Tebet","time":2,"station_id":"TEB","line":2,"is_transit":false,"distance":1230,"i_lat":-6.226659,"transit":false},{"station_name":"Manggarai","transit":true,"is_transit":true,"line":0,"time":4,"i_lat":-6.209883,"i_long":106.84912,"distance":2610,"station_id":"MRI"},{"line":1,"distance":1275,"is_transit":false,"station_id":"MTR","transit":false,"time":2,"i_lat":-6.212485,"i_long":106.858896,"station_name":"Matraman"},{"line":0,"distance":1377,"transit":true,"station_id":"JNG","station_name":"Jatinegara","is_transit":true,"time":8,"i_long":106.86807400000001,"i_lat":-6.215091},{"i_long":106.861737,"time":2,"station_id":"POK","distance":1236,"is_transit":false,"i_lat":-6.209188,"transit":false,"line":11,"station_name":"Pondok Jati"},{"transit":false,"station_name":"Kramat","station_id":"KMT","i_lat":-6.193792,"line":11,"distance":1829,"is_transit":false,"time":2,"i_long":106.855437},{"station_id":"GST","line":11,"transit":false,"distance":973,"station_name":"Gang Sentiong","i_long":106.850107,"time":1,"is_transit":false,"i_lat":-6.185975},{"time":8,"station_name":"Pasar Senen","line":11,"transit":false,"is_transit":false,"i_long":106.84368,"station_id":"PSE","i_lat":-6.174784,"distance":1567},{"i_long":106.839204,"time":4,"i_lat":-6.161728,"is_transit":false,"station_name":"Kemayoran","line":11,"distance":1436,"station_id":"KMO","transit":false},{"distance":1901,"is_transit":false,"station_name":"Rajawali","time":5,"transit":false,"i_long":106.836569,"line":11,"i_lat":-6.14505,"station_id":"RJW"},{"i_long":106.826365,"line":0,"transit":true,"station_id":"KPB","distance":1444,"is_transit":true,"time":3,"i_lat":-6.132549,"station_name":"Kampung Bandan"},{"i_lat":-6.137569,"time":3,"distance":1364,"station_id":"JAKK","i_long":106.812439,"station_name":"Jakarta Kota","transit":true,"line":0,"is_transit":true},{"time":4,"distance":1264,"is_transit":false,"transit":false,"i_lat":-6.141205,"i_long":106.820901,"station_name":"Jayakarta","line":7,"station_id":"JAY"},{"station_id":"MGB","is_transit":false,"time":2,"station_name":"Manggabesar","i_lat":-6.149769,"i_long":106.82482,"transit":false,"distance":1080,"line":2},{"distance":906,"is_transit":false,"station_id":"SW","time":2,"i_long":106.827103,"station_name":"Sawah Besar","i_lat":-6.160725,"transit":false,"line":2},{"i_long":106.828284,"transit":false,"station_id":"JUA","time":2,"i_lat":-6.166716,"station_name":"Juanda","is_transit":false,"line":2,"distance":1149},{"station_name":"Gondangdia","is_transit":false,"i_long":106.832183,"time":4,"transit":false,"i_lat":-6.186295,"distance":2015,"line":2,"station_id":"GDD"}]]}