{"data":[[{"transit":false,"line":2,"time":0,"station_name":"Tanjung Barat","i_long":106.838896,"i_lat":-6.3080680000000005,"is_transit":false,"distance":0,"station_id":"TNT"},{"line":2,"i_long":106.843999,"is_transit":false,"distance":2820,"station_name":"Pasar Minggu","i_lat":-6.2842400000000005,"station_id":"PSM","time":4,"transit":false},{"distance":2380,"is_transit":false,"station_id":"PSMB","station_name":"Pasar Minggu Baru","time":2,"i_lat":-6.263214,"i_long":106.851577,"transit":false,"line":2},{"transit":false,"line":2,"station_id":"DRN","time":2,"i_long":106.85449,"distance":824,"i_lat":-6.255332,"station_name":"Duren Kalibata","is_transit":false},{"transit":false,"i_lat":-6.242512,"line":2,"station_id":"CW","time":3,"is_transit":false,"i_long":106.856607,"distance":1546,"station_name":"Cawang"},{"distance":1230,"station_id":"TEB","i_long":106.857948,"station_name":"Tebet","transit":false,"time":2,"is_transit":false,"i_lat":-6.226659,"line":2},{"station_name":"Manggarai","transit":true,"line":2,"i_long":106.84912,"is_transit":true,"i_lat":-6.209883,"distance":2610,"time":4,"station_id":"MRI"},{"station_id":"SUD","is_transit":false,"station_name":"Sudirman","i_long":106.822649,"distance":3186,"line":1,"time":4,"transit":false,"i_lat":-6.202263},{"i_long":106.819881,"transit":false,"station_name":"Sudirman Baru","i_lat":-6.201433,"line":1,"station_id":"SUDB","distance":280,"time":1,"is_transit":false},{"station_id":"KAT","station_name":"Karet","transit":false,"is_transit":false,"i_long":106.816351,"distance":471,"time":1,"line":1,"i_lat":-6.20132},{"i_lat":-6.185545,"is_transit":false,"distance":2029,"transit":false,"time":5,"station_id":"THB","i_long":106.811091,"line":1,"station_name":"Tanah Abang"},{"line":1,"distance":3632,"transit":true,"i_long":106.800832,"is_transit":true,"i_lat":-6.155215,"time":8,"station_name":"Duri","station_id":"DU"},{"station_name":"Grogol","line":5,"transit":false,"distance":1700,"i_long":106.788277,"time":3,"is_transit":false,"i_lat":-6.162021,"station_id":"GRG"}],[{"i_long":106.838896,"distance":0,"time":0,"i_lat":-6.3080680000000005,"line":2,"station_name":"Tanjung Barat","is_transit":false,"station_id":"TNT","transit":false},{"station_id":"PSM","i_lat":-6.2842400000000005,"time":4,"is_transit":false,"i_long":106.843999,"distance":2820,"line":2,"station_name":"Pasar Minggu","transit":false},{"line":2,"is_transit":false,"distance":2380,"transit":false,"time":2,"i_lat":-6.263214,"station_id":"PSMB","station_name":"Pasar Minggu Baru","i_long":106.851577},{"i_lat":-6.255332,"station_name":"Duren Kalibata","i_long":106.85449,"is_transit":false,"transit":false,"line":2,"time":2,"distance":824,"station_id":"DRN"},{"station_id":"CW","station_name":"Cawang","distance":1546,"i_lat":-6.242512,"is_transit":false,"transit":false,"line":2,"time":3,"i_long":106.856607},{"station_id":"TEB","transit":false,"time":2,"i_long":106.857948,"station_name":"Tebet","distance":1230,"is_transit":false,"i_lat":-6.226659,"line":2},{"time":4,"station_name":"Manggarai","line":2,"distance":2610,"transit":false,"is_transit":false,"i_lat":-6.209883,"i_long":106.84912,"station_id":"MRI"},{"distance":1590,"is_transit":false,"i_lat":-6.198556,"station_id":"CKI","i_long":106.840169,"transit":false,"line":2,"time":4,"station_name":"Cikini"},{"station_id":"GDD","time":3,"i_long":106.832183,"line":2,"is_transit":false,"i_lat":-6.186295,"transit":false,"distance":1750,"station_name":"Gondangdia"},{"station_name":"Juanda","distance":2015,"is_transit":false,"transit":false,"i_long":106.828284,"line":2,"time":4,"station_id":"JUA","i_lat":-6.166716},{"time":2,"i_lat":-6.160725,"line":2,"distance":1149,"station_id":"SW","transit":false,"station_name":"Sawah Besar","is_transit":false,"i_long":106.827103},{"station_id":"MGB","line":2,"i_long":106.82482,"station_name":"Manggabesar","distance":906,"transit":false,"time":2,"is_transit":false,"i_lat":-6.149769},{"i_lat":-6.141205,"transit":false,"is_transit":false,"time":2,"distance":1080,"line":2,"i_long":106.820901,"station_name":"Jayakarta","station_id":"JAY"},{"i_lat":-6.137569,"line":2,"time":4,"is_transit":true,"i_long":106.812439,"transit":true,"distance":1264,"station_id":"JAKK","station_name":"Jakarta Kota"},{"station_id":"KPB","is_transit":true,"station_name":"Kampung Bandan","line":4,"transit":true,"distance":1364,"i_long":106.826365,"time":3,"i_lat":-6.132549},{"distance":4102,"is_transit":false,"transit":false,"time":9,"station_id":"AK","station_name":"Angke","i_lat":-6.144674,"line":1,"i_long":106.79867},{"line":1,"distance":1230,"station_id":"DU","time":4,"transit":true,"is_transit":true,"station_name":"Duri","i_lat":-6.155215,"i_long":106.800832},{"station_name":"Grogol","line":5,"time":3,"distance":1700,"transit":false,"i_lat":-6.162021,"i_long":106.788277,"station_id":"GRG","is_transit":false}],[{"time":0,"transit":false,"distance":0,"is_transit":false,"station_id":"TNT","station_name":"Tanjung Barat","i_long":106.838896,"i_lat":-6.3080680000000005,"line":2},{"station_id":"PSM","is_transit":false,"time":4,"transit":false,"distance":2820,"station_name":"Pasar Minggu","i_lat":-6.2842400000000005,"i_long":106.843999,"line":2},{"transit":false,"is_transit":false,"station_id":"PSMB","i_lat":-6.263214,"time":2,"line":2,"distance":2380,"station_name":"Pasar Minggu Baru","i_long":106.851577},{"time":2,"distance":824,"transit":false,"i_lat":-6.255332,"is_transit":false,"line":2,"station_name":"Duren Kalibata","station_id":"DRN","i_long":106.85449},{"is_transit":false,"station_id":"CW","time":3,"distance":1546,"station_name":"Cawang","line":2,"i_long":106.856607,"i_lat":-6.242512,"transit":false},{"distance":1230,"station_name":"Tebet","station_id":"TEB","time":2,"transit":false,"i_long":106.857948,"i_lat":-6.226659,"line":2,"is_transit":false},{"distance":2610,"i_lat":-6.209883,"i_long":106.84912,"line":2,"station_name":"Manggarai","transit":true,"is_transit":true,"time":4,"station_id":"MRI"},{"is_transit":false,"i_lat":-6.212485,"transit":false,"distance":1275,"station_id":"MTR","line":1,"i_long":106.858896,"time":2,"station_name":"Matraman"},{"i_lat":-6.215091,"station_name":"Jatinegara","distance":1377,"is_transit":true,"transit":true,"station_id":"JNG","i_long":106.86807400000001,"line":1,"time":8},{"i_long":106.861737,"line":11,"station_name":"Pondok Jati","transit":false,"time":2,"distance":1236,"is_transit":false,"station_id":"POK","i_lat":-6.209188},{"i_long":106.855437,"time":2,"transit":false,"is_transit":false,"i_lat":-6.193792,"station_id":"KMT","distance":1829,"line":11,"station_name":"Kramat"},{"i_lat":-6.185975,"is_transit":false,"distance":973,"station_id":"GST","line":11,"time":1,"transit":false,"station_name":"Gang Sentiong","i_long":106.850107},{"is_transit":false,"station_id":"PSE","station_name":"Pasar Senen","distance":1567,"i_lat":-6.174784,"line":11,"i_long":106.84368,"transit":false,"time":8},{"is_transit":false,"line":11,"station_id":"KMO","i_lat":-6.161728,"transit":false,"time":4,"distance":1436,"i_long":106.839204,"station_name":"Kemayoran"},{"i_lat":-6.14505,"time":5,"transit":false,"station_name":"Rajawali","i_long":106.836569,"line":11,"is_transit":false,"distance":1901,"station_id":"RJW"},{"line":4,"station_id":"KPB","i_lat":-6.132549,"distance":1444,"transit":true,"i_long":106.826365,"station_name":"Kampung Bandan","time":3,"is_transit":true},{"line":1,"station_id":"AK","is_transit":false,"time":9,"i_lat":-6.144674,"distance":4102,"transit":false,"station_name":"Angke","i_long":106.79867},{"distance":1230,"station_id":"DU","transit":true,"station_name":"Duri","time":4,"is_transit":true,"line":1,"i_long":106.800832,"i_lat":-6.155215},{"station_id":"GRG","i_long":106.788277,"distance":1700,"time":3,"station_name":"Grogol","is_transit":false,"i_lat":-6.162021,"transit":false,"line":5}]]}