{"data":[[{"is_transit":false,"time":0,"station_name":"Tanjung Barat","i_long":106.838896,"line":2,"station_id":"TNT","distance":0,"transit":false,"i_lat":-6.3080680000000005},{"time":4,"line":2,"distance":2820,"station_id":"PSM","i_long":106.843999,"station_name":"Pasar Minggu","is_transit":false,"transit":false,"i_lat":-6.2842400000000005},{"transit":false,"distance":2380,"time":2,"station_id":"PSMB","i_long":106.851577,"station_name":"Pasar Minggu Baru","is_transit":false,"i_lat":-6.263214,"line":2},{"is_transit":false,"transit":false,"station_id":"DRN","distance":824,"i_long":106.85449,"i_lat":-6.255332,"line":2,"station_name":"Duren Kalibata","time":2},{"station_name":"Cawang","is_transit":false,"transit":false,"i_long":106.856607,"i_lat":-6.242512,"line":2,"distance":1546,"station_id":"CW","time":3},{"station_id":"TEB","time":2,"i_long":106.857948,"line":2,"is_transit":false,"transit":false,"distance":1230,"station_name":"Tebet","i_lat":-6.226659},{"i_lat":-6.209883,"station_id":"MRI","transit":false,"line":2,"i_long":106.84912,"station_name":"Manggarai","distance":2610,"time":4,"is_transit":false},{"line":2,"station_name":"Cikini","transit":false,"time":4,"station_id":"CKI","is_transit":false,"distance":1590,"i_lat":-6.198556,"i_long":106.840169}],[{"distance":0,"station_id":"TNT","time":0,"transit":false,"station_name":"Tanjung Barat","i_lat":-6.3080680000000005,"line":2,"i_long":106.838896,"is_transit":false},{"line":2,"station_name":"Pasar Minggu","is_transit":false,"station_id":"PSM","transit":false,"i_lat":-6.2842400000000005,"distance":2820,"time":4,"i_long":106.843999},{"station_name":"Pasar Minggu Baru","i_long":106.851577,"transit":false,"station_id":"PSMB","distance":2380,"time":2,"is_transit":false,"line":2,"i_lat":-6.263214},{"distance":824,"time":2,"transit":false,"station_name":"Duren Kalibata","station_id":"DRN","line":2,"is_transit":false,"i_long":106.85449,"i_lat":-6.255332},{"transit":false,"time":3,"station_name":"Cawang","is_transit":false,"station_id":"CW","i_lat":-6.242512,"distance":1546,"i_long":106.856607,"line":2},{"time":2,"distance":1230,"i_lat":-6.226659,"station_name":"Tebet","is_transit":false,"transit":false,"station_id":"TEB","i_long":106.857948,"line":2},{"i_long":106.84912,"line":2,"station_name":"Manggarai","station_id":"MRI","is_transit":true,"distance":2610,"time":4,"transit":true,"i_lat":-6.209883},{"distance":3186,"station_id":"SUD","time":4,"i_lat":-6.202263,"station_name":"Sudirman","is_transit":false,"transit":false,"i_long":106.822649,"line":1},{"i_lat":-6.201433,"line":1,"distance":280,"time":1,"station_id":"SUDB","transit":false,"i_long":106.819881,"station_name":"Sudirman Baru","is_transit":false},{"station_name":"Karet","distance":471,"is_transit":false,"transit":false,"i_lat":-6.20132,"line":1,"station_id":"KAT","i_long":106.816351,"time":1},{"time":5,"i_lat":-6.185545,"transit":false,"station_id":"THB","line":1,"i_long":106.811091,"station_name":"Tanah Abang","is_transit":false,"distance":2029},{"time":8,"distance":3632,"station_id":"DU","is_transit":false,"i_long":106.800832,"station_name":"Duri","i_lat":-6.155215,"transit":false,"line":1},{"is_transit":false,"i_long":106.79867,"i_lat":-6.144674,"station_id":"AK","distance":1230,"station_name":"Angke","line":1,"time":4,"transit":false},{"line":4,"station_id":"KPB","distance":4102,"transit":true,"i_long":106.826365,"station_name":"Kampung Bandan","is_transit":true,"time":9,"i_lat":-6.132549},{"distance":1364,"line":2,"time":3,"is_transit":true,"station_id":"JAKK","station_name":"Jakarta Kota","transit":true,"i_lat":-6.137569,"i_long":106.812439},{"line":2,"transit":false,"time":4,"distance":1264,"i_long":106.820901,"is_transit":false,"i_lat":-6.141205,"station_id":"JAY","station_name":"Jayakarta"},{"is_transit":false,"transit":false,"i_lat":-6.149769,"time":2,"distance":1080,"line":2,"station_id":"MGB","station_name":"Manggabesar","i_long":106.82482},{"is_transit":false,"line":2,"i_long":106.827103,"time":2,"transit":false,"station_id":"SW","distance":906,"station_name":"Sawah Besar","i_lat":-6.160725},{"line":2,"station_name":"Juanda","station_id":"JUA","time":2,"transit":false,"distance":1149,"i_lat":-6.166716,"is_transit":false,"i_long":106.828284},{"station_name":"Gondangdia","time":4,"line":2,"is_transit":false,"i_long":106.832183,"i_lat":-6.186295,"station_id":"GDD","distance":2015,"transit":false},{"is_transit":false,"i_lat":-6.198556,"time":3,"distance":1750,"station_name":"Cikini","i_long":106.840169,"transit":false,"line":2,"station_id":"CKI"}],[{"distance":0,"i_long":106.838896,"time":0,"station_id":"TNT","station_name":"Tanjung Barat","i_lat":-6.3080680000000005,"line":2,"transit":false,"is_transit":false},{"time":4,"transit":false,"distance":2820,"i_long":106.843999,"line":2,"is_transit":false,"station_name":"Pasar Minggu","i_lat":-6.2842400000000005,"station_id":"PSM"},{"distance":2380,"i_lat":-6.263214,"station_name":"Pasar Minggu Baru","transit":false,"i_long":106.851577,"time":2,"is_transit":false,"line":2,"station_id":"PSMB"},{"i_long":106.85449,"transit":false,"line":2,"station_name":"Duren Kalibata","i_lat":-6.255332,"is_transit":false,"station_id":"DRN","distance":824,"time":2},{"transit":false,"is_transit":false,"distance":1546,"station_id":"CW","station_name":"Cawang","i_lat":-6.242512,"i_long":106.856607,"line":2,"time":3},{"i_long":106.857948,"is_transit":false,"station_name":"Tebet","distance":1230,"transit":false,"i_lat":-6.226659,"line":2,"station_id":"TEB","time":2},{"is_transit":true,"station_name":"Manggarai","line":2,"time":4,"station_id":"MRI","i_long":106.84912,"transit":true,"distance":2610,"i_lat":-6.209883},{"i_lat":-6.212485,"time":2,"station_id":"MTR","transit":false,"i_long":106.858896,"is_transit":false,"distance":1275,"station_name":"Matraman","line":1},{"time":8,"distance":1377,"transit":true,"i_long":106.86807400000001,"station_id":"JNG","station_name":"Jatinegara","i_lat":-6.215091,"line":1,"is_transit":true},{"station_name":"Pondok Jati","i_lat":-6.209188,"i_long":106.861737,"line":11,"station_id":"POK","time":2,"is_transit":false,"distance":1236,"transit":false},{"distance":1829,"transit":false,"time":2,"i_lat":-6.193792,"line":11,"i_long":106.855437,"is_transit":false,"station_name":"Kramat","station_id":"KMT"},{"transit":false,"distance":973,"station_id":"GST","line":11,"is_transit":false,"i_lat":-6.185975,"time":1,"i_long":106.850107,"station_name":"Gang Sentiong"},{"i_long":106.84368,"station_id":"PSE","time":8,"is_transit":false,"distance":1567,"i_lat":-6.174784,"station_name":"Pasar Senen","transit":false,"line":11},{"line":11,"transit":false,"station_name":"Kemayoran","i_long":106.839204,"i_lat":-6.161728,"distance":1436,"is_transit":false,"time":4,"station_id":"KMO"},{"distance":1901,"line":11,"station_name":"Rajawali","is_transit":false,"time":5,"i_long":106.836569,"station_id":"RJW","i_lat":-6.14505,"transit":false},{"time":3,"line":4,"is_transit":true,"transit":true,"station_name":"Kampung Bandan","i_long":106.826365,"distance":1444,"i_lat":-6.132549,"station_id":"KPB"},{"station_name":"Jakarta Kota","station_id":"JAKK","i_lat":-6.137569,"i_long":106.812439,"distance":1364,"is_transit":true,"time":3,"line":2,"transit":true},{"i_lat":-6.141205,"transit":false,"time":4,"is_transit":false,"i_long":106.820901,"distance":1264,"station_name":"Jayakarta","line":2,"station_id":"JAY"},{"station_name":"Manggabesar","i_long":106.82482,"transit":false,"is_transit":false,"line":2,"time":2,"distance":1080,"station_id":"MGB","i_lat":-6.149769},{"transit":false,"is_transit":false,"i_lat":-6.160725,"station_name":"Sawah Besar","station_id":"SW","time":2,"line":2,"i_long":106.827103,"distance":906},{"time":2,"line":2,"is_transit":false,"station_id":"JUA","transit":false,"i_lat":-6.166716,"station_name":"Juanda","i_long":106.828284,"distance":1149},{"i_long":106.832183,"station_name":"Gondangdia","is_transit":false,"time":4,"line":2,"transit":false,"station_id":"GDD","i_lat":-6.186295,"distance":2015},{"i_lat":-6.198556,"distance":1750,"station_id":"CKI","transit":false,"station_name":"Cikini","is_transit":false,"line":2,"time":3,"i_long":106.840169}]]}