{"data":[[{"line":2,"distance":0,"i_long":106.838896,"station_id":"TNT","i_lat":-6.3080680000000005,"is_transit":false,"time":0,"transit":false,"station_name":"Tanjung Barat"},{"line":2,"station_id":"PSM","i_long":106.843999,"station_name":"Pasar Minggu","is_transit":false,"time":4,"distance":2820,"transit":false,"i_lat":-6.2842400000000005},{"line":2,"i_long":106.851577,"distance":2380,"is_transit":false,"transit":false,"station_id":"PSMB","time":2,"station_name":"Pasar Minggu Baru","i_lat":-6.263214},{"transit":false,"i_lat":-6.255332,"line":2,"i_long":106.85449,"time":2,"distance":824,"station_name":"Duren Kalibata","is_transit":false,"station_id":"DRN"},{"line":2,"is_transit":false,"i_lat":-6.242512,"distance":1546,"station_id":"CW","i_long":106.856607,"transit":false,"station_name":"Cawang","time":3},{"station_id":"TEB","transit":false,"time":2,"i_long":106.857948,"line":2,"station_name":"Tebet","distance":1230,"is_transit":false,"i_lat":-6.226659},{"is_transit":true,"distance":2610,"station_name":"Manggarai","station_id":"MRI","i_long":106.84912,"i_lat":-6.209883,"line":2,"time":4,"transit":true},{"station_id":"MTR","i_long":106.858896,"line":1,"is_transit":false,"time":2,"i_lat":-6.212485,"distance":1275,"transit":false,"station_name":"Matraman"},{"line":1,"station_name":"Jatinegara","time":8,"i_long":106.86807400000001,"transit":false,"is_transit":false,"station_id":"JNG","i_lat":-6.215091,"distance":1377},{"time":3,"line":1,"i_long":106.899548,"transit":false,"i_lat":-6.2135,"station_name":"Klender","station_id":"KLD","is_transit":false,"distance":3395},{"station_name":"Buaran","line":1,"distance":3100,"i_lat":-6.215568,"is_transit":false,"station_id":"BUA","i_long":106.922662,"time":2,"transit":false}],[{"i_lat":-6.3080680000000005,"i_long":106.838896,"line":2,"is_transit":false,"transit":false,"distance":0,"station_name":"Tanjung Barat","time":0,"station_id":"TNT"},{"distance":2820,"is_transit":false,"i_lat":-6.2842400000000005,"i_long":106.843999,"time":4,"line":2,"station_name":"Pasar Minggu","transit":false,"station_id":"PSM"},{"time":2,"i_lat":-6.263214,"i_long":106.851577,"station_name":"Pasar Minggu Baru","line":2,"distance":2380,"station_id":"PSMB","transit":false,"is_transit":false},{"line":2,"distance":824,"station_name":"Duren Kalibata","time":2,"station_id":"DRN","transit":false,"i_lat":-6.255332,"is_transit":false,"i_long":106.85449},{"distance":1546,"station_name":"Cawang","is_transit":false,"line":2,"i_lat":-6.242512,"station_id":"CW","time":3,"transit":false,"i_long":106.856607},{"is_transit":false,"i_lat":-6.226659,"distance":1230,"i_long":106.857948,"transit":false,"station_id":"TEB","line":2,"station_name":"Tebet","time":2},{"distance":2610,"i_long":106.84912,"is_transit":true,"transit":true,"time":4,"station_name":"Manggarai","station_id":"MRI","i_lat":-6.209883,"line":2},{"station_name":"Sudirman","station_id":"SUD","is_transit":false,"distance":3186,"i_long":106.822649,"i_lat":-6.202263,"line":1,"time":4,"transit":false},{"distance":280,"transit":false,"station_name":"Sudirman Baru","is_transit":false,"i_lat":-6.201433,"i_long":106.819881,"time":1,"line":1,"station_id":"SUDB"},{"is_transit":false,"station_id":"KAT","i_long":106.816351,"station_name":"Karet","time":1,"line":1,"transit":false,"i_lat":-6.20132,"distance":471},{"i_lat":-6.185545,"is_transit":false,"station_id":"THB","line":1,"i_long":106.811091,"transit":false,"station_name":"Tanah Abang","time":5,"distance":2029},{"i_lat":-6.155215,"distance":3632,"time":8,"i_long":106.800832,"line":1,"station_name":"Duri","station_id":"DU","is_transit":false,"transit":false},{"is_transit":false,"i_long":106.79867,"station_name":"Angke","station_id":"AK","time":4,"transit":false,"i_lat":-6.144674,"line":1,"distance":1230},{"transit":true,"i_long":106.826365,"distance":4102,"i_lat":-6.132549,"station_id":"KPB","time":9,"line":4,"station_name":"Kampung Bandan","is_transit":true},{"station_name":"Rajawali","time":3,"is_transit":false,"transit":false,"station_id":"RJW","distance":1444,"i_lat":-6.14505,"i_long":106.836569,"line":11},{"station_name":"Kemayoran","time":5,"transit":false,"is_transit":false,"distance":1901,"i_lat":-6.161728,"line":11,"station_id":"KMO","i_long":106.839204},{"line":11,"station_name":"Pasar Senen","i_lat":-6.174784,"time":4,"is_transit":false,"i_long":106.84368,"distance":1436,"transit":false,"station_id":"PSE"},{"line":11,"station_id":"GST","i_lat":-6.185975,"is_transit":false,"station_name":"Gang Sentiong","i_long":106.850107,"distance":1567,"transit":false,"time":8},{"station_name":"Kramat","is_transit":false,"time":1,"i_lat":-6.193792,"station_id":"KMT","transit":false,"line":11,"i_long":106.855437,"distance":973},{"time":2,"i_long":106.861737,"station_name":"Pondok Jati","is_transit":false,"transit":false,"distance":1829,"line":11,"i_lat":-6.209188,"station_id":"POK"},{"line":1,"distance":1236,"station_name":"Jatinegara","transit":true,"is_transit":true,"time":9,"i_lat":-6.215091,"i_long":106.86807400000001,"station_id":"JNG"},{"line":1,"i_lat":-6.2135,"i_long":106.899548,"station_name":"Klender","station_id":"KLD","time":3,"is_transit":false,"transit":false,"distance":3395},{"line":1,"station_id":"BUA","i_lat":-6.215568,"transit":false,"station_name":"Buaran","time":2,"i_long":106.922662,"is_transit":false,"distance":3100}],[{"is_transit":false,"station_id":"TNT","distance":0,"station_name":"Tanjung Barat","i_lat":-6.3080680000000005,"line":2,"transit":false,"time":0,"i_long":106.838896},{"station_id":"PSM","time":4,"distance":2820,"is_transit":false,"i_lat":-6.2842400000000005,"line":2,"station_name":"Pasar Minggu","i_long":106.843999,"transit":false},{"is_transit":false,"i_lat":-6.263214,"i_long":106.851577,"transit":false,"station_id":"PSMB","time":2,"line":2,"distance":2380,"station_name":"Pasar Minggu Baru"},{"is_transit":false,"i_lat":-6.255332,"distance":824,"transit":false,"line":2,"station_id":"DRN","station_name":"Duren Kalibata","time":2,"i_long":106.85449},{"station_id":"CW","time":3,"distance":1546,"station_name":"Cawang","transit":false,"i_lat":-6.242512,"is_transit":false,"line":2,"i_long":106.856607},{"is_transit":false,"station_name":"Tebet","time":2,"transit":false,"i_lat":-6.226659,"station_id":"TEB","distance":1230,"line":2,"i_long":106.857948},{"time":4,"distance":2610,"i_long":106.84912,"i_lat":-6.209883,"transit":false,"line":2,"is_transit":false,"station_id":"MRI","station_name":"Manggarai"},{"i_lat":-6.198556,"line":2,"time":4,"transit":false,"station_name":"Cikini","station_id":"CKI","is_transit":false,"i_long":106.840169,"distance":1590},{"distance":1750,"i_long":106.832183,"line":2,"i_lat":-6.186295,"transit":false,"time":3,"station_id":"GDD","station_name":"Gondangdia","is_transit":false},{"station_id":"JUA","transit":false,"i_long":106.828284,"station_name":"Juanda","distance":2015,"i_lat":-6.166716,"time":4,"line":2,"is_transit":false},{"time":2,"line":2,"is_transit":false,"transit":false,"station_id":"SW","i_lat":-6.160725,"station_name":"Sawah Besar","distance":1149,"i_long":106.827103},{"is_transit":false,"station_id":"MGB","i_lat":-6.149769,"time":2,"i_long":106.82482,"distance":906,"line":2,"transit":false,"station_name":"Manggabesar"},{"transit":false,"time":2,"i_lat":-6.141205,"i_long":106.820901,"station_id":"JAY","distance":1080,"is_transit":false,"station_name":"Jayakarta","line":2},{"station_name":"Jakarta Kota","time":4,"is_transit":true,"i_lat":-6.137569,"i_long":106.812439,"line":2,"distance":1264,"transit":true,"station_id":"JAKK"},{"station_id":"KPB","time":3,"station_name":"Kampung Bandan","distance":1364,"i_long":106.826365,"transit":true,"i_lat":-6.132549,"is_transit":true,"line":4},{"transit":false,"station_name":"Rajawali","i_long":106.836569,"time":3,"is_transit":false,"station_id":"RJW","distance":1444,"i_lat":-6.14505,"line":11},{"station_name":"Kemayoran","i_long":106.839204,"distance":1901,"is_transit":false,"time":5,"i_lat":-6.161728,"line":11,"station_id":"KMO","transit":false},{"time":4,"line":11,"transit":false,"station_id":"PSE","i_lat":-6.174784,"station_name":"Pasar Senen","is_transit":false,"distance":1436,"i_long":106.84368},{"i_lat":-6.185975,"distance":1567,"station_name":"Gang Sentiong","i_long":106.850107,"station_id":"GST","is_transit":false,"transit":false,"time":8,"line":11},{"station_name":"Kramat","station_id":"KMT","transit":false,"is_transit":false,"i_lat":-6.193792,"distance":973,"i_long":106.855437,"time":1,"line":11},{"line":11,"transit":false,"station_name":"Pondok Jati","time":2,"i_lat":-6.209188,"is_transit":false,"distance":1829,"station_id":"POK","i_long":106.861737},{"i_long":106.86807400000001,"transit":true,"station_name":"Jatinegara","is_transit":true,"i_lat":-6.215091,"line":1,"station_id":"JNG","time":9,"distance":1236},{"station_name":"Klender","time":3,"is_transit":false,"i_lat":-6.2135,"line":1,"distance":3395,"transit":false,"station_id":"KLD","i_long":106.899548},{"transit":false,"is_transit":false,"time":2,"distance":3100,"station_name":"Buaran","station_id":"BUA","i_lat":-6.215568,"i_long":106.922662,"line":1}]]}