{"data":[[{"line":2,"transit":false,"station_name":"Tanjung Barat","is_transit":false,"i_lat":-6.3080680000000005,"station_id":"TNT","time":0,"distance":0,"i_long":106.838896},{"i_lat":-6.330363,"line":2,"i_long":106.832616,"station_name":"Lenteng Agung","time":3,"distance":2671,"station_id":"LNA","is_transit":false,"transit":false},{"is_transit":false,"i_lat":-6.339291,"i_long":106.834175,"station_id":"UP","time":2,"station_name":"Univ. Pancasila","line":2,"transit":false,"distance":1029},{"transit":false,"line":2,"is_transit":false,"i_long":106.831474,"i_lat":-6.360749,"time":3,"station_id":"UI","distance":2264,"station_name":"Univ. Indonesia"},{"transit":false,"is_transit":false,"distance":1109,"line":2,"i_long":106.831114,"station_name":"Pondok Cina","i_lat":-6.369073,"time":2,"station_id":"POC"},{"i_lat":-6.391065,"i_long":106.819451,"line":2,"station_id":"DPB","time":4,"transit":false,"is_transit":false,"station_name":"Depokbaru","distance":2727},{"distance":1584,"i_lat":-6.405256,"i_long":106.816926,"transit":false,"station_name":"Depok","time":3,"station_id":"DP","line":2,"is_transit":false},{"time":6,"i_lat":-6.448811,"distance":5084,"station_id":"CTA","station_name":"Citayam","i_long":106.800298,"is_transit":false,"line":2,"transit":false},{"i_long":106.792719,"line":2,"station_name":"Bojonggede","time":5,"station_id":"BJD","is_transit":false,"transit":false,"distance":5197,"i_lat":-6.493243},{"station_id":"CLT","i_long":106.800016,"line":2,"i_lat":-6.530544,"time":5,"station_name":"Cilebut","is_transit":false,"transit":false,"distance":4331},{"i_lat":-6.594596,"transit":false,"station_name":"Bogor","i_long":106.790574,"time":9,"station_id":"BOO","is_transit":false,"line":2,"distance":7514}]]}