{"data":[[{"i_lat":-6.3080680000000005,"time":0,"is_transit":false,"i_long":106.838896,"line":2,"station_name":"Tanjung Barat","distance":0,"station_id":"TNT","transit":false},{"station_name":"Pasar Minggu","i_lat":-6.2842400000000005,"is_transit":false,"distance":2820,"time":4,"station_id":"PSM","i_long":106.843999,"line":2,"transit":false},{"line":2,"transit":false,"time":2,"is_transit":false,"i_long":106.851577,"station_id":"PSMB","distance":2380,"station_name":"Pasar Minggu Baru","i_lat":-6.263214},{"i_long":106.85449,"station_name":"Duren Kalibata","i_lat":-6.255332,"time":2,"is_transit":false,"station_id":"DRN","transit":false,"line":0,"distance":824},{"i_long":106.856607,"station_name":"Cawang","transit":false,"is_transit":false,"line":0,"distance":1546,"station_id":"CW","time":3,"i_lat":-6.242512},{"line":2,"is_transit":false,"station_name":"Tebet","time":2,"i_long":106.857948,"i_lat":-6.226659,"transit":false,"distance":1230,"station_id":"TEB"},{"is_transit":true,"station_id":"MRI","time":4,"i_long":106.84912,"line":0,"i_lat":-6.209883,"distance":2610,"station_name":"Manggarai","transit":true},{"transit":false,"i_lat":-6.212485,"station_id":"MTR","line":1,"i_long":106.858896,"time":2,"station_name":"Matraman","is_transit":false,"distance":1275},{"distance":1377,"station_name":"Jatinegara","transit":false,"is_transit":true,"i_long":106.86807400000001,"station_id":"JNG","line":0,"time":8,"i_lat":-6.215091},{"is_transit":false,"station_id":"KLD","station_name":"Klender","distance":3395,"transit":false,"time":3,"i_long":106.899548,"i_lat":-6.2135,"line":1},{"distance":3100,"station_name":"Buaran","time":2,"station_id":"BUA","line":0,"i_lat":-6.215568,"transit":false,"i_long":106.922662,"is_transit":false}],[{"distance":0,"transit":false,"i_lat":-6.3080680000000005,"i_long":106.838896,"time":0,"line":2,"station_id":"TNT","is_transit":false,"station_name":"Tanjung Barat"},{"station_id":"PSM","transit":false,"time":4,"distance":2820,"line":2,"station_name":"Pasar Minggu","i_long":106.843999,"is_transit":false,"i_lat":-6.2842400000000005},{"line":2,"station_name":"Pasar Minggu Baru","time":2,"transit":false,"is_transit":false,"station_id":"PSMB","i_long":106.851577,"i_lat":-6.263214,"distance":2380},{"transit":false,"time":2,"i_lat":-6.255332,"station_name":"Duren Kalibata","i_long":106.85449,"line":0,"distance":824,"is_transit":false,"station_id":"DRN"},{"line":0,"i_long":106.856607,"i_lat":-6.242512,"station_name":"Cawang","distance":1546,"station_id":"CW","transit":false,"is_transit":false,"time":3},{"distance":1230,"station_name":"Tebet","transit":false,"i_long":106.857948,"line":2,"is_transit":false,"i_lat":-6.226659,"station_id":"TEB","time":2},{"station_name":"Manggarai","i_long":106.84912,"line":0,"station_id":"MRI","i_lat":-6.209883,"transit":true,"distance":2610,"is_transit":true,"time":4},{"station_id":"SUD","time":4,"distance":3186,"is_transit":false,"station_name":"Sudirman","transit":false,"i_lat":-6.202263,"line":1,"i_long":106.822649},{"is_transit":false,"time":1,"station_id":"SUDB","i_long":106.819881,"line":1,"station_name":"Sudirman Baru","i_lat":-6.201433,"distance":280,"transit":false},{"station_id":"KAT","i_lat":-6.20132,"line":1,"is_transit":false,"i_long":106.816351,"distance":471,"time":1,"station_name":"Karet","transit":false},{"time":5,"i_long":106.811091,"station_id":"THB","line":1,"station_name":"Tanah Abang","distance":2029,"is_transit":true,"transit":false,"i_lat":-6.185545},{"distance":3632,"i_lat":-6.155215,"station_id":"DU","i_long":106.800832,"station_name":"Duri","time":8,"line":1,"is_transit":true,"transit":true},{"time":4,"station_name":"Angke","is_transit":false,"transit":false,"i_lat":-6.144674,"station_id":"AK","i_long":106.79867,"line":0,"distance":1230},{"line":0,"station_name":"Kampung Bandan","time":9,"i_lat":-6.132549,"transit":true,"i_long":106.826365,"distance":4102,"station_id":"KPB","is_transit":true},{"station_name":"Rajawali","line":11,"station_id":"RJW","distance":1444,"time":3,"is_transit":false,"i_lat":-6.14505,"i_long":106.836569,"transit":false},{"distance":1901,"transit":false,"line":11,"station_id":"KMO","i_lat":-6.161728,"is_transit":false,"station_name":"Kemayoran","time":5,"i_long":106.839204},{"i_lat":-6.174784,"station_id":"PSE","distance":1436,"station_name":"Pasar Senen","transit":false,"i_long":106.84368,"time":4,"line":11,"is_transit":false},{"transit":false,"i_lat":-6.185975,"i_long":106.850107,"line":11,"is_transit":false,"station_id":"GST","station_name":"Gang Sentiong","time":8,"distance":1567},{"distance":973,"transit":false,"i_long":106.855437,"line":11,"time":1,"i_lat":-6.193792,"is_transit":false,"station_name":"Kramat","station_id":"KMT"},{"line":11,"time":2,"distance":1829,"station_name":"Pondok Jati","i_lat":-6.209188,"transit":false,"i_long":106.861737,"station_id":"POK","is_transit":false},{"station_name":"Jatinegara","i_long":106.86807400000001,"line":0,"station_id":"JNG","is_transit":true,"i_lat":-6.215091,"transit":true,"time":9,"distance":1236},{"transit":false,"i_lat":-6.2135,"time":3,"line":1,"i_long":106.899548,"distance":3395,"station_name":"Klender","station_id":"KLD","is_transit":false},{"is_transit":false,"time":2,"distance":3100,"i_lat":-6.215568,"i_long":106.922662,"line":0,"station_id":"BUA","transit":false,"station_name":"Buaran"}],[{"station_id":"TNT","distance":0,"transit":false,"i_lat":-6.3080680000000005,"line":2,"i_long":106.838896,"time":0,"station_name":"Tanjung Barat","is_transit":false},{"time":4,"line":2,"station_name":"Pasar Minggu","distance":2820,"i_long":106.843999,"is_transit":false,"i_lat":-6.2842400000000005,"transit":false,"station_id":"PSM"},{"is_transit":false,"station_name":"Pasar Minggu Baru","transit":false,"distance":2380,"station_id":"PSMB","i_lat":-6.263214,"i_long":106.851577,"time":2,"line":2},{"station_id":"DRN","is_transit":false,"i_long":106.85449,"transit":false,"i_lat":-6.255332,"line":0,"station_name":"Duren Kalibata","distance":824,"time":2},{"is_transit":false,"line":0,"distance":1546,"station_name":"Cawang","i_lat":-6.242512,"station_id":"CW","time":3,"transit":false,"i_long":106.856607},{"station_name":"Tebet","i_long":106.857948,"transit":false,"time":2,"distance":1230,"station_id":"TEB","is_transit":false,"i_lat":-6.226659,"line":2},{"i_lat":-6.209883,"i_long":106.84912,"line":0,"station_id":"MRI","is_transit":true,"transit":true,"time":4,"distance":2610,"station_name":"Manggarai"},{"line":0,"time":4,"station_id":"CKI","station_name":"Cikini","i_long":106.840169,"is_transit":false,"distance":1590,"i_lat":-6.198556,"transit":false},{"station_id":"GDD","transit":false,"distance":1750,"line":2,"is_transit":false,"i_long":106.832183,"time":3,"station_name":"Gondangdia","i_lat":-6.186295},{"station_id":"JUA","i_lat":-6.166716,"distance":2015,"i_long":106.828284,"time":4,"is_transit":false,"line":2,"station_name":"Juanda","transit":false},{"is_transit":false,"station_name":"Sawah Besar","transit":false,"station_id":"SW","i_long":106.827103,"line":2,"time":2,"i_lat":-6.160725,"distance":1149},{"distance":906,"i_lat":-6.149769,"i_long":106.82482,"station_id":"MGB","time":2,"transit":false,"station_name":"Manggabesar","is_transit":false,"line":2},{"is_transit":false,"station_id":"JAY","i_long":106.820901,"station_name":"Jayakarta","line":7,"transit":false,"i_lat":-6.141205,"distance":1080,"time":2},{"station_name":"Jakarta Kota","transit":true,"station_id":"JAKK","is_transit":true,"time":4,"i_lat":-6.137569,"i_long":106.812439,"line":0,"distance":1264},{"i_lat":-6.132549,"station_id":"KPB","distance":1364,"station_name":"Kampung Bandan","time":3,"transit":true,"i_long":106.826365,"is_transit":true,"line":0},{"distance":1444,"line":11,"station_id":"RJW","transit":false,"station_name":"Rajawali","time":3,"i_long":106.836569,"is_transit":false,"i_lat":-6.14505},{"station_id":"KMO","station_name":"Kemayoran","i_lat":-6.161728,"i_long":106.839204,"time":5,"is_transit":false,"distance":1901,"transit":false,"line":11},{"i_lat":-6.174784,"station_name":"Pasar Senen","line":11,"is_transit":false,"distance":1436,"time":4,"i_long":106.84368,"transit":false,"station_id":"PSE"},{"transit":false,"line":11,"time":8,"station_id":"GST","is_transit":false,"distance":1567,"station_name":"Gang Sentiong","i_lat":-6.185975,"i_long":106.850107},{"distance":973,"station_name":"Kramat","is_transit":false,"i_long":106.855437,"i_lat":-6.193792,"station_id":"KMT","time":1,"line":11,"transit":false},{"i_long":106.861737,"i_lat":-6.209188,"station_name":"Pondok Jati","time":2,"distance":1829,"station_id":"POK","is_transit":false,"transit":false,"line":11},{"transit":true,"i_long":106.86807400000001,"i_lat":-6.215091,"line":0,"station_id":"JNG","station_name":"Jatinegara","distance":1236,"time":9,"is_transit":true},{"transit":false,"i_long":106.899548,"time":3,"is_transit":false,"station_name":"Klender","station_id":"KLD","i_lat":-6.2135,"line":1,"distance":3395},{"i_long":106.922662,"i_lat":-6.215568,"transit":false,"is_transit":false,"time":2,"station_name":"Buaran","station_id":"BUA","line":0,"distance":3100}]]}