{"data":[[{"i_long":106.838896,"station_name":"Tanjung Barat","line":2,"is_transit":false,"station_id":"TNT","time":0,"distance":0,"i_lat":-6.3080680000000005,"transit":false},{"line":2,"i_lat":-6.2842400000000005,"distance":2820,"i_long":106.843999,"is_transit":false,"station_id":"PSM","time":4,"transit":false,"station_name":"Pasar Minggu"},{"station_name":"Pasar Minggu Baru","is_transit":false,"distance":2380,"i_lat":-6.263214,"time":2,"i_long":106.851577,"transit":false,"station_id":"PSMB","line":2},{"station_name":"Duren Kalibata","is_transit":false,"time":2,"distance":824,"line":2,"station_id":"DRN","transit":false,"i_long":106.85449,"i_lat":-6.255332},{"i_long":106.856607,"i_lat":-6.242512,"line":2,"time":3,"transit":false,"station_name":"Cawang","station_id":"CW","is_transit":false,"distance":1546},{"transit":false,"station_id":"TEB","line":2,"distance":1230,"station_name":"Tebet","i_long":106.857948,"is_transit":false,"i_lat":-6.226659,"time":2},{"line":2,"i_long":106.84912,"is_transit":true,"station_name":"Manggarai","i_lat":-6.209883,"transit":true,"distance":2610,"station_id":"MRI","time":4},{"line":1,"time":4,"station_name":"Sudirman","i_lat":-6.202263,"i_long":106.822649,"is_transit":false,"station_id":"SUD","transit":false,"distance":3186},{"i_long":106.819881,"line":1,"station_name":"Sudirman Baru","transit":false,"station_id":"SUDB","i_lat":-6.201433,"is_transit":false,"distance":280,"time":1},{"i_long":106.816351,"distance":471,"is_transit":false,"station_id":"KAT","line":1,"i_lat":-6.20132,"station_name":"Karet","transit":false,"time":1},{"i_lat":-6.185545,"station_id":"THB","i_long":106.811091,"line":1,"distance":2029,"transit":false,"is_transit":false,"time":5,"station_name":"Tanah Abang"},{"is_transit":true,"i_lat":-6.155215,"transit":true,"distance":3632,"time":8,"station_id":"DU","i_long":106.800832,"station_name":"Duri","line":1},{"line":5,"time":3,"is_transit":false,"transit":false,"station_name":"Grogol","distance":1700,"i_lat":-6.162021,"i_long":106.788277,"station_id":"GGL"},{"transit":false,"i_long":106.771379,"distance":2036,"station_name":"Pesing","time":2,"station_id":"PSG","i_lat":-6.161433,"is_transit":false,"line":5},{"i_lat":-6.1587309999999995,"transit":false,"is_transit":false,"i_long":106.756522,"station_id":"TKO","station_name":"Taman Kota","distance":1614,"line":5,"time":2},{"i_long":106.737035,"line":5,"is_transit":false,"transit":false,"i_lat":-6.159876,"station_id":"BOI","station_name":"Bojongindah","distance":2334,"time":2},{"transit":false,"i_long":106.723064,"is_transit":false,"station_name":"Rawa Buaya","time":4,"distance":1152,"line":5,"i_lat":-6.162758,"station_id":"RW"},{"i_lat":-6.166068,"i_long":106.701612,"station_id":"KDS","line":5,"station_name":"Kalideres","is_transit":false,"transit":false,"time":3,"distance":2504},{"time":3,"is_transit":false,"distance":2548,"station_id":"PI","i_long":106.679458,"i_lat":-6.169933,"station_name":"Poris","transit":false,"line":5}],[{"i_long":106.838896,"i_lat":-6.3080680000000005,"station_name":"Tanjung Barat","line":2,"is_transit":false,"transit":false,"station_id":"TNT","time":0,"distance":0},{"i_long":106.843999,"line":2,"distance":2820,"station_name":"Pasar Minggu","time":4,"i_lat":-6.2842400000000005,"is_transit":false,"transit":false,"station_id":"PSM"},{"distance":2380,"station_name":"Pasar Minggu Baru","station_id":"PSMB","i_long":106.851577,"line":2,"i_lat":-6.263214,"transit":false,"time":2,"is_transit":false},{"station_name":"Duren Kalibata","station_id":"DRN","distance":824,"i_lat":-6.255332,"is_transit":false,"time":2,"i_long":106.85449,"line":2,"transit":false},{"line":2,"station_name":"Cawang","is_transit":false,"station_id":"CW","transit":false,"i_lat":-6.242512,"distance":1546,"time":3,"i_long":106.856607},{"line":2,"i_lat":-6.226659,"distance":1230,"station_name":"Tebet","station_id":"TEB","time":2,"i_long":106.857948,"is_transit":false,"transit":false},{"distance":2610,"station_id":"MRI","line":2,"time":4,"transit":false,"i_lat":-6.209883,"i_long":106.84912,"is_transit":false,"station_name":"Manggarai"},{"i_long":106.840169,"transit":false,"time":4,"i_lat":-6.198556,"station_name":"Cikini","distance":1590,"is_transit":false,"line":2,"station_id":"CKI"},{"transit":false,"time":3,"station_name":"Gondangdia","line":2,"distance":1750,"i_lat":-6.186295,"i_long":106.832183,"is_transit":false,"station_id":"GDD"},{"i_long":106.828284,"is_transit":false,"time":4,"distance":2015,"line":2,"station_name":"Juanda","station_id":"JUA","transit":false,"i_lat":-6.166716},{"transit":false,"i_long":106.827103,"i_lat":-6.160725,"time":2,"station_name":"Sawah Besar","is_transit":false,"line":2,"distance":1149,"station_id":"SW"},{"is_transit":false,"transit":false,"time":2,"station_id":"MGB","i_lat":-6.149769,"i_long":106.82482,"distance":906,"station_name":"Manggabesar","line":2},{"time":2,"distance":1080,"is_transit":false,"station_name":"Jayakarta","i_lat":-6.141205,"i_long":106.820901,"line":2,"station_id":"JAY","transit":false},{"time":4,"distance":1264,"i_long":106.812439,"station_id":"JAKK","i_lat":-6.137569,"station_name":"Jakarta Kota","line":2,"transit":true,"is_transit":true},{"station_name":"Kampung Bandan","transit":true,"distance":1364,"line":4,"station_id":"KPB","i_lat":-6.132549,"time":3,"is_transit":true,"i_long":106.826365},{"time":9,"distance":4102,"station_name":"Angke","transit":false,"is_transit":false,"station_id":"AK","i_lat":-6.144674,"i_long":106.79867,"line":1},{"i_lat":-6.155215,"distance":1230,"i_long":106.800832,"is_transit":true,"station_name":"Duri","line":1,"station_id":"DU","time":4,"transit":true},{"transit":false,"time":3,"line":5,"station_id":"GGL","i_lat":-6.162021,"station_name":"Grogol","is_transit":false,"distance":1700,"i_long":106.788277},{"distance":2036,"i_long":106.771379,"line":5,"transit":false,"station_name":"Pesing","station_id":"PSG","time":2,"is_transit":false,"i_lat":-6.161433},{"transit":false,"distance":1614,"time":2,"i_lat":-6.1587309999999995,"is_transit":false,"station_id":"TKO","line":5,"station_name":"Taman Kota","i_long":106.756522},{"station_name":"Bojongindah","distance":2334,"i_lat":-6.159876,"transit":false,"line":5,"i_long":106.737035,"time":2,"station_id":"BOI","is_transit":false},{"station_name":"Rawa Buaya","station_id":"RW","i_long":106.723064,"i_lat":-6.162758,"distance":1152,"line":5,"time":4,"transit":false,"is_transit":false},{"station_id":"KDS","is_transit":false,"transit":false,"i_long":106.701612,"time":3,"i_lat":-6.166068,"line":5,"distance":2504,"station_name":"Kalideres"},{"station_id":"PI","i_long":106.679458,"station_name":"Poris","distance":2548,"transit":false,"is_transit":false,"line":5,"time":3,"i_lat":-6.169933}],[{"transit":false,"distance":0,"station_id":"TNT","station_name":"Tanjung Barat","is_transit":false,"i_lat":-6.3080680000000005,"i_long":106.838896,"line":2,"time":0},{"line":2,"station_id":"PSM","is_transit":false,"station_name":"Pasar Minggu","transit":false,"time":4,"i_lat":-6.2842400000000005,"i_long":106.843999,"distance":2820},{"transit":false,"i_lat":-6.263214,"distance":2380,"station_name":"Pasar Minggu Baru","is_transit":false,"i_long":106.851577,"station_id":"PSMB","line":2,"time":2},{"i_long":106.85449,"is_transit":false,"transit":false,"time":2,"station_name":"Duren Kalibata","station_id":"DRN","distance":824,"i_lat":-6.255332,"line":2},{"station_id":"CW","i_long":106.856607,"line":2,"is_transit":false,"transit":false,"station_name":"Cawang","i_lat":-6.242512,"time":3,"distance":1546},{"i_long":106.857948,"time":2,"station_id":"TEB","i_lat":-6.226659,"is_transit":false,"station_name":"Tebet","distance":1230,"transit":false,"line":2},{"is_transit":true,"time":4,"station_name":"Manggarai","i_lat":-6.209883,"line":2,"transit":true,"station_id":"MRI","i_long":106.84912,"distance":2610},{"i_long":106.858896,"station_name":"Matraman","distance":1275,"transit":false,"i_lat":-6.212485,"is_transit":false,"time":2,"station_id":"MTR","line":1},{"i_lat":-6.215091,"i_long":106.86807400000001,"line":1,"station_id":"JNG","distance":1377,"time":8,"is_transit":true,"station_name":"Jatinegara","transit":true},{"transit":false,"distance":1236,"station_name":"Pondok Jati","is_transit":false,"station_id":"POK","i_lat":-6.209188,"time":2,"i_long":106.861737,"line":11},{"is_transit":false,"distance":1829,"line":11,"i_long":106.855437,"i_lat":-6.193792,"transit":false,"station_name":"Kramat","station_id":"KMT","time":2},{"i_long":106.850107,"transit":false,"station_name":"Gang Sentiong","time":1,"station_id":"GST","is_transit":false,"line":11,"distance":973,"i_lat":-6.185975},{"station_id":"PSE","i_long":106.84368,"distance":1567,"line":11,"i_lat":-6.174784,"is_transit":false,"time":8,"transit":false,"station_name":"Pasar Senen"},{"distance":1436,"i_long":106.839204,"is_transit":false,"line":11,"time":4,"transit":false,"station_id":"KMO","i_lat":-6.161728,"station_name":"Kemayoran"},{"line":11,"i_lat":-6.14505,"distance":1901,"station_name":"Rajawali","station_id":"RJW","is_transit":false,"time":5,"transit":false,"i_long":106.836569},{"time":3,"i_lat":-6.132549,"i_long":106.826365,"station_id":"KPB","line":4,"is_transit":true,"distance":1444,"transit":true,"station_name":"Kampung Bandan"},{"transit":false,"distance":4102,"i_long":106.79867,"time":9,"line":1,"station_name":"Angke","is_transit":false,"station_id":"AK","i_lat":-6.144674},{"line":1,"time":4,"i_lat":-6.155215,"distance":1230,"station_name":"Duri","station_id":"DU","is_transit":true,"transit":true,"i_long":106.800832},{"transit":false,"time":3,"station_name":"Grogol","distance":1700,"station_id":"GGL","i_long":106.788277,"i_lat":-6.162021,"line":5,"is_transit":false},{"station_id":"PSG","time":2,"i_long":106.771379,"transit":false,"is_transit":false,"i_lat":-6.161433,"line":5,"station_name":"Pesing","distance":2036},{"line":5,"station_name":"Taman Kota","distance":1614,"i_long":106.756522,"i_lat":-6.1587309999999995,"transit":false,"station_id":"TKO","time":2,"is_transit":false},{"distance":2334,"i_long":106.737035,"station_name":"Bojongindah","transit":false,"line":5,"is_transit":false,"i_lat":-6.159876,"time":2,"station_id":"BOI"},{"distance":1152,"station_id":"RW","station_name":"Rawa Buaya","line":5,"i_lat":-6.162758,"is_transit":false,"i_long":106.723064,"time":4,"transit":false},{"station_id":"KDS","distance":2504,"station_name":"Kalideres","i_long":106.701612,"time":3,"line":5,"i_lat":-6.166068,"is_transit":false,"transit":false},{"i_long":106.679458,"is_transit":false,"transit":false,"station_id":"PI","time":3,"line":5,"station_name":"Poris","distance":2548,"i_lat":-6.169933}]]}