{"data":[[{"transit":false,"time":0,"i_long":106.838896,"station_name":"Tanjung Barat","station_id":"TNT","line":2,"distance":0,"i_lat":-6.3080680000000005,"is_transit":false},{"station_id":"PSM","line":2,"station_name":"Pasar Minggu","distance":2820,"time":4,"i_long":106.843999,"transit":false,"i_lat":-6.2842400000000005,"is_transit":false},{"distance":2380,"station_id":"PSMB","line":2,"transit":false,"station_name":"Pasar Minggu Baru","i_lat":-6.263214,"is_transit":false,"i_long":106.851577,"time":2},{"is_transit":false,"i_lat":-6.255332,"i_long":106.85449,"line":2,"station_id":"DRN","time":2,"station_name":"Duren Kalibata","distance":824,"transit":false},{"time":3,"station_name":"Cawang","station_id":"CW","transit":false,"line":2,"distance":1546,"i_lat":-6.242512,"is_transit":false,"i_long":106.856607},{"station_name":"Tebet","station_id":"TEB","transit":false,"distance":1230,"time":2,"line":2,"is_transit":false,"i_lat":-6.226659,"i_long":106.857948},{"i_lat":-6.209883,"i_long":106.84912,"station_name":"Manggarai","distance":2610,"transit":true,"time":4,"line":2,"station_id":"MRI","is_transit":true},{"i_long":106.822649,"distance":3186,"transit":false,"line":1,"station_id":"SUD","is_transit":false,"station_name":"Sudirman","i_lat":-6.202263,"time":4},{"line":1,"i_long":106.819881,"time":1,"is_transit":false,"station_id":"SUDB","distance":280,"transit":false,"station_name":"Sudirman Baru","i_lat":-6.201433},{"time":1,"i_lat":-6.20132,"distance":471,"line":1,"station_name":"Karet","transit":false,"station_id":"KAT","i_long":106.816351,"is_transit":false},{"transit":false,"i_lat":-6.185545,"line":1,"station_id":"THB","station_name":"Tanah Abang","is_transit":false,"time":5,"distance":2029,"i_long":106.811091},{"line":1,"i_long":106.800832,"transit":true,"station_name":"Duri","distance":3632,"i_lat":-6.155215,"time":8,"is_transit":true,"station_id":"DU"},{"line":5,"i_lat":-6.162021,"time":3,"distance":1700,"is_transit":false,"transit":false,"i_long":106.788277,"station_id":"GGL","station_name":"Grogol"},{"transit":false,"time":2,"distance":2036,"i_lat":-6.161433,"i_long":106.771379,"line":5,"is_transit":false,"station_name":"Pesing","station_id":"PSG"},{"distance":1614,"transit":false,"i_lat":-6.1587309999999995,"station_name":"Taman Kota","is_transit":false,"i_long":106.756522,"line":5,"station_id":"TKO","time":2},{"station_name":"Bojongindah","i_lat":-6.159876,"distance":2334,"is_transit":false,"time":2,"transit":false,"line":5,"station_id":"BOI","i_long":106.737035}],[{"time":0,"station_id":"TNT","station_name":"Tanjung Barat","transit":false,"distance":0,"is_transit":false,"line":2,"i_lat":-6.3080680000000005,"i_long":106.838896},{"station_name":"Pasar Minggu","time":4,"i_lat":-6.2842400000000005,"i_long":106.843999,"transit":false,"line":2,"station_id":"PSM","is_transit":false,"distance":2820},{"time":2,"station_name":"Pasar Minggu Baru","i_lat":-6.263214,"is_transit":false,"station_id":"PSMB","distance":2380,"transit":false,"i_long":106.851577,"line":2},{"time":2,"is_transit":false,"distance":824,"station_id":"DRN","i_long":106.85449,"line":2,"i_lat":-6.255332,"transit":false,"station_name":"Duren Kalibata"},{"line":2,"transit":false,"is_transit":false,"i_long":106.856607,"station_id":"CW","station_name":"Cawang","i_lat":-6.242512,"time":3,"distance":1546},{"i_lat":-6.226659,"i_long":106.857948,"transit":false,"station_name":"Tebet","distance":1230,"time":2,"line":2,"is_transit":false,"station_id":"TEB"},{"station_name":"Manggarai","station_id":"MRI","line":2,"time":4,"transit":false,"distance":2610,"i_lat":-6.209883,"is_transit":false,"i_long":106.84912},{"i_long":106.840169,"station_id":"CKI","time":4,"is_transit":false,"line":2,"i_lat":-6.198556,"distance":1590,"station_name":"Cikini","transit":false},{"distance":1750,"i_lat":-6.186295,"time":3,"transit":false,"station_name":"Gondangdia","station_id":"GDD","is_transit":false,"i_long":106.832183,"line":2},{"station_id":"JUA","station_name":"Juanda","i_lat":-6.166716,"i_long":106.828284,"time":4,"distance":2015,"transit":false,"is_transit":false,"line":2},{"transit":false,"line":2,"distance":1149,"i_lat":-6.160725,"i_long":106.827103,"station_id":"SW","is_transit":false,"time":2,"station_name":"Sawah Besar"},{"station_name":"Manggabesar","transit":false,"i_lat":-6.149769,"station_id":"MGB","time":2,"i_long":106.82482,"is_transit":false,"line":2,"distance":906},{"is_transit":false,"station_name":"Jayakarta","i_long":106.820901,"station_id":"JAY","i_lat":-6.141205,"distance":1080,"time":2,"transit":false,"line":2},{"i_long":106.812439,"station_name":"Jakarta Kota","line":2,"time":4,"i_lat":-6.137569,"is_transit":true,"distance":1264,"transit":true,"station_id":"JAKK"},{"transit":true,"i_long":106.826365,"time":3,"is_transit":true,"distance":1364,"station_name":"Kampung Bandan","i_lat":-6.132549,"station_id":"KPB","line":4},{"station_id":"AK","is_transit":false,"distance":4102,"transit":false,"line":1,"i_lat":-6.144674,"i_long":106.79867,"station_name":"Angke","time":9},{"distance":1230,"i_lat":-6.155215,"i_long":106.800832,"line":1,"is_transit":true,"station_id":"DU","time":4,"station_name":"Duri","transit":true},{"i_long":106.788277,"line":5,"time":3,"distance":1700,"transit":false,"is_transit":false,"station_name":"Grogol","station_id":"GGL","i_lat":-6.162021},{"line":5,"time":2,"is_transit":false,"station_name":"Pesing","distance":2036,"i_long":106.771379,"station_id":"PSG","transit":false,"i_lat":-6.161433},{"time":2,"line":5,"station_name":"Taman Kota","distance":1614,"station_id":"TKO","i_lat":-6.1587309999999995,"transit":false,"is_transit":false,"i_long":106.756522},{"is_transit":false,"station_name":"Bojongindah","time":2,"i_lat":-6.159876,"distance":2334,"line":5,"station_id":"BOI","transit":false,"i_long":106.737035}],[{"station_name":"Tanjung Barat","station_id":"TNT","time":0,"i_long":106.838896,"distance":0,"i_lat":-6.3080680000000005,"is_transit":false,"transit":false,"line":2},{"transit":false,"i_lat":-6.2842400000000005,"line":2,"time":4,"station_name":"Pasar Minggu","distance":2820,"station_id":"PSM","i_long":106.843999,"is_transit":false},{"line":2,"station_id":"PSMB","i_lat":-6.263214,"i_long":106.851577,"is_transit":false,"distance":2380,"transit":false,"time":2,"station_name":"Pasar Minggu Baru"},{"station_name":"Duren Kalibata","distance":824,"i_lat":-6.255332,"i_long":106.85449,"line":2,"time":2,"station_id":"DRN","is_transit":false,"transit":false},{"station_id":"CW","distance":1546,"transit":false,"time":3,"i_long":106.856607,"line":2,"i_lat":-6.242512,"station_name":"Cawang","is_transit":false},{"time":2,"distance":1230,"station_id":"TEB","station_name":"Tebet","is_transit":false,"transit":false,"line":2,"i_lat":-6.226659,"i_long":106.857948},{"i_lat":-6.209883,"station_id":"MRI","time":4,"distance":2610,"transit":true,"station_name":"Manggarai","line":2,"is_transit":true,"i_long":106.84912},{"line":1,"station_id":"MTR","is_transit":false,"time":2,"distance":1275,"i_lat":-6.212485,"station_name":"Matraman","transit":false,"i_long":106.858896},{"line":1,"station_id":"JNG","i_long":106.86807400000001,"is_transit":true,"distance":1377,"transit":true,"time":8,"station_name":"Jatinegara","i_lat":-6.215091},{"line":11,"is_transit":false,"time":2,"station_id":"POK","station_name":"Pondok Jati","transit":false,"distance":1236,"i_lat":-6.209188,"i_long":106.861737},{"transit":false,"is_transit":false,"distance":1829,"i_lat":-6.193792,"i_long":106.855437,"line":11,"time":2,"station_id":"KMT","station_name":"Kramat"},{"line":11,"distance":973,"transit":false,"time":1,"i_lat":-6.185975,"i_long":106.850107,"station_id":"GST","station_name":"Gang Sentiong","is_transit":false},{"transit":false,"station_name":"Pasar Senen","distance":1567,"i_lat":-6.174784,"time":8,"is_transit":false,"station_id":"PSE","i_long":106.84368,"line":11},{"station_name":"Kemayoran","i_lat":-6.161728,"is_transit":false,"line":11,"i_long":106.839204,"time":4,"transit":false,"station_id":"KMO","distance":1436},{"line":11,"is_transit":false,"i_long":106.836569,"station_id":"RJW","i_lat":-6.14505,"station_name":"Rajawali","transit":false,"distance":1901,"time":5},{"i_long":106.826365,"line":4,"time":3,"is_transit":true,"i_lat":-6.132549,"station_id":"KPB","transit":true,"station_name":"Kampung Bandan","distance":1444},{"station_name":"Angke","distance":4102,"time":9,"transit":false,"station_id":"AK","line":1,"i_lat":-6.144674,"i_long":106.79867,"is_transit":false},{"i_long":106.800832,"line":1,"transit":true,"is_transit":true,"time":4,"station_name":"Duri","station_id":"DU","distance":1230,"i_lat":-6.155215},{"station_name":"Grogol","i_long":106.788277,"line":5,"distance":1700,"i_lat":-6.162021,"transit":false,"station_id":"GGL","is_transit":false,"time":3},{"station_name":"Pesing","distance":2036,"i_long":106.771379,"line":5,"transit":false,"i_lat":-6.161433,"time":2,"is_transit":false,"station_id":"PSG"},{"i_long":106.756522,"time":2,"distance":1614,"i_lat":-6.1587309999999995,"station_id":"TKO","line":5,"is_transit":false,"transit":false,"station_name":"Taman Kota"},{"i_long":106.737035,"station_id":"BOI","i_lat":-6.159876,"is_transit":false,"station_name":"Bojongindah","line":5,"time":2,"distance":2334,"transit":false}]]}