{"data":[[{"transit":false,"station_id":"TNT","i_lat":-6.3080680000000005,"time":0,"is_transit":false,"i_long":106.838896,"line":2,"distance":0,"station_name":"Tanjung Barat"},{"line":2,"time":4,"transit":false,"is_transit":false,"distance":2820,"station_id":"PSM","station_name":"Pasar Minggu","i_lat":-6.2842400000000005,"i_long":106.843999},{"i_lat":-6.263214,"station_id":"PSMB","station_name":"Pasar Minggu Baru","is_transit":false,"i_long":106.851577,"line":2,"transit":false,"time":2,"distance":2380},{"distance":824,"i_lat":-6.255332,"is_transit":false,"i_long":106.85449,"line":0,"transit":false,"station_id":"DRN","time":2,"station_name":"Duren Kalibata"},{"station_name":"Cawang","transit":false,"i_lat":-6.242512,"time":3,"distance":1546,"i_long":106.856607,"line":0,"is_transit":false,"station_id":"CW"},{"transit":false,"i_long":106.857948,"line":2,"is_transit":false,"time":2,"station_id":"TEB","station_name":"Tebet","i_lat":-6.226659,"distance":1230},{"i_lat":-6.209883,"station_id":"MRI","distance":2610,"line":0,"is_transit":true,"i_long":106.84912,"station_name":"Manggarai","time":4,"transit":true},{"station_id":"SUD","time":4,"is_transit":false,"distance":3186,"i_long":106.822649,"i_lat":-6.202263,"station_name":"Sudirman","transit":false,"line":1},{"line":1,"time":1,"station_id":"SUDB","transit":false,"station_name":"Sudirman Baru","is_transit":false,"distance":280,"i_long":106.819881,"i_lat":-6.201433},{"i_lat":-6.20132,"is_transit":false,"station_id":"KAT","transit":false,"time":1,"distance":471,"line":1,"station_name":"Karet","i_long":106.816351},{"is_transit":true,"transit":false,"distance":2029,"station_id":"THB","station_name":"Tanah Abang","i_lat":-6.185545,"i_long":106.811091,"time":5,"line":1},{"is_transit":true,"distance":3632,"i_lat":-6.155215,"time":8,"station_id":"DU","transit":true,"station_name":"Duri","i_long":106.800832,"line":1},{"i_long":106.788277,"distance":1700,"is_transit":false,"transit":false,"time":3,"line":5,"station_id":"GGL","station_name":"Grogol","i_lat":-6.162021},{"transit":false,"is_transit":false,"i_long":106.771379,"time":2,"station_id":"PSG","station_name":"Pesing","distance":2036,"i_lat":-6.161433,"line":5},{"transit":false,"is_transit":false,"i_lat":-6.1587309999999995,"station_name":"Taman Kota","distance":1614,"i_long":106.756522,"line":5,"station_id":"TKO","time":2},{"time":2,"is_transit":false,"i_long":106.737035,"i_lat":-6.159876,"transit":false,"station_name":"Bojongindah","line":0,"distance":2334,"station_id":"BOI"}],[{"station_id":"TNT","transit":false,"is_transit":false,"distance":0,"i_lat":-6.3080680000000005,"time":0,"station_name":"Tanjung Barat","line":2,"i_long":106.838896},{"distance":2820,"time":4,"is_transit":false,"i_lat":-6.2842400000000005,"i_long":106.843999,"station_name":"Pasar Minggu","transit":false,"station_id":"PSM","line":2},{"i_lat":-6.263214,"time":2,"station_name":"Pasar Minggu Baru","station_id":"PSMB","is_transit":false,"i_long":106.851577,"line":2,"transit":false,"distance":2380},{"station_name":"Duren Kalibata","i_lat":-6.255332,"transit":false,"i_long":106.85449,"line":0,"distance":824,"time":2,"is_transit":false,"station_id":"DRN"},{"time":3,"is_transit":false,"transit":false,"i_long":106.856607,"station_id":"CW","station_name":"Cawang","distance":1546,"line":0,"i_lat":-6.242512},{"is_transit":false,"time":2,"line":2,"station_id":"TEB","distance":1230,"i_long":106.857948,"station_name":"Tebet","transit":false,"i_lat":-6.226659},{"is_transit":true,"time":4,"i_long":106.84912,"line":0,"distance":2610,"i_lat":-6.209883,"transit":true,"station_id":"MRI","station_name":"Manggarai"},{"time":4,"i_long":106.840169,"station_id":"CKI","line":0,"i_lat":-6.198556,"station_name":"Cikini","transit":false,"is_transit":false,"distance":1590},{"line":2,"station_id":"GDD","transit":false,"i_long":106.832183,"station_name":"Gondangdia","distance":1750,"time":3,"is_transit":false,"i_lat":-6.186295},{"i_long":106.828284,"time":4,"station_id":"JUA","station_name":"Juanda","transit":false,"i_lat":-6.166716,"line":2,"is_transit":false,"distance":2015},{"station_name":"Sawah Besar","i_lat":-6.160725,"i_long":106.827103,"station_id":"SW","transit":false,"time":2,"is_transit":false,"line":2,"distance":1149},{"line":2,"station_id":"MGB","is_transit":false,"i_lat":-6.149769,"time":2,"station_name":"Manggabesar","distance":906,"transit":false,"i_long":106.82482},{"line":7,"distance":1080,"station_name":"Jayakarta","time":2,"is_transit":false,"i_long":106.820901,"station_id":"JAY","transit":false,"i_lat":-6.141205},{"line":0,"transit":true,"i_lat":-6.137569,"station_id":"JAKK","time":4,"station_name":"Jakarta Kota","i_long":106.812439,"is_transit":true,"distance":1264},{"time":3,"i_lat":-6.132549,"line":0,"station_id":"KPB","transit":false,"i_long":106.826365,"is_transit":true,"distance":1364,"station_name":"Kampung Bandan"},{"i_long":106.79867,"station_id":"AK","transit":false,"i_lat":-6.144674,"time":9,"station_name":"Angke","is_transit":false,"distance":4102,"line":0},{"transit":true,"distance":1230,"i_lat":-6.155215,"is_transit":true,"time":4,"station_id":"DU","station_name":"Duri","i_long":106.800832,"line":1},{"line":5,"station_name":"Grogol","station_id":"GGL","i_lat":-6.162021,"i_long":106.788277,"is_transit":false,"time":3,"transit":false,"distance":1700},{"transit":false,"station_id":"PSG","is_transit":false,"distance":2036,"time":2,"line":5,"i_lat":-6.161433,"i_long":106.771379,"station_name":"Pesing"},{"distance":1614,"transit":false,"i_lat":-6.1587309999999995,"line":5,"time":2,"station_name":"Taman Kota","station_id":"TKO","is_transit":false,"i_long":106.756522},{"i_long":106.737035,"transit":false,"i_lat":-6.159876,"line":0,"is_transit":false,"station_id":"BOI","distance":2334,"station_name":"Bojongindah","time":2}],[{"i_long":106.838896,"station_id":"TNT","line":2,"distance":0,"i_lat":-6.3080680000000005,"station_name":"Tanjung Barat","transit":false,"time":0,"is_transit":false},{"line":2,"i_lat":-6.2842400000000005,"distance":2820,"is_transit":false,"station_name":"Pasar Minggu","station_id":"PSM","i_long":106.843999,"time":4,"transit":false},{"station_name":"Pasar Minggu Baru","is_transit":false,"station_id":"PSMB","time":2,"distance":2380,"i_long":106.851577,"line":2,"transit":false,"i_lat":-6.263214},{"station_id":"DRN","time":2,"station_name":"Duren Kalibata","line":0,"is_transit":false,"i_lat":-6.255332,"i_long":106.85449,"distance":824,"transit":false},{"station_id":"CW","line":0,"station_name":"Cawang","i_long":106.856607,"is_transit":false,"i_lat":-6.242512,"time":3,"transit":false,"distance":1546},{"station_name":"Tebet","time":2,"i_lat":-6.226659,"is_transit":false,"transit":false,"i_long":106.857948,"line":2,"station_id":"TEB","distance":1230},{"time":4,"is_transit":true,"transit":true,"distance":2610,"i_lat":-6.209883,"line":0,"station_id":"MRI","station_name":"Manggarai","i_long":106.84912},{"is_transit":false,"station_id":"MTR","station_name":"Matraman","transit":false,"distance":1275,"i_long":106.858896,"line":1,"time":2,"i_lat":-6.212485},{"transit":true,"i_lat":-6.215091,"is_transit":true,"distance":1377,"time":8,"i_long":106.86807400000001,"line":0,"station_id":"JNG","station_name":"Jatinegara"},{"i_lat":-6.209188,"station_name":"Pondok Jati","station_id":"POK","time":2,"is_transit":false,"distance":1236,"line":11,"transit":false,"i_long":106.861737},{"i_lat":-6.193792,"i_long":106.855437,"time":2,"station_name":"Kramat","is_transit":false,"transit":false,"station_id":"KMT","distance":1829,"line":11},{"distance":973,"line":11,"station_name":"Gang Sentiong","transit":false,"i_lat":-6.185975,"time":1,"is_transit":false,"station_id":"GST","i_long":106.850107},{"i_long":106.84368,"is_transit":false,"time":8,"station_name":"Pasar Senen","transit":false,"line":11,"i_lat":-6.174784,"station_id":"PSE","distance":1567},{"transit":false,"is_transit":false,"station_name":"Kemayoran","distance":1436,"i_lat":-6.161728,"time":4,"i_long":106.839204,"line":11,"station_id":"KMO"},{"line":11,"distance":1901,"time":5,"station_id":"RJW","station_name":"Rajawali","transit":false,"i_lat":-6.14505,"i_long":106.836569,"is_transit":false},{"transit":true,"i_lat":-6.132549,"time":3,"i_long":106.826365,"station_name":"Kampung Bandan","station_id":"KPB","is_transit":true,"distance":1444,"line":0},{"time":9,"i_long":106.79867,"distance":4102,"line":0,"is_transit":false,"station_id":"AK","transit":false,"i_lat":-6.144674,"station_name":"Angke"},{"time":4,"line":1,"transit":true,"station_id":"DU","i_lat":-6.155215,"station_name":"Duri","i_long":106.800832,"distance":1230,"is_transit":true},{"station_name":"Grogol","line":5,"is_transit":false,"time":3,"i_long":106.788277,"station_id":"GGL","distance":1700,"transit":false,"i_lat":-6.162021},{"line":5,"station_name":"Pesing","i_long":106.771379,"station_id":"PSG","is_transit":false,"time":2,"i_lat":-6.161433,"distance":2036,"transit":false},{"line":5,"time":2,"transit":false,"is_transit":false,"i_lat":-6.1587309999999995,"i_long":106.756522,"distance":1614,"station_id":"TKO","station_name":"Taman Kota"},{"station_name":"Bojongindah","distance":2334,"i_long":106.737035,"line":0,"i_lat":-6.159876,"transit":false,"time":2,"is_transit":false,"station_id":"BOI"}]]}