{"data":[[{"distance":0,"time":0,"i_lat":-6.3080680000000005,"station_id":"TNT","line":2,"is_transit":false,"i_long":106.838896,"transit":false,"station_name":"Tanjung Barat"},{"is_transit":false,"time":4,"station_id":"PSM","station_name":"Pasar Minggu","distance":2820,"i_lat":-6.2842400000000005,"i_long":106.843999,"transit":false,"line":2},{"i_lat":-6.263214,"transit":false,"line":2,"station_id":"PSMB","distance":2380,"time":2,"is_transit":false,"station_name":"Pasar Minggu Baru","i_long":106.851577},{"station_name":"Duren Kalibata","i_lat":-6.255332,"time":2,"station_id":"DRN","is_transit":false,"i_long":106.85449,"transit":false,"line":2,"distance":824},{"time":3,"is_transit":false,"line":2,"distance":1546,"station_name":"Cawang","i_long":106.856607,"station_id":"CW","i_lat":-6.242512,"transit":false},{"time":2,"distance":1230,"is_transit":false,"i_lat":-6.226659,"i_long":106.857948,"line":2,"station_id":"TEB","transit":false,"station_name":"Tebet"},{"i_lat":-6.209883,"transit":true,"station_name":"Manggarai","time":4,"distance":2610,"line":2,"station_id":"MRI","is_transit":true,"i_long":106.84912},{"distance":3186,"is_transit":false,"i_lat":-6.202263,"station_name":"Sudirman","i_long":106.822649,"transit":false,"station_id":"SUD","line":1,"time":4},{"i_lat":-6.201433,"line":1,"station_name":"Sudirman Baru","distance":280,"i_long":106.819881,"time":1,"transit":false,"is_transit":false,"station_id":"SUDB"},{"station_id":"KAT","i_lat":-6.20132,"transit":false,"distance":471,"station_name":"Karet","time":1,"is_transit":false,"line":1,"i_long":106.816351},{"station_id":"THB","time":5,"station_name":"Tanah Abang","is_transit":false,"i_lat":-6.185545,"i_long":106.811091,"line":1,"distance":2029,"transit":false}],[{"station_id":"TNT","is_transit":false,"time":0,"i_long":106.838896,"i_lat":-6.3080680000000005,"transit":false,"line":2,"station_name":"Tanjung Barat","distance":0},{"line":2,"i_long":106.843999,"time":4,"transit":false,"station_id":"PSM","distance":2820,"is_transit":false,"i_lat":-6.2842400000000005,"station_name":"Pasar Minggu"},{"transit":false,"time":2,"distance":2380,"is_transit":false,"station_name":"Pasar Minggu Baru","station_id":"PSMB","i_lat":-6.263214,"i_long":106.851577,"line":2},{"is_transit":false,"i_long":106.85449,"time":2,"distance":824,"station_id":"DRN","i_lat":-6.255332,"line":2,"station_name":"Duren Kalibata","transit":false},{"distance":1546,"station_name":"Cawang","is_transit":false,"station_id":"CW","i_lat":-6.242512,"line":2,"i_long":106.856607,"time":3,"transit":false},{"is_transit":false,"station_id":"TEB","i_lat":-6.226659,"time":2,"transit":false,"i_long":106.857948,"distance":1230,"station_name":"Tebet","line":2},{"station_id":"MRI","transit":false,"line":2,"distance":2610,"i_lat":-6.209883,"is_transit":false,"i_long":106.84912,"station_name":"Manggarai","time":4},{"line":2,"distance":1590,"i_lat":-6.198556,"is_transit":false,"transit":false,"i_long":106.840169,"station_id":"CKI","station_name":"Cikini","time":4},{"i_lat":-6.186295,"time":3,"i_long":106.832183,"station_name":"Gondangdia","transit":false,"line":2,"station_id":"GDD","is_transit":false,"distance":1750},{"station_name":"Juanda","i_lat":-6.166716,"transit":false,"distance":2015,"station_id":"JUA","is_transit":false,"line":2,"i_long":106.828284,"time":4},{"station_id":"SW","is_transit":false,"time":2,"i_long":106.827103,"station_name":"Sawah Besar","line":2,"distance":1149,"transit":false,"i_lat":-6.160725},{"line":2,"station_name":"Manggabesar","station_id":"MGB","distance":906,"i_long":106.82482,"is_transit":false,"transit":false,"time":2,"i_lat":-6.149769},{"distance":1080,"line":2,"station_id":"JAY","time":2,"i_lat":-6.141205,"transit":false,"is_transit":false,"station_name":"Jayakarta","i_long":106.820901},{"transit":true,"station_name":"Jakarta Kota","station_id":"JAKK","is_transit":true,"i_long":106.812439,"distance":1264,"time":4,"i_lat":-6.137569,"line":2},{"transit":true,"station_id":"KPB","i_lat":-6.132549,"i_long":106.826365,"line":4,"station_name":"Kampung Bandan","time":3,"is_transit":true,"distance":1364},{"transit":false,"i_lat":-6.144674,"station_name":"Angke","line":1,"is_transit":false,"i_long":106.79867,"distance":4102,"time":9,"station_id":"AK"},{"i_long":106.800832,"is_transit":false,"line":1,"time":4,"i_lat":-6.155215,"station_id":"DU","distance":1230,"transit":false,"station_name":"Duri"},{"i_lat":-6.185545,"i_long":106.811091,"station_name":"Tanah Abang","time":8,"station_id":"THB","line":1,"is_transit":false,"transit":false,"distance":3632}],[{"line":2,"transit":false,"is_transit":false,"i_long":106.838896,"station_id":"TNT","time":0,"station_name":"Tanjung Barat","i_lat":-6.3080680000000005,"distance":0},{"i_lat":-6.2842400000000005,"i_long":106.843999,"line":2,"transit":false,"station_name":"Pasar Minggu","time":4,"distance":2820,"is_transit":false,"station_id":"PSM"},{"is_transit":false,"i_lat":-6.263214,"station_id":"PSMB","transit":false,"line":2,"time":2,"distance":2380,"station_name":"Pasar Minggu Baru","i_long":106.851577},{"station_name":"Duren Kalibata","line":2,"i_long":106.85449,"distance":824,"is_transit":false,"i_lat":-6.255332,"time":2,"station_id":"DRN","transit":false},{"i_long":106.856607,"time":3,"line":2,"distance":1546,"i_lat":-6.242512,"is_transit":false,"station_name":"Cawang","transit":false,"station_id":"CW"},{"i_lat":-6.226659,"time":2,"transit":false,"i_long":106.857948,"station_name":"Tebet","is_transit":false,"line":2,"distance":1230,"station_id":"TEB"},{"line":2,"time":4,"i_long":106.84912,"i_lat":-6.209883,"transit":true,"station_name":"Manggarai","station_id":"MRI","is_transit":true,"distance":2610},{"i_lat":-6.212485,"line":1,"time":2,"station_id":"MTR","distance":1275,"station_name":"Matraman","is_transit":false,"transit":false,"i_long":106.858896},{"transit":true,"station_id":"JNG","i_long":106.86807400000001,"distance":1377,"station_name":"Jatinegara","line":1,"time":8,"i_lat":-6.215091,"is_transit":true},{"is_transit":false,"time":2,"line":11,"distance":1236,"station_name":"Pondok Jati","i_lat":-6.209188,"station_id":"POK","i_long":106.861737,"transit":false},{"is_transit":false,"station_name":"Kramat","i_long":106.855437,"station_id":"KMT","transit":false,"i_lat":-6.193792,"time":2,"line":11,"distance":1829},{"is_transit":false,"i_lat":-6.185975,"line":11,"station_name":"Gang Sentiong","station_id":"GST","i_long":106.850107,"distance":973,"time":1,"transit":false},{"i_lat":-6.174784,"time":8,"transit":false,"is_transit":false,"station_name":"Pasar Senen","distance":1567,"station_id":"PSE","line":11,"i_long":106.84368},{"station_id":"KMO","i_lat":-6.161728,"is_transit":false,"line":11,"transit":false,"station_name":"Kemayoran","i_long":106.839204,"distance":1436,"time":4},{"station_name":"Rajawali","i_long":106.836569,"transit":false,"distance":1901,"is_transit":false,"time":5,"station_id":"RJW","i_lat":-6.14505,"line":11},{"time":3,"line":4,"is_transit":true,"station_id":"KPB","transit":true,"station_name":"Kampung Bandan","distance":1444,"i_lat":-6.132549,"i_long":106.826365},{"transit":false,"i_lat":-6.144674,"time":9,"station_id":"AK","line":1,"is_transit":false,"distance":4102,"station_name":"Angke","i_long":106.79867},{"station_id":"DU","i_lat":-6.155215,"i_long":106.800832,"time":4,"distance":1230,"transit":false,"is_transit":false,"station_name":"Duri","line":1},{"time":8,"line":1,"station_name":"Tanah Abang","transit":false,"i_long":106.811091,"is_transit":false,"i_lat":-6.185545,"station_id":"THB","distance":3632}]]}