{"data":[[{"station_name":"Tanjung Barat","station_id":"TNT","transit":false,"i_lat":-6.3080680000000005,"i_long":106.838896,"time":0,"distance":0,"is_transit":false,"line":2},{"is_transit":false,"station_name":"Pasar Minggu","i_long":106.843999,"transit":false,"line":2,"station_id":"PSM","distance":2820,"i_lat":-6.2842400000000005,"time":4},{"time":2,"station_id":"PSMB","transit":false,"i_lat":-6.263214,"station_name":"Pasar Minggu Baru","line":2,"is_transit":false,"distance":2380,"i_long":106.851577},{"is_transit":false,"i_long":106.85449,"transit":false,"station_name":"Duren Kalibata","i_lat":-6.255332,"line":2,"time":2,"distance":824,"station_id":"DRN"},{"transit":false,"line":2,"i_long":106.856607,"time":3,"distance":1546,"is_transit":false,"i_lat":-6.242512,"station_id":"CW","station_name":"Cawang"}]]}