{"data":[[{"i_lat":-6.3080680000000005,"time":0,"distance":0,"station_name":"Tanjung Barat","transit":false,"station_id":"TNT","line":2,"i_long":106.838896,"is_transit":false},{"i_long":106.832616,"i_lat":-6.330363,"time":3,"distance":2671,"is_transit":false,"station_name":"Lenteng Agung","line":2,"transit":false,"station_id":"LNA"},{"is_transit":false,"station_id":"UP","i_long":106.834175,"time":2,"line":2,"distance":1029,"station_name":"Univ. Pancasila","transit":false,"i_lat":-6.339291},{"station_id":"UI","transit":false,"is_transit":false,"i_lat":-6.360749,"line":2,"station_name":"Univ. Indonesia","distance":2264,"i_long":106.831474,"time":3},{"line":2,"i_lat":-6.369073,"station_id":"POC","transit":false,"time":2,"is_transit":false,"station_name":"Pondok Cina","i_long":106.831114,"distance":1109},{"station_name":"Depokbaru","transit":false,"line":2,"i_long":106.819451,"time":4,"distance":2727,"is_transit":false,"station_id":"DPB","i_lat":-6.391065},{"distance":1584,"is_transit":false,"transit":false,"station_name":"Depok","station_id":"DP","i_lat":-6.405256,"time":3,"line":2,"i_long":106.816926},{"is_transit":false,"i_lat":-6.448811,"distance":5084,"line":2,"station_name":"Citayam","i_long":106.800298,"transit":false,"station_id":"CTA","time":6},{"station_id":"BJD","i_long":106.792719,"time":5,"station_name":"Bojonggede","transit":false,"line":2,"i_lat":-6.493243,"distance":5197,"is_transit":false},{"i_long":106.800016,"line":2,"distance":4331,"station_id":"CLT","transit":false,"i_lat":-6.530544,"is_transit":false,"station_name":"Cilebut","time":5},{"is_transit":false,"i_lat":-6.594596,"line":2,"transit":false,"station_id":"BOO","station_name":"Bogor","time":9,"distance":7514,"i_long":106.790574}]]}