{"data":[[{"is_transit":false,"i_lat":-6.3080680000000005,"transit":false,"i_long":106.838896,"line":2,"station_id":"TNT","station_name":"Tanjung Barat","time":0,"distance":0},{"time":4,"station_id":"PSM","i_lat":-6.2842400000000005,"transit":false,"station_name":"Pasar Minggu","i_long":106.843999,"line":2,"distance":2820,"is_transit":false},{"distance":2380,"is_transit":false,"line":2,"station_id":"PSMB","i_lat":-6.263214,"time":2,"station_name":"Pasar Minggu Baru","transit":false,"i_long":106.851577},{"line":2,"distance":824,"transit":false,"is_transit":false,"i_lat":-6.255332,"time":2,"station_id":"DRN","i_long":106.85449,"station_name":"Duren Kalibata"},{"i_long":106.856607,"line":2,"i_lat":-6.242512,"transit":false,"distance":1546,"is_transit":false,"station_name":"Cawang","station_id":"CW","time":3}]]}