{"data":[[{"is_transit":false,"distance":0,"i_long":106.838896,"station_id":"TNT","line":2,"station_name":"Tanjung Barat","time":0,"transit":false,"i_lat":-6.3080680000000005},{"distance":2820,"station_name":"Pasar Minggu","is_transit":false,"transit":false,"i_lat":-6.2842400000000005,"line":2,"station_id":"PSM","time":4,"i_long":106.843999},{"distance":2380,"transit":false,"is_transit":false,"line":2,"i_lat":-6.263214,"i_long":106.851577,"station_id":"PSMB","station_name":"Pasar Minggu Baru","time":2},{"is_transit":false,"distance":824,"transit":false,"line":2,"station_id":"DRN","station_name":"Duren Kalibata","i_long":106.85449,"time":2,"i_lat":-6.255332},{"i_long":106.856607,"transit":false,"line":2,"distance":1546,"station_name":"Cawang","station_id":"CW","is_transit":false,"time":3,"i_lat":-6.242512},{"time":2,"station_id":"TEB","is_transit":false,"station_name":"Tebet","i_lat":-6.226659,"i_long":106.857948,"distance":1230,"line":2,"transit":false},{"station_id":"MRI","distance":2610,"is_transit":false,"line":2,"i_long":106.84912,"time":4,"transit":false,"station_name":"Manggarai","i_lat":-6.209883},{"distance":1590,"i_lat":-6.198556,"time":4,"station_id":"CKI","transit":false,"is_transit":false,"line":2,"i_long":106.840169,"station_name":"Cikini"},{"station_name":"Gondangdia","transit":false,"distance":1750,"time":3,"line":2,"i_lat":-6.186295,"is_transit":false,"station_id":"GDD","i_long":106.832183}],[{"i_lat":-6.3080680000000005,"is_transit":false,"distance":0,"station_id":"TNT","transit":false,"line":2,"station_name":"Tanjung Barat","time":0,"i_long":106.838896},{"station_name":"Pasar Minggu","time":4,"station_id":"PSM","is_transit":false,"i_lat":-6.2842400000000005,"i_long":106.843999,"transit":false,"line":2,"distance":2820},{"line":2,"is_transit":false,"transit":false,"i_lat":-6.263214,"station_id":"PSMB","distance":2380,"time":2,"station_name":"Pasar Minggu Baru","i_long":106.851577},{"line":2,"is_transit":false,"transit":false,"distance":824,"i_long":106.85449,"time":2,"i_lat":-6.255332,"station_id":"DRN","station_name":"Duren Kalibata"},{"i_long":106.856607,"time":3,"is_transit":false,"station_id":"CW","distance":1546,"station_name":"Cawang","i_lat":-6.242512,"line":2,"transit":false},{"i_lat":-6.226659,"distance":1230,"i_long":106.857948,"station_name":"Tebet","time":2,"line":2,"station_id":"TEB","is_transit":false,"transit":false},{"transit":true,"line":2,"distance":2610,"station_id":"MRI","is_transit":true,"time":4,"i_lat":-6.209883,"station_name":"Manggarai","i_long":106.84912},{"distance":3186,"line":1,"time":4,"is_transit":false,"station_id":"SUD","i_lat":-6.202263,"i_long":106.822649,"station_name":"Sudirman","transit":false},{"transit":false,"i_long":106.819881,"is_transit":false,"station_id":"SUDB","station_name":"Sudirman Baru","line":1,"time":1,"distance":280,"i_lat":-6.201433},{"transit":false,"distance":471,"station_name":"Karet","i_lat":-6.20132,"i_long":106.816351,"is_transit":false,"line":1,"station_id":"KAT","time":1},{"station_id":"THB","time":5,"transit":false,"station_name":"Tanah Abang","line":1,"is_transit":false,"i_long":106.811091,"distance":2029,"i_lat":-6.185545},{"station_name":"Duri","transit":false,"i_lat":-6.155215,"i_long":106.800832,"time":8,"line":1,"station_id":"DU","is_transit":false,"distance":3632},{"is_transit":false,"time":4,"distance":1230,"station_name":"Angke","transit":false,"station_id":"AK","i_lat":-6.144674,"line":1,"i_long":106.79867},{"station_id":"KPB","station_name":"Kampung Bandan","i_long":106.826365,"time":9,"is_transit":true,"distance":4102,"line":4,"i_lat":-6.132549,"transit":true},{"transit":true,"i_lat":-6.137569,"i_long":106.812439,"time":3,"line":2,"is_transit":true,"distance":1364,"station_id":"JAKK","station_name":"Jakarta Kota"},{"station_name":"Jayakarta","transit":false,"i_lat":-6.141205,"station_id":"JAY","line":2,"distance":1264,"time":4,"i_long":106.820901,"is_transit":false},{"line":2,"i_lat":-6.149769,"time":2,"distance":1080,"station_id":"MGB","station_name":"Manggabesar","transit":false,"is_transit":false,"i_long":106.82482},{"i_lat":-6.160725,"line":2,"time":2,"station_name":"Sawah Besar","i_long":106.827103,"station_id":"SW","transit":false,"distance":906,"is_transit":false},{"time":2,"line":2,"distance":1149,"i_lat":-6.166716,"station_id":"JUA","station_name":"Juanda","i_long":106.828284,"is_transit":false,"transit":false},{"i_long":106.832183,"is_transit":false,"time":4,"distance":2015,"station_name":"Gondangdia","transit":false,"i_lat":-6.186295,"line":2,"station_id":"GDD"}],[{"line":2,"transit":false,"is_transit":false,"time":0,"station_name":"Tanjung Barat","i_lat":-6.3080680000000005,"station_id":"TNT","i_long":106.838896,"distance":0},{"i_lat":-6.2842400000000005,"i_long":106.843999,"distance":2820,"line":2,"time":4,"is_transit":false,"station_name":"Pasar Minggu","station_id":"PSM","transit":false},{"station_name":"Pasar Minggu Baru","transit":false,"i_lat":-6.263214,"is_transit":false,"line":2,"time":2,"station_id":"PSMB","distance":2380,"i_long":106.851577},{"station_name":"Duren Kalibata","line":2,"time":2,"distance":824,"station_id":"DRN","is_transit":false,"transit":false,"i_lat":-6.255332,"i_long":106.85449},{"station_name":"Cawang","i_long":106.856607,"is_transit":false,"i_lat":-6.242512,"transit":false,"station_id":"CW","distance":1546,"line":2,"time":3},{"is_transit":false,"i_long":106.857948,"distance":1230,"transit":false,"i_lat":-6.226659,"station_name":"Tebet","time":2,"line":2,"station_id":"TEB"},{"time":4,"is_transit":true,"station_name":"Manggarai","distance":2610,"station_id":"MRI","i_lat":-6.209883,"transit":true,"i_long":106.84912,"line":2},{"station_name":"Matraman","station_id":"MTR","time":2,"transit":false,"line":1,"is_transit":false,"distance":1275,"i_lat":-6.212485,"i_long":106.858896},{"distance":1377,"is_transit":true,"transit":true,"line":1,"time":8,"i_long":106.86807400000001,"station_id":"JNG","station_name":"Jatinegara","i_lat":-6.215091},{"time":2,"distance":1236,"is_transit":false,"i_long":106.861737,"line":11,"station_name":"Pondok Jati","transit":false,"i_lat":-6.209188,"station_id":"POK"},{"i_long":106.855437,"station_name":"Kramat","transit":false,"is_transit":false,"i_lat":-6.193792,"line":11,"distance":1829,"time":2,"station_id":"KMT"},{"station_name":"Gang Sentiong","i_lat":-6.185975,"line":11,"is_transit":false,"transit":false,"i_long":106.850107,"distance":973,"time":1,"station_id":"GST"},{"is_transit":false,"i_long":106.84368,"time":8,"station_id":"PSE","distance":1567,"transit":false,"station_name":"Pasar Senen","i_lat":-6.174784,"line":11},{"i_lat":-6.161728,"station_name":"Kemayoran","line":11,"distance":1436,"station_id":"KMO","is_transit":false,"time":4,"transit":false,"i_long":106.839204},{"station_id":"RJW","i_long":106.836569,"distance":1901,"transit":false,"i_lat":-6.14505,"station_name":"Rajawali","is_transit":false,"time":5,"line":11},{"station_name":"Kampung Bandan","station_id":"KPB","i_lat":-6.132549,"i_long":106.826365,"line":4,"distance":1444,"is_transit":true,"time":3,"transit":true},{"transit":true,"line":2,"station_id":"JAKK","time":3,"is_transit":true,"station_name":"Jakarta Kota","i_lat":-6.137569,"distance":1364,"i_long":106.812439},{"distance":1264,"is_transit":false,"transit":false,"line":2,"i_long":106.820901,"i_lat":-6.141205,"time":4,"station_name":"Jayakarta","station_id":"JAY"},{"i_lat":-6.149769,"station_name":"Manggabesar","is_transit":false,"line":2,"station_id":"MGB","time":2,"distance":1080,"transit":false,"i_long":106.82482},{"transit":false,"station_name":"Sawah Besar","i_long":106.827103,"distance":906,"i_lat":-6.160725,"station_id":"SW","time":2,"line":2,"is_transit":false},{"i_long":106.828284,"is_transit":false,"transit":false,"time":2,"distance":1149,"station_id":"JUA","station_name":"Juanda","i_lat":-6.166716,"line":2},{"transit":false,"distance":2015,"station_name":"Gondangdia","i_lat":-6.186295,"line":2,"is_transit":false,"time":4,"station_id":"GDD","i_long":106.832183}]]}