{"data":[[{"is_transit":false,"i_long":106.838896,"time":0,"i_lat":-6.3080680000000005,"station_name":"Tanjung Barat","line":2,"station_id":"TNT","distance":0,"transit":false},{"distance":2820,"transit":false,"i_long":106.843999,"is_transit":false,"line":2,"station_id":"PSM","i_lat":-6.2842400000000005,"time":4,"station_name":"Pasar Minggu"},{"distance":2380,"station_name":"Pasar Minggu Baru","station_id":"PSMB","i_lat":-6.263214,"i_long":106.851577,"time":2,"line":2,"is_transit":false,"transit":false},{"distance":824,"time":2,"i_long":106.85449,"i_lat":-6.255332,"line":2,"station_id":"DRN","transit":false,"is_transit":false,"station_name":"Duren Kalibata"},{"i_long":106.856607,"station_id":"CW","transit":false,"time":3,"station_name":"Cawang","is_transit":false,"line":2,"distance":1546,"i_lat":-6.242512},{"station_name":"Tebet","i_lat":-6.226659,"time":2,"is_transit":false,"transit":false,"distance":1230,"station_id":"TEB","i_long":106.857948,"line":2},{"distance":2610,"station_id":"MRI","is_transit":true,"i_long":106.84912,"station_name":"Manggarai","line":2,"i_lat":-6.209883,"time":4,"transit":true},{"i_lat":-6.202263,"is_transit":false,"station_id":"SUD","line":1,"distance":3186,"transit":false,"time":4,"station_name":"Sudirman","i_long":106.822649},{"distance":280,"station_id":"SUDB","is_transit":false,"transit":false,"i_lat":-6.201433,"line":1,"i_long":106.819881,"station_name":"Sudirman Baru","time":1},{"transit":false,"is_transit":false,"distance":471,"i_long":106.816351,"line":1,"station_name":"Karet","time":1,"i_lat":-6.20132,"station_id":"KAT"},{"line":1,"transit":false,"station_name":"Tanah Abang","distance":2029,"is_transit":false,"time":5,"station_id":"THB","i_lat":-6.185545,"i_long":106.811091},{"station_name":"Duri","i_lat":-6.155215,"transit":true,"station_id":"DU","i_long":106.800832,"is_transit":true,"line":1,"distance":3632,"time":8},{"line":5,"i_long":106.788277,"time":3,"station_id":"GGL","is_transit":false,"distance":1700,"i_lat":-6.162021,"transit":false,"station_name":"Grogol"},{"station_name":"Pesing","time":2,"i_lat":-6.161433,"line":5,"i_long":106.771379,"is_transit":false,"station_id":"PSG","transit":false,"distance":2036},{"is_transit":false,"distance":1614,"station_name":"Taman Kota","i_lat":-6.1587309999999995,"transit":false,"line":5,"station_id":"TKO","i_long":106.756522,"time":2},{"is_transit":false,"station_name":"Bojongindah","distance":2334,"time":2,"i_lat":-6.159876,"station_id":"BOI","line":5,"transit":false,"i_long":106.737035},{"station_id":"RW","i_lat":-6.162758,"distance":1152,"station_name":"Rawa Buaya","is_transit":false,"i_long":106.723064,"transit":false,"time":4,"line":5},{"i_lat":-6.166068,"i_long":106.701612,"station_name":"Kalideres","transit":false,"distance":2504,"is_transit":false,"time":3,"station_id":"KDS","line":5},{"line":5,"transit":false,"station_name":"Poris","i_lat":-6.169933,"i_long":106.679458,"distance":2548,"station_id":"PI","is_transit":false,"time":3}],[{"time":0,"distance":0,"is_transit":false,"i_lat":-6.3080680000000005,"station_name":"Tanjung Barat","transit":false,"i_long":106.838896,"line":2,"station_id":"TNT"},{"station_id":"PSM","station_name":"Pasar Minggu","i_long":106.843999,"transit":false,"is_transit":false,"line":2,"distance":2820,"time":4,"i_lat":-6.2842400000000005},{"station_id":"PSMB","i_lat":-6.263214,"transit":false,"i_long":106.851577,"line":2,"distance":2380,"is_transit":false,"time":2,"station_name":"Pasar Minggu Baru"},{"distance":824,"is_transit":false,"line":2,"transit":false,"station_name":"Duren Kalibata","time":2,"i_lat":-6.255332,"i_long":106.85449,"station_id":"DRN"},{"station_name":"Cawang","transit":false,"i_lat":-6.242512,"is_transit":false,"i_long":106.856607,"line":2,"station_id":"CW","time":3,"distance":1546},{"i_lat":-6.226659,"i_long":106.857948,"station_id":"TEB","distance":1230,"is_transit":false,"time":2,"line":2,"transit":false,"station_name":"Tebet"},{"line":2,"station_id":"MRI","i_long":106.84912,"distance":2610,"station_name":"Manggarai","i_lat":-6.209883,"is_transit":false,"time":4,"transit":false},{"is_transit":false,"line":2,"i_long":106.840169,"time":4,"distance":1590,"station_name":"Cikini","station_id":"CKI","i_lat":-6.198556,"transit":false},{"station_name":"Gondangdia","station_id":"GDD","i_lat":-6.186295,"distance":1750,"is_transit":false,"time":3,"i_long":106.832183,"line":2,"transit":false},{"i_long":106.828284,"transit":false,"line":2,"station_name":"Juanda","is_transit":false,"time":4,"distance":2015,"station_id":"JUA","i_lat":-6.166716},{"transit":false,"i_lat":-6.160725,"line":2,"station_name":"Sawah Besar","is_transit":false,"station_id":"SW","distance":1149,"i_long":106.827103,"time":2},{"i_long":106.82482,"station_id":"MGB","time":2,"station_name":"Manggabesar","distance":906,"line":2,"transit":false,"is_transit":false,"i_lat":-6.149769},{"i_lat":-6.141205,"line":2,"station_id":"JAY","i_long":106.820901,"is_transit":false,"distance":1080,"time":2,"station_name":"Jayakarta","transit":false},{"is_transit":true,"station_name":"Jakarta Kota","transit":true,"station_id":"JAKK","i_lat":-6.137569,"i_long":106.812439,"time":4,"distance":1264,"line":2},{"line":4,"is_transit":true,"station_name":"Kampung Bandan","distance":1364,"transit":true,"station_id":"KPB","i_long":106.826365,"time":3,"i_lat":-6.132549},{"i_lat":-6.144674,"station_id":"AK","time":9,"i_long":106.79867,"distance":4102,"is_transit":false,"station_name":"Angke","transit":false,"line":1},{"i_long":106.800832,"station_id":"DU","transit":true,"distance":1230,"time":4,"i_lat":-6.155215,"is_transit":true,"line":1,"station_name":"Duri"},{"time":3,"transit":false,"station_id":"GGL","i_long":106.788277,"line":5,"i_lat":-6.162021,"is_transit":false,"station_name":"Grogol","distance":1700},{"distance":2036,"line":5,"is_transit":false,"i_long":106.771379,"time":2,"transit":false,"i_lat":-6.161433,"station_name":"Pesing","station_id":"PSG"},{"distance":1614,"station_name":"Taman Kota","i_lat":-6.1587309999999995,"transit":false,"station_id":"TKO","time":2,"line":5,"is_transit":false,"i_long":106.756522},{"transit":false,"time":2,"station_id":"BOI","i_long":106.737035,"distance":2334,"line":5,"station_name":"Bojongindah","is_transit":false,"i_lat":-6.159876},{"i_lat":-6.162758,"distance":1152,"transit":false,"station_id":"RW","line":5,"station_name":"Rawa Buaya","i_long":106.723064,"is_transit":false,"time":4},{"i_long":106.701612,"line":5,"transit":false,"station_id":"KDS","distance":2504,"time":3,"station_name":"Kalideres","i_lat":-6.166068,"is_transit":false},{"transit":false,"line":5,"time":3,"distance":2548,"is_transit":false,"station_name":"Poris","i_lat":-6.169933,"station_id":"PI","i_long":106.679458}],[{"time":0,"i_long":106.838896,"is_transit":false,"station_name":"Tanjung Barat","transit":false,"line":2,"i_lat":-6.3080680000000005,"distance":0,"station_id":"TNT"},{"distance":2820,"station_id":"PSM","is_transit":false,"i_long":106.843999,"station_name":"Pasar Minggu","time":4,"i_lat":-6.2842400000000005,"transit":false,"line":2},{"station_id":"PSMB","line":2,"i_lat":-6.263214,"i_long":106.851577,"station_name":"Pasar Minggu Baru","distance":2380,"is_transit":false,"transit":false,"time":2},{"distance":824,"i_lat":-6.255332,"time":2,"station_name":"Duren Kalibata","station_id":"DRN","line":2,"is_transit":false,"transit":false,"i_long":106.85449},{"i_lat":-6.242512,"transit":false,"distance":1546,"i_long":106.856607,"time":3,"line":2,"station_name":"Cawang","is_transit":false,"station_id":"CW"},{"line":2,"is_transit":false,"station_id":"TEB","i_long":106.857948,"distance":1230,"transit":false,"i_lat":-6.226659,"station_name":"Tebet","time":2},{"distance":2610,"station_name":"Manggarai","i_long":106.84912,"transit":true,"time":4,"station_id":"MRI","i_lat":-6.209883,"line":2,"is_transit":true},{"transit":false,"time":2,"line":1,"station_name":"Matraman","station_id":"MTR","i_long":106.858896,"distance":1275,"i_lat":-6.212485,"is_transit":false},{"station_name":"Jatinegara","i_long":106.86807400000001,"is_transit":true,"station_id":"JNG","distance":1377,"transit":true,"line":1,"time":8,"i_lat":-6.215091},{"time":2,"transit":false,"i_lat":-6.209188,"i_long":106.861737,"distance":1236,"is_transit":false,"station_name":"Pondok Jati","station_id":"POK","line":11},{"distance":1829,"station_name":"Kramat","i_long":106.855437,"is_transit":false,"time":2,"line":11,"station_id":"KMT","i_lat":-6.193792,"transit":false},{"time":1,"i_lat":-6.185975,"station_name":"Gang Sentiong","i_long":106.850107,"distance":973,"is_transit":false,"transit":false,"station_id":"GST","line":11},{"station_name":"Pasar Senen","line":11,"station_id":"PSE","i_long":106.84368,"distance":1567,"is_transit":false,"transit":false,"i_lat":-6.174784,"time":8},{"time":4,"i_long":106.839204,"is_transit":false,"station_id":"KMO","station_name":"Kemayoran","i_lat":-6.161728,"line":11,"transit":false,"distance":1436},{"time":5,"i_long":106.836569,"line":11,"station_name":"Rajawali","is_transit":false,"station_id":"RJW","i_lat":-6.14505,"transit":false,"distance":1901},{"i_lat":-6.132549,"is_transit":true,"transit":true,"station_id":"KPB","i_long":106.826365,"distance":1444,"time":3,"station_name":"Kampung Bandan","line":4},{"time":9,"distance":4102,"i_lat":-6.144674,"is_transit":false,"line":1,"transit":false,"station_id":"AK","i_long":106.79867,"station_name":"Angke"},{"i_lat":-6.155215,"time":4,"is_transit":true,"station_name":"Duri","i_long":106.800832,"line":1,"station_id":"DU","distance":1230,"transit":true},{"distance":1700,"is_transit":false,"time":3,"i_lat":-6.162021,"i_long":106.788277,"station_id":"GGL","transit":false,"line":5,"station_name":"Grogol"},{"line":5,"i_long":106.771379,"time":2,"transit":false,"is_transit":false,"i_lat":-6.161433,"distance":2036,"station_name":"Pesing","station_id":"PSG"},{"i_lat":-6.1587309999999995,"distance":1614,"transit":false,"i_long":106.756522,"station_name":"Taman Kota","station_id":"TKO","time":2,"line":5,"is_transit":false},{"line":5,"is_transit":false,"station_id":"BOI","i_lat":-6.159876,"distance":2334,"i_long":106.737035,"station_name":"Bojongindah","transit":false,"time":2},{"is_transit":false,"transit":false,"distance":1152,"station_id":"RW","i_lat":-6.162758,"station_name":"Rawa Buaya","line":5,"time":4,"i_long":106.723064},{"transit":false,"i_lat":-6.166068,"time":3,"distance":2504,"station_id":"KDS","i_long":106.701612,"is_transit":false,"station_name":"Kalideres","line":5},{"distance":2548,"time":3,"transit":false,"i_lat":-6.169933,"i_long":106.679458,"line":5,"is_transit":false,"station_id":"PI","station_name":"Poris"}]]}