{"data":[[{"station_id":"TNT","i_lat":-6.3080680000000005,"time":0,"is_transit":false,"transit":false,"distance":0,"station_name":"Tanjung Barat","line":2,"i_long":106.838896},{"line":2,"station_name":"Pasar Minggu","transit":false,"time":4,"distance":2820,"i_lat":-6.2842400000000005,"is_transit":false,"i_long":106.843999,"station_id":"PSM"},{"line":2,"station_id":"PSMB","i_long":106.851577,"is_transit":false,"distance":2380,"i_lat":-6.263214,"time":2,"station_name":"Pasar Minggu Baru","transit":false},{"i_long":106.85449,"transit":false,"i_lat":-6.255332,"line":2,"time":2,"distance":824,"station_id":"DRN","station_name":"Duren Kalibata","is_transit":false},{"distance":1546,"transit":false,"is_transit":false,"i_lat":-6.242512,"i_long":106.856607,"line":2,"station_id":"CW","time":3,"station_name":"Cawang"},{"distance":1230,"i_lat":-6.226659,"is_transit":false,"i_long":106.857948,"line":2,"transit":false,"station_name":"Tebet","time":2,"station_id":"TEB"},{"line":2,"time":4,"is_transit":true,"station_id":"MRI","transit":true,"station_name":"Manggarai","i_lat":-6.209883,"distance":2610,"i_long":106.84912},{"is_transit":false,"i_lat":-6.202263,"distance":3186,"line":1,"station_name":"Sudirman","transit":false,"i_long":106.822649,"time":4,"station_id":"SUD"},{"station_name":"Sudirman Baru","distance":280,"transit":false,"i_lat":-6.201433,"line":1,"is_transit":false,"time":1,"station_id":"SUDB","i_long":106.819881},{"station_name":"Karet","is_transit":false,"transit":false,"line":1,"station_id":"KAT","i_lat":-6.20132,"distance":471,"i_long":106.816351,"time":1},{"time":5,"distance":2029,"station_name":"Tanah Abang","is_transit":false,"transit":false,"i_lat":-6.185545,"i_long":106.811091,"line":1,"station_id":"THB"}],[{"station_name":"Tanjung Barat","line":2,"distance":0,"transit":false,"is_transit":false,"i_lat":-6.3080680000000005,"station_id":"TNT","i_long":106.838896,"time":0},{"line":2,"transit":false,"distance":2820,"station_name":"Pasar Minggu","time":4,"station_id":"PSM","i_lat":-6.2842400000000005,"is_transit":false,"i_long":106.843999},{"time":2,"transit":false,"i_lat":-6.263214,"station_name":"Pasar Minggu Baru","distance":2380,"line":2,"is_transit":false,"i_long":106.851577,"station_id":"PSMB"},{"station_name":"Duren Kalibata","time":2,"station_id":"DRN","line":2,"i_lat":-6.255332,"transit":false,"i_long":106.85449,"distance":824,"is_transit":false},{"transit":false,"line":2,"is_transit":false,"i_lat":-6.242512,"time":3,"station_id":"CW","i_long":106.856607,"station_name":"Cawang","distance":1546},{"time":2,"is_transit":false,"transit":false,"station_id":"TEB","i_lat":-6.226659,"line":2,"distance":1230,"i_long":106.857948,"station_name":"Tebet"},{"is_transit":false,"time":4,"i_lat":-6.209883,"i_long":106.84912,"transit":false,"distance":2610,"station_id":"MRI","line":2,"station_name":"Manggarai"},{"station_id":"CKI","is_transit":false,"line":2,"transit":false,"station_name":"Cikini","distance":1590,"i_lat":-6.198556,"i_long":106.840169,"time":4},{"station_name":"Gondangdia","time":3,"i_lat":-6.186295,"station_id":"GDD","line":2,"is_transit":false,"distance":1750,"transit":false,"i_long":106.832183},{"transit":false,"station_name":"Juanda","i_lat":-6.166716,"time":4,"distance":2015,"line":2,"i_long":106.828284,"station_id":"JUA","is_transit":false},{"station_id":"SW","station_name":"Sawah Besar","time":2,"is_transit":false,"transit":false,"i_long":106.827103,"line":2,"distance":1149,"i_lat":-6.160725},{"station_name":"Manggabesar","transit":false,"is_transit":false,"distance":906,"line":2,"station_id":"MGB","time":2,"i_lat":-6.149769,"i_long":106.82482},{"time":2,"is_transit":false,"distance":1080,"transit":false,"line":2,"i_lat":-6.141205,"i_long":106.820901,"station_name":"Jayakarta","station_id":"JAY"},{"transit":true,"station_name":"Jakarta Kota","time":4,"distance":1264,"is_transit":true,"i_lat":-6.137569,"i_long":106.812439,"station_id":"JAKK","line":2},{"i_lat":-6.132549,"station_id":"KPB","station_name":"Kampung Bandan","transit":true,"i_long":106.826365,"is_transit":true,"distance":1364,"line":4,"time":3},{"transit":false,"i_long":106.79867,"line":1,"is_transit":false,"i_lat":-6.144674,"distance":4102,"station_id":"AK","time":9,"station_name":"Angke"},{"station_id":"DU","i_long":106.800832,"time":4,"i_lat":-6.155215,"line":1,"station_name":"Duri","transit":false,"distance":1230,"is_transit":false},{"transit":false,"station_id":"THB","is_transit":false,"i_long":106.811091,"distance":3632,"station_name":"Tanah Abang","line":1,"time":8,"i_lat":-6.185545}],[{"transit":false,"distance":0,"i_lat":-6.3080680000000005,"station_name":"Tanjung Barat","is_transit":false,"i_long":106.838896,"line":2,"time":0,"station_id":"TNT"},{"time":4,"line":2,"station_id":"PSM","distance":2820,"transit":false,"i_long":106.843999,"station_name":"Pasar Minggu","is_transit":false,"i_lat":-6.2842400000000005},{"station_name":"Pasar Minggu Baru","station_id":"PSMB","transit":false,"time":2,"distance":2380,"is_transit":false,"i_lat":-6.263214,"i_long":106.851577,"line":2},{"line":2,"station_name":"Duren Kalibata","time":2,"station_id":"DRN","transit":false,"distance":824,"i_long":106.85449,"i_lat":-6.255332,"is_transit":false},{"distance":1546,"transit":false,"station_name":"Cawang","station_id":"CW","i_lat":-6.242512,"i_long":106.856607,"time":3,"line":2,"is_transit":false},{"i_long":106.857948,"line":2,"station_name":"Tebet","time":2,"distance":1230,"is_transit":false,"transit":false,"i_lat":-6.226659,"station_id":"TEB"},{"transit":true,"line":2,"station_id":"MRI","time":4,"i_lat":-6.209883,"station_name":"Manggarai","is_transit":true,"i_long":106.84912,"distance":2610},{"station_name":"Matraman","station_id":"MTR","line":1,"transit":false,"time":2,"i_lat":-6.212485,"i_long":106.858896,"is_transit":false,"distance":1275},{"is_transit":true,"i_long":106.86807400000001,"transit":true,"time":8,"station_name":"Jatinegara","station_id":"JNG","distance":1377,"i_lat":-6.215091,"line":1},{"station_id":"POK","distance":1236,"is_transit":false,"i_long":106.861737,"transit":false,"station_name":"Pondok Jati","i_lat":-6.209188,"line":11,"time":2},{"distance":1829,"time":2,"transit":false,"station_id":"KMT","i_lat":-6.193792,"is_transit":false,"i_long":106.855437,"station_name":"Kramat","line":11},{"i_long":106.850107,"distance":973,"station_name":"Gang Sentiong","time":1,"transit":false,"is_transit":false,"line":11,"i_lat":-6.185975,"station_id":"GST"},{"distance":1567,"is_transit":false,"transit":false,"station_name":"Pasar Senen","time":8,"line":11,"i_lat":-6.174784,"station_id":"PSE","i_long":106.84368},{"distance":1436,"time":4,"is_transit":false,"station_id":"KMO","i_lat":-6.161728,"line":11,"station_name":"Kemayoran","i_long":106.839204,"transit":false},{"station_name":"Rajawali","station_id":"RJW","i_lat":-6.14505,"line":11,"time":5,"i_long":106.836569,"transit":false,"distance":1901,"is_transit":false},{"time":3,"distance":1444,"is_transit":true,"transit":true,"i_long":106.826365,"i_lat":-6.132549,"station_name":"Kampung Bandan","station_id":"KPB","line":4},{"time":9,"station_id":"AK","distance":4102,"is_transit":false,"station_name":"Angke","i_lat":-6.144674,"i_long":106.79867,"transit":false,"line":1},{"i_lat":-6.155215,"station_id":"DU","transit":false,"station_name":"Duri","line":1,"i_long":106.800832,"distance":1230,"is_transit":false,"time":4},{"i_long":106.811091,"transit":false,"time":8,"station_id":"THB","is_transit":false,"distance":3632,"i_lat":-6.185545,"station_name":"Tanah Abang","line":1}]]}