{"data":[[{"station_name":"Tanjung Barat","line":2,"i_long":106.838896,"distance":0,"station_id":"TNT","transit":false,"time":0,"i_lat":-6.3080680000000005,"is_transit":false},{"is_transit":false,"line":2,"transit":false,"i_lat":-6.330363,"distance":2671,"time":3,"station_id":"LNA","station_name":"Lenteng Agung","i_long":106.832616},{"line":2,"station_name":"Univ. Pancasila","is_transit":false,"distance":1029,"station_id":"UP","transit":false,"i_lat":-6.339291,"i_long":106.834175,"time":2},{"transit":false,"i_long":106.831474,"is_transit":false,"i_lat":-6.360749,"station_id":"UI","distance":2264,"line":2,"time":3,"station_name":"Univ. Indonesia"},{"is_transit":false,"time":2,"i_long":106.831114,"station_name":"Pondok Cina","i_lat":-6.369073,"line":2,"distance":1109,"transit":false,"station_id":"POC"},{"line":2,"i_long":106.819451,"station_id":"DPB","transit":false,"distance":2727,"i_lat":-6.391065,"time":4,"is_transit":false,"station_name":"Depokbaru"},{"distance":1584,"station_id":"DP","is_transit":false,"time":3,"transit":false,"i_lat":-6.405256,"station_name":"Depok","i_long":106.816926,"line":2}]]}