{"data":[[{"transit":false,"line":2,"is_transit":false,"station_name":"Tanjung Barat","i_long":106.838896,"i_lat":-6.3080680000000005,"time":0,"distance":0,"station_id":"TNT"},{"line":2,"time":4,"station_id":"PSM","distance":2820,"is_transit":false,"i_lat":-6.2842400000000005,"i_long":106.843999,"station_name":"Pasar Minggu","transit":false},{"line":2,"is_transit":false,"distance":2380,"transit":false,"i_long":106.851577,"station_name":"Pasar Minggu Baru","station_id":"PSMB","i_lat":-6.263214,"time":2},{"i_long":106.85449,"station_name":"Duren Kalibata","is_transit":false,"transit":false,"time":2,"distance":824,"line":0,"station_id":"DRN","i_lat":-6.255332},{"i_lat":-6.242512,"line":0,"is_transit":false,"station_id":"CW","station_name":"Cawang","distance":1546,"transit":false,"i_long":106.856607,"time":3},{"station_name":"Tebet","transit":false,"is_transit":false,"time":2,"line":2,"i_long":106.857948,"i_lat":-6.226659,"distance":1230,"station_id":"TEB"},{"is_transit":true,"time":4,"i_lat":-6.209883,"i_long":106.84912,"line":0,"transit":true,"station_id":"MRI","distance":2610,"station_name":"Manggarai"},{"station_id":"SUD","i_lat":-6.202263,"is_transit":false,"time":4,"line":1,"distance":3186,"i_long":106.822649,"station_name":"Sudirman","transit":false},{"station_name":"Sudirman Baru","i_long":106.819881,"line":1,"is_transit":false,"station_id":"SUDB","i_lat":-6.201433,"time":1,"distance":280,"transit":false},{"transit":false,"station_name":"Karet","time":1,"station_id":"KAT","distance":471,"i_lat":-6.20132,"line":1,"i_long":106.816351,"is_transit":false},{"station_id":"THB","is_transit":true,"i_lat":-6.185545,"i_long":106.811091,"transit":false,"time":5,"line":1,"distance":2029,"station_name":"Tanah Abang"}],[{"station_name":"Tanjung Barat","i_long":106.838896,"i_lat":-6.3080680000000005,"distance":0,"line":2,"is_transit":false,"time":0,"transit":false,"station_id":"TNT"},{"time":4,"distance":2820,"is_transit":false,"i_lat":-6.2842400000000005,"station_id":"PSM","line":2,"i_long":106.843999,"station_name":"Pasar Minggu","transit":false},{"distance":2380,"i_long":106.851577,"time":2,"station_id":"PSMB","transit":false,"is_transit":false,"station_name":"Pasar Minggu Baru","line":2,"i_lat":-6.263214},{"time":2,"distance":824,"i_long":106.85449,"station_name":"Duren Kalibata","is_transit":false,"transit":false,"i_lat":-6.255332,"line":0,"station_id":"DRN"},{"is_transit":false,"time":3,"i_long":106.856607,"transit":false,"distance":1546,"line":0,"station_id":"CW","station_name":"Cawang","i_lat":-6.242512},{"time":2,"station_id":"TEB","i_lat":-6.226659,"is_transit":false,"distance":1230,"station_name":"Tebet","transit":false,"i_long":106.857948,"line":2},{"transit":true,"line":0,"is_transit":true,"i_long":106.84912,"station_name":"Manggarai","i_lat":-6.209883,"time":4,"distance":2610,"station_id":"MRI"},{"i_lat":-6.198556,"distance":1590,"station_name":"Cikini","is_transit":false,"station_id":"CKI","transit":false,"i_long":106.840169,"line":0,"time":4},{"line":2,"station_id":"GDD","distance":1750,"transit":false,"i_long":106.832183,"station_name":"Gondangdia","time":3,"is_transit":false,"i_lat":-6.186295},{"transit":false,"time":4,"i_lat":-6.166716,"i_long":106.828284,"is_transit":false,"station_id":"JUA","station_name":"Juanda","distance":2015,"line":2},{"i_long":106.827103,"distance":1149,"line":2,"transit":false,"station_id":"SW","i_lat":-6.160725,"station_name":"Sawah Besar","is_transit":false,"time":2},{"line":2,"time":2,"station_name":"Manggabesar","distance":906,"is_transit":false,"station_id":"MGB","transit":false,"i_lat":-6.149769,"i_long":106.82482},{"station_id":"JAY","transit":false,"i_lat":-6.141205,"line":7,"station_name":"Jayakarta","distance":1080,"time":2,"is_transit":false,"i_long":106.820901},{"transit":true,"is_transit":true,"distance":1264,"station_id":"JAKK","i_lat":-6.137569,"station_name":"Jakarta Kota","i_long":106.812439,"time":4,"line":0},{"station_name":"Kampung Bandan","distance":1364,"station_id":"KPB","time":3,"transit":false,"i_long":106.826365,"is_transit":true,"line":0,"i_lat":-6.132549},{"station_name":"Angke","time":9,"is_transit":false,"distance":4102,"station_id":"AK","transit":false,"i_long":106.79867,"i_lat":-6.144674,"line":0},{"is_transit":true,"station_id":"DU","transit":true,"i_long":106.800832,"i_lat":-6.155215,"distance":1230,"line":1,"station_name":"Duri","time":4},{"is_transit":true,"time":8,"station_id":"THB","i_lat":-6.185545,"i_long":106.811091,"transit":false,"distance":3632,"line":1,"station_name":"Tanah Abang"}],[{"transit":false,"line":2,"station_id":"TNT","i_long":106.838896,"i_lat":-6.3080680000000005,"is_transit":false,"distance":0,"station_name":"Tanjung Barat","time":0},{"station_name":"Pasar Minggu","line":2,"station_id":"PSM","is_transit":false,"transit":false,"distance":2820,"i_lat":-6.2842400000000005,"time":4,"i_long":106.843999},{"i_lat":-6.263214,"i_long":106.851577,"is_transit":false,"time":2,"transit":false,"line":2,"distance":2380,"station_name":"Pasar Minggu Baru","station_id":"PSMB"},{"station_id":"DRN","line":0,"is_transit":false,"transit":false,"i_lat":-6.255332,"distance":824,"i_long":106.85449,"time":2,"station_name":"Duren Kalibata"},{"i_lat":-6.242512,"i_long":106.856607,"time":3,"distance":1546,"station_name":"Cawang","is_transit":false,"transit":false,"line":0,"station_id":"CW"},{"i_long":106.857948,"is_transit":false,"transit":false,"station_name":"Tebet","i_lat":-6.226659,"line":2,"time":2,"distance":1230,"station_id":"TEB"},{"is_transit":true,"time":4,"station_id":"MRI","transit":true,"i_long":106.84912,"line":0,"distance":2610,"station_name":"Manggarai","i_lat":-6.209883},{"i_lat":-6.212485,"line":1,"station_id":"MTR","station_name":"Matraman","transit":false,"i_long":106.858896,"is_transit":false,"distance":1275,"time":2},{"line":0,"i_lat":-6.215091,"distance":1377,"station_id":"JNG","i_long":106.86807400000001,"transit":true,"is_transit":true,"time":8,"station_name":"Jatinegara"},{"distance":1236,"station_name":"Pondok Jati","transit":false,"i_lat":-6.209188,"time":2,"i_long":106.861737,"line":11,"is_transit":false,"station_id":"POK"},{"station_name":"Kramat","i_lat":-6.193792,"line":11,"station_id":"KMT","time":2,"is_transit":false,"distance":1829,"i_long":106.855437,"transit":false},{"is_transit":false,"i_lat":-6.185975,"time":1,"line":11,"station_id":"GST","i_long":106.850107,"distance":973,"station_name":"Gang Sentiong","transit":false},{"distance":1567,"transit":false,"line":11,"i_lat":-6.174784,"station_name":"Pasar Senen","i_long":106.84368,"time":8,"station_id":"PSE","is_transit":false},{"station_name":"Kemayoran","is_transit":false,"station_id":"KMO","line":11,"distance":1436,"time":4,"i_lat":-6.161728,"i_long":106.839204,"transit":false},{"i_long":106.836569,"transit":false,"line":11,"time":5,"station_id":"RJW","i_lat":-6.14505,"station_name":"Rajawali","is_transit":false,"distance":1901},{"is_transit":true,"time":3,"line":0,"distance":1444,"station_id":"KPB","i_long":106.826365,"transit":true,"station_name":"Kampung Bandan","i_lat":-6.132549},{"is_transit":false,"time":9,"station_name":"Angke","distance":4102,"station_id":"AK","i_long":106.79867,"line":0,"transit":false,"i_lat":-6.144674},{"transit":true,"i_lat":-6.155215,"is_transit":true,"station_id":"DU","i_long":106.800832,"time":4,"station_name":"Duri","distance":1230,"line":1},{"i_long":106.811091,"station_name":"Tanah Abang","i_lat":-6.185545,"transit":false,"distance":3632,"line":1,"time":8,"is_transit":true,"station_id":"THB"}]]}