{"data":[[{"is_transit":false,"i_lat":-6.3080680000000005,"station_id":"TNT","i_long":106.838896,"station_name":"Tanjung Barat","distance":0,"transit":false,"time":0,"line":2},{"transit":false,"is_transit":false,"time":4,"station_id":"PSM","distance":2820,"line":2,"station_name":"Pasar Minggu","i_lat":-6.2842400000000005,"i_long":106.843999},{"time":2,"distance":2380,"station_id":"PSMB","line":2,"transit":false,"station_name":"Pasar Minggu Baru","i_lat":-6.263214,"i_long":106.851577,"is_transit":false},{"line":0,"time":2,"i_long":106.85449,"station_name":"Duren Kalibata","i_lat":-6.255332,"is_transit":false,"station_id":"DRN","transit":false,"distance":824},{"time":3,"i_lat":-6.242512,"is_transit":false,"i_long":106.856607,"transit":false,"station_name":"Cawang","distance":1546,"station_id":"CW","line":0},{"transit":false,"i_long":106.857948,"station_id":"TEB","station_name":"Tebet","time":2,"distance":1230,"line":2,"is_transit":false,"i_lat":-6.226659},{"transit":true,"station_id":"MRI","station_name":"Manggarai","time":4,"i_lat":-6.209883,"line":0,"distance":2610,"i_long":106.84912,"is_transit":true},{"distance":3186,"i_long":106.822649,"line":1,"time":4,"is_transit":false,"transit":false,"i_lat":-6.202263,"station_name":"Sudirman","station_id":"SUD"},{"station_name":"Sudirman Baru","transit":false,"time":1,"i_lat":-6.201433,"distance":280,"station_id":"SUDB","is_transit":false,"i_long":106.819881,"line":1},{"i_long":106.816351,"station_name":"Karet","distance":471,"i_lat":-6.20132,"transit":false,"station_id":"KAT","is_transit":false,"line":1,"time":1}],[{"is_transit":false,"station_name":"Tanjung Barat","line":2,"time":0,"station_id":"TNT","transit":false,"distance":0,"i_lat":-6.3080680000000005,"i_long":106.838896},{"i_long":106.843999,"i_lat":-6.2842400000000005,"is_transit":false,"distance":2820,"station_name":"Pasar Minggu","line":2,"transit":false,"time":4,"station_id":"PSM"},{"station_name":"Pasar Minggu Baru","i_lat":-6.263214,"transit":false,"station_id":"PSMB","time":2,"is_transit":false,"distance":2380,"i_long":106.851577,"line":2},{"is_transit":false,"i_long":106.85449,"station_id":"DRN","line":0,"i_lat":-6.255332,"transit":false,"time":2,"distance":824,"station_name":"Duren Kalibata"},{"i_long":106.856607,"distance":1546,"station_name":"Cawang","line":0,"is_transit":false,"time":3,"i_lat":-6.242512,"station_id":"CW","transit":false},{"transit":false,"i_long":106.857948,"distance":1230,"is_transit":false,"time":2,"i_lat":-6.226659,"line":2,"station_name":"Tebet","station_id":"TEB"},{"time":4,"transit":true,"i_lat":-6.209883,"line":0,"station_name":"Manggarai","is_transit":true,"i_long":106.84912,"station_id":"MRI","distance":2610},{"transit":false,"distance":1590,"is_transit":false,"station_name":"Cikini","i_lat":-6.198556,"i_long":106.840169,"station_id":"CKI","time":4,"line":0},{"time":3,"i_lat":-6.186295,"is_transit":false,"station_name":"Gondangdia","station_id":"GDD","distance":1750,"line":2,"i_long":106.832183,"transit":false},{"is_transit":false,"i_lat":-6.166716,"line":2,"station_name":"Juanda","station_id":"JUA","i_long":106.828284,"time":4,"transit":false,"distance":2015},{"is_transit":false,"time":2,"station_id":"SW","line":2,"transit":false,"i_long":106.827103,"station_name":"Sawah Besar","distance":1149,"i_lat":-6.160725},{"is_transit":false,"time":2,"i_lat":-6.149769,"line":2,"i_long":106.82482,"station_name":"Manggabesar","transit":false,"station_id":"MGB","distance":906},{"station_name":"Jayakarta","transit":false,"i_lat":-6.141205,"i_long":106.820901,"is_transit":false,"line":7,"distance":1080,"time":2,"station_id":"JAY"},{"station_id":"JAKK","distance":1264,"i_long":106.812439,"time":4,"is_transit":true,"i_lat":-6.137569,"transit":true,"station_name":"Jakarta Kota","line":0},{"station_id":"KPB","i_lat":-6.132549,"line":0,"time":3,"is_transit":true,"distance":1364,"transit":false,"i_long":106.826365,"station_name":"Kampung Bandan"},{"i_long":106.79867,"distance":4102,"line":0,"i_lat":-6.144674,"transit":false,"station_id":"AK","station_name":"Angke","time":9,"is_transit":false},{"time":4,"station_name":"Duri","is_transit":true,"i_long":106.800832,"transit":true,"i_lat":-6.155215,"distance":1230,"station_id":"DU","line":1},{"time":8,"station_id":"THB","distance":3632,"i_long":106.811091,"station_name":"Tanah Abang","line":1,"transit":false,"i_lat":-6.185545,"is_transit":true},{"transit":false,"is_transit":false,"i_long":106.816351,"distance":2029,"station_name":"Karet","line":1,"time":5,"i_lat":-6.20132,"station_id":"KAT"}],[{"station_name":"Tanjung Barat","is_transit":false,"station_id":"TNT","i_long":106.838896,"line":2,"i_lat":-6.3080680000000005,"transit":false,"distance":0,"time":0},{"line":2,"station_name":"Pasar Minggu","transit":false,"time":4,"station_id":"PSM","is_transit":false,"i_long":106.843999,"i_lat":-6.2842400000000005,"distance":2820},{"time":2,"station_name":"Pasar Minggu Baru","is_transit":false,"transit":false,"i_lat":-6.263214,"line":2,"distance":2380,"station_id":"PSMB","i_long":106.851577},{"station_id":"DRN","line":0,"transit":false,"distance":824,"i_long":106.85449,"i_lat":-6.255332,"time":2,"is_transit":false,"station_name":"Duren Kalibata"},{"transit":false,"line":0,"is_transit":false,"station_id":"CW","time":3,"i_long":106.856607,"i_lat":-6.242512,"distance":1546,"station_name":"Cawang"},{"is_transit":false,"distance":1230,"transit":false,"station_name":"Tebet","station_id":"TEB","time":2,"i_lat":-6.226659,"i_long":106.857948,"line":2},{"is_transit":true,"transit":true,"time":4,"i_lat":-6.209883,"line":0,"distance":2610,"station_name":"Manggarai","station_id":"MRI","i_long":106.84912},{"station_id":"MTR","i_lat":-6.212485,"time":2,"station_name":"Matraman","line":1,"i_long":106.858896,"transit":false,"is_transit":false,"distance":1275},{"is_transit":true,"i_long":106.86807400000001,"line":0,"time":8,"transit":true,"station_id":"JNG","distance":1377,"station_name":"Jatinegara","i_lat":-6.215091},{"distance":1236,"is_transit":false,"transit":false,"line":11,"i_lat":-6.209188,"time":2,"station_name":"Pondok Jati","i_long":106.861737,"station_id":"POK"},{"is_transit":false,"time":2,"transit":false,"line":11,"i_long":106.855437,"station_name":"Kramat","i_lat":-6.193792,"station_id":"KMT","distance":1829},{"line":11,"station_id":"GST","time":1,"station_name":"Gang Sentiong","transit":false,"distance":973,"i_lat":-6.185975,"i_long":106.850107,"is_transit":false},{"station_name":"Pasar Senen","is_transit":false,"transit":false,"time":8,"i_lat":-6.174784,"i_long":106.84368,"line":11,"distance":1567,"station_id":"PSE"},{"i_lat":-6.161728,"i_long":106.839204,"distance":1436,"time":4,"line":11,"is_transit":false,"station_id":"KMO","station_name":"Kemayoran","transit":false},{"station_name":"Rajawali","station_id":"RJW","time":5,"distance":1901,"i_long":106.836569,"line":11,"transit":false,"is_transit":false,"i_lat":-6.14505},{"transit":true,"is_transit":true,"station_id":"KPB","time":3,"distance":1444,"line":0,"i_lat":-6.132549,"station_name":"Kampung Bandan","i_long":106.826365},{"line":0,"time":9,"distance":4102,"is_transit":false,"station_name":"Angke","transit":false,"i_long":106.79867,"station_id":"AK","i_lat":-6.144674},{"line":1,"station_id":"DU","transit":true,"distance":1230,"i_long":106.800832,"station_name":"Duri","time":4,"is_transit":true,"i_lat":-6.155215},{"transit":false,"time":8,"i_lat":-6.185545,"i_long":106.811091,"is_transit":true,"station_id":"THB","station_name":"Tanah Abang","distance":3632,"line":1},{"i_long":106.816351,"distance":2029,"line":1,"transit":false,"station_id":"KAT","i_lat":-6.20132,"station_name":"Karet","is_transit":false,"time":5}]]}