{"data":[[{"i_long":106.838896,"time":0,"is_transit":false,"station_name":"Tanjung Barat","transit":false,"line":2,"distance":0,"station_id":"TNT","i_lat":-6.3080680000000005},{"line":2,"station_name":"Pasar Minggu","i_lat":-6.2842400000000005,"is_transit":false,"time":4,"station_id":"PSM","distance":2820,"i_long":106.843999,"transit":false},{"station_name":"Pasar Minggu Baru","i_long":106.851577,"time":2,"i_lat":-6.263214,"station_id":"PSMB","distance":2380,"transit":false,"is_transit":false,"line":2},{"transit":false,"time":2,"station_name":"Duren Kalibata","i_lat":-6.255332,"distance":824,"i_long":106.85449,"is_transit":false,"line":2,"station_id":"DRN"},{"station_name":"Cawang","distance":1546,"station_id":"CW","is_transit":false,"transit":false,"time":3,"line":2,"i_long":106.856607,"i_lat":-6.242512},{"i_long":106.857948,"line":2,"distance":1230,"i_lat":-6.226659,"station_id":"TEB","time":2,"transit":false,"is_transit":false,"station_name":"Tebet"},{"transit":true,"distance":2610,"station_id":"MRI","station_name":"Manggarai","i_lat":-6.209883,"line":2,"time":4,"is_transit":true,"i_long":106.84912},{"line":1,"i_long":106.822649,"distance":3186,"i_lat":-6.202263,"is_transit":false,"station_id":"SUD","time":4,"transit":false,"station_name":"Sudirman"},{"station_id":"SUDB","distance":280,"transit":false,"i_lat":-6.201433,"line":1,"time":1,"is_transit":false,"station_name":"Sudirman Baru","i_long":106.819881},{"time":1,"transit":false,"distance":471,"station_id":"KAT","station_name":"Karet","i_lat":-6.20132,"i_long":106.816351,"line":1,"is_transit":false}],[{"station_id":"TNT","line":2,"time":0,"transit":false,"i_long":106.838896,"station_name":"Tanjung Barat","distance":0,"is_transit":false,"i_lat":-6.3080680000000005},{"i_long":106.843999,"time":4,"station_id":"PSM","i_lat":-6.2842400000000005,"station_name":"Pasar Minggu","distance":2820,"transit":false,"is_transit":false,"line":2},{"i_lat":-6.263214,"line":2,"distance":2380,"is_transit":false,"transit":false,"station_name":"Pasar Minggu Baru","time":2,"station_id":"PSMB","i_long":106.851577},{"is_transit":false,"time":2,"i_long":106.85449,"transit":false,"station_name":"Duren Kalibata","i_lat":-6.255332,"distance":824,"line":2,"station_id":"DRN"},{"i_lat":-6.242512,"time":3,"i_long":106.856607,"station_name":"Cawang","distance":1546,"is_transit":false,"transit":false,"line":2,"station_id":"CW"},{"transit":false,"i_long":106.857948,"i_lat":-6.226659,"is_transit":false,"station_name":"Tebet","distance":1230,"line":2,"station_id":"TEB","time":2},{"i_lat":-6.209883,"distance":2610,"transit":false,"station_id":"MRI","time":4,"line":2,"is_transit":false,"station_name":"Manggarai","i_long":106.84912},{"i_lat":-6.198556,"distance":1590,"i_long":106.840169,"line":2,"station_name":"Cikini","time":4,"station_id":"CKI","is_transit":false,"transit":false},{"is_transit":false,"station_id":"GDD","time":3,"station_name":"Gondangdia","i_lat":-6.186295,"i_long":106.832183,"line":2,"transit":false,"distance":1750},{"time":4,"is_transit":false,"station_id":"JUA","station_name":"Juanda","distance":2015,"i_long":106.828284,"i_lat":-6.166716,"transit":false,"line":2},{"time":2,"station_id":"SW","is_transit":false,"i_long":106.827103,"distance":1149,"station_name":"Sawah Besar","transit":false,"i_lat":-6.160725,"line":2},{"distance":906,"time":2,"is_transit":false,"station_id":"MGB","line":2,"transit":false,"station_name":"Manggabesar","i_lat":-6.149769,"i_long":106.82482},{"transit":false,"line":2,"time":2,"i_lat":-6.141205,"i_long":106.820901,"is_transit":false,"distance":1080,"station_name":"Jayakarta","station_id":"JAY"},{"line":2,"transit":true,"i_lat":-6.137569,"station_name":"Jakarta Kota","time":4,"station_id":"JAKK","is_transit":true,"i_long":106.812439,"distance":1264},{"distance":1364,"station_id":"KPB","line":4,"i_lat":-6.132549,"is_transit":true,"station_name":"Kampung Bandan","transit":true,"i_long":106.826365,"time":3},{"station_id":"AK","distance":4102,"is_transit":false,"station_name":"Angke","transit":false,"i_lat":-6.144674,"time":9,"i_long":106.79867,"line":1},{"distance":1230,"i_long":106.800832,"line":1,"station_id":"DU","i_lat":-6.155215,"transit":false,"is_transit":false,"time":4,"station_name":"Duri"},{"i_long":106.811091,"transit":false,"i_lat":-6.185545,"line":1,"station_name":"Tanah Abang","is_transit":false,"distance":3632,"time":8,"station_id":"THB"},{"transit":false,"distance":2029,"station_id":"KAT","time":5,"is_transit":false,"station_name":"Karet","i_long":106.816351,"i_lat":-6.20132,"line":1}],[{"station_id":"TNT","i_lat":-6.3080680000000005,"station_name":"Tanjung Barat","is_transit":false,"transit":false,"i_long":106.838896,"time":0,"line":2,"distance":0},{"transit":false,"i_lat":-6.2842400000000005,"i_long":106.843999,"distance":2820,"station_id":"PSM","line":2,"is_transit":false,"station_name":"Pasar Minggu","time":4},{"time":2,"transit":false,"line":2,"station_name":"Pasar Minggu Baru","distance":2380,"station_id":"PSMB","is_transit":false,"i_long":106.851577,"i_lat":-6.263214},{"station_name":"Duren Kalibata","time":2,"i_lat":-6.255332,"transit":false,"i_long":106.85449,"line":2,"station_id":"DRN","distance":824,"is_transit":false},{"station_name":"Cawang","i_long":106.856607,"is_transit":false,"station_id":"CW","transit":false,"i_lat":-6.242512,"line":2,"distance":1546,"time":3},{"transit":false,"i_long":106.857948,"time":2,"distance":1230,"station_id":"TEB","i_lat":-6.226659,"station_name":"Tebet","is_transit":false,"line":2},{"time":4,"i_lat":-6.209883,"transit":true,"station_id":"MRI","distance":2610,"is_transit":true,"line":2,"station_name":"Manggarai","i_long":106.84912},{"distance":1275,"i_lat":-6.212485,"i_long":106.858896,"line":1,"station_name":"Matraman","is_transit":false,"station_id":"MTR","time":2,"transit":false},{"line":1,"is_transit":true,"station_name":"Jatinegara","station_id":"JNG","i_lat":-6.215091,"distance":1377,"i_long":106.86807400000001,"time":8,"transit":true},{"i_lat":-6.209188,"station_id":"POK","time":2,"distance":1236,"station_name":"Pondok Jati","is_transit":false,"transit":false,"i_long":106.861737,"line":11},{"transit":false,"i_lat":-6.193792,"i_long":106.855437,"distance":1829,"is_transit":false,"station_id":"KMT","time":2,"line":11,"station_name":"Kramat"},{"is_transit":false,"station_id":"GST","station_name":"Gang Sentiong","transit":false,"line":11,"time":1,"i_lat":-6.185975,"i_long":106.850107,"distance":973},{"station_id":"PSE","i_lat":-6.174784,"line":11,"station_name":"Pasar Senen","transit":false,"i_long":106.84368,"time":8,"distance":1567,"is_transit":false},{"transit":false,"time":4,"i_lat":-6.161728,"station_name":"Kemayoran","is_transit":false,"distance":1436,"station_id":"KMO","i_long":106.839204,"line":11},{"line":11,"i_long":106.836569,"station_id":"RJW","transit":false,"is_transit":false,"distance":1901,"i_lat":-6.14505,"station_name":"Rajawali","time":5},{"is_transit":true,"i_long":106.826365,"station_name":"Kampung Bandan","transit":true,"station_id":"KPB","line":4,"time":3,"distance":1444,"i_lat":-6.132549},{"station_name":"Angke","transit":false,"i_lat":-6.144674,"i_long":106.79867,"time":9,"distance":4102,"is_transit":false,"station_id":"AK","line":1},{"station_id":"DU","time":4,"transit":false,"station_name":"Duri","distance":1230,"i_long":106.800832,"line":1,"i_lat":-6.155215,"is_transit":false},{"station_name":"Tanah Abang","is_transit":false,"transit":false,"distance":3632,"time":8,"line":1,"i_lat":-6.185545,"station_id":"THB","i_long":106.811091},{"transit":false,"distance":2029,"station_id":"KAT","i_lat":-6.20132,"time":5,"is_transit":false,"station_name":"Karet","line":1,"i_long":106.816351}]]}