{"data":[[{"distance":0,"i_lat":-6.3080680000000005,"is_transit":false,"line":2,"station_id":"TNT","i_long":106.838896,"transit":false,"station_name":"Tanjung Barat","time":0},{"is_transit":false,"i_lat":-6.2842400000000005,"time":4,"transit":false,"distance":2820,"station_name":"Pasar Minggu","i_long":106.843999,"station_id":"PSM","line":2},{"time":2,"line":2,"is_transit":false,"i_lat":-6.263214,"distance":2380,"station_id":"PSMB","i_long":106.851577,"transit":false,"station_name":"Pasar Minggu Baru"},{"i_long":106.85449,"line":2,"station_name":"Duren Kalibata","station_id":"DRN","is_transit":false,"transit":false,"i_lat":-6.255332,"time":2,"distance":824},{"station_id":"CW","distance":1546,"transit":false,"i_lat":-6.242512,"line":2,"station_name":"Cawang","is_transit":false,"time":3,"i_long":106.856607},{"line":2,"distance":1230,"transit":false,"station_name":"Tebet","time":2,"i_long":106.857948,"is_transit":false,"station_id":"TEB","i_lat":-6.226659},{"is_transit":true,"time":4,"distance":2610,"station_name":"Manggarai","transit":true,"station_id":"MRI","i_lat":-6.209883,"i_long":106.84912,"line":2},{"i_lat":-6.202263,"line":1,"transit":false,"station_name":"Sudirman","i_long":106.822649,"station_id":"SUD","distance":3186,"is_transit":false,"time":4},{"distance":280,"station_name":"Sudirman Baru","line":1,"transit":false,"station_id":"SUDB","i_lat":-6.201433,"is_transit":false,"i_long":106.819881,"time":1},{"time":1,"transit":false,"i_long":106.816351,"station_id":"KAT","station_name":"Karet","is_transit":false,"i_lat":-6.20132,"line":1,"distance":471},{"i_lat":-6.185545,"distance":2029,"station_id":"THB","transit":false,"time":5,"station_name":"Tanah Abang","is_transit":false,"i_long":106.811091,"line":1},{"distance":3632,"station_id":"DU","is_transit":true,"station_name":"Duri","time":8,"i_long":106.800832,"line":1,"i_lat":-6.155215,"transit":true},{"distance":1700,"transit":false,"time":3,"i_long":106.788277,"i_lat":-6.162021,"line":5,"is_transit":false,"station_id":"GGL","station_name":"Grogol"},{"time":2,"station_id":"PSG","i_long":106.771379,"line":5,"station_name":"Pesing","transit":false,"distance":2036,"i_lat":-6.161433,"is_transit":false},{"distance":1614,"i_lat":-6.1587309999999995,"transit":false,"station_id":"TKO","i_long":106.756522,"line":5,"station_name":"Taman Kota","is_transit":false,"time":2},{"line":5,"distance":2334,"station_name":"Bojongindah","time":2,"is_transit":false,"transit":false,"station_id":"BOI","i_lat":-6.159876,"i_long":106.737035},{"station_name":"Rawa Buaya","transit":false,"is_transit":false,"time":4,"distance":1152,"i_lat":-6.162758,"i_long":106.723064,"line":5,"station_id":"RW"}],[{"is_transit":false,"i_long":106.838896,"distance":0,"time":0,"i_lat":-6.3080680000000005,"transit":false,"station_id":"TNT","station_name":"Tanjung Barat","line":2},{"distance":2820,"time":4,"i_lat":-6.2842400000000005,"i_long":106.843999,"line":2,"station_id":"PSM","station_name":"Pasar Minggu","is_transit":false,"transit":false},{"transit":false,"station_id":"PSMB","i_lat":-6.263214,"i_long":106.851577,"is_transit":false,"distance":2380,"line":2,"time":2,"station_name":"Pasar Minggu Baru"},{"is_transit":false,"distance":824,"transit":false,"i_long":106.85449,"time":2,"station_id":"DRN","station_name":"Duren Kalibata","i_lat":-6.255332,"line":2},{"time":3,"is_transit":false,"i_lat":-6.242512,"distance":1546,"i_long":106.856607,"transit":false,"station_name":"Cawang","station_id":"CW","line":2},{"line":2,"distance":1230,"i_lat":-6.226659,"transit":false,"i_long":106.857948,"time":2,"is_transit":false,"station_id":"TEB","station_name":"Tebet"},{"station_id":"MRI","is_transit":false,"i_long":106.84912,"transit":false,"distance":2610,"time":4,"i_lat":-6.209883,"line":2,"station_name":"Manggarai"},{"transit":false,"line":2,"i_long":106.840169,"time":4,"station_id":"CKI","i_lat":-6.198556,"station_name":"Cikini","is_transit":false,"distance":1590},{"station_name":"Gondangdia","i_long":106.832183,"i_lat":-6.186295,"time":3,"is_transit":false,"transit":false,"station_id":"GDD","distance":1750,"line":2},{"station_id":"JUA","line":2,"is_transit":false,"transit":false,"time":4,"distance":2015,"i_lat":-6.166716,"station_name":"Juanda","i_long":106.828284},{"line":2,"station_id":"SW","distance":1149,"transit":false,"i_long":106.827103,"i_lat":-6.160725,"is_transit":false,"time":2,"station_name":"Sawah Besar"},{"station_name":"Manggabesar","line":2,"station_id":"MGB","is_transit":false,"distance":906,"time":2,"i_lat":-6.149769,"transit":false,"i_long":106.82482},{"station_id":"JAY","i_lat":-6.141205,"i_long":106.820901,"line":2,"transit":false,"station_name":"Jayakarta","distance":1080,"is_transit":false,"time":2},{"i_long":106.812439,"station_id":"JAKK","transit":true,"time":4,"is_transit":true,"station_name":"Jakarta Kota","distance":1264,"line":2,"i_lat":-6.137569},{"is_transit":true,"station_id":"KPB","station_name":"Kampung Bandan","time":3,"distance":1364,"i_lat":-6.132549,"transit":true,"i_long":106.826365,"line":4},{"i_long":106.79867,"is_transit":false,"station_name":"Angke","line":1,"transit":false,"time":9,"distance":4102,"station_id":"AK","i_lat":-6.144674},{"line":1,"station_id":"DU","i_lat":-6.155215,"transit":true,"time":4,"distance":1230,"station_name":"Duri","is_transit":true,"i_long":106.800832},{"transit":false,"station_name":"Grogol","is_transit":false,"i_lat":-6.162021,"station_id":"GGL","distance":1700,"i_long":106.788277,"line":5,"time":3},{"is_transit":false,"i_lat":-6.161433,"line":5,"station_name":"Pesing","time":2,"station_id":"PSG","i_long":106.771379,"transit":false,"distance":2036},{"transit":false,"station_name":"Taman Kota","time":2,"is_transit":false,"i_lat":-6.1587309999999995,"line":5,"distance":1614,"station_id":"TKO","i_long":106.756522},{"transit":false,"time":2,"i_lat":-6.159876,"distance":2334,"station_id":"BOI","i_long":106.737035,"station_name":"Bojongindah","is_transit":false,"line":5},{"i_lat":-6.162758,"station_name":"Rawa Buaya","line":5,"time":4,"is_transit":false,"station_id":"RW","transit":false,"distance":1152,"i_long":106.723064}],[{"i_long":106.838896,"station_name":"Tanjung Barat","line":2,"station_id":"TNT","is_transit":false,"distance":0,"transit":false,"i_lat":-6.3080680000000005,"time":0},{"transit":false,"distance":2820,"i_lat":-6.2842400000000005,"station_id":"PSM","i_long":106.843999,"line":2,"station_name":"Pasar Minggu","is_transit":false,"time":4},{"is_transit":false,"i_long":106.851577,"time":2,"i_lat":-6.263214,"station_name":"Pasar Minggu Baru","distance":2380,"station_id":"PSMB","transit":false,"line":2},{"time":2,"station_name":"Duren Kalibata","station_id":"DRN","i_long":106.85449,"line":2,"transit":false,"distance":824,"is_transit":false,"i_lat":-6.255332},{"station_id":"CW","is_transit":false,"distance":1546,"i_lat":-6.242512,"line":2,"station_name":"Cawang","i_long":106.856607,"transit":false,"time":3},{"transit":false,"station_name":"Tebet","station_id":"TEB","line":2,"time":2,"distance":1230,"i_lat":-6.226659,"is_transit":false,"i_long":106.857948},{"station_id":"MRI","line":2,"transit":true,"time":4,"i_long":106.84912,"station_name":"Manggarai","is_transit":true,"distance":2610,"i_lat":-6.209883},{"distance":1275,"i_long":106.858896,"station_id":"MTR","station_name":"Matraman","line":1,"transit":false,"is_transit":false,"i_lat":-6.212485,"time":2},{"station_name":"Jatinegara","i_lat":-6.215091,"transit":true,"time":8,"is_transit":true,"station_id":"JNG","distance":1377,"i_long":106.86807400000001,"line":1},{"station_name":"Pondok Jati","is_transit":false,"station_id":"POK","distance":1236,"line":11,"i_lat":-6.209188,"time":2,"i_long":106.861737,"transit":false},{"distance":1829,"line":11,"i_lat":-6.193792,"transit":false,"time":2,"i_long":106.855437,"is_transit":false,"station_name":"Kramat","station_id":"KMT"},{"time":1,"i_long":106.850107,"line":11,"i_lat":-6.185975,"station_name":"Gang Sentiong","is_transit":false,"station_id":"GST","transit":false,"distance":973},{"station_name":"Pasar Senen","station_id":"PSE","i_lat":-6.174784,"i_long":106.84368,"transit":false,"is_transit":false,"distance":1567,"time":8,"line":11},{"transit":false,"time":4,"i_long":106.839204,"distance":1436,"station_name":"Kemayoran","is_transit":false,"station_id":"KMO","line":11,"i_lat":-6.161728},{"i_lat":-6.14505,"i_long":106.836569,"is_transit":false,"time":5,"transit":false,"station_name":"Rajawali","station_id":"RJW","distance":1901,"line":11},{"line":4,"distance":1444,"station_name":"Kampung Bandan","is_transit":true,"station_id":"KPB","transit":true,"time":3,"i_long":106.826365,"i_lat":-6.132549},{"time":9,"line":1,"is_transit":false,"transit":false,"station_id":"AK","station_name":"Angke","i_lat":-6.144674,"i_long":106.79867,"distance":4102},{"station_name":"Duri","station_id":"DU","distance":1230,"is_transit":true,"time":4,"i_lat":-6.155215,"line":1,"i_long":106.800832,"transit":true},{"station_name":"Grogol","i_lat":-6.162021,"transit":false,"time":3,"station_id":"GGL","i_long":106.788277,"line":5,"is_transit":false,"distance":1700},{"i_long":106.771379,"transit":false,"station_id":"PSG","time":2,"i_lat":-6.161433,"station_name":"Pesing","line":5,"distance":2036,"is_transit":false},{"station_name":"Taman Kota","time":2,"i_lat":-6.1587309999999995,"i_long":106.756522,"line":5,"transit":false,"distance":1614,"station_id":"TKO","is_transit":false},{"station_name":"Bojongindah","i_long":106.737035,"line":5,"distance":2334,"transit":false,"is_transit":false,"station_id":"BOI","i_lat":-6.159876,"time":2},{"time":4,"distance":1152,"transit":false,"is_transit":false,"i_long":106.723064,"station_name":"Rawa Buaya","station_id":"RW","i_lat":-6.162758,"line":5}]]}