{"data":[[{"is_transit":false,"station_name":"Tanjung Barat","distance":0,"time":0,"transit":false,"i_lat":-6.3080680000000005,"line":2,"station_id":"TNT","i_long":106.838896},{"time":4,"station_id":"PSM","transit":false,"station_name":"Pasar Minggu","i_long":106.843999,"distance":2820,"is_transit":false,"line":2,"i_lat":-6.2842400000000005},{"station_id":"PSMB","transit":false,"station_name":"Pasar Minggu Baru","is_transit":false,"i_lat":-6.263214,"distance":2380,"time":2,"i_long":106.851577,"line":2},{"distance":824,"time":2,"station_id":"DRN","transit":false,"station_name":"Duren Kalibata","is_transit":false,"i_long":106.85449,"line":2,"i_lat":-6.255332},{"station_name":"Cawang","distance":1546,"station_id":"CW","line":2,"is_transit":false,"time":3,"i_long":106.856607,"transit":false,"i_lat":-6.242512},{"is_transit":false,"station_id":"TEB","transit":false,"time":2,"distance":1230,"line":2,"station_name":"Tebet","i_lat":-6.226659,"i_long":106.857948},{"distance":2610,"transit":true,"line":2,"time":4,"is_transit":true,"i_lat":-6.209883,"station_id":"MRI","i_long":106.84912,"station_name":"Manggarai"},{"station_name":"Matraman","distance":1275,"time":2,"i_lat":-6.212485,"line":1,"transit":false,"is_transit":false,"station_id":"MTR","i_long":106.858896},{"distance":1377,"transit":false,"i_lat":-6.215091,"is_transit":false,"i_long":106.86807400000001,"line":1,"station_id":"JNG","time":8,"station_name":"Jatinegara"},{"distance":3395,"transit":false,"station_name":"Klender","line":1,"is_transit":false,"i_lat":-6.2135,"station_id":"KLD","i_long":106.899548,"time":3},{"distance":3100,"is_transit":false,"i_long":106.922662,"line":1,"transit":false,"i_lat":-6.215568,"station_id":"BUA","time":2,"station_name":"Buaran"},{"i_lat":-6.217455,"line":1,"i_long":106.939679,"station_id":"KLDB","station_name":"Klenderbaru","distance":1305,"is_transit":false,"transit":false,"time":1},{"is_transit":false,"time":8,"i_long":106.951283,"line":1,"i_lat":-6.219053,"station_id":"CUK","distance":1385,"transit":false,"station_name":"Cakung"},{"distance":3097,"time":3,"is_transit":false,"transit":false,"station_name":"Kranji","i_long":106.977657,"station_id":"KRI","i_lat":-6.224515,"line":1},{"transit":false,"i_lat":-6.236616,"station_name":"Bekasi","time":4,"is_transit":false,"station_id":"BKS","line":1,"i_long":106.997013,"distance":2520},{"i_long":107.016735,"line":1,"station_id":"BKST","station_name":"Bekasi Timur","distance":2368,"i_lat":-6.248029,"is_transit":false,"time":2,"transit":false},{"station_id":"TB","i_long":107.055722,"station_name":"Tambun","i_lat":-6.258864,"line":1,"is_transit":false,"time":7,"transit":false,"distance":4460}],[{"i_lat":-6.3080680000000005,"is_transit":false,"distance":0,"station_id":"TNT","transit":false,"station_name":"Tanjung Barat","time":0,"i_long":106.838896,"line":2},{"transit":false,"i_long":106.843999,"i_lat":-6.2842400000000005,"is_transit":false,"station_name":"Pasar Minggu","time":4,"line":2,"distance":2820,"station_id":"PSM"},{"distance":2380,"i_lat":-6.263214,"line":2,"station_name":"Pasar Minggu Baru","time":2,"i_long":106.851577,"station_id":"PSMB","is_transit":false,"transit":false},{"is_transit":false,"distance":824,"line":2,"i_long":106.85449,"time":2,"station_name":"Duren Kalibata","station_id":"DRN","transit":false,"i_lat":-6.255332},{"is_transit":false,"i_long":106.856607,"transit":false,"station_name":"Cawang","station_id":"CW","time":3,"line":2,"distance":1546,"i_lat":-6.242512},{"transit":false,"distance":1230,"time":2,"i_lat":-6.226659,"line":2,"i_long":106.857948,"station_name":"Tebet","is_transit":false,"station_id":"TEB"},{"station_name":"Manggarai","time":4,"transit":true,"i_lat":-6.209883,"i_long":106.84912,"is_transit":true,"distance":2610,"line":2,"station_id":"MRI"},{"station_name":"Sudirman","transit":false,"station_id":"SUD","i_long":106.822649,"time":4,"distance":3186,"i_lat":-6.202263,"line":1,"is_transit":false},{"station_id":"SUDB","time":1,"station_name":"Sudirman Baru","transit":false,"distance":280,"is_transit":false,"i_lat":-6.201433,"line":1,"i_long":106.819881},{"line":1,"station_id":"KAT","time":1,"is_transit":false,"distance":471,"station_name":"Karet","i_lat":-6.20132,"transit":false,"i_long":106.816351},{"distance":2029,"station_id":"THB","line":1,"i_long":106.811091,"station_name":"Tanah Abang","time":5,"is_transit":false,"transit":false,"i_lat":-6.185545},{"distance":3632,"transit":false,"station_name":"Duri","is_transit":false,"station_id":"DU","time":8,"i_lat":-6.155215,"i_long":106.800832,"line":1},{"distance":1230,"time":4,"i_long":106.79867,"line":1,"station_name":"Angke","station_id":"AK","is_transit":false,"transit":false,"i_lat":-6.144674},{"station_name":"Kampung Bandan","station_id":"KPB","distance":4102,"line":4,"i_lat":-6.132549,"is_transit":true,"time":9,"transit":true,"i_long":106.826365},{"distance":1444,"time":3,"i_lat":-6.14505,"line":11,"transit":false,"i_long":106.836569,"is_transit":false,"station_id":"RJW","station_name":"Rajawali"},{"distance":1901,"station_id":"KMO","i_lat":-6.161728,"i_long":106.839204,"is_transit":false,"transit":false,"time":5,"line":11,"station_name":"Kemayoran"},{"station_name":"Pasar Senen","time":4,"transit":false,"station_id":"PSE","line":11,"i_long":106.84368,"distance":1436,"i_lat":-6.174784,"is_transit":false},{"transit":false,"is_transit":false,"station_name":"Gang Sentiong","time":8,"line":11,"i_long":106.850107,"station_id":"GST","distance":1567,"i_lat":-6.185975},{"line":11,"station_id":"KMT","i_long":106.855437,"time":1,"is_transit":false,"transit":false,"distance":973,"station_name":"Kramat","i_lat":-6.193792},{"is_transit":false,"transit":false,"time":2,"station_id":"POK","station_name":"Pondok Jati","i_lat":-6.209188,"i_long":106.861737,"distance":1829,"line":11},{"distance":1236,"time":9,"station_id":"JNG","transit":true,"i_long":106.86807400000001,"is_transit":true,"station_name":"Jatinegara","line":1,"i_lat":-6.215091},{"transit":false,"i_long":106.899548,"station_name":"Klender","station_id":"KLD","distance":3395,"i_lat":-6.2135,"line":1,"time":3,"is_transit":false},{"i_lat":-6.215568,"station_name":"Buaran","station_id":"BUA","transit":false,"is_transit":false,"distance":3100,"i_long":106.922662,"line":1,"time":2},{"time":1,"i_long":106.939679,"line":1,"transit":false,"station_name":"Klenderbaru","is_transit":false,"i_lat":-6.217455,"distance":1305,"station_id":"KLDB"},{"distance":1385,"is_transit":false,"line":1,"i_lat":-6.219053,"i_long":106.951283,"time":8,"transit":false,"station_name":"Cakung","station_id":"CUK"},{"i_lat":-6.224515,"line":1,"station_name":"Kranji","is_transit":false,"station_id":"KRI","i_long":106.977657,"transit":false,"time":3,"distance":3097},{"is_transit":false,"station_id":"BKS","i_long":106.997013,"line":1,"station_name":"Bekasi","time":4,"distance":2520,"i_lat":-6.236616,"transit":false},{"station_id":"BKST","distance":2368,"i_lat":-6.248029,"station_name":"Bekasi Timur","transit":false,"time":2,"line":1,"is_transit":false,"i_long":107.016735},{"distance":4460,"i_lat":-6.258864,"station_name":"Tambun","i_long":107.055722,"station_id":"TB","line":1,"transit":false,"is_transit":false,"time":7}],[{"distance":0,"i_lat":-6.3080680000000005,"station_name":"Tanjung Barat","time":0,"is_transit":false,"station_id":"TNT","transit":false,"line":2,"i_long":106.838896},{"distance":2820,"transit":false,"station_id":"PSM","i_long":106.843999,"is_transit":false,"line":2,"i_lat":-6.2842400000000005,"time":4,"station_name":"Pasar Minggu"},{"is_transit":false,"station_name":"Pasar Minggu Baru","time":2,"transit":false,"i_lat":-6.263214,"line":2,"i_long":106.851577,"station_id":"PSMB","distance":2380},{"is_transit":false,"transit":false,"time":2,"station_name":"Duren Kalibata","distance":824,"i_lat":-6.255332,"i_long":106.85449,"station_id":"DRN","line":2},{"distance":1546,"line":2,"i_lat":-6.242512,"transit":false,"time":3,"station_id":"CW","is_transit":false,"i_long":106.856607,"station_name":"Cawang"},{"transit":false,"time":2,"station_name":"Tebet","i_lat":-6.226659,"station_id":"TEB","line":2,"is_transit":false,"distance":1230,"i_long":106.857948},{"time":4,"station_name":"Manggarai","is_transit":false,"transit":false,"i_lat":-6.209883,"distance":2610,"i_long":106.84912,"line":2,"station_id":"MRI"},{"station_name":"Cikini","station_id":"CKI","time":4,"i_long":106.840169,"i_lat":-6.198556,"distance":1590,"is_transit":false,"transit":false,"line":2},{"i_lat":-6.186295,"distance":1750,"transit":false,"time":3,"line":2,"i_long":106.832183,"station_name":"Gondangdia","is_transit":false,"station_id":"GDD"},{"is_transit":false,"time":4,"distance":2015,"station_id":"JUA","i_long":106.828284,"i_lat":-6.166716,"transit":false,"line":2,"station_name":"Juanda"},{"is_transit":false,"station_id":"SW","transit":false,"line":2,"i_long":106.827103,"time":2,"distance":1149,"i_lat":-6.160725,"station_name":"Sawah Besar"},{"station_name":"Manggabesar","station_id":"MGB","is_transit":false,"i_lat":-6.149769,"i_long":106.82482,"transit":false,"time":2,"line":2,"distance":906},{"line":2,"transit":false,"station_id":"JAY","is_transit":false,"station_name":"Jayakarta","time":2,"distance":1080,"i_lat":-6.141205,"i_long":106.820901},{"line":2,"distance":1264,"is_transit":true,"i_lat":-6.137569,"station_name":"Jakarta Kota","transit":true,"i_long":106.812439,"station_id":"JAKK","time":4},{"i_long":106.826365,"transit":true,"i_lat":-6.132549,"time":3,"station_id":"KPB","is_transit":true,"station_name":"Kampung Bandan","line":4,"distance":1364},{"line":11,"i_long":106.836569,"station_name":"Rajawali","i_lat":-6.14505,"time":3,"distance":1444,"station_id":"RJW","is_transit":false,"transit":false},{"transit":false,"station_name":"Kemayoran","time":5,"i_long":106.839204,"station_id":"KMO","is_transit":false,"distance":1901,"i_lat":-6.161728,"line":11},{"station_id":"PSE","time":4,"distance":1436,"transit":false,"station_name":"Pasar Senen","i_lat":-6.174784,"i_long":106.84368,"line":11,"is_transit":false},{"station_name":"Gang Sentiong","station_id":"GST","is_transit":false,"distance":1567,"i_lat":-6.185975,"transit":false,"line":11,"i_long":106.850107,"time":8},{"station_name":"Kramat","i_lat":-6.193792,"is_transit":false,"transit":false,"distance":973,"station_id":"KMT","time":1,"i_long":106.855437,"line":11},{"transit":false,"line":11,"time":2,"station_id":"POK","is_transit":false,"station_name":"Pondok Jati","distance":1829,"i_long":106.861737,"i_lat":-6.209188},{"i_lat":-6.215091,"distance":1236,"station_id":"JNG","time":9,"i_long":106.86807400000001,"is_transit":true,"transit":true,"station_name":"Jatinegara","line":1},{"i_lat":-6.2135,"distance":3395,"transit":false,"i_long":106.899548,"station_name":"Klender","station_id":"KLD","line":1,"is_transit":false,"time":3},{"line":1,"station_name":"Buaran","time":2,"transit":false,"is_transit":false,"distance":3100,"i_lat":-6.215568,"station_id":"BUA","i_long":106.922662},{"station_name":"Klenderbaru","transit":false,"i_lat":-6.217455,"distance":1305,"is_transit":false,"line":1,"station_id":"KLDB","i_long":106.939679,"time":1},{"is_transit":false,"time":8,"transit":false,"station_id":"CUK","distance":1385,"line":1,"i_lat":-6.219053,"i_long":106.951283,"station_name":"Cakung"},{"i_long":106.977657,"distance":3097,"is_transit":false,"station_name":"Kranji","transit":false,"line":1,"station_id":"KRI","i_lat":-6.224515,"time":3},{"time":4,"i_lat":-6.236616,"distance":2520,"i_long":106.997013,"station_id":"BKS","line":1,"station_name":"Bekasi","is_transit":false,"transit":false},{"is_transit":false,"i_long":107.016735,"line":1,"time":2,"i_lat":-6.248029,"distance":2368,"station_id":"BKST","station_name":"Bekasi Timur","transit":false},{"distance":4460,"is_transit":false,"transit":false,"station_id":"TB","i_long":107.055722,"station_name":"Tambun","time":7,"i_lat":-6.258864,"line":1}]]}