{"data":[[{"line":2,"time":0,"is_transit":false,"i_lat":-6.3080680000000005,"distance":0,"transit":false,"station_id":"TNT","i_long":106.838896,"station_name":"Tanjung Barat"},{"i_lat":-6.2842400000000005,"i_long":106.843999,"line":2,"transit":false,"time":4,"distance":2820,"is_transit":false,"station_id":"PSM","station_name":"Pasar Minggu"},{"is_transit":false,"line":2,"i_lat":-6.263214,"transit":false,"time":2,"distance":2380,"i_long":106.851577,"station_id":"PSMB","station_name":"Pasar Minggu Baru"},{"transit":false,"station_name":"Duren Kalibata","is_transit":false,"i_long":106.85449,"time":2,"i_lat":-6.255332,"line":2,"distance":824,"station_id":"DRN"},{"station_id":"CW","transit":false,"i_lat":-6.242512,"distance":1546,"i_long":106.856607,"line":2,"station_name":"Cawang","is_transit":false,"time":3},{"time":2,"transit":false,"is_transit":false,"distance":1230,"line":2,"station_name":"Tebet","station_id":"TEB","i_long":106.857948,"i_lat":-6.226659},{"station_id":"MRI","is_transit":true,"i_lat":-6.209883,"distance":2610,"station_name":"Manggarai","i_long":106.84912,"line":2,"transit":true,"time":4},{"transit":false,"station_name":"Sudirman","i_lat":-6.202263,"is_transit":false,"i_long":106.822649,"station_id":"SUD","line":1,"time":4,"distance":3186},{"transit":false,"is_transit":false,"time":1,"line":1,"station_name":"Sudirman Baru","station_id":"SUDB","i_lat":-6.201433,"distance":280,"i_long":106.819881},{"is_transit":false,"station_name":"Karet","distance":471,"i_lat":-6.20132,"time":1,"transit":false,"i_long":106.816351,"line":1,"station_id":"KAT"},{"station_id":"THB","distance":2029,"i_long":106.811091,"station_name":"Tanah Abang","is_transit":false,"i_lat":-6.185545,"transit":false,"line":1,"time":5},{"station_id":"DU","distance":3632,"station_name":"Duri","i_lat":-6.155215,"i_long":106.800832,"is_transit":true,"transit":true,"line":1,"time":8},{"i_lat":-6.162021,"station_name":"Grogol","time":3,"i_long":106.788277,"is_transit":false,"distance":1700,"transit":false,"station_id":"GGL","line":5},{"station_name":"Pesing","is_transit":false,"i_long":106.771379,"line":5,"time":2,"distance":2036,"station_id":"PSG","transit":false,"i_lat":-6.161433},{"station_id":"TKO","time":2,"line":5,"station_name":"Taman Kota","is_transit":false,"transit":false,"distance":1614,"i_lat":-6.1587309999999995,"i_long":106.756522},{"i_long":106.737035,"time":2,"transit":false,"station_id":"BOI","i_lat":-6.159876,"line":5,"distance":2334,"station_name":"Bojongindah","is_transit":false},{"distance":1152,"station_id":"RW","time":4,"i_lat":-6.162758,"is_transit":false,"i_long":106.723064,"line":5,"station_name":"Rawa Buaya","transit":false}],[{"station_id":"TNT","i_long":106.838896,"i_lat":-6.3080680000000005,"time":0,"line":2,"transit":false,"is_transit":false,"station_name":"Tanjung Barat","distance":0},{"i_lat":-6.2842400000000005,"is_transit":false,"transit":false,"distance":2820,"line":2,"station_id":"PSM","i_long":106.843999,"station_name":"Pasar Minggu","time":4},{"station_id":"PSMB","distance":2380,"is_transit":false,"time":2,"transit":false,"station_name":"Pasar Minggu Baru","i_long":106.851577,"line":2,"i_lat":-6.263214},{"line":2,"station_name":"Duren Kalibata","distance":824,"i_lat":-6.255332,"transit":false,"i_long":106.85449,"is_transit":false,"time":2,"station_id":"DRN"},{"line":2,"transit":false,"station_name":"Cawang","i_lat":-6.242512,"distance":1546,"i_long":106.856607,"time":3,"station_id":"CW","is_transit":false},{"time":2,"station_id":"TEB","is_transit":false,"station_name":"Tebet","distance":1230,"transit":false,"i_lat":-6.226659,"i_long":106.857948,"line":2},{"distance":2610,"i_long":106.84912,"time":4,"line":2,"station_name":"Manggarai","i_lat":-6.209883,"transit":false,"is_transit":false,"station_id":"MRI"},{"distance":1590,"transit":false,"station_name":"Cikini","time":4,"i_long":106.840169,"line":2,"i_lat":-6.198556,"is_transit":false,"station_id":"CKI"},{"is_transit":false,"station_name":"Gondangdia","i_lat":-6.186295,"station_id":"GDD","distance":1750,"line":2,"time":3,"i_long":106.832183,"transit":false},{"is_transit":false,"i_long":106.828284,"transit":false,"i_lat":-6.166716,"line":2,"time":4,"distance":2015,"station_name":"Juanda","station_id":"JUA"},{"station_name":"Sawah Besar","i_long":106.827103,"station_id":"SW","time":2,"distance":1149,"line":2,"i_lat":-6.160725,"transit":false,"is_transit":false},{"is_transit":false,"i_lat":-6.149769,"line":2,"transit":false,"station_id":"MGB","time":2,"i_long":106.82482,"station_name":"Manggabesar","distance":906},{"i_long":106.820901,"is_transit":false,"time":2,"station_id":"JAY","station_name":"Jayakarta","i_lat":-6.141205,"line":2,"transit":false,"distance":1080},{"distance":1264,"i_long":106.812439,"transit":true,"station_name":"Jakarta Kota","station_id":"JAKK","is_transit":true,"i_lat":-6.137569,"time":4,"line":2},{"time":3,"line":4,"transit":true,"i_lat":-6.132549,"station_name":"Kampung Bandan","station_id":"KPB","distance":1364,"is_transit":true,"i_long":106.826365},{"transit":false,"line":1,"i_long":106.79867,"i_lat":-6.144674,"time":9,"station_name":"Angke","is_transit":false,"station_id":"AK","distance":4102},{"i_long":106.800832,"is_transit":true,"station_id":"DU","time":4,"i_lat":-6.155215,"transit":true,"distance":1230,"station_name":"Duri","line":1},{"i_lat":-6.162021,"station_name":"Grogol","i_long":106.788277,"is_transit":false,"line":5,"station_id":"GGL","time":3,"transit":false,"distance":1700},{"station_id":"PSG","transit":false,"line":5,"time":2,"is_transit":false,"i_long":106.771379,"i_lat":-6.161433,"distance":2036,"station_name":"Pesing"},{"transit":false,"is_transit":false,"i_lat":-6.1587309999999995,"line":5,"station_id":"TKO","distance":1614,"station_name":"Taman Kota","i_long":106.756522,"time":2},{"i_lat":-6.159876,"line":5,"i_long":106.737035,"transit":false,"station_id":"BOI","distance":2334,"is_transit":false,"station_name":"Bojongindah","time":2},{"i_long":106.723064,"line":5,"station_name":"Rawa Buaya","time":4,"i_lat":-6.162758,"is_transit":false,"station_id":"RW","distance":1152,"transit":false}],[{"station_name":"Tanjung Barat","i_lat":-6.3080680000000005,"distance":0,"line":2,"station_id":"TNT","is_transit":false,"time":0,"i_long":106.838896,"transit":false},{"is_transit":false,"i_long":106.843999,"time":4,"distance":2820,"line":2,"i_lat":-6.2842400000000005,"station_name":"Pasar Minggu","station_id":"PSM","transit":false},{"is_transit":false,"transit":false,"station_name":"Pasar Minggu Baru","distance":2380,"i_lat":-6.263214,"i_long":106.851577,"time":2,"line":2,"station_id":"PSMB"},{"time":2,"i_lat":-6.255332,"station_id":"DRN","is_transit":false,"distance":824,"i_long":106.85449,"line":2,"transit":false,"station_name":"Duren Kalibata"},{"station_name":"Cawang","i_long":106.856607,"transit":false,"station_id":"CW","distance":1546,"is_transit":false,"line":2,"time":3,"i_lat":-6.242512},{"is_transit":false,"i_long":106.857948,"line":2,"transit":false,"distance":1230,"station_id":"TEB","time":2,"i_lat":-6.226659,"station_name":"Tebet"},{"i_lat":-6.209883,"station_name":"Manggarai","is_transit":true,"line":2,"station_id":"MRI","distance":2610,"i_long":106.84912,"transit":true,"time":4},{"transit":false,"line":1,"i_lat":-6.212485,"station_id":"MTR","is_transit":false,"station_name":"Matraman","time":2,"distance":1275,"i_long":106.858896},{"line":1,"station_id":"JNG","station_name":"Jatinegara","distance":1377,"i_lat":-6.215091,"transit":true,"is_transit":true,"time":8,"i_long":106.86807400000001},{"i_lat":-6.209188,"line":11,"station_id":"POK","time":2,"is_transit":false,"distance":1236,"i_long":106.861737,"transit":false,"station_name":"Pondok Jati"},{"transit":false,"station_id":"KMT","is_transit":false,"time":2,"i_lat":-6.193792,"i_long":106.855437,"station_name":"Kramat","distance":1829,"line":11},{"station_name":"Gang Sentiong","transit":false,"distance":973,"station_id":"GST","is_transit":false,"i_lat":-6.185975,"time":1,"line":11,"i_long":106.850107},{"transit":false,"i_long":106.84368,"line":11,"i_lat":-6.174784,"is_transit":false,"station_id":"PSE","time":8,"station_name":"Pasar Senen","distance":1567},{"station_name":"Kemayoran","is_transit":false,"line":11,"i_lat":-6.161728,"i_long":106.839204,"time":4,"distance":1436,"transit":false,"station_id":"KMO"},{"transit":false,"distance":1901,"station_name":"Rajawali","station_id":"RJW","is_transit":false,"i_lat":-6.14505,"line":11,"time":5,"i_long":106.836569},{"is_transit":true,"i_long":106.826365,"line":4,"transit":true,"i_lat":-6.132549,"station_id":"KPB","time":3,"distance":1444,"station_name":"Kampung Bandan"},{"time":9,"i_long":106.79867,"line":1,"distance":4102,"is_transit":false,"i_lat":-6.144674,"transit":false,"station_name":"Angke","station_id":"AK"},{"distance":1230,"i_long":106.800832,"i_lat":-6.155215,"is_transit":true,"station_name":"Duri","line":1,"transit":true,"station_id":"DU","time":4},{"is_transit":false,"time":3,"i_long":106.788277,"line":5,"distance":1700,"transit":false,"station_name":"Grogol","station_id":"GGL","i_lat":-6.162021},{"is_transit":false,"distance":2036,"station_id":"PSG","i_long":106.771379,"time":2,"i_lat":-6.161433,"transit":false,"station_name":"Pesing","line":5},{"line":5,"is_transit":false,"distance":1614,"time":2,"i_lat":-6.1587309999999995,"transit":false,"i_long":106.756522,"station_id":"TKO","station_name":"Taman Kota"},{"i_lat":-6.159876,"i_long":106.737035,"station_id":"BOI","time":2,"transit":false,"line":5,"station_name":"Bojongindah","is_transit":false,"distance":2334},{"distance":1152,"line":5,"station_id":"RW","transit":false,"station_name":"Rawa Buaya","i_lat":-6.162758,"time":4,"is_transit":false,"i_long":106.723064}]]}