{"data":[[{"i_lat":-6.3080680000000005,"distance":0,"i_long":106.838896,"time":0,"line":2,"transit":false,"is_transit":false,"station_id":"TNT","station_name":"Tanjung Barat"},{"line":2,"station_id":"PSM","transit":false,"is_transit":false,"station_name":"Pasar Minggu","time":4,"distance":2820,"i_long":106.843999,"i_lat":-6.2842400000000005},{"station_id":"PSMB","is_transit":false,"time":2,"line":2,"i_long":106.851577,"station_name":"Pasar Minggu Baru","distance":2380,"i_lat":-6.263214,"transit":false},{"line":2,"i_lat":-6.255332,"is_transit":false,"transit":false,"station_name":"Duren Kalibata","i_long":106.85449,"station_id":"DRN","time":2,"distance":824},{"line":2,"station_name":"Cawang","time":3,"i_long":106.856607,"distance":1546,"transit":false,"i_lat":-6.242512,"station_id":"CW","is_transit":false},{"i_lat":-6.226659,"transit":false,"is_transit":false,"station_id":"TEB","time":2,"line":2,"i_long":106.857948,"distance":1230,"station_name":"Tebet"},{"station_id":"MRI","line":2,"transit":true,"station_name":"Manggarai","i_long":106.84912,"distance":2610,"time":4,"i_lat":-6.209883,"is_transit":true},{"time":4,"i_long":106.822649,"transit":false,"distance":3186,"line":1,"station_id":"SUD","station_name":"Sudirman","is_transit":false,"i_lat":-6.202263},{"is_transit":false,"line":1,"i_lat":-6.201433,"station_id":"SUDB","time":1,"transit":false,"station_name":"Sudirman Baru","i_long":106.819881,"distance":280}],[{"distance":0,"i_lat":-6.3080680000000005,"transit":false,"line":2,"is_transit":false,"station_id":"TNT","i_long":106.838896,"time":0,"station_name":"Tanjung Barat"},{"station_id":"PSM","station_name":"Pasar Minggu","transit":false,"line":2,"is_transit":false,"distance":2820,"time":4,"i_lat":-6.2842400000000005,"i_long":106.843999},{"station_name":"Pasar Minggu Baru","time":2,"distance":2380,"line":2,"i_lat":-6.263214,"transit":false,"is_transit":false,"i_long":106.851577,"station_id":"PSMB"},{"transit":false,"station_id":"DRN","i_long":106.85449,"distance":824,"station_name":"Duren Kalibata","is_transit":false,"i_lat":-6.255332,"time":2,"line":2},{"station_name":"Cawang","distance":1546,"i_lat":-6.242512,"i_long":106.856607,"station_id":"CW","is_transit":false,"time":3,"transit":false,"line":2},{"line":2,"station_name":"Tebet","i_long":106.857948,"distance":1230,"i_lat":-6.226659,"transit":false,"station_id":"TEB","is_transit":false,"time":2},{"station_id":"MRI","time":4,"distance":2610,"i_long":106.84912,"i_lat":-6.209883,"transit":false,"is_transit":false,"station_name":"Manggarai","line":2},{"station_id":"CKI","transit":false,"time":4,"is_transit":false,"station_name":"Cikini","line":2,"distance":1590,"i_long":106.840169,"i_lat":-6.198556},{"station_id":"GDD","is_transit":false,"station_name":"Gondangdia","i_long":106.832183,"distance":1750,"i_lat":-6.186295,"line":2,"transit":false,"time":3},{"distance":2015,"transit":false,"is_transit":false,"time":4,"i_lat":-6.166716,"line":2,"station_name":"Juanda","i_long":106.828284,"station_id":"JUA"},{"transit":false,"time":2,"line":2,"distance":1149,"is_transit":false,"i_long":106.827103,"station_id":"SW","station_name":"Sawah Besar","i_lat":-6.160725},{"distance":906,"i_long":106.82482,"line":2,"station_id":"MGB","i_lat":-6.149769,"time":2,"transit":false,"station_name":"Manggabesar","is_transit":false},{"time":2,"i_long":106.820901,"distance":1080,"line":2,"transit":false,"i_lat":-6.141205,"station_id":"JAY","station_name":"Jayakarta","is_transit":false},{"distance":1264,"time":4,"transit":true,"station_id":"JAKK","i_lat":-6.137569,"i_long":106.812439,"line":2,"is_transit":true,"station_name":"Jakarta Kota"},{"distance":1364,"i_lat":-6.132549,"time":3,"transit":true,"station_name":"Kampung Bandan","station_id":"KPB","is_transit":true,"i_long":106.826365,"line":4},{"line":1,"time":9,"transit":false,"distance":4102,"i_long":106.79867,"station_id":"AK","i_lat":-6.144674,"is_transit":false,"station_name":"Angke"},{"is_transit":false,"line":1,"transit":false,"distance":1230,"station_name":"Duri","station_id":"DU","time":4,"i_lat":-6.155215,"i_long":106.800832},{"transit":false,"time":8,"i_lat":-6.185545,"i_long":106.811091,"line":1,"distance":3632,"station_name":"Tanah Abang","is_transit":false,"station_id":"THB"},{"station_name":"Karet","station_id":"KAT","time":5,"i_long":106.816351,"is_transit":false,"transit":false,"distance":2029,"i_lat":-6.20132,"line":1},{"line":1,"is_transit":false,"i_lat":-6.201433,"transit":false,"time":1,"distance":471,"station_name":"Sudirman Baru","station_id":"SUDB","i_long":106.819881}],[{"distance":0,"i_lat":-6.3080680000000005,"transit":false,"i_long":106.838896,"line":2,"station_name":"Tanjung Barat","time":0,"station_id":"TNT","is_transit":false},{"i_long":106.843999,"station_name":"Pasar Minggu","line":2,"i_lat":-6.2842400000000005,"transit":false,"is_transit":false,"station_id":"PSM","distance":2820,"time":4},{"i_long":106.851577,"transit":false,"i_lat":-6.263214,"line":2,"is_transit":false,"distance":2380,"time":2,"station_name":"Pasar Minggu Baru","station_id":"PSMB"},{"station_name":"Duren Kalibata","distance":824,"transit":false,"i_lat":-6.255332,"i_long":106.85449,"station_id":"DRN","is_transit":false,"time":2,"line":2},{"is_transit":false,"time":3,"i_lat":-6.242512,"line":2,"transit":false,"distance":1546,"i_long":106.856607,"station_name":"Cawang","station_id":"CW"},{"distance":1230,"i_long":106.857948,"time":2,"transit":false,"i_lat":-6.226659,"station_id":"TEB","is_transit":false,"line":2,"station_name":"Tebet"},{"time":4,"line":2,"distance":2610,"station_name":"Manggarai","i_lat":-6.209883,"station_id":"MRI","is_transit":true,"i_long":106.84912,"transit":true},{"transit":false,"time":2,"is_transit":false,"station_name":"Matraman","station_id":"MTR","i_lat":-6.212485,"distance":1275,"i_long":106.858896,"line":1},{"distance":1377,"line":1,"station_id":"JNG","i_long":106.86807400000001,"time":8,"is_transit":true,"i_lat":-6.215091,"transit":true,"station_name":"Jatinegara"},{"is_transit":false,"line":11,"time":2,"i_long":106.861737,"transit":false,"distance":1236,"i_lat":-6.209188,"station_id":"POK","station_name":"Pondok Jati"},{"transit":false,"time":2,"distance":1829,"i_lat":-6.193792,"i_long":106.855437,"station_id":"KMT","is_transit":false,"line":11,"station_name":"Kramat"},{"i_long":106.850107,"i_lat":-6.185975,"station_id":"GST","transit":false,"station_name":"Gang Sentiong","is_transit":false,"time":1,"distance":973,"line":11},{"i_lat":-6.174784,"station_name":"Pasar Senen","distance":1567,"transit":false,"station_id":"PSE","time":8,"line":11,"is_transit":false,"i_long":106.84368},{"distance":1436,"i_long":106.839204,"line":11,"station_name":"Kemayoran","station_id":"KMO","transit":false,"is_transit":false,"i_lat":-6.161728,"time":4},{"station_id":"RJW","is_transit":false,"transit":false,"time":5,"distance":1901,"i_lat":-6.14505,"line":11,"i_long":106.836569,"station_name":"Rajawali"},{"line":4,"i_long":106.826365,"is_transit":true,"time":3,"transit":true,"station_id":"KPB","i_lat":-6.132549,"distance":1444,"station_name":"Kampung Bandan"},{"i_lat":-6.144674,"time":9,"distance":4102,"is_transit":false,"i_long":106.79867,"station_name":"Angke","station_id":"AK","line":1,"transit":false},{"i_long":106.800832,"station_id":"DU","transit":false,"line":1,"time":4,"station_name":"Duri","i_lat":-6.155215,"is_transit":false,"distance":1230},{"i_long":106.811091,"line":1,"is_transit":false,"time":8,"station_name":"Tanah Abang","distance":3632,"station_id":"THB","i_lat":-6.185545,"transit":false},{"is_transit":false,"station_name":"Karet","i_lat":-6.20132,"line":1,"transit":false,"distance":2029,"i_long":106.816351,"station_id":"KAT","time":5},{"distance":471,"transit":false,"station_id":"SUDB","line":1,"station_name":"Sudirman Baru","time":1,"is_transit":false,"i_lat":-6.201433,"i_long":106.819881}]]}