{"data":[[{"station_id":"TNT","distance":0,"i_long":106.838896,"time":0,"line":2,"is_transit":false,"station_name":"Tanjung Barat","transit":false,"i_lat":-6.3080680000000005},{"station_id":"PSM","i_lat":-6.2842400000000005,"i_long":106.843999,"transit":false,"distance":2820,"is_transit":false,"station_name":"Pasar Minggu","time":4,"line":2},{"transit":false,"distance":2380,"station_id":"PSMB","time":2,"station_name":"Pasar Minggu Baru","is_transit":false,"line":2,"i_lat":-6.263214,"i_long":106.851577},{"i_long":106.85449,"is_transit":false,"distance":824,"station_id":"DRN","time":2,"station_name":"Duren Kalibata","i_lat":-6.255332,"transit":false,"line":2},{"is_transit":false,"i_long":106.856607,"line":2,"time":3,"distance":1546,"station_name":"Cawang","i_lat":-6.242512,"station_id":"CW","transit":false},{"is_transit":false,"i_long":106.857948,"distance":1230,"i_lat":-6.226659,"time":2,"transit":false,"line":2,"station_name":"Tebet","station_id":"TEB"},{"i_long":106.84912,"distance":2610,"station_name":"Manggarai","i_lat":-6.209883,"line":2,"station_id":"MRI","time":4,"is_transit":true,"transit":true},{"station_id":"SUD","station_name":"Sudirman","distance":3186,"time":4,"is_transit":false,"transit":false,"i_long":106.822649,"i_lat":-6.202263,"line":1},{"station_id":"SUDB","distance":280,"line":1,"i_long":106.819881,"transit":false,"time":1,"station_name":"Sudirman Baru","is_transit":false,"i_lat":-6.201433},{"transit":false,"station_id":"KAT","time":1,"distance":471,"station_name":"Karet","is_transit":false,"i_lat":-6.20132,"i_long":106.816351,"line":1},{"time":5,"line":1,"i_long":106.811091,"station_id":"THB","transit":false,"is_transit":false,"distance":2029,"station_name":"Tanah Abang","i_lat":-6.185545},{"distance":3632,"station_id":"DU","transit":true,"station_name":"Duri","line":1,"i_long":106.800832,"is_transit":true,"i_lat":-6.155215,"time":8},{"distance":1700,"time":3,"transit":false,"i_long":106.788277,"is_transit":false,"line":5,"i_lat":-6.162021,"station_id":"GGL","station_name":"Grogol"},{"is_transit":false,"transit":false,"time":2,"distance":2036,"i_long":106.771379,"station_name":"Pesing","station_id":"PSG","i_lat":-6.161433,"line":5},{"transit":false,"line":5,"distance":1614,"station_id":"TKO","is_transit":false,"station_name":"Taman Kota","i_lat":-6.1587309999999995,"i_long":106.756522,"time":2},{"line":5,"is_transit":false,"i_lat":-6.159876,"distance":2334,"transit":false,"i_long":106.737035,"time":2,"station_id":"BOI","station_name":"Bojongindah"}],[{"station_id":"TNT","transit":false,"line":2,"distance":0,"is_transit":false,"i_long":106.838896,"station_name":"Tanjung Barat","i_lat":-6.3080680000000005,"time":0},{"is_transit":false,"i_long":106.843999,"transit":false,"distance":2820,"station_id":"PSM","time":4,"station_name":"Pasar Minggu","line":2,"i_lat":-6.2842400000000005},{"transit":false,"i_lat":-6.263214,"distance":2380,"i_long":106.851577,"time":2,"is_transit":false,"line":2,"station_name":"Pasar Minggu Baru","station_id":"PSMB"},{"is_transit":false,"i_lat":-6.255332,"transit":false,"time":2,"line":2,"station_name":"Duren Kalibata","i_long":106.85449,"distance":824,"station_id":"DRN"},{"line":2,"time":3,"is_transit":false,"station_name":"Cawang","i_lat":-6.242512,"distance":1546,"station_id":"CW","transit":false,"i_long":106.856607},{"station_id":"TEB","line":2,"distance":1230,"i_lat":-6.226659,"i_long":106.857948,"time":2,"transit":false,"station_name":"Tebet","is_transit":false},{"station_id":"MRI","i_long":106.84912,"transit":false,"time":4,"distance":2610,"station_name":"Manggarai","i_lat":-6.209883,"line":2,"is_transit":false},{"i_lat":-6.198556,"transit":false,"station_name":"Cikini","distance":1590,"station_id":"CKI","time":4,"is_transit":false,"i_long":106.840169,"line":2},{"time":3,"station_name":"Gondangdia","transit":false,"i_lat":-6.186295,"line":2,"distance":1750,"station_id":"GDD","is_transit":false,"i_long":106.832183},{"i_long":106.828284,"station_name":"Juanda","distance":2015,"transit":false,"time":4,"i_lat":-6.166716,"is_transit":false,"station_id":"JUA","line":2},{"i_long":106.827103,"station_name":"Sawah Besar","line":2,"distance":1149,"is_transit":false,"station_id":"SW","transit":false,"time":2,"i_lat":-6.160725},{"station_name":"Manggabesar","line":2,"i_long":106.82482,"time":2,"i_lat":-6.149769,"distance":906,"transit":false,"is_transit":false,"station_id":"MGB"},{"transit":false,"distance":1080,"i_long":106.820901,"i_lat":-6.141205,"station_name":"Jayakarta","line":2,"station_id":"JAY","is_transit":false,"time":2},{"i_long":106.812439,"line":2,"i_lat":-6.137569,"station_id":"JAKK","is_transit":true,"time":4,"transit":true,"distance":1264,"station_name":"Jakarta Kota"},{"station_id":"KPB","station_name":"Kampung Bandan","transit":true,"i_lat":-6.132549,"i_long":106.826365,"line":4,"time":3,"distance":1364,"is_transit":true},{"time":9,"transit":false,"distance":4102,"station_name":"Angke","i_long":106.79867,"station_id":"AK","is_transit":false,"i_lat":-6.144674,"line":1},{"transit":true,"is_transit":true,"station_name":"Duri","time":4,"i_lat":-6.155215,"station_id":"DU","line":1,"distance":1230,"i_long":106.800832},{"i_long":106.788277,"transit":false,"i_lat":-6.162021,"station_id":"GGL","line":5,"distance":1700,"is_transit":false,"station_name":"Grogol","time":3},{"i_lat":-6.161433,"distance":2036,"is_transit":false,"line":5,"station_name":"Pesing","time":2,"i_long":106.771379,"station_id":"PSG","transit":false},{"i_lat":-6.1587309999999995,"station_name":"Taman Kota","i_long":106.756522,"distance":1614,"transit":false,"line":5,"station_id":"TKO","is_transit":false,"time":2},{"time":2,"i_lat":-6.159876,"line":5,"is_transit":false,"station_id":"BOI","i_long":106.737035,"station_name":"Bojongindah","distance":2334,"transit":false}],[{"transit":false,"station_id":"TNT","station_name":"Tanjung Barat","i_long":106.838896,"time":0,"distance":0,"line":2,"i_lat":-6.3080680000000005,"is_transit":false},{"station_name":"Pasar Minggu","i_lat":-6.2842400000000005,"line":2,"transit":false,"station_id":"PSM","distance":2820,"i_long":106.843999,"time":4,"is_transit":false},{"station_id":"PSMB","i_long":106.851577,"line":2,"is_transit":false,"station_name":"Pasar Minggu Baru","distance":2380,"i_lat":-6.263214,"time":2,"transit":false},{"is_transit":false,"time":2,"i_long":106.85449,"line":2,"station_id":"DRN","transit":false,"i_lat":-6.255332,"distance":824,"station_name":"Duren Kalibata"},{"transit":false,"time":3,"line":2,"i_long":106.856607,"is_transit":false,"station_id":"CW","distance":1546,"i_lat":-6.242512,"station_name":"Cawang"},{"station_name":"Tebet","station_id":"TEB","i_long":106.857948,"line":2,"distance":1230,"is_transit":false,"transit":false,"time":2,"i_lat":-6.226659},{"is_transit":true,"station_id":"MRI","i_long":106.84912,"time":4,"line":2,"distance":2610,"transit":true,"i_lat":-6.209883,"station_name":"Manggarai"},{"station_id":"MTR","is_transit":false,"station_name":"Matraman","i_long":106.858896,"time":2,"line":1,"i_lat":-6.212485,"transit":false,"distance":1275},{"station_name":"Jatinegara","line":1,"time":8,"station_id":"JNG","distance":1377,"transit":true,"is_transit":true,"i_long":106.86807400000001,"i_lat":-6.215091},{"station_name":"Pondok Jati","time":2,"line":11,"distance":1236,"transit":false,"is_transit":false,"i_lat":-6.209188,"station_id":"POK","i_long":106.861737},{"distance":1829,"time":2,"is_transit":false,"transit":false,"i_lat":-6.193792,"station_id":"KMT","station_name":"Kramat","line":11,"i_long":106.855437},{"i_long":106.850107,"is_transit":false,"station_name":"Gang Sentiong","distance":973,"i_lat":-6.185975,"time":1,"line":11,"transit":false,"station_id":"GST"},{"distance":1567,"station_name":"Pasar Senen","is_transit":false,"station_id":"PSE","i_lat":-6.174784,"line":11,"i_long":106.84368,"transit":false,"time":8},{"line":11,"station_id":"KMO","i_lat":-6.161728,"station_name":"Kemayoran","distance":1436,"is_transit":false,"transit":false,"time":4,"i_long":106.839204},{"station_name":"Rajawali","line":11,"is_transit":false,"transit":false,"station_id":"RJW","i_lat":-6.14505,"distance":1901,"time":5,"i_long":106.836569},{"i_long":106.826365,"time":3,"is_transit":true,"i_lat":-6.132549,"distance":1444,"transit":true,"line":4,"station_id":"KPB","station_name":"Kampung Bandan"},{"transit":false,"distance":4102,"station_id":"AK","i_lat":-6.144674,"i_long":106.79867,"line":1,"station_name":"Angke","is_transit":false,"time":9},{"transit":true,"i_lat":-6.155215,"is_transit":true,"distance":1230,"i_long":106.800832,"station_name":"Duri","time":4,"line":1,"station_id":"DU"},{"line":5,"i_lat":-6.162021,"transit":false,"distance":1700,"station_name":"Grogol","i_long":106.788277,"time":3,"is_transit":false,"station_id":"GGL"},{"distance":2036,"line":5,"i_lat":-6.161433,"station_id":"PSG","i_long":106.771379,"transit":false,"time":2,"station_name":"Pesing","is_transit":false},{"transit":false,"station_name":"Taman Kota","is_transit":false,"distance":1614,"line":5,"i_lat":-6.1587309999999995,"i_long":106.756522,"time":2,"station_id":"TKO"},{"transit":false,"distance":2334,"is_transit":false,"i_long":106.737035,"station_name":"Bojongindah","i_lat":-6.159876,"time":2,"station_id":"BOI","line":5}]]}