{"data":[[{"i_long":106.838896,"line":2,"transit":false,"time":0,"is_transit":false,"station_id":"TNT","station_name":"Tanjung Barat","distance":0,"i_lat":-6.3080680000000005},{"station_name":"Pasar Minggu","distance":2820,"station_id":"PSM","time":4,"transit":false,"i_lat":-6.2842400000000005,"is_transit":false,"i_long":106.843999,"line":2},{"station_name":"Pasar Minggu Baru","time":2,"station_id":"PSMB","distance":2380,"transit":false,"i_lat":-6.263214,"is_transit":false,"i_long":106.851577,"line":2},{"time":2,"station_name":"Duren Kalibata","i_long":106.85449,"distance":824,"is_transit":false,"line":2,"station_id":"DRN","transit":false,"i_lat":-6.255332},{"transit":false,"line":2,"station_name":"Cawang","distance":1546,"is_transit":false,"time":3,"station_id":"CW","i_lat":-6.242512,"i_long":106.856607},{"transit":false,"is_transit":false,"i_long":106.857948,"line":2,"distance":1230,"station_id":"TEB","time":2,"i_lat":-6.226659,"station_name":"Tebet"},{"station_id":"MRI","i_lat":-6.209883,"transit":true,"distance":2610,"is_transit":true,"i_long":106.84912,"line":2,"station_name":"Manggarai","time":4},{"i_long":106.822649,"is_transit":false,"station_id":"SUD","transit":false,"time":4,"distance":3186,"line":1,"i_lat":-6.202263,"station_name":"Sudirman"},{"line":1,"station_name":"Sudirman Baru","i_lat":-6.201433,"station_id":"SUDB","transit":false,"i_long":106.819881,"is_transit":false,"distance":280,"time":1},{"transit":false,"station_id":"KAT","is_transit":false,"time":1,"i_lat":-6.20132,"station_name":"Karet","i_long":106.816351,"line":1,"distance":471},{"distance":2029,"transit":false,"is_transit":false,"i_lat":-6.185545,"line":1,"station_name":"Tanah Abang","station_id":"THB","i_long":106.811091,"time":5},{"line":1,"time":8,"distance":3632,"station_name":"Duri","is_transit":true,"i_long":106.800832,"i_lat":-6.155215,"transit":true,"station_id":"DU"},{"station_name":"Grogol","station_id":"GGL","i_lat":-6.162021,"is_transit":false,"time":3,"distance":1700,"transit":false,"i_long":106.788277,"line":5},{"i_lat":-6.161433,"station_id":"PSG","i_long":106.771379,"line":5,"transit":false,"is_transit":false,"station_name":"Pesing","distance":2036,"time":2},{"i_lat":-6.1587309999999995,"i_long":106.756522,"station_name":"Taman Kota","line":5,"transit":false,"is_transit":false,"station_id":"TKO","time":2,"distance":1614}],[{"line":2,"station_id":"TNT","time":0,"distance":0,"i_lat":-6.3080680000000005,"i_long":106.838896,"transit":false,"station_name":"Tanjung Barat","is_transit":false},{"station_id":"PSM","i_lat":-6.2842400000000005,"distance":2820,"time":4,"transit":false,"station_name":"Pasar Minggu","is_transit":false,"i_long":106.843999,"line":2},{"station_name":"Pasar Minggu Baru","time":2,"transit":false,"distance":2380,"line":2,"station_id":"PSMB","i_long":106.851577,"i_lat":-6.263214,"is_transit":false},{"i_lat":-6.255332,"i_long":106.85449,"time":2,"station_name":"Duren Kalibata","is_transit":false,"distance":824,"station_id":"DRN","transit":false,"line":2},{"is_transit":false,"time":3,"station_id":"CW","i_lat":-6.242512,"i_long":106.856607,"station_name":"Cawang","line":2,"transit":false,"distance":1546},{"line":2,"station_name":"Tebet","i_lat":-6.226659,"transit":false,"station_id":"TEB","is_transit":false,"time":2,"i_long":106.857948,"distance":1230},{"distance":2610,"time":4,"i_lat":-6.209883,"i_long":106.84912,"line":2,"transit":false,"station_name":"Manggarai","station_id":"MRI","is_transit":false},{"is_transit":false,"station_name":"Cikini","i_long":106.840169,"line":2,"transit":false,"station_id":"CKI","i_lat":-6.198556,"time":4,"distance":1590},{"distance":1750,"i_long":106.832183,"time":3,"is_transit":false,"i_lat":-6.186295,"station_name":"Gondangdia","transit":false,"station_id":"GDD","line":2},{"is_transit":false,"station_id":"JUA","i_long":106.828284,"station_name":"Juanda","time":4,"line":2,"i_lat":-6.166716,"transit":false,"distance":2015},{"i_lat":-6.160725,"i_long":106.827103,"station_name":"Sawah Besar","distance":1149,"transit":false,"station_id":"SW","time":2,"line":2,"is_transit":false},{"distance":906,"i_lat":-6.149769,"transit":false,"line":2,"station_name":"Manggabesar","i_long":106.82482,"station_id":"MGB","time":2,"is_transit":false},{"i_long":106.820901,"station_id":"JAY","distance":1080,"is_transit":false,"transit":false,"station_name":"Jayakarta","time":2,"i_lat":-6.141205,"line":2},{"is_transit":true,"transit":true,"distance":1264,"i_long":106.812439,"station_id":"JAKK","i_lat":-6.137569,"station_name":"Jakarta Kota","time":4,"line":2},{"i_lat":-6.132549,"i_long":106.826365,"line":4,"time":3,"transit":true,"is_transit":true,"station_name":"Kampung Bandan","station_id":"KPB","distance":1364},{"line":1,"distance":4102,"transit":false,"i_long":106.79867,"station_id":"AK","is_transit":false,"i_lat":-6.144674,"station_name":"Angke","time":9},{"i_long":106.800832,"line":1,"i_lat":-6.155215,"time":4,"station_id":"DU","is_transit":true,"transit":true,"station_name":"Duri","distance":1230},{"distance":1700,"time":3,"transit":false,"station_name":"Grogol","i_long":106.788277,"station_id":"GGL","line":5,"i_lat":-6.162021,"is_transit":false},{"is_transit":false,"time":2,"i_lat":-6.161433,"station_name":"Pesing","station_id":"PSG","line":5,"transit":false,"distance":2036,"i_long":106.771379},{"is_transit":false,"i_lat":-6.1587309999999995,"time":2,"i_long":106.756522,"transit":false,"station_name":"Taman Kota","station_id":"TKO","distance":1614,"line":5}],[{"i_long":106.838896,"station_name":"Tanjung Barat","station_id":"TNT","transit":false,"is_transit":false,"time":0,"distance":0,"i_lat":-6.3080680000000005,"line":2},{"time":4,"station_name":"Pasar Minggu","i_lat":-6.2842400000000005,"transit":false,"station_id":"PSM","i_long":106.843999,"distance":2820,"line":2,"is_transit":false},{"station_name":"Pasar Minggu Baru","station_id":"PSMB","i_long":106.851577,"distance":2380,"i_lat":-6.263214,"is_transit":false,"time":2,"line":2,"transit":false},{"i_lat":-6.255332,"transit":false,"is_transit":false,"time":2,"distance":824,"i_long":106.85449,"station_id":"DRN","line":2,"station_name":"Duren Kalibata"},{"line":2,"distance":1546,"station_name":"Cawang","i_long":106.856607,"is_transit":false,"transit":false,"time":3,"i_lat":-6.242512,"station_id":"CW"},{"time":2,"distance":1230,"i_lat":-6.226659,"station_name":"Tebet","line":2,"is_transit":false,"i_long":106.857948,"transit":false,"station_id":"TEB"},{"transit":true,"distance":2610,"station_id":"MRI","station_name":"Manggarai","line":2,"is_transit":true,"i_lat":-6.209883,"i_long":106.84912,"time":4},{"station_name":"Matraman","transit":false,"is_transit":false,"i_lat":-6.212485,"i_long":106.858896,"station_id":"MTR","time":2,"distance":1275,"line":1},{"line":1,"i_long":106.86807400000001,"station_id":"JNG","is_transit":true,"station_name":"Jatinegara","time":8,"transit":true,"distance":1377,"i_lat":-6.215091},{"station_name":"Pondok Jati","is_transit":false,"distance":1236,"i_long":106.861737,"line":11,"i_lat":-6.209188,"station_id":"POK","transit":false,"time":2},{"is_transit":false,"station_name":"Kramat","time":2,"line":11,"distance":1829,"i_lat":-6.193792,"transit":false,"i_long":106.855437,"station_id":"KMT"},{"station_name":"Gang Sentiong","time":1,"line":11,"station_id":"GST","distance":973,"i_long":106.850107,"is_transit":false,"i_lat":-6.185975,"transit":false},{"station_id":"PSE","time":8,"line":11,"is_transit":false,"station_name":"Pasar Senen","i_lat":-6.174784,"i_long":106.84368,"transit":false,"distance":1567},{"time":4,"station_id":"KMO","transit":false,"is_transit":false,"i_long":106.839204,"station_name":"Kemayoran","distance":1436,"i_lat":-6.161728,"line":11},{"is_transit":false,"station_name":"Rajawali","distance":1901,"transit":false,"station_id":"RJW","i_long":106.836569,"line":11,"time":5,"i_lat":-6.14505},{"line":4,"is_transit":true,"station_name":"Kampung Bandan","distance":1444,"time":3,"i_long":106.826365,"transit":true,"station_id":"KPB","i_lat":-6.132549},{"station_name":"Angke","i_lat":-6.144674,"i_long":106.79867,"line":1,"time":9,"is_transit":false,"transit":false,"distance":4102,"station_id":"AK"},{"i_lat":-6.155215,"is_transit":true,"station_name":"Duri","time":4,"distance":1230,"i_long":106.800832,"station_id":"DU","line":1,"transit":true},{"i_lat":-6.162021,"i_long":106.788277,"station_id":"GGL","time":3,"station_name":"Grogol","transit":false,"is_transit":false,"distance":1700,"line":5},{"i_long":106.771379,"line":5,"station_name":"Pesing","transit":false,"is_transit":false,"distance":2036,"time":2,"i_lat":-6.161433,"station_id":"PSG"},{"transit":false,"time":2,"station_id":"TKO","i_long":106.756522,"station_name":"Taman Kota","distance":1614,"is_transit":false,"i_lat":-6.1587309999999995,"line":5}]]}