{"data":[[{"transit":false,"time":0,"i_lat":-6.3080680000000005,"is_transit":false,"distance":0,"line":2,"station_id":"TNT","station_name":"Tanjung Barat","i_long":106.838896},{"i_lat":-6.330363,"transit":false,"time":3,"line":2,"i_long":106.832616,"distance":2671,"station_name":"Lenteng Agung","is_transit":false,"station_id":"LNA"},{"time":2,"distance":1029,"is_transit":false,"i_lat":-6.339291,"line":2,"station_id":"UP","i_long":106.834175,"station_name":"Univ. Pancasila","transit":false},{"i_lat":-6.360749,"station_id":"UI","distance":2264,"line":2,"transit":false,"is_transit":false,"i_long":106.831474,"station_name":"Univ. Indonesia","time":3},{"is_transit":false,"station_name":"Pondok Cina","distance":1109,"line":2,"transit":false,"station_id":"POC","i_long":106.831114,"i_lat":-6.369073,"time":2},{"i_long":106.819451,"i_lat":-6.391065,"station_id":"DPB","station_name":"Depokbaru","line":2,"transit":false,"time":4,"distance":2727,"is_transit":false},{"time":3,"is_transit":false,"transit":false,"station_name":"Depok","line":2,"station_id":"DP","i_lat":-6.405256,"distance":1584,"i_long":106.816926},{"line":2,"i_lat":-6.448811,"station_name":"Citayam","is_transit":false,"distance":5084,"i_long":106.800298,"transit":false,"time":6,"station_id":"CTA"}]]}