{"data":[[{"i_lat":-6.3080680000000005,"i_long":106.838896,"line":2,"transit":false,"is_transit":false,"station_name":"Tanjung Barat","distance":0,"time":0,"station_id":"TNT"},{"line":2,"station_name":"Pasar Minggu","i_lat":-6.2842400000000005,"station_id":"PSM","distance":2820,"time":4,"is_transit":false,"transit":false,"i_long":106.843999},{"i_long":106.851577,"time":2,"is_transit":false,"station_id":"PSMB","i_lat":-6.263214,"transit":false,"distance":2380,"line":2,"station_name":"Pasar Minggu Baru"},{"i_long":106.85449,"transit":false,"distance":824,"station_id":"DRN","line":2,"i_lat":-6.255332,"is_transit":false,"station_name":"Duren Kalibata","time":2},{"transit":false,"i_lat":-6.242512,"station_id":"CW","i_long":106.856607,"line":2,"is_transit":false,"station_name":"Cawang","distance":1546,"time":3},{"i_long":106.857948,"transit":false,"station_id":"TEB","i_lat":-6.226659,"line":2,"is_transit":false,"distance":1230,"time":2,"station_name":"Tebet"},{"i_lat":-6.209883,"station_name":"Manggarai","transit":false,"line":2,"station_id":"MRI","distance":2610,"i_long":106.84912,"is_transit":false,"time":4},{"distance":1590,"station_name":"Cikini","i_long":106.840169,"time":4,"station_id":"CKI","transit":false,"i_lat":-6.198556,"is_transit":false,"line":2},{"time":3,"transit":false,"i_lat":-6.186295,"station_id":"GDD","i_long":106.832183,"is_transit":false,"line":2,"distance":1750,"station_name":"Gondangdia"},{"station_id":"JUA","distance":2015,"transit":false,"station_name":"Juanda","i_lat":-6.166716,"time":4,"i_long":106.828284,"is_transit":false,"line":2}],[{"station_name":"Tanjung Barat","transit":false,"is_transit":false,"time":0,"i_long":106.838896,"station_id":"TNT","i_lat":-6.3080680000000005,"distance":0,"line":2},{"i_lat":-6.2842400000000005,"line":2,"station_id":"PSM","is_transit":false,"transit":false,"station_name":"Pasar Minggu","distance":2820,"i_long":106.843999,"time":4},{"is_transit":false,"station_id":"PSMB","transit":false,"i_long":106.851577,"line":2,"station_name":"Pasar Minggu Baru","time":2,"distance":2380,"i_lat":-6.263214},{"time":2,"distance":824,"station_id":"DRN","transit":false,"is_transit":false,"line":2,"i_long":106.85449,"station_name":"Duren Kalibata","i_lat":-6.255332},{"distance":1546,"station_id":"CW","is_transit":false,"i_lat":-6.242512,"time":3,"i_long":106.856607,"line":2,"transit":false,"station_name":"Cawang"},{"distance":1230,"station_name":"Tebet","is_transit":false,"i_lat":-6.226659,"i_long":106.857948,"line":2,"transit":false,"station_id":"TEB","time":2},{"time":4,"is_transit":true,"transit":true,"i_lat":-6.209883,"line":2,"distance":2610,"i_long":106.84912,"station_id":"MRI","station_name":"Manggarai"},{"distance":3186,"station_name":"Sudirman","line":1,"station_id":"SUD","is_transit":false,"transit":false,"i_lat":-6.202263,"i_long":106.822649,"time":4},{"is_transit":false,"distance":280,"time":1,"station_id":"SUDB","transit":false,"line":1,"i_long":106.819881,"i_lat":-6.201433,"station_name":"Sudirman Baru"},{"time":1,"transit":false,"station_name":"Karet","line":1,"station_id":"KAT","is_transit":false,"i_long":106.816351,"i_lat":-6.20132,"distance":471},{"i_long":106.811091,"is_transit":false,"transit":false,"distance":2029,"i_lat":-6.185545,"line":1,"station_id":"THB","station_name":"Tanah Abang","time":5},{"station_name":"Duri","time":8,"i_long":106.800832,"i_lat":-6.155215,"line":1,"is_transit":false,"station_id":"DU","distance":3632,"transit":false},{"time":4,"station_id":"AK","i_lat":-6.144674,"line":1,"distance":1230,"station_name":"Angke","i_long":106.79867,"is_transit":false,"transit":false},{"distance":4102,"station_id":"KPB","station_name":"Kampung Bandan","i_lat":-6.132549,"is_transit":true,"transit":true,"time":9,"line":4,"i_long":106.826365},{"i_long":106.812439,"transit":true,"distance":1364,"is_transit":true,"i_lat":-6.137569,"time":3,"station_id":"JAKK","station_name":"Jakarta Kota","line":2},{"i_long":106.820901,"distance":1264,"station_id":"JAY","is_transit":false,"transit":false,"i_lat":-6.141205,"line":2,"time":4,"station_name":"Jayakarta"},{"station_id":"MGB","time":2,"i_long":106.82482,"station_name":"Manggabesar","i_lat":-6.149769,"line":2,"distance":1080,"transit":false,"is_transit":false},{"is_transit":false,"i_lat":-6.160725,"i_long":106.827103,"distance":906,"time":2,"station_id":"SW","station_name":"Sawah Besar","line":2,"transit":false},{"is_transit":false,"station_id":"JUA","transit":false,"distance":1149,"time":2,"station_name":"Juanda","i_long":106.828284,"line":2,"i_lat":-6.166716}],[{"i_lat":-6.3080680000000005,"i_long":106.838896,"line":2,"transit":false,"station_name":"Tanjung Barat","is_transit":false,"station_id":"TNT","time":0,"distance":0},{"is_transit":false,"distance":2820,"time":4,"station_id":"PSM","i_lat":-6.2842400000000005,"station_name":"Pasar Minggu","transit":false,"i_long":106.843999,"line":2},{"distance":2380,"i_long":106.851577,"line":2,"station_id":"PSMB","i_lat":-6.263214,"transit":false,"is_transit":false,"station_name":"Pasar Minggu Baru","time":2},{"i_lat":-6.255332,"distance":824,"is_transit":false,"time":2,"i_long":106.85449,"transit":false,"station_name":"Duren Kalibata","station_id":"DRN","line":2},{"station_id":"CW","station_name":"Cawang","time":3,"i_lat":-6.242512,"transit":false,"i_long":106.856607,"line":2,"is_transit":false,"distance":1546},{"is_transit":false,"station_name":"Tebet","distance":1230,"i_long":106.857948,"line":2,"station_id":"TEB","transit":false,"i_lat":-6.226659,"time":2},{"i_long":106.84912,"time":4,"station_id":"MRI","distance":2610,"station_name":"Manggarai","i_lat":-6.209883,"line":2,"transit":true,"is_transit":true},{"time":2,"distance":1275,"transit":false,"station_name":"Matraman","is_transit":false,"station_id":"MTR","i_long":106.858896,"i_lat":-6.212485,"line":1},{"line":1,"distance":1377,"station_id":"JNG","time":8,"i_lat":-6.215091,"i_long":106.86807400000001,"transit":true,"is_transit":true,"station_name":"Jatinegara"},{"distance":1236,"station_id":"POK","station_name":"Pondok Jati","is_transit":false,"time":2,"transit":false,"i_lat":-6.209188,"line":11,"i_long":106.861737},{"station_name":"Kramat","distance":1829,"i_lat":-6.193792,"i_long":106.855437,"line":11,"transit":false,"time":2,"is_transit":false,"station_id":"KMT"},{"i_long":106.850107,"transit":false,"distance":973,"i_lat":-6.185975,"station_id":"GST","time":1,"is_transit":false,"line":11,"station_name":"Gang Sentiong"},{"i_long":106.84368,"transit":false,"time":8,"is_transit":false,"station_id":"PSE","i_lat":-6.174784,"line":11,"distance":1567,"station_name":"Pasar Senen"},{"time":4,"distance":1436,"line":11,"is_transit":false,"i_long":106.839204,"i_lat":-6.161728,"station_name":"Kemayoran","transit":false,"station_id":"KMO"},{"line":11,"i_long":106.836569,"is_transit":false,"station_id":"RJW","distance":1901,"transit":false,"i_lat":-6.14505,"station_name":"Rajawali","time":5},{"time":3,"i_long":106.826365,"transit":true,"line":4,"i_lat":-6.132549,"distance":1444,"is_transit":true,"station_name":"Kampung Bandan","station_id":"KPB"},{"station_id":"JAKK","station_name":"Jakarta Kota","time":3,"transit":true,"i_long":106.812439,"line":2,"is_transit":true,"distance":1364,"i_lat":-6.137569},{"distance":1264,"transit":false,"line":2,"i_lat":-6.141205,"i_long":106.820901,"time":4,"is_transit":false,"station_name":"Jayakarta","station_id":"JAY"},{"station_name":"Manggabesar","i_lat":-6.149769,"transit":false,"distance":1080,"i_long":106.82482,"is_transit":false,"time":2,"station_id":"MGB","line":2},{"station_name":"Sawah Besar","i_lat":-6.160725,"station_id":"SW","distance":906,"line":2,"is_transit":false,"i_long":106.827103,"time":2,"transit":false},{"distance":1149,"transit":false,"line":2,"is_transit":false,"station_id":"JUA","time":2,"i_long":106.828284,"i_lat":-6.166716,"station_name":"Juanda"}]]}