{"data":[[{"i_long":106.838896,"distance":0,"transit":false,"is_transit":false,"station_name":"Tanjung Barat","i_lat":-6.3080680000000005,"time":0,"line":2,"station_id":"TNT"},{"time":3,"station_name":"Lenteng Agung","i_lat":-6.330363,"station_id":"LNA","distance":2671,"i_long":106.832616,"line":2,"transit":false,"is_transit":false},{"i_lat":-6.339291,"distance":1029,"is_transit":false,"station_id":"UP","i_long":106.834175,"transit":false,"time":2,"station_name":"Univ. Pancasila","line":2},{"station_name":"Univ. Indonesia","i_lat":-6.360749,"transit":false,"is_transit":false,"i_long":106.831474,"line":2,"distance":2264,"station_id":"UI","time":3},{"station_id":"POC","transit":false,"line":2,"i_lat":-6.369073,"distance":1109,"is_transit":false,"i_long":106.831114,"time":2,"station_name":"Pondok Cina"},{"time":4,"distance":2727,"station_name":"Depokbaru","i_long":106.819451,"line":0,"transit":false,"is_transit":false,"station_id":"DPB","i_lat":-6.391065},{"time":3,"line":0,"distance":1584,"station_id":"DP","station_name":"Depok","is_transit":false,"i_lat":-6.405256,"transit":false,"i_long":106.816926}]]}