{"data":[[{"i_lat":-6.3080680000000005,"distance":0,"station_id":"TNT","transit":false,"time":0,"i_long":106.838896,"station_name":"Tanjung Barat","is_transit":false,"line":2},{"time":4,"station_name":"Pasar Minggu","line":2,"is_transit":false,"i_lat":-6.2842400000000005,"station_id":"PSM","i_long":106.843999,"distance":2820,"transit":false},{"is_transit":false,"i_long":106.851577,"distance":2380,"i_lat":-6.263214,"line":2,"time":2,"station_name":"Pasar Minggu Baru","station_id":"PSMB","transit":false},{"transit":false,"i_lat":-6.255332,"i_long":106.85449,"distance":824,"station_name":"Duren Kalibata","line":2,"station_id":"DRN","time":2,"is_transit":false},{"is_transit":false,"station_name":"Cawang","line":2,"transit":false,"station_id":"CW","distance":1546,"time":3,"i_lat":-6.242512,"i_long":106.856607},{"line":2,"station_id":"TEB","i_long":106.857948,"transit":false,"distance":1230,"is_transit":false,"i_lat":-6.226659,"station_name":"Tebet","time":2},{"line":2,"time":4,"is_transit":true,"station_id":"MRI","transit":true,"i_lat":-6.209883,"distance":2610,"station_name":"Manggarai","i_long":106.84912},{"station_id":"SUD","station_name":"Sudirman","i_long":106.822649,"transit":false,"distance":3186,"i_lat":-6.202263,"line":1,"time":4,"is_transit":false},{"time":1,"station_id":"SUDB","station_name":"Sudirman Baru","is_transit":false,"i_lat":-6.201433,"line":1,"transit":false,"i_long":106.819881,"distance":280},{"station_id":"KAT","is_transit":false,"i_lat":-6.20132,"transit":false,"station_name":"Karet","i_long":106.816351,"time":1,"line":1,"distance":471},{"station_id":"THB","i_lat":-6.185545,"i_long":106.811091,"line":1,"time":5,"transit":false,"is_transit":false,"station_name":"Tanah Abang","distance":2029},{"station_name":"Duri","time":8,"distance":3632,"is_transit":true,"i_lat":-6.155215,"i_long":106.800832,"station_id":"DU","transit":true,"line":1},{"i_lat":-6.162021,"station_id":"GGL","line":5,"time":3,"is_transit":false,"station_name":"Grogol","distance":1700,"i_long":106.788277,"transit":false},{"time":2,"station_name":"Pesing","i_long":106.771379,"transit":false,"line":5,"distance":2036,"station_id":"PSG","is_transit":false,"i_lat":-6.161433},{"station_name":"Taman Kota","time":2,"i_lat":-6.1587309999999995,"line":5,"is_transit":false,"transit":false,"i_long":106.756522,"distance":1614,"station_id":"TKO"}],[{"station_name":"Tanjung Barat","station_id":"TNT","i_long":106.838896,"transit":false,"line":2,"is_transit":false,"time":0,"i_lat":-6.3080680000000005,"distance":0},{"station_name":"Pasar Minggu","time":4,"is_transit":false,"i_lat":-6.2842400000000005,"i_long":106.843999,"transit":false,"station_id":"PSM","line":2,"distance":2820},{"transit":false,"time":2,"station_id":"PSMB","is_transit":false,"line":2,"station_name":"Pasar Minggu Baru","distance":2380,"i_lat":-6.263214,"i_long":106.851577},{"distance":824,"i_lat":-6.255332,"i_long":106.85449,"line":2,"station_name":"Duren Kalibata","time":2,"transit":false,"is_transit":false,"station_id":"DRN"},{"station_id":"CW","line":2,"i_lat":-6.242512,"distance":1546,"is_transit":false,"time":3,"station_name":"Cawang","transit":false,"i_long":106.856607},{"time":2,"distance":1230,"transit":false,"i_lat":-6.226659,"station_id":"TEB","i_long":106.857948,"station_name":"Tebet","line":2,"is_transit":false},{"station_name":"Manggarai","distance":2610,"is_transit":false,"i_lat":-6.209883,"time":4,"transit":false,"line":2,"station_id":"MRI","i_long":106.84912},{"i_lat":-6.198556,"i_long":106.840169,"line":2,"transit":false,"station_name":"Cikini","time":4,"is_transit":false,"distance":1590,"station_id":"CKI"},{"station_name":"Gondangdia","distance":1750,"time":3,"station_id":"GDD","is_transit":false,"line":2,"i_long":106.832183,"transit":false,"i_lat":-6.186295},{"i_long":106.828284,"station_name":"Juanda","i_lat":-6.166716,"is_transit":false,"station_id":"JUA","transit":false,"distance":2015,"line":2,"time":4},{"station_name":"Sawah Besar","is_transit":false,"time":2,"distance":1149,"line":2,"i_long":106.827103,"i_lat":-6.160725,"transit":false,"station_id":"SW"},{"line":2,"station_id":"MGB","i_long":106.82482,"is_transit":false,"distance":906,"time":2,"i_lat":-6.149769,"station_name":"Manggabesar","transit":false},{"line":2,"i_lat":-6.141205,"station_id":"JAY","station_name":"Jayakarta","transit":false,"distance":1080,"is_transit":false,"i_long":106.820901,"time":2},{"distance":1264,"line":2,"station_name":"Jakarta Kota","i_long":106.812439,"transit":true,"station_id":"JAKK","time":4,"is_transit":true,"i_lat":-6.137569},{"line":4,"station_name":"Kampung Bandan","is_transit":true,"distance":1364,"transit":true,"station_id":"KPB","time":3,"i_lat":-6.132549,"i_long":106.826365},{"transit":false,"distance":4102,"station_id":"AK","station_name":"Angke","time":9,"is_transit":false,"i_lat":-6.144674,"i_long":106.79867,"line":1},{"i_long":106.800832,"distance":1230,"line":1,"i_lat":-6.155215,"transit":true,"station_name":"Duri","time":4,"station_id":"DU","is_transit":true},{"is_transit":false,"i_lat":-6.162021,"line":5,"time":3,"distance":1700,"station_id":"GGL","transit":false,"station_name":"Grogol","i_long":106.788277},{"distance":2036,"line":5,"is_transit":false,"station_name":"Pesing","transit":false,"time":2,"station_id":"PSG","i_long":106.771379,"i_lat":-6.161433},{"line":5,"time":2,"station_id":"TKO","i_lat":-6.1587309999999995,"is_transit":false,"distance":1614,"station_name":"Taman Kota","transit":false,"i_long":106.756522}],[{"time":0,"is_transit":false,"i_lat":-6.3080680000000005,"i_long":106.838896,"distance":0,"station_id":"TNT","line":2,"transit":false,"station_name":"Tanjung Barat"},{"i_lat":-6.2842400000000005,"time":4,"line":2,"is_transit":false,"station_name":"Pasar Minggu","transit":false,"i_long":106.843999,"distance":2820,"station_id":"PSM"},{"is_transit":false,"station_id":"PSMB","i_lat":-6.263214,"i_long":106.851577,"station_name":"Pasar Minggu Baru","line":2,"transit":false,"time":2,"distance":2380},{"distance":824,"i_lat":-6.255332,"i_long":106.85449,"transit":false,"station_name":"Duren Kalibata","time":2,"station_id":"DRN","is_transit":false,"line":2},{"is_transit":false,"line":2,"distance":1546,"time":3,"i_lat":-6.242512,"station_id":"CW","i_long":106.856607,"station_name":"Cawang","transit":false},{"distance":1230,"station_name":"Tebet","time":2,"line":2,"station_id":"TEB","is_transit":false,"i_lat":-6.226659,"transit":false,"i_long":106.857948},{"is_transit":true,"transit":true,"distance":2610,"time":4,"station_name":"Manggarai","station_id":"MRI","i_long":106.84912,"i_lat":-6.209883,"line":2},{"is_transit":false,"time":2,"station_name":"Matraman","station_id":"MTR","i_lat":-6.212485,"i_long":106.858896,"line":1,"distance":1275,"transit":false},{"station_name":"Jatinegara","distance":1377,"transit":true,"i_long":106.86807400000001,"i_lat":-6.215091,"line":1,"time":8,"station_id":"JNG","is_transit":true},{"i_long":106.861737,"line":11,"station_name":"Pondok Jati","time":2,"transit":false,"station_id":"POK","is_transit":false,"i_lat":-6.209188,"distance":1236},{"i_long":106.855437,"line":11,"i_lat":-6.193792,"is_transit":false,"station_name":"Kramat","transit":false,"distance":1829,"time":2,"station_id":"KMT"},{"station_id":"GST","transit":false,"distance":973,"is_transit":false,"station_name":"Gang Sentiong","time":1,"i_long":106.850107,"line":11,"i_lat":-6.185975},{"time":8,"transit":false,"station_name":"Pasar Senen","i_lat":-6.174784,"station_id":"PSE","is_transit":false,"line":11,"distance":1567,"i_long":106.84368},{"station_name":"Kemayoran","station_id":"KMO","i_long":106.839204,"i_lat":-6.161728,"is_transit":false,"time":4,"transit":false,"line":11,"distance":1436},{"is_transit":false,"station_id":"RJW","station_name":"Rajawali","transit":false,"i_lat":-6.14505,"i_long":106.836569,"distance":1901,"line":11,"time":5},{"transit":true,"station_id":"KPB","i_long":106.826365,"time":3,"i_lat":-6.132549,"distance":1444,"line":4,"is_transit":true,"station_name":"Kampung Bandan"},{"transit":false,"station_name":"Angke","line":1,"i_lat":-6.144674,"distance":4102,"time":9,"station_id":"AK","i_long":106.79867,"is_transit":false},{"station_name":"Duri","is_transit":true,"transit":true,"i_lat":-6.155215,"line":1,"time":4,"station_id":"DU","i_long":106.800832,"distance":1230},{"station_name":"Grogol","time":3,"line":5,"station_id":"GGL","transit":false,"i_lat":-6.162021,"is_transit":false,"distance":1700,"i_long":106.788277},{"line":5,"station_id":"PSG","distance":2036,"is_transit":false,"transit":false,"i_lat":-6.161433,"i_long":106.771379,"station_name":"Pesing","time":2},{"time":2,"is_transit":false,"transit":false,"i_lat":-6.1587309999999995,"station_id":"TKO","station_name":"Taman Kota","distance":1614,"i_long":106.756522,"line":5}]]}