{"data":[[{"is_transit":false,"station_id":"TNT","time":0,"station_name":"Tanjung Barat","transit":false,"i_lat":-6.3080680000000005,"i_long":106.838896,"line":2,"distance":0},{"line":2,"i_long":106.843999,"station_id":"PSM","i_lat":-6.2842400000000005,"station_name":"Pasar Minggu","is_transit":false,"time":4,"transit":false,"distance":2820},{"station_id":"PSMB","time":2,"transit":false,"i_lat":-6.263214,"is_transit":false,"distance":2380,"i_long":106.851577,"station_name":"Pasar Minggu Baru","line":2},{"is_transit":false,"time":2,"line":2,"distance":824,"transit":false,"station_id":"DRN","station_name":"Duren Kalibata","i_lat":-6.255332,"i_long":106.85449},{"is_transit":false,"station_name":"Cawang","station_id":"CW","distance":1546,"i_long":106.856607,"line":2,"transit":false,"i_lat":-6.242512,"time":3},{"station_id":"TEB","time":2,"i_lat":-6.226659,"station_name":"Tebet","is_transit":false,"i_long":106.857948,"line":2,"transit":false,"distance":1230},{"time":4,"is_transit":true,"transit":true,"i_lat":-6.209883,"distance":2610,"station_id":"MRI","i_long":106.84912,"line":2,"station_name":"Manggarai"},{"time":4,"station_name":"Sudirman","station_id":"SUD","line":1,"transit":false,"distance":3186,"i_lat":-6.202263,"is_transit":false,"i_long":106.822649},{"is_transit":false,"line":1,"i_lat":-6.201433,"station_name":"Sudirman Baru","distance":280,"transit":false,"station_id":"SUDB","time":1,"i_long":106.819881}],[{"i_long":106.838896,"station_id":"TNT","time":0,"line":2,"is_transit":false,"distance":0,"transit":false,"i_lat":-6.3080680000000005,"station_name":"Tanjung Barat"},{"transit":false,"i_long":106.843999,"line":2,"time":4,"station_name":"Pasar Minggu","distance":2820,"i_lat":-6.2842400000000005,"is_transit":false,"station_id":"PSM"},{"station_id":"PSMB","station_name":"Pasar Minggu Baru","i_lat":-6.263214,"line":2,"is_transit":false,"i_long":106.851577,"transit":false,"distance":2380,"time":2},{"transit":false,"station_name":"Duren Kalibata","i_long":106.85449,"station_id":"DRN","line":2,"time":2,"distance":824,"is_transit":false,"i_lat":-6.255332},{"station_id":"CW","station_name":"Cawang","time":3,"is_transit":false,"transit":false,"i_lat":-6.242512,"i_long":106.856607,"line":2,"distance":1546},{"i_lat":-6.226659,"line":2,"is_transit":false,"time":2,"i_long":106.857948,"distance":1230,"transit":false,"station_id":"TEB","station_name":"Tebet"},{"station_id":"MRI","is_transit":false,"time":4,"i_lat":-6.209883,"transit":false,"station_name":"Manggarai","i_long":106.84912,"distance":2610,"line":2},{"transit":false,"i_lat":-6.198556,"time":4,"distance":1590,"station_name":"Cikini","i_long":106.840169,"line":2,"is_transit":false,"station_id":"CKI"},{"transit":false,"station_id":"GDD","is_transit":false,"time":3,"distance":1750,"i_long":106.832183,"i_lat":-6.186295,"station_name":"Gondangdia","line":2},{"station_id":"JUA","i_lat":-6.166716,"station_name":"Juanda","time":4,"is_transit":false,"transit":false,"i_long":106.828284,"distance":2015,"line":2},{"transit":false,"distance":1149,"station_name":"Sawah Besar","line":2,"i_long":106.827103,"is_transit":false,"time":2,"i_lat":-6.160725,"station_id":"SW"},{"station_name":"Manggabesar","line":2,"station_id":"MGB","time":2,"distance":906,"is_transit":false,"transit":false,"i_long":106.82482,"i_lat":-6.149769},{"is_transit":false,"i_lat":-6.141205,"time":2,"line":2,"station_name":"Jayakarta","transit":false,"i_long":106.820901,"distance":1080,"station_id":"JAY"},{"i_lat":-6.137569,"time":4,"station_name":"Jakarta Kota","is_transit":true,"i_long":106.812439,"station_id":"JAKK","transit":true,"line":2,"distance":1264},{"line":4,"time":3,"station_id":"KPB","is_transit":true,"i_long":106.826365,"i_lat":-6.132549,"transit":true,"station_name":"Kampung Bandan","distance":1364},{"line":1,"i_lat":-6.144674,"transit":false,"time":9,"i_long":106.79867,"is_transit":false,"distance":4102,"station_id":"AK","station_name":"Angke"},{"transit":false,"i_long":106.800832,"line":1,"distance":1230,"station_name":"Duri","time":4,"station_id":"DU","i_lat":-6.155215,"is_transit":false},{"is_transit":false,"station_name":"Tanah Abang","i_lat":-6.185545,"transit":false,"i_long":106.811091,"distance":3632,"time":8,"line":1,"station_id":"THB"},{"station_name":"Karet","is_transit":false,"transit":false,"i_lat":-6.20132,"time":5,"distance":2029,"line":1,"station_id":"KAT","i_long":106.816351},{"i_lat":-6.201433,"is_transit":false,"station_id":"SUDB","line":1,"time":1,"distance":471,"station_name":"Sudirman Baru","transit":false,"i_long":106.819881}],[{"station_id":"TNT","is_transit":false,"transit":false,"line":2,"distance":0,"station_name":"Tanjung Barat","i_lat":-6.3080680000000005,"i_long":106.838896,"time":0},{"transit":false,"time":4,"line":2,"i_lat":-6.2842400000000005,"is_transit":false,"distance":2820,"i_long":106.843999,"station_name":"Pasar Minggu","station_id":"PSM"},{"time":2,"transit":false,"i_lat":-6.263214,"station_id":"PSMB","line":2,"is_transit":false,"station_name":"Pasar Minggu Baru","i_long":106.851577,"distance":2380},{"distance":824,"transit":false,"i_lat":-6.255332,"time":2,"station_name":"Duren Kalibata","station_id":"DRN","line":2,"is_transit":false,"i_long":106.85449},{"line":2,"station_id":"CW","time":3,"i_lat":-6.242512,"i_long":106.856607,"distance":1546,"transit":false,"station_name":"Cawang","is_transit":false},{"transit":false,"station_name":"Tebet","i_long":106.857948,"line":2,"distance":1230,"is_transit":false,"station_id":"TEB","i_lat":-6.226659,"time":2},{"time":4,"station_name":"Manggarai","station_id":"MRI","line":2,"transit":true,"i_long":106.84912,"distance":2610,"is_transit":true,"i_lat":-6.209883},{"station_id":"MTR","time":2,"distance":1275,"station_name":"Matraman","is_transit":false,"i_lat":-6.212485,"i_long":106.858896,"transit":false,"line":1},{"i_lat":-6.215091,"i_long":106.86807400000001,"transit":true,"station_name":"Jatinegara","line":1,"is_transit":true,"time":8,"distance":1377,"station_id":"JNG"},{"line":11,"i_lat":-6.209188,"time":2,"station_name":"Pondok Jati","is_transit":false,"distance":1236,"station_id":"POK","transit":false,"i_long":106.861737},{"distance":1829,"time":2,"line":11,"station_id":"KMT","i_long":106.855437,"station_name":"Kramat","i_lat":-6.193792,"is_transit":false,"transit":false},{"i_lat":-6.185975,"transit":false,"station_name":"Gang Sentiong","station_id":"GST","time":1,"distance":973,"is_transit":false,"i_long":106.850107,"line":11},{"i_long":106.84368,"i_lat":-6.174784,"line":11,"distance":1567,"is_transit":false,"station_id":"PSE","transit":false,"station_name":"Pasar Senen","time":8},{"time":4,"station_id":"KMO","station_name":"Kemayoran","i_long":106.839204,"distance":1436,"line":11,"i_lat":-6.161728,"is_transit":false,"transit":false},{"i_lat":-6.14505,"station_id":"RJW","time":5,"transit":false,"i_long":106.836569,"line":11,"is_transit":false,"station_name":"Rajawali","distance":1901},{"i_long":106.826365,"line":4,"is_transit":true,"station_id":"KPB","i_lat":-6.132549,"transit":true,"station_name":"Kampung Bandan","time":3,"distance":1444},{"time":9,"station_name":"Angke","is_transit":false,"line":1,"distance":4102,"i_lat":-6.144674,"station_id":"AK","transit":false,"i_long":106.79867},{"time":4,"transit":false,"i_long":106.800832,"line":1,"is_transit":false,"i_lat":-6.155215,"station_id":"DU","distance":1230,"station_name":"Duri"},{"station_id":"THB","is_transit":false,"transit":false,"line":1,"time":8,"distance":3632,"station_name":"Tanah Abang","i_long":106.811091,"i_lat":-6.185545},{"i_lat":-6.20132,"distance":2029,"line":1,"is_transit":false,"transit":false,"time":5,"station_name":"Karet","i_long":106.816351,"station_id":"KAT"},{"station_id":"SUDB","distance":471,"line":1,"is_transit":false,"transit":false,"station_name":"Sudirman Baru","i_long":106.819881,"time":1,"i_lat":-6.201433}]]}