{"data":[[{"time":0,"station_id":"TNT","transit":false,"is_transit":false,"distance":0,"station_name":"Tanjung Barat","i_lat":-6.3080680000000005,"line":2,"i_long":106.838896},{"station_name":"Lenteng Agung","transit":false,"time":3,"i_long":106.832616,"distance":2671,"station_id":"LNA","is_transit":false,"line":2,"i_lat":-6.330363},{"distance":1029,"station_id":"UP","line":2,"station_name":"Univ. Pancasila","is_transit":false,"i_lat":-6.339291,"i_long":106.834175,"transit":false,"time":2},{"station_name":"Univ. Indonesia","time":3,"is_transit":false,"transit":false,"i_long":106.831474,"station_id":"UI","line":2,"i_lat":-6.360749,"distance":2264},{"station_name":"Pondok Cina","i_long":106.831114,"station_id":"POC","transit":false,"time":2,"distance":1109,"is_transit":false,"i_lat":-6.369073,"line":2},{"distance":2727,"time":4,"station_id":"DPB","is_transit":false,"transit":false,"i_lat":-6.391065,"station_name":"Depokbaru","i_long":106.819451,"line":2},{"station_name":"Depok","station_id":"DP","is_transit":false,"time":3,"distance":1584,"transit":false,"line":2,"i_long":106.816926,"i_lat":-6.405256},{"time":6,"is_transit":false,"line":2,"station_id":"CTA","distance":5084,"station_name":"Citayam","transit":false,"i_long":106.800298,"i_lat":-6.448811}]]}