{"data":[[{"line":2,"transit":false,"is_transit":false,"station_name":"Tanjung Barat","time":0,"distance":0,"station_id":"TNT","i_long":106.838896,"i_lat":-6.3080680000000005},{"i_lat":-6.330363,"transit":false,"is_transit":false,"distance":2671,"station_name":"Lenteng Agung","time":3,"station_id":"LNA","i_long":106.832616,"line":2},{"transit":false,"i_long":106.834175,"station_name":"Univ. Pancasila","is_transit":false,"time":2,"distance":1029,"i_lat":-6.339291,"line":2,"station_id":"UP"},{"distance":2264,"time":3,"i_long":106.831474,"station_id":"UI","station_name":"Univ. Indonesia","transit":false,"i_lat":-6.360749,"line":2,"is_transit":false},{"time":2,"is_transit":false,"distance":1109,"station_id":"POC","station_name":"Pondok Cina","transit":false,"i_lat":-6.369073,"line":2,"i_long":106.831114},{"i_lat":-6.391065,"i_long":106.819451,"distance":2727,"line":0,"station_name":"Depokbaru","time":4,"is_transit":false,"station_id":"DPB","transit":false},{"station_name":"Depok","distance":1584,"station_id":"DP","is_transit":false,"transit":false,"time":3,"i_lat":-6.405256,"i_long":106.816926,"line":0},{"i_long":106.800298,"line":1,"distance":5084,"transit":false,"station_name":"Citayam","is_transit":true,"time":6,"station_id":"CTA","i_lat":-6.448811}]]}