{"data":[[{"transit":false,"line":2,"station_id":"TNT","time":0,"station_name":"Tanjung Barat","is_transit":false,"i_lat":-6.3080680000000005,"distance":0,"i_long":106.838896},{"station_id":"PSM","i_lat":-6.2842400000000005,"distance":2820,"time":4,"transit":false,"line":2,"is_transit":false,"i_long":106.843999,"station_name":"Pasar Minggu"},{"transit":false,"is_transit":false,"i_long":106.851577,"station_id":"PSMB","station_name":"Pasar Minggu Baru","distance":2380,"line":2,"i_lat":-6.263214,"time":2},{"transit":false,"i_lat":-6.255332,"i_long":106.85449,"distance":824,"line":2,"time":2,"station_id":"DRN","station_name":"Duren Kalibata","is_transit":false},{"is_transit":false,"distance":1546,"station_id":"CW","station_name":"Cawang","i_long":106.856607,"line":2,"time":3,"i_lat":-6.242512,"transit":false},{"transit":false,"i_long":106.857948,"line":2,"is_transit":false,"i_lat":-6.226659,"time":2,"distance":1230,"station_id":"TEB","station_name":"Tebet"},{"station_name":"Manggarai","time":4,"line":2,"transit":true,"i_lat":-6.209883,"i_long":106.84912,"station_id":"MRI","distance":2610,"is_transit":true},{"time":2,"distance":1275,"i_long":106.858896,"station_id":"MTR","is_transit":false,"i_lat":-6.212485,"line":1,"transit":false,"station_name":"Matraman"},{"transit":true,"distance":1377,"station_id":"JNG","i_lat":-6.215091,"time":8,"line":1,"i_long":106.86807400000001,"station_name":"Jatinegara","is_transit":true},{"i_lat":-6.209188,"i_long":106.861737,"is_transit":false,"transit":false,"line":11,"distance":1236,"station_id":"POK","station_name":"Pondok Jati","time":2},{"time":2,"distance":1829,"i_long":106.855437,"station_id":"KMT","station_name":"Kramat","line":11,"transit":false,"is_transit":false,"i_lat":-6.193792},{"distance":973,"is_transit":false,"station_id":"GST","transit":false,"line":11,"i_long":106.850107,"i_lat":-6.185975,"station_name":"Gang Sentiong","time":1},{"distance":1567,"time":8,"station_name":"Pasar Senen","is_transit":false,"station_id":"PSE","transit":false,"i_lat":-6.174784,"i_long":106.84368,"line":11}],[{"i_long":106.838896,"distance":0,"station_name":"Tanjung Barat","time":0,"i_lat":-6.3080680000000005,"transit":false,"line":2,"station_id":"TNT","is_transit":false},{"station_name":"Pasar Minggu","is_transit":false,"station_id":"PSM","time":4,"i_lat":-6.2842400000000005,"line":2,"transit":false,"i_long":106.843999,"distance":2820},{"distance":2380,"transit":false,"i_lat":-6.263214,"i_long":106.851577,"is_transit":false,"station_id":"PSMB","line":2,"station_name":"Pasar Minggu Baru","time":2},{"station_id":"DRN","i_long":106.85449,"transit":false,"station_name":"Duren Kalibata","i_lat":-6.255332,"line":2,"time":2,"distance":824,"is_transit":false},{"line":2,"station_name":"Cawang","is_transit":false,"station_id":"CW","i_long":106.856607,"time":3,"distance":1546,"transit":false,"i_lat":-6.242512},{"i_lat":-6.226659,"station_name":"Tebet","line":2,"time":2,"distance":1230,"transit":false,"i_long":106.857948,"station_id":"TEB","is_transit":false},{"line":2,"station_name":"Manggarai","i_long":106.84912,"time":4,"distance":2610,"is_transit":true,"i_lat":-6.209883,"transit":true,"station_id":"MRI"},{"time":4,"i_lat":-6.202263,"line":1,"station_name":"Sudirman","station_id":"SUD","is_transit":false,"distance":3186,"i_long":106.822649,"transit":false},{"station_name":"Sudirman Baru","line":1,"is_transit":false,"distance":280,"i_long":106.819881,"station_id":"SUDB","i_lat":-6.201433,"transit":false,"time":1},{"station_id":"KAT","distance":471,"line":1,"is_transit":false,"station_name":"Karet","i_long":106.816351,"transit":false,"time":1,"i_lat":-6.20132},{"distance":2029,"station_name":"Tanah Abang","is_transit":false,"transit":false,"i_long":106.811091,"i_lat":-6.185545,"line":1,"time":5,"station_id":"THB"},{"i_lat":-6.155215,"i_long":106.800832,"station_name":"Duri","is_transit":false,"line":1,"time":8,"distance":3632,"transit":false,"station_id":"DU"},{"transit":false,"distance":1230,"station_name":"Angke","is_transit":false,"i_lat":-6.144674,"i_long":106.79867,"time":4,"line":1,"station_id":"AK"},{"station_id":"KPB","i_lat":-6.132549,"line":4,"is_transit":true,"station_name":"Kampung Bandan","transit":true,"distance":4102,"i_long":106.826365,"time":9},{"distance":1444,"station_name":"Rajawali","is_transit":false,"transit":false,"station_id":"RJW","time":3,"i_long":106.836569,"line":11,"i_lat":-6.14505},{"transit":false,"distance":1901,"station_name":"Kemayoran","i_lat":-6.161728,"i_long":106.839204,"line":11,"time":5,"is_transit":false,"station_id":"KMO"},{"i_long":106.84368,"is_transit":false,"station_id":"PSE","transit":false,"time":4,"line":11,"i_lat":-6.174784,"station_name":"Pasar Senen","distance":1436}],[{"i_lat":-6.3080680000000005,"is_transit":false,"time":0,"transit":false,"distance":0,"station_name":"Tanjung Barat","i_long":106.838896,"station_id":"TNT","line":2},{"transit":false,"time":4,"distance":2820,"station_id":"PSM","i_lat":-6.2842400000000005,"is_transit":false,"station_name":"Pasar Minggu","i_long":106.843999,"line":2},{"transit":false,"i_lat":-6.263214,"i_long":106.851577,"line":2,"station_name":"Pasar Minggu Baru","station_id":"PSMB","is_transit":false,"time":2,"distance":2380},{"transit":false,"i_long":106.85449,"time":2,"station_name":"Duren Kalibata","is_transit":false,"line":2,"distance":824,"station_id":"DRN","i_lat":-6.255332},{"is_transit":false,"transit":false,"i_long":106.856607,"station_name":"Cawang","station_id":"CW","i_lat":-6.242512,"distance":1546,"time":3,"line":2},{"station_name":"Tebet","station_id":"TEB","i_long":106.857948,"i_lat":-6.226659,"line":2,"is_transit":false,"distance":1230,"time":2,"transit":false},{"distance":2610,"transit":false,"line":2,"is_transit":false,"station_id":"MRI","station_name":"Manggarai","i_lat":-6.209883,"i_long":106.84912,"time":4},{"station_name":"Cikini","transit":false,"line":2,"is_transit":false,"distance":1590,"i_long":106.840169,"time":4,"station_id":"CKI","i_lat":-6.198556},{"i_lat":-6.186295,"line":2,"station_id":"GDD","station_name":"Gondangdia","i_long":106.832183,"time":3,"transit":false,"distance":1750,"is_transit":false},{"transit":false,"distance":2015,"station_id":"JUA","time":4,"i_lat":-6.166716,"i_long":106.828284,"station_name":"Juanda","line":2,"is_transit":false},{"is_transit":false,"station_name":"Sawah Besar","station_id":"SW","i_lat":-6.160725,"line":2,"transit":false,"i_long":106.827103,"time":2,"distance":1149},{"time":2,"station_name":"Manggabesar","i_long":106.82482,"distance":906,"station_id":"MGB","transit":false,"is_transit":false,"i_lat":-6.149769,"line":2},{"is_transit":false,"distance":1080,"station_id":"JAY","station_name":"Jayakarta","line":2,"i_lat":-6.141205,"time":2,"i_long":106.820901,"transit":false},{"distance":1264,"time":4,"station_name":"Jakarta Kota","i_long":106.812439,"line":2,"transit":true,"i_lat":-6.137569,"is_transit":true,"station_id":"JAKK"},{"line":4,"station_id":"KPB","transit":true,"distance":1364,"is_transit":true,"station_name":"Kampung Bandan","i_lat":-6.132549,"time":3,"i_long":106.826365},{"distance":1444,"i_long":106.836569,"transit":false,"time":3,"is_transit":false,"line":11,"i_lat":-6.14505,"station_id":"RJW","station_name":"Rajawali"},{"station_id":"KMO","distance":1901,"is_transit":false,"i_lat":-6.161728,"transit":false,"i_long":106.839204,"line":11,"time":5,"station_name":"Kemayoran"},{"is_transit":false,"i_lat":-6.174784,"i_long":106.84368,"transit":false,"distance":1436,"station_id":"PSE","station_name":"Pasar Senen","line":11,"time":4}]]}