{"data":[[{"transit":false,"is_transit":false,"i_lat":-6.3080680000000005,"line":2,"distance":0,"i_long":106.838896,"station_name":"Tanjung Barat","time":0,"station_id":"TNT"},{"line":2,"time":4,"station_name":"Pasar Minggu","station_id":"PSM","is_transit":false,"distance":2820,"transit":false,"i_long":106.843999,"i_lat":-6.2842400000000005},{"station_name":"Pasar Minggu Baru","time":2,"line":2,"i_long":106.851577,"is_transit":false,"distance":2380,"station_id":"PSMB","transit":false,"i_lat":-6.263214},{"i_lat":-6.255332,"line":2,"time":2,"is_transit":false,"station_id":"DRN","i_long":106.85449,"transit":false,"distance":824,"station_name":"Duren Kalibata"},{"line":2,"station_id":"CW","transit":false,"time":3,"distance":1546,"i_lat":-6.242512,"station_name":"Cawang","i_long":106.856607,"is_transit":false},{"station_id":"TEB","transit":false,"time":2,"i_lat":-6.226659,"station_name":"Tebet","is_transit":false,"i_long":106.857948,"distance":1230,"line":2},{"distance":2610,"station_id":"MRI","station_name":"Manggarai","i_long":106.84912,"transit":true,"time":4,"is_transit":true,"line":2,"i_lat":-6.209883},{"station_id":"MTR","station_name":"Matraman","i_lat":-6.212485,"i_long":106.858896,"time":2,"distance":1275,"is_transit":false,"transit":false,"line":1},{"line":1,"station_id":"JNG","station_name":"Jatinegara","time":8,"distance":1377,"i_long":106.86807400000001,"transit":false,"is_transit":false,"i_lat":-6.215091},{"transit":false,"i_lat":-6.2135,"line":1,"is_transit":false,"time":3,"i_long":106.899548,"distance":3395,"station_name":"Klender","station_id":"KLD"},{"station_id":"BUA","transit":false,"i_long":106.922662,"distance":3100,"time":2,"line":1,"station_name":"Buaran","is_transit":false,"i_lat":-6.215568},{"distance":1305,"transit":false,"time":1,"station_id":"KLDB","i_long":106.939679,"i_lat":-6.217455,"station_name":"Klenderbaru","is_transit":false,"line":1},{"time":8,"station_id":"CUK","line":1,"distance":1385,"is_transit":false,"transit":false,"i_long":106.951283,"station_name":"Cakung","i_lat":-6.219053},{"distance":3097,"station_id":"KRI","transit":false,"time":3,"is_transit":false,"i_long":106.977657,"line":1,"i_lat":-6.224515,"station_name":"Kranji"},{"distance":2520,"is_transit":false,"i_lat":-6.236616,"time":4,"station_name":"Bekasi","station_id":"BKS","line":1,"transit":false,"i_long":106.997013},{"station_name":"Bekasi Timur","time":2,"transit":false,"i_lat":-6.248029,"distance":2368,"station_id":"BKST","i_long":107.016735,"line":1,"is_transit":false},{"i_long":107.055722,"time":7,"station_id":"TB","is_transit":false,"transit":false,"line":1,"station_name":"Tambun","i_lat":-6.258864,"distance":4460}],[{"station_name":"Tanjung Barat","is_transit":false,"time":0,"station_id":"TNT","transit":false,"i_long":106.838896,"distance":0,"i_lat":-6.3080680000000005,"line":2},{"i_lat":-6.2842400000000005,"distance":2820,"is_transit":false,"transit":false,"i_long":106.843999,"station_id":"PSM","station_name":"Pasar Minggu","time":4,"line":2},{"i_lat":-6.263214,"transit":false,"i_long":106.851577,"distance":2380,"is_transit":false,"line":2,"time":2,"station_id":"PSMB","station_name":"Pasar Minggu Baru"},{"distance":824,"transit":false,"i_lat":-6.255332,"time":2,"line":2,"is_transit":false,"station_id":"DRN","station_name":"Duren Kalibata","i_long":106.85449},{"i_lat":-6.242512,"is_transit":false,"transit":false,"time":3,"distance":1546,"station_name":"Cawang","i_long":106.856607,"line":2,"station_id":"CW"},{"transit":false,"line":2,"time":2,"is_transit":false,"station_name":"Tebet","i_lat":-6.226659,"distance":1230,"i_long":106.857948,"station_id":"TEB"},{"time":4,"station_id":"MRI","is_transit":true,"line":2,"station_name":"Manggarai","transit":true,"distance":2610,"i_lat":-6.209883,"i_long":106.84912},{"line":1,"station_name":"Sudirman","transit":false,"station_id":"SUD","i_lat":-6.202263,"i_long":106.822649,"time":4,"distance":3186,"is_transit":false},{"line":1,"i_long":106.819881,"time":1,"is_transit":false,"distance":280,"transit":false,"station_name":"Sudirman Baru","i_lat":-6.201433,"station_id":"SUDB"},{"line":1,"i_long":106.816351,"time":1,"station_id":"KAT","station_name":"Karet","is_transit":false,"transit":false,"i_lat":-6.20132,"distance":471},{"line":1,"i_long":106.811091,"time":5,"transit":false,"station_name":"Tanah Abang","i_lat":-6.185545,"is_transit":false,"station_id":"THB","distance":2029},{"is_transit":false,"station_name":"Duri","distance":3632,"line":1,"station_id":"DU","i_long":106.800832,"transit":false,"time":8,"i_lat":-6.155215},{"transit":false,"time":4,"distance":1230,"is_transit":false,"station_name":"Angke","i_long":106.79867,"line":1,"station_id":"AK","i_lat":-6.144674},{"station_name":"Kampung Bandan","is_transit":true,"line":4,"time":9,"station_id":"KPB","i_lat":-6.132549,"distance":4102,"transit":true,"i_long":106.826365},{"time":3,"i_long":106.836569,"distance":1444,"i_lat":-6.14505,"station_name":"Rajawali","is_transit":false,"line":11,"transit":false,"station_id":"RJW"},{"i_long":106.839204,"station_name":"Kemayoran","station_id":"KMO","is_transit":false,"time":5,"transit":false,"line":11,"distance":1901,"i_lat":-6.161728},{"distance":1436,"i_lat":-6.174784,"transit":false,"is_transit":false,"line":11,"station_name":"Pasar Senen","time":4,"station_id":"PSE","i_long":106.84368},{"line":11,"time":8,"station_id":"GST","i_long":106.850107,"is_transit":false,"transit":false,"distance":1567,"i_lat":-6.185975,"station_name":"Gang Sentiong"},{"distance":973,"transit":false,"line":11,"time":1,"station_name":"Kramat","i_lat":-6.193792,"i_long":106.855437,"station_id":"KMT","is_transit":false},{"transit":false,"is_transit":false,"i_lat":-6.209188,"line":11,"station_name":"Pondok Jati","distance":1829,"time":2,"station_id":"POK","i_long":106.861737},{"transit":true,"station_id":"JNG","distance":1236,"is_transit":true,"i_long":106.86807400000001,"time":9,"station_name":"Jatinegara","i_lat":-6.215091,"line":1},{"i_long":106.899548,"time":3,"is_transit":false,"station_name":"Klender","transit":false,"i_lat":-6.2135,"line":1,"station_id":"KLD","distance":3395},{"station_name":"Buaran","i_lat":-6.215568,"time":2,"station_id":"BUA","is_transit":false,"i_long":106.922662,"distance":3100,"line":1,"transit":false},{"line":1,"is_transit":false,"distance":1305,"i_lat":-6.217455,"i_long":106.939679,"station_id":"KLDB","time":1,"station_name":"Klenderbaru","transit":false},{"i_long":106.951283,"distance":1385,"station_id":"CUK","is_transit":false,"station_name":"Cakung","i_lat":-6.219053,"transit":false,"time":8,"line":1},{"transit":false,"is_transit":false,"time":3,"distance":3097,"station_name":"Kranji","station_id":"KRI","i_lat":-6.224515,"line":1,"i_long":106.977657},{"time":4,"line":1,"i_lat":-6.236616,"distance":2520,"station_id":"BKS","is_transit":false,"i_long":106.997013,"transit":false,"station_name":"Bekasi"},{"i_lat":-6.248029,"is_transit":false,"time":2,"distance":2368,"station_id":"BKST","transit":false,"station_name":"Bekasi Timur","i_long":107.016735,"line":1},{"distance":4460,"station_id":"TB","transit":false,"station_name":"Tambun","time":7,"i_long":107.055722,"i_lat":-6.258864,"is_transit":false,"line":1}],[{"time":0,"is_transit":false,"i_long":106.838896,"line":2,"distance":0,"station_name":"Tanjung Barat","station_id":"TNT","transit":false,"i_lat":-6.3080680000000005},{"line":2,"distance":2820,"station_id":"PSM","time":4,"is_transit":false,"transit":false,"i_lat":-6.2842400000000005,"i_long":106.843999,"station_name":"Pasar Minggu"},{"is_transit":false,"time":2,"distance":2380,"i_long":106.851577,"transit":false,"line":2,"station_name":"Pasar Minggu Baru","i_lat":-6.263214,"station_id":"PSMB"},{"station_name":"Duren Kalibata","station_id":"DRN","is_transit":false,"line":2,"i_lat":-6.255332,"i_long":106.85449,"transit":false,"time":2,"distance":824},{"time":3,"is_transit":false,"transit":false,"i_lat":-6.242512,"station_name":"Cawang","distance":1546,"i_long":106.856607,"line":2,"station_id":"CW"},{"transit":false,"time":2,"i_long":106.857948,"is_transit":false,"distance":1230,"station_name":"Tebet","station_id":"TEB","i_lat":-6.226659,"line":2},{"distance":2610,"transit":false,"station_id":"MRI","i_lat":-6.209883,"i_long":106.84912,"line":2,"station_name":"Manggarai","time":4,"is_transit":false},{"line":2,"station_name":"Cikini","i_lat":-6.198556,"time":4,"transit":false,"is_transit":false,"i_long":106.840169,"distance":1590,"station_id":"CKI"},{"line":2,"is_transit":false,"i_lat":-6.186295,"time":3,"station_name":"Gondangdia","station_id":"GDD","distance":1750,"transit":false,"i_long":106.832183},{"distance":2015,"time":4,"station_name":"Juanda","station_id":"JUA","line":2,"is_transit":false,"transit":false,"i_lat":-6.166716,"i_long":106.828284},{"i_lat":-6.160725,"is_transit":false,"station_name":"Sawah Besar","station_id":"SW","i_long":106.827103,"line":2,"distance":1149,"transit":false,"time":2},{"time":2,"distance":906,"line":2,"station_id":"MGB","i_long":106.82482,"transit":false,"station_name":"Manggabesar","i_lat":-6.149769,"is_transit":false},{"is_transit":false,"station_name":"Jayakarta","distance":1080,"station_id":"JAY","line":2,"transit":false,"time":2,"i_lat":-6.141205,"i_long":106.820901},{"distance":1264,"i_long":106.812439,"line":2,"transit":true,"is_transit":true,"station_name":"Jakarta Kota","station_id":"JAKK","time":4,"i_lat":-6.137569},{"is_transit":true,"time":3,"i_lat":-6.132549,"transit":true,"line":4,"i_long":106.826365,"distance":1364,"station_name":"Kampung Bandan","station_id":"KPB"},{"time":3,"distance":1444,"i_lat":-6.14505,"transit":false,"is_transit":false,"line":11,"i_long":106.836569,"station_name":"Rajawali","station_id":"RJW"},{"is_transit":false,"i_lat":-6.161728,"distance":1901,"time":5,"i_long":106.839204,"line":11,"transit":false,"station_id":"KMO","station_name":"Kemayoran"},{"transit":false,"time":4,"distance":1436,"line":11,"station_name":"Pasar Senen","i_long":106.84368,"station_id":"PSE","i_lat":-6.174784,"is_transit":false},{"time":8,"line":11,"distance":1567,"station_id":"GST","transit":false,"i_long":106.850107,"i_lat":-6.185975,"station_name":"Gang Sentiong","is_transit":false},{"i_long":106.855437,"i_lat":-6.193792,"line":11,"station_id":"KMT","is_transit":false,"distance":973,"transit":false,"time":1,"station_name":"Kramat"},{"station_name":"Pondok Jati","transit":false,"i_long":106.861737,"time":2,"is_transit":false,"station_id":"POK","i_lat":-6.209188,"distance":1829,"line":11},{"transit":true,"i_lat":-6.215091,"station_id":"JNG","is_transit":true,"i_long":106.86807400000001,"station_name":"Jatinegara","distance":1236,"line":1,"time":9},{"i_long":106.899548,"station_name":"Klender","i_lat":-6.2135,"distance":3395,"line":1,"transit":false,"time":3,"is_transit":false,"station_id":"KLD"},{"distance":3100,"transit":false,"is_transit":false,"line":1,"time":2,"station_name":"Buaran","i_lat":-6.215568,"station_id":"BUA","i_long":106.922662},{"time":1,"station_id":"KLDB","transit":false,"is_transit":false,"distance":1305,"station_name":"Klenderbaru","i_lat":-6.217455,"i_long":106.939679,"line":1},{"station_id":"CUK","is_transit":false,"distance":1385,"line":1,"station_name":"Cakung","transit":false,"i_long":106.951283,"time":8,"i_lat":-6.219053},{"time":3,"transit":false,"distance":3097,"i_long":106.977657,"station_id":"KRI","is_transit":false,"station_name":"Kranji","i_lat":-6.224515,"line":1},{"is_transit":false,"i_lat":-6.236616,"transit":false,"time":4,"station_name":"Bekasi","distance":2520,"line":1,"station_id":"BKS","i_long":106.997013},{"line":1,"i_long":107.016735,"is_transit":false,"i_lat":-6.248029,"transit":false,"distance":2368,"station_id":"BKST","time":2,"station_name":"Bekasi Timur"},{"line":1,"distance":4460,"transit":false,"time":7,"station_id":"TB","i_lat":-6.258864,"is_transit":false,"station_name":"Tambun","i_long":107.055722}]]}