{"data":[[{"station_id":"TNT","transit":false,"is_transit":false,"i_lat":-6.3080680000000005,"line":2,"distance":0,"station_name":"Tanjung Barat","time":0,"i_long":106.838896},{"is_transit":false,"station_name":"Pasar Minggu","i_long":106.843999,"distance":2820,"line":2,"transit":false,"time":4,"i_lat":-6.2842400000000005,"station_id":"PSM"},{"station_id":"PSMB","i_long":106.851577,"line":2,"station_name":"Pasar Minggu Baru","transit":false,"time":2,"i_lat":-6.263214,"distance":2380,"is_transit":false},{"distance":824,"i_long":106.85449,"is_transit":false,"time":2,"station_id":"DRN","transit":false,"i_lat":-6.255332,"line":0,"station_name":"Duren Kalibata"},{"station_name":"Cawang","line":0,"transit":false,"time":3,"is_transit":false,"station_id":"CW","distance":1546,"i_long":106.856607,"i_lat":-6.242512}]]}