{"data":[[{"i_lat":-6.3080680000000005,"line":2,"station_name":"Tanjung Barat","i_long":106.838896,"is_transit":false,"distance":0,"station_id":"TNT","transit":false,"time":0},{"transit":false,"station_id":"PSM","i_long":106.843999,"line":2,"station_name":"Pasar Minggu","is_transit":false,"time":4,"distance":2820,"i_lat":-6.2842400000000005},{"station_id":"PSMB","station_name":"Pasar Minggu Baru","time":2,"distance":2380,"transit":false,"i_lat":-6.263214,"line":2,"is_transit":false,"i_long":106.851577},{"time":2,"i_long":106.85449,"transit":false,"station_name":"Duren Kalibata","station_id":"DRN","is_transit":false,"line":2,"distance":824,"i_lat":-6.255332},{"station_name":"Cawang","distance":1546,"is_transit":false,"time":3,"line":2,"transit":false,"i_lat":-6.242512,"i_long":106.856607,"station_id":"CW"},{"station_name":"Tebet","station_id":"TEB","i_lat":-6.226659,"time":2,"i_long":106.857948,"transit":false,"line":2,"is_transit":false,"distance":1230},{"station_id":"MRI","line":2,"station_name":"Manggarai","is_transit":true,"time":4,"i_lat":-6.209883,"i_long":106.84912,"transit":true,"distance":2610},{"station_id":"SUD","station_name":"Sudirman","distance":3186,"is_transit":false,"time":4,"i_long":106.822649,"i_lat":-6.202263,"line":1,"transit":false},{"line":1,"i_lat":-6.201433,"transit":false,"time":1,"i_long":106.819881,"distance":280,"is_transit":false,"station_name":"Sudirman Baru","station_id":"SUDB"},{"transit":false,"time":1,"station_id":"KAT","is_transit":false,"i_lat":-6.20132,"distance":471,"line":1,"i_long":106.816351,"station_name":"Karet"},{"time":5,"transit":false,"station_id":"THB","i_long":106.811091,"is_transit":false,"station_name":"Tanah Abang","line":1,"i_lat":-6.185545,"distance":2029},{"is_transit":true,"line":1,"station_name":"Duri","i_lat":-6.155215,"i_long":106.800832,"transit":true,"station_id":"DU","distance":3632,"time":8},{"distance":1700,"transit":false,"time":3,"line":5,"station_name":"Grogol","i_lat":-6.162021,"is_transit":false,"i_long":106.788277,"station_id":"GGL"},{"line":5,"station_name":"Pesing","time":2,"i_long":106.771379,"transit":false,"is_transit":false,"station_id":"PSG","i_lat":-6.161433,"distance":2036},{"time":2,"line":5,"i_long":106.756522,"transit":false,"i_lat":-6.1587309999999995,"station_name":"Taman Kota","station_id":"TKO","is_transit":false,"distance":1614},{"station_name":"Bojongindah","line":5,"distance":2334,"i_lat":-6.159876,"is_transit":false,"station_id":"BOI","i_long":106.737035,"time":2,"transit":false}],[{"i_lat":-6.3080680000000005,"i_long":106.838896,"line":2,"is_transit":false,"transit":false,"distance":0,"station_name":"Tanjung Barat","time":0,"station_id":"TNT"},{"distance":2820,"is_transit":false,"i_lat":-6.2842400000000005,"i_long":106.843999,"time":4,"line":2,"station_name":"Pasar Minggu","transit":false,"station_id":"PSM"},{"time":2,"i_lat":-6.263214,"i_long":106.851577,"station_name":"Pasar Minggu Baru","line":2,"distance":2380,"station_id":"PSMB","transit":false,"is_transit":false},{"line":2,"distance":824,"station_name":"Duren Kalibata","time":2,"station_id":"DRN","transit":false,"i_lat":-6.255332,"is_transit":false,"i_long":106.85449},{"distance":1546,"station_name":"Cawang","is_transit":false,"line":2,"i_lat":-6.242512,"station_id":"CW","time":3,"transit":false,"i_long":106.856607},{"is_transit":false,"i_lat":-6.226659,"distance":1230,"i_long":106.857948,"transit":false,"station_id":"TEB","line":2,"station_name":"Tebet","time":2},{"distance":2610,"i_long":106.84912,"is_transit":false,"transit":false,"time":4,"station_name":"Manggarai","station_id":"MRI","i_lat":-6.209883,"line":2},{"station_name":"Cikini","station_id":"CKI","is_transit":false,"distance":1590,"i_long":106.840169,"i_lat":-6.198556,"line":2,"time":4,"transit":false},{"distance":1750,"transit":false,"station_name":"Gondangdia","is_transit":false,"i_lat":-6.186295,"i_long":106.832183,"time":3,"line":2,"station_id":"GDD"},{"is_transit":false,"station_id":"JUA","i_long":106.828284,"station_name":"Juanda","time":4,"line":2,"transit":false,"i_lat":-6.166716,"distance":2015},{"i_lat":-6.160725,"is_transit":false,"station_id":"SW","line":2,"i_long":106.827103,"transit":false,"station_name":"Sawah Besar","time":2,"distance":1149},{"i_lat":-6.149769,"distance":906,"time":2,"i_long":106.82482,"line":2,"station_name":"Manggabesar","station_id":"MGB","is_transit":false,"transit":false},{"is_transit":false,"i_long":106.820901,"station_name":"Jayakarta","station_id":"JAY","time":2,"transit":false,"i_lat":-6.141205,"line":2,"distance":1080},{"transit":true,"i_long":106.812439,"distance":1264,"i_lat":-6.137569,"station_id":"JAKK","time":4,"line":2,"station_name":"Jakarta Kota","is_transit":true},{"station_name":"Kampung Bandan","time":3,"is_transit":true,"transit":true,"station_id":"KPB","distance":1364,"i_lat":-6.132549,"i_long":106.826365,"line":4},{"station_name":"Angke","time":9,"transit":false,"is_transit":false,"distance":4102,"i_lat":-6.144674,"line":1,"station_id":"AK","i_long":106.79867},{"line":1,"station_name":"Duri","i_lat":-6.155215,"time":4,"is_transit":true,"i_long":106.800832,"distance":1230,"transit":true,"station_id":"DU"},{"station_name":"Grogol","line":5,"station_id":"GGL","is_transit":false,"distance":1700,"i_long":106.788277,"time":3,"transit":false,"i_lat":-6.162021},{"transit":false,"is_transit":false,"station_name":"Pesing","time":2,"i_long":106.771379,"station_id":"PSG","i_lat":-6.161433,"line":5,"distance":2036},{"i_lat":-6.1587309999999995,"distance":1614,"line":5,"station_name":"Taman Kota","transit":false,"station_id":"TKO","time":2,"is_transit":false,"i_long":106.756522},{"station_name":"Bojongindah","is_transit":false,"distance":2334,"station_id":"BOI","line":5,"transit":false,"time":2,"i_long":106.737035,"i_lat":-6.159876}],[{"distance":0,"station_name":"Tanjung Barat","i_lat":-6.3080680000000005,"transit":false,"station_id":"TNT","is_transit":false,"i_long":106.838896,"time":0,"line":2},{"station_name":"Pasar Minggu","i_lat":-6.2842400000000005,"line":2,"time":4,"station_id":"PSM","distance":2820,"transit":false,"is_transit":false,"i_long":106.843999},{"time":2,"station_id":"PSMB","i_lat":-6.263214,"distance":2380,"transit":false,"station_name":"Pasar Minggu Baru","is_transit":false,"line":2,"i_long":106.851577},{"transit":false,"station_id":"DRN","i_lat":-6.255332,"time":2,"is_transit":false,"station_name":"Duren Kalibata","i_long":106.85449,"line":2,"distance":824},{"i_lat":-6.242512,"distance":1546,"time":3,"station_id":"CW","is_transit":false,"line":2,"station_name":"Cawang","transit":false,"i_long":106.856607},{"station_name":"Tebet","station_id":"TEB","i_lat":-6.226659,"line":2,"time":2,"is_transit":false,"distance":1230,"transit":false,"i_long":106.857948},{"i_long":106.84912,"station_id":"MRI","is_transit":true,"transit":true,"time":4,"station_name":"Manggarai","distance":2610,"line":2,"i_lat":-6.209883},{"time":2,"is_transit":false,"distance":1275,"i_long":106.858896,"station_name":"Matraman","transit":false,"i_lat":-6.212485,"line":1,"station_id":"MTR"},{"i_lat":-6.215091,"line":1,"time":8,"station_name":"Jatinegara","i_long":106.86807400000001,"is_transit":true,"distance":1377,"transit":true,"station_id":"JNG"},{"station_name":"Pondok Jati","i_long":106.861737,"line":11,"station_id":"POK","distance":1236,"is_transit":false,"time":2,"i_lat":-6.209188,"transit":false},{"i_lat":-6.193792,"station_id":"KMT","transit":false,"distance":1829,"line":11,"station_name":"Kramat","i_long":106.855437,"time":2,"is_transit":false},{"transit":false,"station_id":"GST","distance":973,"i_lat":-6.185975,"station_name":"Gang Sentiong","is_transit":false,"line":11,"i_long":106.850107,"time":1},{"i_long":106.84368,"transit":false,"station_id":"PSE","distance":1567,"station_name":"Pasar Senen","time":8,"line":11,"is_transit":false,"i_lat":-6.174784},{"time":4,"i_long":106.839204,"station_id":"KMO","transit":false,"line":11,"is_transit":false,"i_lat":-6.161728,"distance":1436,"station_name":"Kemayoran"},{"distance":1901,"i_long":106.836569,"station_id":"RJW","time":5,"i_lat":-6.14505,"transit":false,"station_name":"Rajawali","line":11,"is_transit":false},{"time":3,"i_long":106.826365,"transit":true,"station_name":"Kampung Bandan","i_lat":-6.132549,"line":4,"distance":1444,"station_id":"KPB","is_transit":true},{"station_name":"Angke","i_lat":-6.144674,"i_long":106.79867,"distance":4102,"transit":false,"line":1,"is_transit":false,"time":9,"station_id":"AK"},{"station_name":"Duri","distance":1230,"line":1,"transit":true,"time":4,"i_long":106.800832,"is_transit":true,"station_id":"DU","i_lat":-6.155215},{"distance":1700,"is_transit":false,"transit":false,"time":3,"station_name":"Grogol","station_id":"GGL","i_lat":-6.162021,"i_long":106.788277,"line":5},{"station_id":"PSG","i_lat":-6.161433,"line":5,"i_long":106.771379,"transit":false,"station_name":"Pesing","is_transit":false,"time":2,"distance":2036},{"i_long":106.756522,"station_name":"Taman Kota","station_id":"TKO","is_transit":false,"time":2,"distance":1614,"line":5,"i_lat":-6.1587309999999995,"transit":false},{"time":2,"station_name":"Bojongindah","station_id":"BOI","distance":2334,"i_lat":-6.159876,"line":5,"is_transit":false,"i_long":106.737035,"transit":false}]]}