{"data":[[{"is_transit":false,"station_id":"TNT","line":2,"i_long":106.838896,"station_name":"Tanjung Barat","i_lat":-6.3080680000000005,"distance":0,"time":0,"transit":false},{"line":2,"transit":false,"time":4,"station_name":"Pasar Minggu","i_long":106.843999,"station_id":"PSM","i_lat":-6.2842400000000005,"distance":2820,"is_transit":false},{"line":2,"station_id":"PSMB","i_lat":-6.263214,"is_transit":false,"station_name":"Pasar Minggu Baru","transit":false,"i_long":106.851577,"time":2,"distance":2380},{"i_lat":-6.255332,"line":2,"i_long":106.85449,"transit":false,"station_id":"DRN","time":2,"distance":824,"is_transit":false,"station_name":"Duren Kalibata"},{"transit":false,"station_name":"Cawang","station_id":"CW","is_transit":false,"line":2,"i_lat":-6.242512,"distance":1546,"time":3,"i_long":106.856607},{"distance":1230,"i_lat":-6.226659,"line":2,"station_id":"TEB","time":2,"i_long":106.857948,"transit":false,"station_name":"Tebet","is_transit":false},{"is_transit":true,"station_name":"Manggarai","time":4,"i_lat":-6.209883,"line":2,"distance":2610,"station_id":"MRI","i_long":106.84912,"transit":true},{"transit":false,"is_transit":false,"line":1,"time":2,"i_long":106.858896,"distance":1275,"station_id":"MTR","station_name":"Matraman","i_lat":-6.212485},{"line":1,"transit":true,"station_id":"JNG","i_lat":-6.215091,"time":8,"distance":1377,"station_name":"Jatinegara","is_transit":true,"i_long":106.86807400000001},{"is_transit":false,"time":2,"station_name":"Pondok Jati","transit":false,"distance":1236,"i_lat":-6.209188,"station_id":"POK","i_long":106.861737,"line":11},{"line":11,"i_lat":-6.193792,"distance":1829,"transit":false,"station_name":"Kramat","is_transit":false,"i_long":106.855437,"time":2,"station_id":"KMT"},{"time":1,"station_id":"GST","station_name":"Gang Sentiong","i_lat":-6.185975,"i_long":106.850107,"line":11,"is_transit":false,"distance":973,"transit":false},{"i_lat":-6.174784,"distance":1567,"is_transit":false,"station_name":"Pasar Senen","line":11,"time":8,"transit":false,"station_id":"PSE","i_long":106.84368}],[{"time":0,"distance":0,"is_transit":false,"station_name":"Tanjung Barat","i_lat":-6.3080680000000005,"line":2,"station_id":"TNT","i_long":106.838896,"transit":false},{"station_name":"Pasar Minggu","station_id":"PSM","transit":false,"i_long":106.843999,"is_transit":false,"distance":2820,"time":4,"i_lat":-6.2842400000000005,"line":2},{"station_name":"Pasar Minggu Baru","time":2,"distance":2380,"station_id":"PSMB","is_transit":false,"i_lat":-6.263214,"i_long":106.851577,"transit":false,"line":2},{"station_name":"Duren Kalibata","i_lat":-6.255332,"is_transit":false,"distance":824,"i_long":106.85449,"transit":false,"line":2,"time":2,"station_id":"DRN"},{"i_long":106.856607,"line":2,"distance":1546,"time":3,"is_transit":false,"station_name":"Cawang","station_id":"CW","i_lat":-6.242512,"transit":false},{"line":2,"i_lat":-6.226659,"i_long":106.857948,"is_transit":false,"station_id":"TEB","transit":false,"time":2,"distance":1230,"station_name":"Tebet"},{"is_transit":true,"station_name":"Manggarai","distance":2610,"line":2,"i_long":106.84912,"station_id":"MRI","transit":true,"time":4,"i_lat":-6.209883},{"station_name":"Sudirman","i_long":106.822649,"transit":false,"distance":3186,"line":1,"is_transit":false,"time":4,"station_id":"SUD","i_lat":-6.202263},{"station_id":"SUDB","line":1,"i_lat":-6.201433,"station_name":"Sudirman Baru","transit":false,"distance":280,"i_long":106.819881,"time":1,"is_transit":false},{"is_transit":false,"i_long":106.816351,"i_lat":-6.20132,"time":1,"line":1,"transit":false,"station_id":"KAT","station_name":"Karet","distance":471},{"distance":2029,"station_id":"THB","line":1,"transit":false,"i_long":106.811091,"time":5,"station_name":"Tanah Abang","is_transit":false,"i_lat":-6.185545},{"line":1,"station_name":"Duri","i_long":106.800832,"time":8,"i_lat":-6.155215,"station_id":"DU","distance":3632,"transit":false,"is_transit":false},{"station_id":"AK","i_lat":-6.144674,"distance":1230,"is_transit":false,"i_long":106.79867,"time":4,"line":1,"transit":false,"station_name":"Angke"},{"station_name":"Kampung Bandan","i_lat":-6.132549,"transit":true,"line":4,"distance":4102,"is_transit":true,"station_id":"KPB","i_long":106.826365,"time":9},{"station_id":"RJW","distance":1444,"station_name":"Rajawali","i_lat":-6.14505,"i_long":106.836569,"transit":false,"line":11,"time":3,"is_transit":false},{"transit":false,"station_name":"Kemayoran","distance":1901,"time":5,"i_lat":-6.161728,"line":11,"station_id":"KMO","is_transit":false,"i_long":106.839204},{"i_lat":-6.174784,"line":11,"i_long":106.84368,"is_transit":false,"station_id":"PSE","time":4,"transit":false,"distance":1436,"station_name":"Pasar Senen"}],[{"station_id":"TNT","distance":0,"transit":false,"is_transit":false,"i_lat":-6.3080680000000005,"time":0,"station_name":"Tanjung Barat","i_long":106.838896,"line":2},{"distance":2820,"station_name":"Pasar Minggu","i_long":106.843999,"line":2,"transit":false,"time":4,"station_id":"PSM","i_lat":-6.2842400000000005,"is_transit":false},{"is_transit":false,"distance":2380,"station_id":"PSMB","line":2,"i_lat":-6.263214,"i_long":106.851577,"time":2,"transit":false,"station_name":"Pasar Minggu Baru"},{"i_long":106.85449,"is_transit":false,"i_lat":-6.255332,"transit":false,"line":2,"station_id":"DRN","time":2,"station_name":"Duren Kalibata","distance":824},{"i_long":106.856607,"transit":false,"station_id":"CW","time":3,"distance":1546,"line":2,"i_lat":-6.242512,"is_transit":false,"station_name":"Cawang"},{"station_id":"TEB","transit":false,"is_transit":false,"time":2,"distance":1230,"i_lat":-6.226659,"i_long":106.857948,"station_name":"Tebet","line":2},{"time":4,"is_transit":false,"station_id":"MRI","i_lat":-6.209883,"i_long":106.84912,"line":2,"transit":false,"station_name":"Manggarai","distance":2610},{"station_name":"Cikini","is_transit":false,"i_lat":-6.198556,"line":2,"transit":false,"distance":1590,"station_id":"CKI","i_long":106.840169,"time":4},{"station_id":"GDD","distance":1750,"i_lat":-6.186295,"is_transit":false,"time":3,"station_name":"Gondangdia","line":2,"i_long":106.832183,"transit":false},{"i_lat":-6.166716,"line":2,"i_long":106.828284,"time":4,"station_name":"Juanda","station_id":"JUA","is_transit":false,"distance":2015,"transit":false},{"distance":1149,"station_id":"SW","i_lat":-6.160725,"i_long":106.827103,"station_name":"Sawah Besar","line":2,"is_transit":false,"transit":false,"time":2},{"i_long":106.82482,"station_id":"MGB","is_transit":false,"distance":906,"transit":false,"i_lat":-6.149769,"time":2,"line":2,"station_name":"Manggabesar"},{"station_id":"JAY","i_lat":-6.141205,"time":2,"i_long":106.820901,"station_name":"Jayakarta","transit":false,"line":2,"distance":1080,"is_transit":false},{"time":4,"station_name":"Jakarta Kota","line":2,"i_long":106.812439,"station_id":"JAKK","i_lat":-6.137569,"is_transit":true,"distance":1264,"transit":true},{"time":3,"i_lat":-6.132549,"i_long":106.826365,"line":4,"transit":true,"station_id":"KPB","is_transit":true,"distance":1364,"station_name":"Kampung Bandan"},{"line":11,"i_lat":-6.14505,"time":3,"transit":false,"is_transit":false,"distance":1444,"station_id":"RJW","i_long":106.836569,"station_name":"Rajawali"},{"line":11,"time":5,"i_lat":-6.161728,"station_id":"KMO","transit":false,"i_long":106.839204,"distance":1901,"station_name":"Kemayoran","is_transit":false},{"i_lat":-6.174784,"station_id":"PSE","i_long":106.84368,"line":11,"time":4,"transit":false,"is_transit":false,"station_name":"Pasar Senen","distance":1436}]]}