{"data":[[{"is_transit":false,"time":0,"distance":0,"i_lat":-6.3080680000000005,"i_long":106.838896,"line":2,"station_id":"TNT","transit":false,"station_name":"Tanjung Barat"},{"station_id":"PSM","distance":2820,"transit":false,"i_lat":-6.2842400000000005,"line":2,"i_long":106.843999,"time":4,"station_name":"Pasar Minggu","is_transit":false},{"time":2,"line":2,"station_name":"Pasar Minggu Baru","distance":2380,"i_long":106.851577,"is_transit":false,"i_lat":-6.263214,"transit":false,"station_id":"PSMB"},{"is_transit":false,"station_name":"Duren Kalibata","transit":false,"distance":824,"station_id":"DRN","i_lat":-6.255332,"i_long":106.85449,"time":2,"line":0},{"station_id":"CW","is_transit":false,"i_long":106.856607,"transit":false,"i_lat":-6.242512,"line":0,"station_name":"Cawang","distance":1546,"time":3},{"is_transit":false,"line":2,"distance":1230,"station_name":"Tebet","i_lat":-6.226659,"station_id":"TEB","time":2,"transit":false,"i_long":106.857948},{"station_name":"Manggarai","i_long":106.84912,"transit":true,"time":4,"distance":2610,"station_id":"MRI","is_transit":true,"i_lat":-6.209883,"line":0},{"i_lat":-6.212485,"i_long":106.858896,"line":1,"station_id":"MTR","is_transit":false,"transit":false,"time":2,"distance":1275,"station_name":"Matraman"},{"line":0,"time":8,"station_id":"JNG","station_name":"Jatinegara","i_long":106.86807400000001,"is_transit":true,"distance":1377,"i_lat":-6.215091,"transit":false},{"station_id":"KLD","transit":false,"distance":3395,"line":1,"is_transit":false,"i_long":106.899548,"time":3,"station_name":"Klender","i_lat":-6.2135},{"station_id":"BUA","i_lat":-6.215568,"distance":3100,"i_long":106.922662,"time":2,"is_transit":false,"line":0,"station_name":"Buaran","transit":false},{"is_transit":false,"station_name":"Klenderbaru","transit":false,"station_id":"KLDB","i_long":106.939679,"line":1,"time":1,"i_lat":-6.217455,"distance":1305},{"distance":1385,"i_lat":-6.219053,"i_long":106.951283,"station_id":"CUK","time":8,"transit":false,"station_name":"Cakung","is_transit":false,"line":0},{"is_transit":false,"station_id":"KRI","i_long":106.977657,"station_name":"Kranji","line":1,"transit":false,"i_lat":-6.224515,"distance":3097,"time":3},{"station_name":"Bekasi","transit":false,"station_id":"BKS","is_transit":false,"time":4,"i_lat":-6.236616,"i_long":106.997013,"line":0,"distance":2520},{"i_lat":-6.248029,"station_id":"BKST","distance":2368,"station_name":"Bekasi Timur","time":2,"transit":false,"i_long":107.016735,"is_transit":false,"line":0},{"distance":4460,"line":1,"station_id":"TB","transit":false,"station_name":"Tambun","time":7,"i_long":107.055722,"is_transit":false,"i_lat":-6.258864},{"is_transit":false,"distance":3420,"transit":false,"station_id":"CIT","line":0,"station_name":"Cibitung","time":3,"i_lat":-6.261877,"i_long":107.083084},{"i_lat":-6.262938,"station_name":"Metland Telaga Murni","line":1,"is_transit":false,"distance":2800,"time":2,"i_long":107.093313,"transit":false,"station_id":"TLM"}],[{"transit":false,"line":2,"time":0,"station_id":"TNT","is_transit":false,"distance":0,"station_name":"Tanjung Barat","i_lat":-6.3080680000000005,"i_long":106.838896},{"distance":2820,"station_name":"Pasar Minggu","is_transit":false,"i_long":106.843999,"i_lat":-6.2842400000000005,"station_id":"PSM","time":4,"line":2,"transit":false},{"i_long":106.851577,"i_lat":-6.263214,"station_name":"Pasar Minggu Baru","time":2,"distance":2380,"station_id":"PSMB","is_transit":false,"transit":false,"line":2},{"transit":false,"i_long":106.85449,"i_lat":-6.255332,"line":0,"station_id":"DRN","station_name":"Duren Kalibata","distance":824,"time":2,"is_transit":false},{"transit":false,"i_long":106.856607,"time":3,"is_transit":false,"station_name":"Cawang","station_id":"CW","i_lat":-6.242512,"line":0,"distance":1546},{"i_long":106.857948,"i_lat":-6.226659,"transit":false,"is_transit":false,"time":2,"station_name":"Tebet","station_id":"TEB","line":2,"distance":1230},{"station_id":"MRI","i_lat":-6.209883,"is_transit":true,"line":0,"distance":2610,"station_name":"Manggarai","time":4,"i_long":106.84912,"transit":true},{"station_name":"Sudirman","time":4,"line":1,"station_id":"SUD","transit":false,"i_long":106.822649,"distance":3186,"i_lat":-6.202263,"is_transit":false},{"time":1,"i_long":106.819881,"station_id":"SUDB","station_name":"Sudirman Baru","i_lat":-6.201433,"line":1,"distance":280,"is_transit":false,"transit":false},{"is_transit":false,"station_id":"KAT","transit":false,"i_lat":-6.20132,"station_name":"Karet","i_long":106.816351,"line":1,"distance":471,"time":1},{"time":5,"is_transit":true,"i_lat":-6.185545,"station_name":"Tanah Abang","distance":2029,"station_id":"THB","line":1,"i_long":106.811091,"transit":false},{"station_id":"DU","station_name":"Duri","line":1,"transit":true,"i_lat":-6.155215,"is_transit":true,"distance":3632,"time":8,"i_long":106.800832},{"i_long":106.79867,"is_transit":false,"i_lat":-6.144674,"distance":1230,"station_name":"Angke","station_id":"AK","transit":false,"time":4,"line":0},{"i_long":106.826365,"i_lat":-6.132549,"is_transit":true,"station_name":"Kampung Bandan","transit":true,"distance":4102,"time":9,"station_id":"KPB","line":0},{"is_transit":false,"station_name":"Rajawali","i_long":106.836569,"transit":false,"station_id":"RJW","distance":1444,"time":3,"i_lat":-6.14505,"line":11},{"time":5,"is_transit":false,"line":11,"distance":1901,"i_lat":-6.161728,"station_id":"KMO","station_name":"Kemayoran","transit":false,"i_long":106.839204},{"station_id":"PSE","i_long":106.84368,"transit":false,"station_name":"Pasar Senen","is_transit":false,"i_lat":-6.174784,"line":11,"time":4,"distance":1436},{"i_lat":-6.185975,"line":11,"station_id":"GST","transit":false,"time":8,"distance":1567,"i_long":106.850107,"station_name":"Gang Sentiong","is_transit":false},{"station_id":"KMT","time":1,"i_lat":-6.193792,"line":11,"i_long":106.855437,"station_name":"Kramat","distance":973,"is_transit":false,"transit":false},{"line":11,"is_transit":false,"distance":1829,"transit":false,"i_lat":-6.209188,"station_id":"POK","time":2,"i_long":106.861737,"station_name":"Pondok Jati"},{"station_name":"Jatinegara","distance":1236,"transit":true,"line":0,"station_id":"JNG","i_lat":-6.215091,"time":9,"i_long":106.86807400000001,"is_transit":true},{"transit":false,"station_id":"KLD","i_lat":-6.2135,"i_long":106.899548,"time":3,"line":1,"distance":3395,"is_transit":false,"station_name":"Klender"},{"time":2,"i_lat":-6.215568,"i_long":106.922662,"distance":3100,"station_name":"Buaran","transit":false,"station_id":"BUA","line":0,"is_transit":false},{"station_id":"KLDB","transit":false,"i_lat":-6.217455,"is_transit":false,"time":1,"line":1,"distance":1305,"i_long":106.939679,"station_name":"Klenderbaru"},{"line":0,"distance":1385,"time":8,"station_id":"CUK","transit":false,"i_lat":-6.219053,"is_transit":false,"station_name":"Cakung","i_long":106.951283},{"distance":3097,"transit":false,"i_lat":-6.224515,"i_long":106.977657,"station_id":"KRI","station_name":"Kranji","is_transit":false,"line":1,"time":3},{"line":0,"station_id":"BKS","is_transit":false,"transit":false,"i_long":106.997013,"i_lat":-6.236616,"distance":2520,"station_name":"Bekasi","time":4},{"i_long":107.016735,"station_id":"BKST","i_lat":-6.248029,"line":0,"distance":2368,"time":2,"station_name":"Bekasi Timur","is_transit":false,"transit":false},{"station_id":"TB","transit":false,"is_transit":false,"station_name":"Tambun","time":7,"i_lat":-6.258864,"i_long":107.055722,"line":1,"distance":4460},{"i_long":107.083084,"distance":3420,"transit":false,"is_transit":false,"line":0,"station_name":"Cibitung","station_id":"CIT","time":3,"i_lat":-6.261877},{"is_transit":false,"i_lat":-6.262938,"time":2,"line":1,"station_name":"Metland Telaga Murni","station_id":"TLM","transit":false,"distance":2800,"i_long":107.093313}],[{"distance":0,"station_name":"Tanjung Barat","time":0,"is_transit":false,"station_id":"TNT","i_lat":-6.3080680000000005,"transit":false,"i_long":106.838896,"line":2},{"distance":2820,"station_id":"PSM","station_name":"Pasar Minggu","i_lat":-6.2842400000000005,"time":4,"is_transit":false,"transit":false,"line":2,"i_long":106.843999},{"distance":2380,"time":2,"i_long":106.851577,"station_name":"Pasar Minggu Baru","i_lat":-6.263214,"is_transit":false,"line":2,"station_id":"PSMB","transit":false},{"i_lat":-6.255332,"station_name":"Duren Kalibata","time":2,"i_long":106.85449,"is_transit":false,"distance":824,"line":0,"station_id":"DRN","transit":false},{"transit":false,"line":0,"station_id":"CW","station_name":"Cawang","is_transit":false,"distance":1546,"time":3,"i_lat":-6.242512,"i_long":106.856607},{"time":2,"i_long":106.857948,"transit":false,"line":2,"is_transit":false,"station_name":"Tebet","distance":1230,"station_id":"TEB","i_lat":-6.226659},{"transit":true,"station_id":"MRI","line":0,"time":4,"station_name":"Manggarai","distance":2610,"i_long":106.84912,"is_transit":true,"i_lat":-6.209883},{"line":0,"transit":false,"time":4,"station_name":"Cikini","i_lat":-6.198556,"i_long":106.840169,"station_id":"CKI","distance":1590,"is_transit":false},{"station_id":"GDD","station_name":"Gondangdia","i_long":106.832183,"line":2,"is_transit":false,"i_lat":-6.186295,"distance":1750,"time":3,"transit":false},{"transit":false,"i_lat":-6.166716,"i_long":106.828284,"time":4,"distance":2015,"is_transit":false,"line":2,"station_id":"JUA","station_name":"Juanda"},{"time":2,"i_long":106.827103,"station_id":"SW","is_transit":false,"distance":1149,"line":2,"i_lat":-6.160725,"station_name":"Sawah Besar","transit":false},{"i_lat":-6.149769,"time":2,"is_transit":false,"i_long":106.82482,"transit":false,"station_id":"MGB","line":2,"station_name":"Manggabesar","distance":906},{"i_lat":-6.141205,"is_transit":false,"time":2,"i_long":106.820901,"station_id":"JAY","line":7,"distance":1080,"station_name":"Jayakarta","transit":false},{"line":0,"is_transit":true,"distance":1264,"transit":true,"time":4,"i_long":106.812439,"station_name":"Jakarta Kota","station_id":"JAKK","i_lat":-6.137569},{"line":0,"is_transit":true,"distance":1364,"station_name":"Kampung Bandan","time":3,"station_id":"KPB","i_long":106.826365,"transit":true,"i_lat":-6.132549},{"i_lat":-6.14505,"is_transit":false,"station_id":"RJW","line":11,"transit":false,"time":3,"i_long":106.836569,"station_name":"Rajawali","distance":1444},{"distance":1901,"station_id":"KMO","station_name":"Kemayoran","transit":false,"i_lat":-6.161728,"i_long":106.839204,"line":11,"time":5,"is_transit":false},{"is_transit":false,"transit":false,"distance":1436,"i_long":106.84368,"line":11,"station_name":"Pasar Senen","time":4,"station_id":"PSE","i_lat":-6.174784},{"station_id":"GST","is_transit":false,"distance":1567,"i_lat":-6.185975,"line":11,"station_name":"Gang Sentiong","transit":false,"i_long":106.850107,"time":8},{"is_transit":false,"station_id":"KMT","i_long":106.855437,"line":11,"station_name":"Kramat","time":1,"transit":false,"distance":973,"i_lat":-6.193792},{"distance":1829,"station_id":"POK","station_name":"Pondok Jati","time":2,"transit":false,"i_lat":-6.209188,"i_long":106.861737,"line":11,"is_transit":false},{"transit":true,"distance":1236,"station_name":"Jatinegara","i_lat":-6.215091,"time":9,"i_long":106.86807400000001,"line":0,"is_transit":true,"station_id":"JNG"},{"i_lat":-6.2135,"time":3,"transit":false,"station_name":"Klender","line":1,"is_transit":false,"distance":3395,"i_long":106.899548,"station_id":"KLD"},{"transit":false,"distance":3100,"station_id":"BUA","i_lat":-6.215568,"line":0,"station_name":"Buaran","i_long":106.922662,"is_transit":false,"time":2},{"is_transit":false,"distance":1305,"time":1,"line":1,"station_name":"Klenderbaru","i_lat":-6.217455,"station_id":"KLDB","transit":false,"i_long":106.939679},{"transit":false,"i_lat":-6.219053,"i_long":106.951283,"is_transit":false,"distance":1385,"station_id":"CUK","line":0,"time":8,"station_name":"Cakung"},{"station_name":"Kranji","distance":3097,"i_long":106.977657,"transit":false,"i_lat":-6.224515,"line":1,"is_transit":false,"time":3,"station_id":"KRI"},{"station_id":"BKS","i_lat":-6.236616,"station_name":"Bekasi","time":4,"i_long":106.997013,"transit":false,"distance":2520,"is_transit":false,"line":0},{"station_id":"BKST","distance":2368,"station_name":"Bekasi Timur","i_lat":-6.248029,"i_long":107.016735,"line":0,"is_transit":false,"time":2,"transit":false},{"station_id":"TB","station_name":"Tambun","line":1,"distance":4460,"time":7,"is_transit":false,"i_lat":-6.258864,"transit":false,"i_long":107.055722},{"time":3,"i_long":107.083084,"line":0,"distance":3420,"i_lat":-6.261877,"transit":false,"station_name":"Cibitung","is_transit":false,"station_id":"CIT"},{"station_name":"Metland Telaga Murni","i_lat":-6.262938,"time":2,"line":1,"distance":2800,"transit":false,"is_transit":false,"i_long":107.093313,"station_id":"TLM"}]]}