{"data":[[{"time":0,"line":2,"i_long":106.838896,"transit":false,"station_id":"TNT","station_name":"Tanjung Barat","is_transit":false,"distance":0,"i_lat":-6.3080680000000005},{"distance":2820,"time":4,"line":2,"i_lat":-6.2842400000000005,"station_name":"Pasar Minggu","station_id":"PSM","is_transit":false,"transit":false,"i_long":106.843999},{"station_id":"PSMB","distance":2380,"is_transit":false,"line":2,"transit":false,"i_long":106.851577,"time":2,"station_name":"Pasar Minggu Baru","i_lat":-6.263214},{"distance":824,"line":2,"station_id":"DRN","i_long":106.85449,"station_name":"Duren Kalibata","is_transit":false,"i_lat":-6.255332,"transit":false,"time":2},{"station_name":"Cawang","is_transit":false,"line":2,"transit":false,"i_long":106.856607,"i_lat":-6.242512,"distance":1546,"station_id":"CW","time":3},{"transit":false,"line":2,"is_transit":false,"i_lat":-6.226659,"i_long":106.857948,"distance":1230,"station_id":"TEB","time":2,"station_name":"Tebet"},{"distance":2610,"line":2,"i_long":106.84912,"station_name":"Manggarai","i_lat":-6.209883,"station_id":"MRI","time":4,"transit":true,"is_transit":true},{"is_transit":false,"distance":3186,"i_long":106.822649,"transit":false,"line":1,"time":4,"station_id":"SUD","station_name":"Sudirman","i_lat":-6.202263},{"i_long":106.819881,"line":1,"is_transit":false,"i_lat":-6.201433,"transit":false,"time":1,"station_name":"Sudirman Baru","station_id":"SUDB","distance":280},{"station_name":"Karet","distance":471,"i_long":106.816351,"transit":false,"time":1,"station_id":"KAT","i_lat":-6.20132,"line":1,"is_transit":false}],[{"i_lat":-6.3080680000000005,"time":0,"station_name":"Tanjung Barat","is_transit":false,"station_id":"TNT","i_long":106.838896,"line":2,"transit":false,"distance":0},{"is_transit":false,"transit":false,"time":4,"distance":2820,"line":2,"i_long":106.843999,"station_name":"Pasar Minggu","i_lat":-6.2842400000000005,"station_id":"PSM"},{"station_id":"PSMB","station_name":"Pasar Minggu Baru","i_lat":-6.263214,"time":2,"is_transit":false,"transit":false,"distance":2380,"i_long":106.851577,"line":2},{"time":2,"station_id":"DRN","i_long":106.85449,"transit":false,"distance":824,"line":2,"is_transit":false,"i_lat":-6.255332,"station_name":"Duren Kalibata"},{"station_id":"CW","i_long":106.856607,"distance":1546,"transit":false,"i_lat":-6.242512,"station_name":"Cawang","line":2,"time":3,"is_transit":false},{"line":2,"time":2,"distance":1230,"station_id":"TEB","is_transit":false,"i_lat":-6.226659,"transit":false,"station_name":"Tebet","i_long":106.857948},{"is_transit":false,"transit":false,"i_long":106.84912,"line":2,"i_lat":-6.209883,"distance":2610,"time":4,"station_name":"Manggarai","station_id":"MRI"},{"station_name":"Cikini","station_id":"CKI","i_lat":-6.198556,"is_transit":false,"time":4,"distance":1590,"i_long":106.840169,"transit":false,"line":2},{"i_long":106.832183,"transit":false,"station_name":"Gondangdia","time":3,"i_lat":-6.186295,"distance":1750,"is_transit":false,"station_id":"GDD","line":2},{"i_lat":-6.166716,"time":4,"distance":2015,"station_id":"JUA","station_name":"Juanda","is_transit":false,"transit":false,"i_long":106.828284,"line":2},{"i_long":106.827103,"distance":1149,"station_name":"Sawah Besar","is_transit":false,"i_lat":-6.160725,"line":2,"time":2,"transit":false,"station_id":"SW"},{"line":2,"station_name":"Manggabesar","is_transit":false,"i_long":106.82482,"station_id":"MGB","time":2,"distance":906,"transit":false,"i_lat":-6.149769},{"line":2,"distance":1080,"station_name":"Jayakarta","is_transit":false,"transit":false,"i_lat":-6.141205,"i_long":106.820901,"time":2,"station_id":"JAY"},{"time":4,"distance":1264,"station_id":"JAKK","is_transit":true,"transit":true,"line":2,"station_name":"Jakarta Kota","i_long":106.812439,"i_lat":-6.137569},{"transit":true,"station_id":"KPB","distance":1364,"time":3,"i_lat":-6.132549,"i_long":106.826365,"line":4,"station_name":"Kampung Bandan","is_transit":true},{"station_name":"Angke","i_lat":-6.144674,"i_long":106.79867,"line":1,"is_transit":false,"transit":false,"distance":4102,"time":9,"station_id":"AK"},{"line":1,"distance":1230,"transit":false,"i_long":106.800832,"station_name":"Duri","station_id":"DU","i_lat":-6.155215,"is_transit":false,"time":4},{"transit":false,"time":8,"i_lat":-6.185545,"station_name":"Tanah Abang","i_long":106.811091,"distance":3632,"station_id":"THB","line":1,"is_transit":false},{"is_transit":false,"distance":2029,"station_id":"KAT","i_long":106.816351,"station_name":"Karet","time":5,"line":1,"transit":false,"i_lat":-6.20132}],[{"time":0,"distance":0,"i_lat":-6.3080680000000005,"station_id":"TNT","line":2,"station_name":"Tanjung Barat","is_transit":false,"transit":false,"i_long":106.838896},{"is_transit":false,"station_name":"Pasar Minggu","distance":2820,"i_lat":-6.2842400000000005,"time":4,"line":2,"station_id":"PSM","transit":false,"i_long":106.843999},{"transit":false,"station_id":"PSMB","is_transit":false,"station_name":"Pasar Minggu Baru","i_lat":-6.263214,"distance":2380,"line":2,"time":2,"i_long":106.851577},{"station_name":"Duren Kalibata","line":2,"distance":824,"transit":false,"i_long":106.85449,"station_id":"DRN","time":2,"i_lat":-6.255332,"is_transit":false},{"distance":1546,"i_lat":-6.242512,"station_id":"CW","i_long":106.856607,"time":3,"station_name":"Cawang","is_transit":false,"transit":false,"line":2},{"is_transit":false,"station_id":"TEB","transit":false,"station_name":"Tebet","i_long":106.857948,"i_lat":-6.226659,"time":2,"line":2,"distance":1230},{"distance":2610,"station_id":"MRI","i_lat":-6.209883,"i_long":106.84912,"transit":true,"station_name":"Manggarai","is_transit":true,"time":4,"line":2},{"time":2,"distance":1275,"is_transit":false,"station_name":"Matraman","transit":false,"i_long":106.858896,"station_id":"MTR","i_lat":-6.212485,"line":1},{"i_lat":-6.215091,"station_name":"Jatinegara","distance":1377,"transit":true,"is_transit":true,"time":8,"line":1,"station_id":"JNG","i_long":106.86807400000001},{"line":11,"transit":false,"station_name":"Pondok Jati","i_long":106.861737,"distance":1236,"is_transit":false,"time":2,"i_lat":-6.209188,"station_id":"POK"},{"line":11,"distance":1829,"i_lat":-6.193792,"station_id":"KMT","transit":false,"is_transit":false,"station_name":"Kramat","time":2,"i_long":106.855437},{"i_long":106.850107,"time":1,"transit":false,"station_name":"Gang Sentiong","distance":973,"line":11,"station_id":"GST","i_lat":-6.185975,"is_transit":false},{"station_name":"Pasar Senen","is_transit":false,"time":8,"line":11,"i_lat":-6.174784,"transit":false,"distance":1567,"station_id":"PSE","i_long":106.84368},{"station_name":"Kemayoran","i_lat":-6.161728,"transit":false,"distance":1436,"is_transit":false,"line":11,"station_id":"KMO","time":4,"i_long":106.839204},{"distance":1901,"is_transit":false,"transit":false,"i_long":106.836569,"time":5,"station_id":"RJW","line":11,"i_lat":-6.14505,"station_name":"Rajawali"},{"time":3,"station_name":"Kampung Bandan","line":4,"transit":true,"station_id":"KPB","i_long":106.826365,"is_transit":true,"distance":1444,"i_lat":-6.132549},{"i_lat":-6.144674,"time":9,"i_long":106.79867,"station_id":"AK","is_transit":false,"line":1,"distance":4102,"transit":false,"station_name":"Angke"},{"is_transit":false,"station_name":"Duri","station_id":"DU","time":4,"i_lat":-6.155215,"line":1,"transit":false,"i_long":106.800832,"distance":1230},{"distance":3632,"station_name":"Tanah Abang","i_lat":-6.185545,"i_long":106.811091,"is_transit":false,"station_id":"THB","line":1,"transit":false,"time":8},{"station_id":"KAT","i_long":106.816351,"transit":false,"station_name":"Karet","i_lat":-6.20132,"line":1,"time":5,"distance":2029,"is_transit":false}]]}