{"data":[[{"transit":false,"i_lat":-6.1109480000000005,"station_name":"Tanjung Priuk","distance":0,"time":0,"i_long":106.880089,"line":4,"station_id":"TPK","is_transit":false},{"station_id":"AC","distance":4566,"i_lat":-6.128023,"station_name":"Ancol","i_long":106.84464,"is_transit":false,"line":0,"time":9,"transit":false},{"station_id":"KPB","i_long":106.826365,"station_name":"Kampung Bandan","is_transit":true,"line":0,"distance":2185,"time":4,"transit":false,"i_lat":-6.132549},{"transit":false,"line":0,"station_name":"Angke","distance":4102,"i_long":106.79867,"time":9,"i_lat":-6.144674,"station_id":"AK","is_transit":false},{"station_name":"Duri","i_lat":-6.155215,"time":4,"i_long":106.800832,"distance":1230,"station_id":"DU","transit":true,"line":1,"is_transit":true},{"time":8,"distance":3632,"i_long":106.811091,"transit":false,"line":1,"i_lat":-6.185545,"is_transit":true,"station_id":"THB","station_name":"Tanah Abang"},{"station_name":"Karet","line":1,"distance":2029,"station_id":"KAT","i_lat":-6.20132,"is_transit":false,"i_long":106.816351,"time":5,"transit":false},{"station_name":"Sudirman Baru","i_lat":-6.201433,"distance":471,"i_long":106.819881,"transit":false,"time":1,"line":1,"is_transit":false,"station_id":"SUDB"},{"time":1,"transit":false,"i_long":106.822649,"distance":280,"station_name":"Sudirman","i_lat":-6.202263,"station_id":"SUD","line":1,"is_transit":false},{"station_id":"MRI","i_long":106.84912,"i_lat":-6.209883,"is_transit":true,"time":4,"transit":true,"line":0,"station_name":"Manggarai","distance":3186},{"line":2,"station_name":"Tebet","i_lat":-6.226659,"is_transit":false,"transit":false,"i_long":106.857948,"station_id":"TEB","distance":2610,"time":4},{"time":2,"station_id":"CW","station_name":"Cawang","i_long":106.856607,"line":0,"i_lat":-6.242512,"is_transit":false,"distance":1230,"transit":false},{"i_long":106.85449,"is_transit":false,"distance":1546,"station_id":"DRN","station_name":"Duren Kalibata","transit":false,"time":3,"i_lat":-6.255332,"line":0},{"transit":false,"station_id":"PSMB","time":2,"i_long":106.851577,"line":2,"i_lat":-6.263214,"distance":824,"is_transit":false,"station_name":"Pasar Minggu Baru"},{"distance":2380,"i_lat":-6.2842400000000005,"station_name":"Pasar Minggu","transit":false,"time":2,"line":2,"station_id":"PSM","i_long":106.843999,"is_transit":false},{"distance":2820,"line":2,"is_transit":false,"i_long":106.838896,"time":4,"station_name":"Tanjung Barat","station_id":"TNT","transit":false,"i_lat":-6.3080680000000005},{"distance":2671,"transit":false,"i_lat":-6.330363,"line":2,"is_transit":false,"station_id":"LNA","time":3,"station_name":"Lenteng Agung","i_long":106.832616},{"distance":1029,"time":2,"i_lat":-6.339291,"i_long":106.834175,"station_name":"Univ. Pancasila","is_transit":false,"transit":false,"station_id":"UP","line":2},{"station_name":"Univ. Indonesia","is_transit":false,"transit":false,"i_lat":-6.360749,"station_id":"UI","distance":2264,"time":3,"i_long":106.831474,"line":2},{"line":2,"station_id":"POC","station_name":"Pondok Cina","distance":1109,"is_transit":false,"transit":false,"i_lat":-6.369073,"i_long":106.831114,"time":2},{"time":4,"i_lat":-6.391065,"i_long":106.819451,"station_id":"DPB","station_name":"Depokbaru","line":0,"distance":2727,"transit":false,"is_transit":false},{"is_transit":false,"i_lat":-6.405256,"line":0,"station_id":"DP","transit":false,"station_name":"Depok","i_long":106.816926,"time":3,"distance":1584},{"i_long":106.800298,"line":1,"is_transit":true,"station_id":"CTA","station_name":"Citayam","distance":5084,"i_lat":-6.448811,"time":6,"transit":false},{"time":10,"station_name":"Cibinong","i_long":106.851978,"line":0,"is_transit":false,"i_lat":-6.46424,"station_id":"CBN","distance":6740,"transit":false},{"transit":false,"is_transit":false,"station_name":"Nambo","line":21,"station_id":"NMO","i_long":106.905196,"distance":6527,"time":10,"i_lat":-6.466285}],[{"transit":false,"distance":0,"line":4,"is_transit":false,"station_name":"Tanjung Priuk","station_id":"TPK","time":0,"i_long":106.880089,"i_lat":-6.1109480000000005},{"transit":false,"time":9,"station_id":"AC","i_long":106.84464,"is_transit":false,"station_name":"Ancol","i_lat":-6.128023,"line":0,"distance":4566},{"i_long":106.826365,"line":0,"transit":false,"time":4,"station_name":"Kampung Bandan","station_id":"KPB","i_lat":-6.132549,"distance":2185,"is_transit":true},{"distance":1364,"transit":true,"is_transit":true,"station_id":"JAKK","station_name":"Jakarta Kota","time":3,"i_lat":-6.137569,"i_long":106.812439,"line":0},{"is_transit":false,"transit":false,"station_name":"Jayakarta","i_lat":-6.141205,"distance":1264,"line":7,"station_id":"JAY","time":4,"i_long":106.820901},{"distance":1080,"station_name":"Manggabesar","i_lat":-6.149769,"transit":false,"is_transit":false,"station_id":"MGB","line":2,"time":2,"i_long":106.82482},{"time":2,"is_transit":false,"i_long":106.827103,"station_name":"Sawah Besar","line":2,"transit":false,"distance":906,"station_id":"SW","i_lat":-6.160725},{"is_transit":false,"station_id":"JUA","time":2,"line":2,"distance":1149,"i_lat":-6.166716,"transit":false,"i_long":106.828284,"station_name":"Juanda"},{"distance":2015,"station_id":"GDD","is_transit":false,"station_name":"Gondangdia","i_long":106.832183,"transit":false,"time":4,"line":2,"i_lat":-6.186295},{"is_transit":false,"time":3,"distance":1750,"i_lat":-6.198556,"station_id":"CKI","transit":false,"line":0,"station_name":"Cikini","i_long":106.840169},{"time":4,"distance":1590,"station_id":"MRI","line":0,"i_long":106.84912,"transit":true,"station_name":"Manggarai","is_transit":true,"i_lat":-6.209883},{"distance":2610,"station_name":"Tebet","time":4,"is_transit":false,"i_lat":-6.226659,"i_long":106.857948,"station_id":"TEB","line":2,"transit":false},{"distance":1230,"line":0,"transit":false,"station_id":"CW","is_transit":false,"i_long":106.856607,"time":2,"station_name":"Cawang","i_lat":-6.242512},{"i_long":106.85449,"time":3,"station_id":"DRN","line":0,"i_lat":-6.255332,"transit":false,"station_name":"Duren Kalibata","distance":1546,"is_transit":false},{"time":2,"transit":false,"i_lat":-6.263214,"i_long":106.851577,"station_id":"PSMB","distance":824,"station_name":"Pasar Minggu Baru","line":2,"is_transit":false},{"i_long":106.843999,"line":2,"station_id":"PSM","is_transit":false,"time":2,"transit":false,"distance":2380,"station_name":"Pasar Minggu","i_lat":-6.2842400000000005},{"distance":2820,"time":4,"i_lat":-6.3080680000000005,"i_long":106.838896,"line":2,"station_id":"TNT","station_name":"Tanjung Barat","transit":false,"is_transit":false},{"time":3,"i_lat":-6.330363,"i_long":106.832616,"line":2,"station_id":"LNA","distance":2671,"transit":false,"station_name":"Lenteng Agung","is_transit":false},{"station_id":"UP","i_long":106.834175,"transit":false,"time":2,"distance":1029,"i_lat":-6.339291,"line":2,"is_transit":false,"station_name":"Univ. Pancasila"},{"station_name":"Univ. Indonesia","line":2,"station_id":"UI","distance":2264,"is_transit":false,"transit":false,"time":3,"i_lat":-6.360749,"i_long":106.831474},{"station_name":"Pondok Cina","distance":1109,"i_lat":-6.369073,"is_transit":false,"station_id":"POC","transit":false,"i_long":106.831114,"time":2,"line":2},{"station_name":"Depokbaru","time":4,"i_long":106.819451,"station_id":"DPB","is_transit":false,"i_lat":-6.391065,"distance":2727,"line":0,"transit":false},{"distance":1584,"transit":false,"time":3,"is_transit":false,"station_name":"Depok","i_lat":-6.405256,"station_id":"DP","i_long":106.816926,"line":0},{"transit":false,"i_lat":-6.448811,"is_transit":true,"station_id":"CTA","distance":5084,"time":6,"i_long":106.800298,"station_name":"Citayam","line":1},{"transit":false,"distance":6740,"i_long":106.851978,"station_id":"CBN","time":10,"line":0,"station_name":"Cibinong","i_lat":-6.46424,"is_transit":false},{"is_transit":false,"i_long":106.905196,"distance":6527,"line":21,"station_id":"NMO","station_name":"Nambo","time":10,"transit":false,"i_lat":-6.466285}],[{"line":4,"i_long":106.880089,"i_lat":-6.1109480000000005,"is_transit":false,"station_id":"TPK","station_name":"Tanjung Priuk","transit":false,"time":0,"distance":0},{"i_lat":-6.128023,"line":0,"i_long":106.84464,"station_name":"Ancol","transit":false,"time":9,"distance":4566,"is_transit":false,"station_id":"AC"},{"station_id":"KPB","is_transit":true,"distance":2185,"i_lat":-6.132549,"i_long":106.826365,"transit":true,"line":0,"station_name":"Kampung Bandan","time":4},{"transit":false,"distance":1444,"time":3,"station_name":"Rajawali","is_transit":false,"i_lat":-6.14505,"i_long":106.836569,"station_id":"RJW","line":11},{"i_long":106.839204,"station_name":"Kemayoran","is_transit":false,"transit":false,"distance":1901,"time":5,"line":11,"station_id":"KMO","i_lat":-6.161728},{"station_name":"Pasar Senen","i_lat":-6.174784,"line":11,"is_transit":false,"i_long":106.84368,"time":4,"station_id":"PSE","distance":1436,"transit":false},{"transit":false,"is_transit":false,"station_id":"GST","distance":1567,"time":8,"i_lat":-6.185975,"i_long":106.850107,"station_name":"Gang Sentiong","line":11},{"station_id":"KMT","station_name":"Kramat","time":1,"transit":false,"distance":973,"i_long":106.855437,"line":11,"i_lat":-6.193792,"is_transit":false},{"transit":false,"distance":1829,"i_long":106.861737,"station_name":"Pondok Jati","line":11,"time":2,"station_id":"POK","i_lat":-6.209188,"is_transit":false},{"i_long":106.86807400000001,"time":9,"distance":1236,"transit":true,"station_name":"Jatinegara","station_id":"JNG","is_transit":true,"i_lat":-6.215091,"line":0},{"station_id":"MTR","station_name":"Matraman","i_long":106.858896,"line":1,"i_lat":-6.212485,"distance":1377,"time":2,"is_transit":false,"transit":false},{"station_name":"Manggarai","station_id":"MRI","line":0,"distance":1275,"i_lat":-6.209883,"i_long":106.84912,"is_transit":true,"transit":true,"time":2},{"transit":false,"distance":2610,"station_id":"TEB","is_transit":false,"i_lat":-6.226659,"line":2,"station_name":"Tebet","time":4,"i_long":106.857948},{"distance":1230,"transit":false,"time":2,"is_transit":false,"station_name":"Cawang","line":0,"station_id":"CW","i_long":106.856607,"i_lat":-6.242512},{"transit":false,"i_long":106.85449,"station_name":"Duren Kalibata","time":3,"distance":1546,"is_transit":false,"line":0,"station_id":"DRN","i_lat":-6.255332},{"i_lat":-6.263214,"is_transit":false,"line":2,"i_long":106.851577,"time":2,"distance":824,"transit":false,"station_name":"Pasar Minggu Baru","station_id":"PSMB"},{"line":2,"transit":false,"station_name":"Pasar Minggu","time":2,"i_lat":-6.2842400000000005,"is_transit":false,"station_id":"PSM","distance":2380,"i_long":106.843999},{"is_transit":false,"distance":2820,"line":2,"station_name":"Tanjung Barat","transit":false,"time":4,"i_long":106.838896,"i_lat":-6.3080680000000005,"station_id":"TNT"},{"distance":2671,"station_id":"LNA","time":3,"i_lat":-6.330363,"line":2,"is_transit":false,"transit":false,"station_name":"Lenteng Agung","i_long":106.832616},{"i_long":106.834175,"station_id":"UP","distance":1029,"is_transit":false,"line":2,"station_name":"Univ. Pancasila","time":2,"i_lat":-6.339291,"transit":false},{"station_id":"UI","i_long":106.831474,"station_name":"Univ. Indonesia","distance":2264,"transit":false,"is_transit":false,"i_lat":-6.360749,"line":2,"time":3},{"transit":false,"distance":1109,"i_lat":-6.369073,"line":2,"time":2,"station_name":"Pondok Cina","is_transit":false,"station_id":"POC","i_long":106.831114},{"is_transit":false,"station_id":"DPB","line":0,"i_lat":-6.391065,"station_name":"Depokbaru","distance":2727,"i_long":106.819451,"transit":false,"time":4},{"time":3,"line":0,"transit":false,"i_lat":-6.405256,"station_id":"DP","i_long":106.816926,"distance":1584,"is_transit":false,"station_name":"Depok"},{"transit":false,"time":6,"is_transit":true,"i_lat":-6.448811,"station_name":"Citayam","i_long":106.800298,"station_id":"CTA","line":1,"distance":5084},{"station_name":"Cibinong","is_transit":false,"transit":false,"station_id":"CBN","i_long":106.851978,"line":0,"time":10,"i_lat":-6.46424,"distance":6740},{"is_transit":false,"station_id":"NMO","i_lat":-6.466285,"distance":6527,"station_name":"Nambo","transit":false,"line":21,"time":10,"i_long":106.905196}]]}