{"data":[[{"line":4,"i_lat":-6.1109480000000005,"i_long":106.880089,"distance":0,"time":0,"station_id":"TPK","is_transit":false,"transit":false,"station_name":"Tanjung Priuk"},{"i_long":106.84464,"station_name":"Ancol","distance":4566,"station_id":"AC","time":9,"i_lat":-6.128023,"line":4,"transit":false,"is_transit":false},{"time":4,"station_id":"KPB","transit":true,"line":4,"is_transit":true,"station_name":"Kampung Bandan","distance":2185,"i_lat":-6.132549,"i_long":106.826365},{"line":1,"station_id":"AK","transit":false,"time":9,"distance":4102,"is_transit":false,"i_long":106.79867,"i_lat":-6.144674,"station_name":"Angke"},{"transit":true,"station_id":"DU","station_name":"Duri","i_lat":-6.155215,"line":1,"time":4,"distance":1230,"is_transit":true,"i_long":106.800832},{"time":3,"station_id":"GGL","is_transit":false,"transit":false,"i_lat":-6.162021,"line":5,"station_name":"Grogol","distance":1700,"i_long":106.788277},{"time":2,"distance":2036,"station_name":"Pesing","transit":false,"i_lat":-6.161433,"i_long":106.771379,"line":5,"is_transit":false,"station_id":"PSG"},{"station_id":"TKO","distance":1614,"time":2,"i_lat":-6.1587309999999995,"transit":false,"line":5,"station_name":"Taman Kota","is_transit":false,"i_long":106.756522}],[{"distance":0,"transit":false,"i_long":106.880089,"i_lat":-6.1109480000000005,"is_transit":false,"line":4,"time":0,"station_id":"TPK","station_name":"Tanjung Priuk"},{"line":4,"distance":4566,"i_long":106.84464,"i_lat":-6.128023,"time":9,"is_transit":false,"station_id":"AC","transit":false,"station_name":"Ancol"},{"station_name":"Kampung Bandan","time":4,"transit":true,"station_id":"KPB","i_lat":-6.132549,"i_long":106.826365,"line":4,"distance":2185,"is_transit":true},{"line":2,"distance":1364,"time":3,"station_id":"JAKK","station_name":"Jakarta Kota","i_long":106.812439,"is_transit":true,"i_lat":-6.137569,"transit":true},{"line":2,"time":4,"i_lat":-6.141205,"distance":1264,"station_name":"Jayakarta","transit":false,"i_long":106.820901,"is_transit":false,"station_id":"JAY"},{"is_transit":false,"time":2,"distance":1080,"transit":false,"i_lat":-6.149769,"line":2,"i_long":106.82482,"station_name":"Manggabesar","station_id":"MGB"},{"is_transit":false,"i_lat":-6.160725,"station_id":"SW","time":2,"distance":906,"station_name":"Sawah Besar","i_long":106.827103,"transit":false,"line":2},{"station_name":"Juanda","distance":1149,"i_lat":-6.166716,"is_transit":false,"station_id":"JUA","time":2,"line":2,"transit":false,"i_long":106.828284},{"time":4,"station_id":"GDD","distance":2015,"transit":false,"is_transit":false,"station_name":"Gondangdia","line":2,"i_lat":-6.186295,"i_long":106.832183},{"station_name":"Cikini","transit":false,"time":3,"i_long":106.840169,"distance":1750,"is_transit":false,"line":2,"i_lat":-6.198556,"station_id":"CKI"},{"transit":true,"is_transit":true,"station_id":"MRI","time":4,"i_lat":-6.209883,"distance":1590,"station_name":"Manggarai","i_long":106.84912,"line":2},{"i_lat":-6.202263,"station_id":"SUD","distance":3186,"time":4,"station_name":"Sudirman","line":1,"transit":false,"i_long":106.822649,"is_transit":false},{"i_lat":-6.201433,"line":1,"station_name":"Sudirman Baru","time":1,"distance":280,"station_id":"SUDB","transit":false,"is_transit":false,"i_long":106.819881},{"i_lat":-6.20132,"i_long":106.816351,"is_transit":false,"time":1,"station_id":"KAT","line":1,"distance":471,"station_name":"Karet","transit":false},{"is_transit":false,"station_name":"Tanah Abang","time":5,"transit":false,"distance":2029,"station_id":"THB","line":1,"i_long":106.811091,"i_lat":-6.185545},{"station_name":"Duri","i_long":106.800832,"i_lat":-6.155215,"distance":3632,"is_transit":true,"time":8,"transit":true,"station_id":"DU","line":1},{"transit":false,"i_lat":-6.162021,"time":3,"station_id":"GGL","i_long":106.788277,"distance":1700,"line":5,"station_name":"Grogol","is_transit":false},{"distance":2036,"station_name":"Pesing","i_long":106.771379,"time":2,"station_id":"PSG","is_transit":false,"i_lat":-6.161433,"line":5,"transit":false},{"distance":1614,"transit":false,"line":5,"i_lat":-6.1587309999999995,"is_transit":false,"time":2,"station_id":"TKO","station_name":"Taman Kota","i_long":106.756522}],[{"transit":false,"i_long":106.880089,"station_id":"TPK","i_lat":-6.1109480000000005,"line":4,"distance":0,"is_transit":false,"station_name":"Tanjung Priuk","time":0},{"line":4,"station_name":"Ancol","distance":4566,"time":9,"i_lat":-6.128023,"station_id":"AC","i_long":106.84464,"transit":false,"is_transit":false},{"line":4,"is_transit":true,"station_id":"KPB","i_long":106.826365,"i_lat":-6.132549,"transit":true,"distance":2185,"time":4,"station_name":"Kampung Bandan"},{"i_long":106.836569,"is_transit":false,"time":3,"line":11,"i_lat":-6.14505,"transit":false,"station_name":"Rajawali","station_id":"RJW","distance":1444},{"station_name":"Kemayoran","distance":1901,"transit":false,"i_lat":-6.161728,"i_long":106.839204,"line":11,"time":5,"is_transit":false,"station_id":"KMO"},{"i_long":106.84368,"station_name":"Pasar Senen","distance":1436,"i_lat":-6.174784,"time":4,"transit":false,"station_id":"PSE","line":11,"is_transit":false},{"is_transit":false,"i_lat":-6.185975,"transit":false,"station_name":"Gang Sentiong","time":8,"station_id":"GST","i_long":106.850107,"distance":1567,"line":11},{"is_transit":false,"line":11,"transit":false,"time":1,"distance":973,"station_name":"Kramat","station_id":"KMT","i_long":106.855437,"i_lat":-6.193792},{"station_name":"Pondok Jati","transit":false,"i_long":106.861737,"line":11,"time":2,"is_transit":false,"station_id":"POK","i_lat":-6.209188,"distance":1829},{"is_transit":true,"i_long":106.86807400000001,"line":1,"station_name":"Jatinegara","time":9,"station_id":"JNG","transit":true,"i_lat":-6.215091,"distance":1236},{"transit":false,"i_long":106.858896,"i_lat":-6.212485,"station_id":"MTR","line":1,"time":2,"distance":1377,"station_name":"Matraman","is_transit":false},{"station_id":"MRI","i_lat":-6.209883,"time":2,"line":2,"distance":1275,"is_transit":false,"station_name":"Manggarai","i_long":106.84912,"transit":false},{"distance":3186,"i_long":106.822649,"station_name":"Sudirman","transit":false,"station_id":"SUD","i_lat":-6.202263,"line":1,"is_transit":false,"time":4},{"station_id":"SUDB","i_lat":-6.201433,"i_long":106.819881,"line":1,"is_transit":false,"time":1,"distance":280,"transit":false,"station_name":"Sudirman Baru"},{"line":1,"station_id":"KAT","i_lat":-6.20132,"is_transit":false,"transit":false,"time":1,"distance":471,"i_long":106.816351,"station_name":"Karet"},{"time":5,"station_id":"THB","distance":2029,"station_name":"Tanah Abang","transit":false,"i_long":106.811091,"line":1,"i_lat":-6.185545,"is_transit":false},{"line":1,"time":8,"i_lat":-6.155215,"distance":3632,"is_transit":true,"transit":true,"station_name":"Duri","station_id":"DU","i_long":106.800832},{"station_id":"GGL","transit":false,"i_long":106.788277,"is_transit":false,"station_name":"Grogol","i_lat":-6.162021,"line":5,"distance":1700,"time":3},{"is_transit":false,"time":2,"station_id":"PSG","distance":2036,"i_long":106.771379,"transit":false,"station_name":"Pesing","line":5,"i_lat":-6.161433},{"station_name":"Taman Kota","i_lat":-6.1587309999999995,"distance":1614,"transit":false,"is_transit":false,"time":2,"i_long":106.756522,"station_id":"TKO","line":5}]]}