{"data":[[{"line":4,"i_lat":-6.1109480000000005,"i_long":106.880089,"transit":false,"station_name":"Tanjung Priuk","station_id":"TPK","time":0,"distance":0,"is_transit":false},{"transit":false,"distance":4566,"station_name":"Ancol","line":4,"station_id":"AC","time":9,"i_lat":-6.128023,"i_long":106.84464,"is_transit":false},{"distance":2185,"i_long":106.826365,"station_id":"KPB","line":4,"time":4,"i_lat":-6.132549,"station_name":"Kampung Bandan","transit":true,"is_transit":true},{"distance":4102,"i_lat":-6.144674,"is_transit":false,"i_long":106.79867,"line":1,"transit":false,"time":9,"station_name":"Angke","station_id":"AK"},{"is_transit":false,"i_lat":-6.155215,"i_long":106.800832,"transit":false,"distance":1230,"station_name":"Duri","time":4,"line":1,"station_id":"DU"},{"station_id":"THB","time":8,"distance":3632,"line":1,"i_long":106.811091,"is_transit":false,"i_lat":-6.185545,"station_name":"Tanah Abang","transit":false},{"station_id":"KAT","line":1,"station_name":"Karet","distance":2029,"is_transit":false,"transit":false,"time":5,"i_long":106.816351,"i_lat":-6.20132},{"i_lat":-6.201433,"distance":471,"transit":false,"station_name":"Sudirman Baru","i_long":106.819881,"time":1,"station_id":"SUDB","is_transit":false,"line":1},{"time":1,"transit":false,"distance":280,"i_long":106.822649,"station_name":"Sudirman","station_id":"SUD","is_transit":false,"i_lat":-6.202263,"line":1}],[{"time":0,"distance":0,"i_lat":-6.1109480000000005,"transit":false,"station_name":"Tanjung Priuk","line":4,"is_transit":false,"i_long":106.880089,"station_id":"TPK"},{"is_transit":false,"station_id":"AC","station_name":"Ancol","distance":4566,"i_long":106.84464,"line":4,"i_lat":-6.128023,"time":9,"transit":false},{"time":4,"station_name":"Kampung Bandan","line":4,"distance":2185,"i_long":106.826365,"i_lat":-6.132549,"station_id":"KPB","transit":true,"is_transit":true},{"time":3,"distance":1364,"i_long":106.812439,"transit":true,"station_name":"Jakarta Kota","line":2,"i_lat":-6.137569,"station_id":"JAKK","is_transit":true},{"is_transit":false,"station_id":"JAY","i_lat":-6.141205,"i_long":106.820901,"distance":1264,"transit":false,"station_name":"Jayakarta","time":4,"line":2},{"is_transit":false,"time":2,"transit":false,"i_long":106.82482,"station_name":"Manggabesar","i_lat":-6.149769,"line":2,"distance":1080,"station_id":"MGB"},{"transit":false,"station_name":"Sawah Besar","is_transit":false,"time":2,"distance":906,"station_id":"SW","i_long":106.827103,"line":2,"i_lat":-6.160725},{"i_long":106.828284,"station_id":"JUA","station_name":"Juanda","i_lat":-6.166716,"is_transit":false,"transit":false,"line":2,"time":2,"distance":1149},{"station_id":"GDD","station_name":"Gondangdia","transit":false,"distance":2015,"time":4,"line":2,"i_long":106.832183,"is_transit":false,"i_lat":-6.186295},{"distance":1750,"station_id":"CKI","is_transit":false,"i_long":106.840169,"station_name":"Cikini","transit":false,"i_lat":-6.198556,"line":2,"time":3},{"distance":1590,"time":4,"i_long":106.84912,"transit":true,"station_id":"MRI","is_transit":true,"line":2,"i_lat":-6.209883,"station_name":"Manggarai"},{"transit":false,"is_transit":false,"station_id":"SUD","time":4,"i_lat":-6.202263,"station_name":"Sudirman","line":1,"i_long":106.822649,"distance":3186}],[{"i_lat":-6.1109480000000005,"station_id":"TPK","is_transit":false,"distance":0,"station_name":"Tanjung Priuk","time":0,"i_long":106.880089,"transit":false,"line":4},{"i_long":106.84464,"line":4,"is_transit":false,"transit":false,"station_name":"Ancol","time":9,"station_id":"AC","distance":4566,"i_lat":-6.128023},{"i_lat":-6.132549,"station_name":"Kampung Bandan","line":4,"station_id":"KPB","distance":2185,"time":4,"transit":true,"is_transit":true,"i_long":106.826365},{"i_long":106.836569,"transit":false,"station_id":"RJW","i_lat":-6.14505,"line":11,"time":3,"is_transit":false,"station_name":"Rajawali","distance":1444},{"is_transit":false,"distance":1901,"time":5,"i_long":106.839204,"line":11,"station_name":"Kemayoran","i_lat":-6.161728,"transit":false,"station_id":"KMO"},{"i_lat":-6.174784,"station_id":"PSE","time":4,"i_long":106.84368,"station_name":"Pasar Senen","is_transit":false,"transit":false,"distance":1436,"line":11},{"distance":1567,"time":8,"i_lat":-6.185975,"station_id":"GST","is_transit":false,"i_long":106.850107,"line":11,"transit":false,"station_name":"Gang Sentiong"},{"i_lat":-6.193792,"i_long":106.855437,"distance":973,"station_id":"KMT","is_transit":false,"station_name":"Kramat","line":11,"transit":false,"time":1},{"i_long":106.861737,"distance":1829,"line":11,"station_name":"Pondok Jati","is_transit":false,"station_id":"POK","transit":false,"time":2,"i_lat":-6.209188},{"is_transit":true,"station_id":"JNG","line":1,"time":9,"transit":true,"i_long":106.86807400000001,"i_lat":-6.215091,"station_name":"Jatinegara","distance":1236},{"transit":false,"station_name":"Matraman","i_lat":-6.212485,"distance":1377,"station_id":"MTR","is_transit":false,"time":2,"line":1,"i_long":106.858896},{"time":2,"i_lat":-6.209883,"transit":false,"line":2,"distance":1275,"station_name":"Manggarai","i_long":106.84912,"station_id":"MRI","is_transit":false},{"distance":3186,"is_transit":false,"i_lat":-6.202263,"station_name":"Sudirman","transit":false,"i_long":106.822649,"station_id":"SUD","time":4,"line":1}]]}