{"data":[[{"i_lat":-6.1109480000000005,"station_name":"Tanjung Priuk","distance":0,"time":0,"i_long":106.880089,"station_id":"TPK","transit":false,"is_transit":false,"line":4},{"is_transit":false,"i_lat":-6.128023,"time":9,"transit":false,"distance":4566,"line":0,"station_id":"AC","station_name":"Ancol","i_long":106.84464},{"distance":2185,"is_transit":true,"station_name":"Kampung Bandan","station_id":"KPB","transit":true,"i_lat":-6.132549,"time":4,"i_long":106.826365,"line":0},{"i_lat":-6.14505,"time":3,"distance":1444,"transit":false,"station_name":"Rajawali","station_id":"RJW","line":11,"is_transit":false,"i_long":106.836569},{"time":5,"is_transit":false,"line":11,"distance":1901,"station_name":"Kemayoran","transit":false,"i_lat":-6.161728,"i_long":106.839204,"station_id":"KMO"},{"transit":false,"i_long":106.84368,"line":11,"distance":1436,"time":4,"i_lat":-6.174784,"is_transit":false,"station_name":"Pasar Senen","station_id":"PSE"},{"transit":false,"station_name":"Gang Sentiong","time":8,"i_lat":-6.185975,"i_long":106.850107,"station_id":"GST","line":11,"distance":1567,"is_transit":false}],[{"i_long":106.880089,"i_lat":-6.1109480000000005,"distance":0,"time":0,"is_transit":false,"transit":false,"station_id":"TPK","line":4,"station_name":"Tanjung Priuk"},{"line":0,"station_name":"Ancol","time":9,"is_transit":false,"transit":false,"station_id":"AC","i_lat":-6.128023,"distance":4566,"i_long":106.84464},{"line":0,"is_transit":true,"time":4,"distance":2185,"station_id":"KPB","station_name":"Kampung Bandan","i_lat":-6.132549,"i_long":106.826365,"transit":false},{"i_long":106.79867,"station_id":"AK","station_name":"Angke","i_lat":-6.144674,"transit":false,"distance":4102,"line":0,"time":9,"is_transit":false},{"station_id":"DU","i_long":106.800832,"is_transit":true,"i_lat":-6.155215,"distance":1230,"line":1,"station_name":"Duri","transit":true,"time":4},{"station_id":"THB","time":8,"transit":false,"distance":3632,"station_name":"Tanah Abang","is_transit":true,"i_lat":-6.185545,"i_long":106.811091,"line":1},{"transit":false,"station_id":"KAT","time":5,"is_transit":false,"line":1,"distance":2029,"station_name":"Karet","i_lat":-6.20132,"i_long":106.816351},{"line":1,"distance":471,"station_name":"Sudirman Baru","station_id":"SUDB","transit":false,"is_transit":false,"i_long":106.819881,"i_lat":-6.201433,"time":1},{"time":1,"is_transit":false,"station_name":"Sudirman","i_long":106.822649,"i_lat":-6.202263,"line":1,"station_id":"SUD","transit":false,"distance":280},{"transit":false,"line":0,"distance":3186,"is_transit":true,"station_name":"Manggarai","station_id":"MRI","time":4,"i_lat":-6.209883,"i_long":106.84912},{"line":1,"is_transit":false,"station_name":"Matraman","station_id":"MTR","distance":1275,"i_long":106.858896,"i_lat":-6.212485,"time":2,"transit":false},{"station_id":"JNG","station_name":"Jatinegara","i_lat":-6.215091,"line":0,"is_transit":true,"transit":true,"time":8,"i_long":106.86807400000001,"distance":1377},{"transit":false,"is_transit":false,"i_lat":-6.209188,"i_long":106.861737,"station_id":"POK","line":11,"station_name":"Pondok Jati","distance":1236,"time":2},{"time":2,"station_id":"KMT","transit":false,"i_long":106.855437,"distance":1829,"is_transit":false,"station_name":"Kramat","line":11,"i_lat":-6.193792},{"time":1,"distance":973,"transit":false,"is_transit":false,"i_long":106.850107,"station_name":"Gang Sentiong","line":11,"station_id":"GST","i_lat":-6.185975}],[{"line":4,"station_name":"Tanjung Priuk","time":0,"is_transit":false,"i_lat":-6.1109480000000005,"i_long":106.880089,"station_id":"TPK","transit":false,"distance":0},{"transit":false,"is_transit":false,"time":9,"station_name":"Ancol","line":0,"distance":4566,"i_lat":-6.128023,"station_id":"AC","i_long":106.84464},{"station_id":"KPB","time":4,"station_name":"Kampung Bandan","distance":2185,"is_transit":true,"i_long":106.826365,"transit":false,"i_lat":-6.132549,"line":0},{"line":0,"distance":1364,"transit":true,"station_id":"JAKK","station_name":"Jakarta Kota","is_transit":true,"i_lat":-6.137569,"time":3,"i_long":106.812439},{"i_lat":-6.141205,"transit":false,"time":4,"is_transit":false,"line":7,"station_name":"Jayakarta","i_long":106.820901,"station_id":"JAY","distance":1264},{"station_name":"Manggabesar","distance":1080,"i_long":106.82482,"transit":false,"time":2,"is_transit":false,"station_id":"MGB","i_lat":-6.149769,"line":2},{"time":2,"transit":false,"is_transit":false,"station_id":"SW","distance":906,"line":2,"station_name":"Sawah Besar","i_lat":-6.160725,"i_long":106.827103},{"station_id":"JUA","i_lat":-6.166716,"distance":1149,"is_transit":false,"i_long":106.828284,"station_name":"Juanda","time":2,"transit":false,"line":2},{"transit":false,"station_name":"Gondangdia","time":4,"distance":2015,"is_transit":false,"i_long":106.832183,"line":2,"station_id":"GDD","i_lat":-6.186295},{"line":0,"distance":1750,"transit":false,"is_transit":false,"station_id":"CKI","time":3,"i_lat":-6.198556,"i_long":106.840169,"station_name":"Cikini"},{"transit":true,"i_long":106.84912,"i_lat":-6.209883,"line":0,"time":4,"station_name":"Manggarai","is_transit":true,"station_id":"MRI","distance":1590},{"station_name":"Matraman","i_long":106.858896,"distance":1275,"station_id":"MTR","transit":false,"is_transit":false,"i_lat":-6.212485,"time":2,"line":1},{"transit":true,"station_name":"Jatinegara","time":8,"distance":1377,"i_lat":-6.215091,"is_transit":true,"station_id":"JNG","i_long":106.86807400000001,"line":0},{"time":2,"station_name":"Pondok Jati","i_lat":-6.209188,"i_long":106.861737,"transit":false,"line":11,"station_id":"POK","is_transit":false,"distance":1236},{"station_id":"KMT","i_lat":-6.193792,"i_long":106.855437,"time":2,"transit":false,"distance":1829,"station_name":"Kramat","line":11,"is_transit":false},{"station_name":"Gang Sentiong","transit":false,"i_lat":-6.185975,"distance":973,"line":11,"time":1,"is_transit":false,"i_long":106.850107,"station_id":"GST"}]]}