{"data":[[{"transit":false,"line":4,"i_lat":-6.1109480000000005,"distance":0,"station_id":"TPK","i_long":106.880089,"time":0,"station_name":"Tanjung Priuk","is_transit":false},{"station_id":"AC","distance":4566,"is_transit":false,"line":4,"time":9,"i_long":106.84464,"station_name":"Ancol","transit":false,"i_lat":-6.128023},{"line":4,"i_lat":-6.132549,"station_id":"KPB","time":4,"is_transit":true,"i_long":106.826365,"distance":2185,"transit":true,"station_name":"Kampung Bandan"},{"station_id":"RJW","is_transit":false,"i_lat":-6.14505,"i_long":106.836569,"transit":false,"station_name":"Rajawali","distance":1444,"time":3,"line":11},{"station_id":"KMO","transit":false,"i_long":106.839204,"distance":1901,"station_name":"Kemayoran","i_lat":-6.161728,"is_transit":false,"line":11,"time":5},{"line":11,"distance":1436,"station_id":"PSE","transit":false,"i_long":106.84368,"i_lat":-6.174784,"is_transit":false,"time":4,"station_name":"Pasar Senen"},{"distance":1567,"i_lat":-6.185975,"i_long":106.850107,"is_transit":false,"station_id":"GST","line":11,"time":8,"station_name":"Gang Sentiong","transit":false}],[{"transit":false,"i_long":106.880089,"time":0,"distance":0,"station_id":"TPK","is_transit":false,"line":4,"i_lat":-6.1109480000000005,"station_name":"Tanjung Priuk"},{"is_transit":false,"station_name":"Ancol","i_long":106.84464,"line":4,"transit":false,"station_id":"AC","distance":4566,"time":9,"i_lat":-6.128023},{"i_long":106.826365,"line":4,"time":4,"transit":true,"is_transit":true,"station_id":"KPB","distance":2185,"station_name":"Kampung Bandan","i_lat":-6.132549},{"i_lat":-6.144674,"station_id":"AK","time":9,"distance":4102,"station_name":"Angke","i_long":106.79867,"is_transit":false,"line":1,"transit":false},{"station_id":"DU","is_transit":false,"distance":1230,"i_long":106.800832,"transit":false,"time":4,"i_lat":-6.155215,"line":1,"station_name":"Duri"},{"transit":false,"distance":3632,"i_lat":-6.185545,"time":8,"station_id":"THB","is_transit":false,"i_long":106.811091,"line":1,"station_name":"Tanah Abang"},{"i_long":106.816351,"distance":2029,"transit":false,"line":1,"is_transit":false,"station_name":"Karet","station_id":"KAT","time":5,"i_lat":-6.20132},{"time":1,"is_transit":false,"station_name":"Sudirman Baru","i_lat":-6.201433,"transit":false,"distance":471,"station_id":"SUDB","i_long":106.819881,"line":1},{"line":1,"distance":280,"station_id":"SUD","time":1,"i_lat":-6.202263,"i_long":106.822649,"is_transit":false,"transit":false,"station_name":"Sudirman"},{"i_lat":-6.209883,"line":2,"is_transit":false,"time":4,"station_name":"Manggarai","distance":3186,"i_long":106.84912,"station_id":"MRI","transit":false},{"is_transit":false,"i_lat":-6.212485,"distance":1275,"transit":false,"time":2,"station_id":"MTR","station_name":"Matraman","line":1,"i_long":106.858896},{"station_name":"Jatinegara","i_long":106.86807400000001,"line":1,"distance":1377,"i_lat":-6.215091,"is_transit":true,"transit":true,"time":8,"station_id":"JNG"},{"transit":false,"i_lat":-6.209188,"i_long":106.861737,"line":11,"station_name":"Pondok Jati","is_transit":false,"time":2,"distance":1236,"station_id":"POK"},{"i_long":106.855437,"distance":1829,"line":11,"station_id":"KMT","time":2,"transit":false,"is_transit":false,"station_name":"Kramat","i_lat":-6.193792},{"i_long":106.850107,"time":1,"station_id":"GST","i_lat":-6.185975,"distance":973,"transit":false,"station_name":"Gang Sentiong","line":11,"is_transit":false}],[{"transit":false,"line":4,"is_transit":false,"station_id":"TPK","i_lat":-6.1109480000000005,"distance":0,"time":0,"station_name":"Tanjung Priuk","i_long":106.880089},{"line":4,"time":9,"transit":false,"is_transit":false,"i_long":106.84464,"distance":4566,"station_id":"AC","i_lat":-6.128023,"station_name":"Ancol"},{"time":4,"station_id":"KPB","is_transit":true,"i_lat":-6.132549,"line":4,"i_long":106.826365,"station_name":"Kampung Bandan","distance":2185,"transit":true},{"station_name":"Jakarta Kota","is_transit":true,"i_lat":-6.137569,"transit":true,"time":3,"station_id":"JAKK","i_long":106.812439,"line":2,"distance":1364},{"distance":1264,"is_transit":false,"line":2,"i_long":106.820901,"time":4,"station_id":"JAY","transit":false,"station_name":"Jayakarta","i_lat":-6.141205},{"transit":false,"i_long":106.82482,"distance":1080,"is_transit":false,"i_lat":-6.149769,"station_name":"Manggabesar","station_id":"MGB","time":2,"line":2},{"is_transit":false,"time":2,"distance":906,"station_name":"Sawah Besar","station_id":"SW","transit":false,"i_lat":-6.160725,"line":2,"i_long":106.827103},{"i_long":106.828284,"station_id":"JUA","is_transit":false,"line":2,"station_name":"Juanda","distance":1149,"i_lat":-6.166716,"transit":false,"time":2},{"station_id":"GDD","i_lat":-6.186295,"time":4,"station_name":"Gondangdia","distance":2015,"is_transit":false,"transit":false,"i_long":106.832183,"line":2},{"station_id":"CKI","is_transit":false,"i_lat":-6.198556,"time":3,"station_name":"Cikini","line":2,"i_long":106.840169,"transit":false,"distance":1750},{"transit":true,"i_long":106.84912,"distance":1590,"time":4,"line":2,"station_id":"MRI","is_transit":true,"station_name":"Manggarai","i_lat":-6.209883},{"i_lat":-6.212485,"i_long":106.858896,"is_transit":false,"line":1,"time":2,"station_id":"MTR","transit":false,"station_name":"Matraman","distance":1275},{"transit":true,"i_long":106.86807400000001,"line":1,"is_transit":true,"distance":1377,"station_id":"JNG","i_lat":-6.215091,"station_name":"Jatinegara","time":8},{"i_lat":-6.209188,"time":2,"distance":1236,"station_id":"POK","line":11,"station_name":"Pondok Jati","i_long":106.861737,"is_transit":false,"transit":false},{"station_id":"KMT","transit":false,"line":11,"i_long":106.855437,"time":2,"station_name":"Kramat","is_transit":false,"i_lat":-6.193792,"distance":1829},{"station_id":"GST","transit":false,"i_lat":-6.185975,"i_long":106.850107,"distance":973,"time":1,"is_transit":false,"line":11,"station_name":"Gang Sentiong"}]]}