{"data":[[{"i_long":106.880089,"distance":0,"i_lat":-6.1109480000000005,"station_id":"TPK","transit":false,"line":4,"station_name":"Tanjung Priuk","time":0,"is_transit":false},{"is_transit":false,"time":9,"distance":4566,"i_lat":-6.128023,"station_id":"AC","line":4,"station_name":"Ancol","transit":false,"i_long":106.84464},{"distance":2185,"station_name":"Kampung Bandan","is_transit":true,"i_lat":-6.132549,"transit":true,"time":4,"station_id":"KPB","i_long":106.826365,"line":4},{"transit":false,"station_name":"Rajawali","distance":1444,"is_transit":false,"i_long":106.836569,"time":3,"station_id":"RJW","i_lat":-6.14505,"line":11},{"station_id":"KMO","station_name":"Kemayoran","time":5,"distance":1901,"is_transit":false,"i_long":106.839204,"line":11,"i_lat":-6.161728,"transit":false},{"line":11,"is_transit":false,"transit":false,"i_long":106.84368,"distance":1436,"time":4,"station_id":"PSE","station_name":"Pasar Senen","i_lat":-6.174784},{"is_transit":false,"station_name":"Gang Sentiong","distance":1567,"i_lat":-6.185975,"transit":false,"i_long":106.850107,"line":11,"station_id":"GST","time":8},{"station_id":"KMT","distance":973,"i_long":106.855437,"time":1,"line":11,"station_name":"Kramat","transit":false,"i_lat":-6.193792,"is_transit":false},{"is_transit":false,"time":2,"station_id":"POK","i_lat":-6.209188,"line":11,"transit":false,"i_long":106.861737,"station_name":"Pondok Jati","distance":1829},{"transit":true,"time":9,"station_name":"Jatinegara","i_lat":-6.215091,"line":1,"distance":1236,"is_transit":true,"station_id":"JNG","i_long":106.86807400000001},{"distance":3395,"station_id":"KLD","station_name":"Klender","i_lat":-6.2135,"is_transit":false,"transit":false,"time":3,"i_long":106.899548,"line":1},{"transit":false,"station_name":"Buaran","i_long":106.922662,"line":1,"station_id":"BUA","is_transit":false,"i_lat":-6.215568,"distance":3100,"time":2},{"line":1,"distance":1305,"i_long":106.939679,"time":1,"station_id":"KLDB","i_lat":-6.217455,"transit":false,"is_transit":false,"station_name":"Klenderbaru"},{"i_lat":-6.219053,"is_transit":false,"distance":1385,"station_name":"Cakung","i_long":106.951283,"time":8,"transit":false,"line":1,"station_id":"CUK"}],[{"station_name":"Tanjung Priuk","distance":0,"time":0,"transit":false,"i_lat":-6.1109480000000005,"is_transit":false,"i_long":106.880089,"line":4,"station_id":"TPK"},{"distance":4566,"transit":false,"station_name":"Ancol","i_lat":-6.128023,"is_transit":false,"i_long":106.84464,"station_id":"AC","line":4,"time":9},{"line":4,"transit":true,"is_transit":true,"time":4,"station_name":"Kampung Bandan","station_id":"KPB","i_lat":-6.132549,"i_long":106.826365,"distance":2185},{"distance":4102,"i_lat":-6.144674,"time":9,"station_id":"AK","station_name":"Angke","is_transit":false,"transit":false,"line":1,"i_long":106.79867},{"line":1,"distance":1230,"is_transit":false,"transit":false,"station_name":"Duri","i_lat":-6.155215,"time":4,"i_long":106.800832,"station_id":"DU"},{"distance":3632,"station_id":"THB","i_lat":-6.185545,"i_long":106.811091,"line":1,"is_transit":false,"transit":false,"time":8,"station_name":"Tanah Abang"},{"line":1,"i_lat":-6.20132,"station_name":"Karet","i_long":106.816351,"distance":2029,"is_transit":false,"transit":false,"station_id":"KAT","time":5},{"is_transit":false,"distance":471,"transit":false,"i_long":106.819881,"line":1,"station_name":"Sudirman Baru","time":1,"i_lat":-6.201433,"station_id":"SUDB"},{"line":1,"i_long":106.822649,"time":1,"is_transit":false,"transit":false,"station_id":"SUD","distance":280,"station_name":"Sudirman","i_lat":-6.202263},{"i_lat":-6.209883,"is_transit":false,"line":2,"distance":3186,"time":4,"station_name":"Manggarai","i_long":106.84912,"station_id":"MRI","transit":false},{"is_transit":false,"distance":1275,"i_lat":-6.212485,"station_name":"Matraman","station_id":"MTR","i_long":106.858896,"line":1,"time":2,"transit":false},{"is_transit":false,"time":8,"line":1,"distance":1377,"i_long":106.86807400000001,"station_id":"JNG","station_name":"Jatinegara","i_lat":-6.215091,"transit":false},{"line":1,"station_id":"KLD","station_name":"Klender","time":3,"distance":3395,"i_lat":-6.2135,"transit":false,"is_transit":false,"i_long":106.899548},{"line":1,"time":2,"distance":3100,"transit":false,"is_transit":false,"station_name":"Buaran","i_long":106.922662,"station_id":"BUA","i_lat":-6.215568},{"transit":false,"station_name":"Klenderbaru","distance":1305,"i_lat":-6.217455,"i_long":106.939679,"line":1,"is_transit":false,"time":1,"station_id":"KLDB"},{"i_lat":-6.219053,"transit":false,"line":1,"is_transit":false,"distance":1385,"time":8,"station_name":"Cakung","i_long":106.951283,"station_id":"CUK"}],[{"i_lat":-6.1109480000000005,"time":0,"is_transit":false,"i_long":106.880089,"station_name":"Tanjung Priuk","station_id":"TPK","distance":0,"transit":false,"line":4},{"station_id":"AC","i_lat":-6.128023,"time":9,"station_name":"Ancol","is_transit":false,"i_long":106.84464,"line":4,"transit":false,"distance":4566},{"transit":true,"station_name":"Kampung Bandan","station_id":"KPB","line":4,"time":4,"is_transit":true,"i_lat":-6.132549,"i_long":106.826365,"distance":2185},{"i_long":106.812439,"is_transit":true,"i_lat":-6.137569,"time":3,"station_id":"JAKK","transit":true,"line":2,"distance":1364,"station_name":"Jakarta Kota"},{"line":2,"time":4,"is_transit":false,"station_id":"JAY","distance":1264,"station_name":"Jayakarta","i_lat":-6.141205,"i_long":106.820901,"transit":false},{"time":2,"is_transit":false,"transit":false,"i_lat":-6.149769,"i_long":106.82482,"distance":1080,"line":2,"station_id":"MGB","station_name":"Manggabesar"},{"transit":false,"distance":906,"station_name":"Sawah Besar","station_id":"SW","is_transit":false,"i_long":106.827103,"line":2,"time":2,"i_lat":-6.160725},{"is_transit":false,"station_id":"JUA","line":2,"station_name":"Juanda","i_long":106.828284,"transit":false,"distance":1149,"time":2,"i_lat":-6.166716},{"i_lat":-6.186295,"is_transit":false,"distance":2015,"transit":false,"i_long":106.832183,"line":2,"station_id":"GDD","station_name":"Gondangdia","time":4},{"line":2,"station_id":"CKI","distance":1750,"time":3,"is_transit":false,"i_lat":-6.198556,"transit":false,"station_name":"Cikini","i_long":106.840169},{"transit":true,"time":4,"station_id":"MRI","i_lat":-6.209883,"line":2,"is_transit":true,"distance":1590,"station_name":"Manggarai","i_long":106.84912},{"i_lat":-6.212485,"station_id":"MTR","distance":1275,"station_name":"Matraman","is_transit":false,"transit":false,"i_long":106.858896,"line":1,"time":2},{"line":1,"i_long":106.86807400000001,"station_id":"JNG","i_lat":-6.215091,"is_transit":false,"distance":1377,"station_name":"Jatinegara","transit":false,"time":8},{"time":3,"distance":3395,"i_long":106.899548,"station_id":"KLD","transit":false,"i_lat":-6.2135,"line":1,"station_name":"Klender","is_transit":false},{"i_lat":-6.215568,"distance":3100,"line":1,"i_long":106.922662,"is_transit":false,"time":2,"station_id":"BUA","transit":false,"station_name":"Buaran"},{"station_name":"Klenderbaru","i_long":106.939679,"transit":false,"time":1,"i_lat":-6.217455,"line":1,"is_transit":false,"distance":1305,"station_id":"KLDB"},{"time":8,"station_name":"Cakung","i_long":106.951283,"i_lat":-6.219053,"is_transit":false,"line":1,"station_id":"CUK","distance":1385,"transit":false}]]}