{"data":[[{"is_transit":false,"i_long":106.880089,"i_lat":-6.1109480000000005,"station_name":"Tanjung Priuk","line":4,"station_id":"TPK","distance":0,"transit":false,"time":0},{"time":9,"i_long":106.84464,"line":4,"transit":false,"station_name":"Ancol","distance":4566,"station_id":"AC","is_transit":false,"i_lat":-6.128023},{"i_long":106.826365,"station_id":"KPB","station_name":"Kampung Bandan","line":4,"time":4,"transit":true,"distance":2185,"i_lat":-6.132549,"is_transit":true},{"is_transit":false,"station_id":"RJW","i_lat":-6.14505,"line":11,"transit":false,"station_name":"Rajawali","i_long":106.836569,"distance":1444,"time":3},{"distance":1901,"transit":false,"time":5,"i_long":106.839204,"station_name":"Kemayoran","station_id":"KMO","i_lat":-6.161728,"line":11,"is_transit":false},{"station_name":"Pasar Senen","station_id":"PSE","is_transit":false,"transit":false,"distance":1436,"i_lat":-6.174784,"i_long":106.84368,"line":11,"time":4},{"is_transit":false,"line":11,"i_lat":-6.185975,"station_id":"GST","transit":false,"i_long":106.850107,"distance":1567,"time":8,"station_name":"Gang Sentiong"},{"distance":973,"time":1,"station_id":"KMT","transit":false,"station_name":"Kramat","i_lat":-6.193792,"i_long":106.855437,"line":11,"is_transit":false},{"station_id":"POK","station_name":"Pondok Jati","is_transit":false,"distance":1829,"i_lat":-6.209188,"transit":false,"line":11,"i_long":106.861737,"time":2},{"station_name":"Jatinegara","i_lat":-6.215091,"is_transit":false,"transit":false,"distance":1236,"station_id":"JNG","time":9,"i_long":106.86807400000001,"line":1}],[{"transit":false,"line":4,"time":0,"station_id":"TPK","distance":0,"is_transit":false,"station_name":"Tanjung Priuk","i_long":106.880089,"i_lat":-6.1109480000000005},{"i_lat":-6.128023,"distance":4566,"station_id":"AC","time":9,"i_long":106.84464,"is_transit":false,"transit":false,"station_name":"Ancol","line":4},{"i_lat":-6.132549,"distance":2185,"transit":true,"i_long":106.826365,"station_id":"KPB","station_name":"Kampung Bandan","line":4,"time":4,"is_transit":true},{"line":1,"station_name":"Angke","time":9,"transit":false,"distance":4102,"is_transit":false,"i_lat":-6.144674,"station_id":"AK","i_long":106.79867},{"station_name":"Duri","transit":false,"i_lat":-6.155215,"distance":1230,"is_transit":false,"line":1,"station_id":"DU","i_long":106.800832,"time":4},{"is_transit":false,"transit":false,"station_name":"Tanah Abang","station_id":"THB","distance":3632,"line":1,"i_lat":-6.185545,"i_long":106.811091,"time":8},{"i_long":106.816351,"distance":2029,"is_transit":false,"station_name":"Karet","transit":false,"line":1,"station_id":"KAT","i_lat":-6.20132,"time":5},{"time":1,"i_lat":-6.201433,"distance":471,"i_long":106.819881,"station_id":"SUDB","line":1,"station_name":"Sudirman Baru","is_transit":false,"transit":false},{"is_transit":false,"i_long":106.822649,"line":1,"time":1,"i_lat":-6.202263,"distance":280,"station_id":"SUD","station_name":"Sudirman","transit":false},{"distance":3186,"is_transit":false,"transit":false,"station_id":"MRI","i_long":106.84912,"station_name":"Manggarai","time":4,"i_lat":-6.209883,"line":2},{"distance":1275,"transit":false,"time":2,"i_long":106.858896,"is_transit":false,"line":1,"station_id":"MTR","station_name":"Matraman","i_lat":-6.212485},{"is_transit":false,"distance":1377,"station_name":"Jatinegara","transit":false,"station_id":"JNG","i_lat":-6.215091,"i_long":106.86807400000001,"time":8,"line":1}],[{"time":0,"i_lat":-6.1109480000000005,"i_long":106.880089,"transit":false,"station_id":"TPK","is_transit":false,"station_name":"Tanjung Priuk","line":4,"distance":0},{"time":9,"transit":false,"line":4,"station_name":"Ancol","is_transit":false,"i_long":106.84464,"distance":4566,"station_id":"AC","i_lat":-6.128023},{"i_lat":-6.132549,"i_long":106.826365,"distance":2185,"line":4,"station_name":"Kampung Bandan","transit":true,"is_transit":true,"station_id":"KPB","time":4},{"time":3,"is_transit":true,"station_name":"Jakarta Kota","i_lat":-6.137569,"i_long":106.812439,"line":2,"station_id":"JAKK","transit":true,"distance":1364},{"line":2,"distance":1264,"station_id":"JAY","station_name":"Jayakarta","i_lat":-6.141205,"i_long":106.820901,"time":4,"is_transit":false,"transit":false},{"is_transit":false,"station_name":"Manggabesar","i_lat":-6.149769,"transit":false,"i_long":106.82482,"line":2,"distance":1080,"time":2,"station_id":"MGB"},{"i_long":106.827103,"line":2,"time":2,"distance":906,"transit":false,"station_name":"Sawah Besar","i_lat":-6.160725,"is_transit":false,"station_id":"SW"},{"i_long":106.828284,"station_id":"JUA","is_transit":false,"transit":false,"i_lat":-6.166716,"station_name":"Juanda","distance":1149,"line":2,"time":2},{"distance":2015,"line":2,"station_id":"GDD","i_long":106.832183,"i_lat":-6.186295,"time":4,"transit":false,"is_transit":false,"station_name":"Gondangdia"},{"i_lat":-6.198556,"is_transit":false,"station_id":"CKI","distance":1750,"transit":false,"time":3,"station_name":"Cikini","line":2,"i_long":106.840169},{"is_transit":true,"station_id":"MRI","i_long":106.84912,"transit":true,"distance":1590,"time":4,"station_name":"Manggarai","line":2,"i_lat":-6.209883},{"transit":false,"i_long":106.858896,"station_name":"Matraman","i_lat":-6.212485,"time":2,"distance":1275,"is_transit":false,"station_id":"MTR","line":1},{"station_id":"JNG","distance":1377,"i_lat":-6.215091,"transit":false,"time":8,"i_long":106.86807400000001,"line":1,"station_name":"Jatinegara","is_transit":false}]]}