{"data":[[{"transit":false,"i_long":106.880089,"distance":0,"station_name":"Tanjung Priuk","line":4,"is_transit":false,"station_id":"TPK","i_lat":-6.1109480000000005,"time":0},{"is_transit":false,"transit":false,"time":9,"i_long":106.84464,"distance":4566,"line":0,"i_lat":-6.128023,"station_name":"Ancol","station_id":"AC"},{"i_lat":-6.132549,"transit":false,"distance":2185,"line":0,"station_name":"Kampung Bandan","station_id":"KPB","is_transit":true,"i_long":106.826365,"time":4},{"station_id":"AK","station_name":"Angke","is_transit":false,"line":0,"distance":4102,"transit":false,"time":9,"i_lat":-6.144674,"i_long":106.79867},{"i_long":106.800832,"station_name":"Duri","i_lat":-6.155215,"time":4,"transit":true,"is_transit":true,"distance":1230,"station_id":"DU","line":1},{"station_id":"THB","transit":true,"distance":3632,"time":8,"line":1,"is_transit":true,"i_long":106.811091,"station_name":"Tanah Abang","i_lat":-6.185545},{"time":6,"distance":3191,"transit":false,"station_name":"Palmerah","station_id":"PLM","i_lat":-6.207404,"i_long":106.79689,"is_transit":false,"line":6},{"station_name":"Kebayoran","time":7,"station_id":"KBY","line":6,"is_transit":false,"distance":3737,"i_long":106.780334,"i_lat":-6.237242,"transit":false},{"time":8,"transit":false,"is_transit":false,"i_lat":-6.276362,"station_name":"Pondokranji","station_id":"PDJ","distance":6218,"i_long":106.74273,"line":6},{"distance":2179,"i_long":106.728916,"line":6,"is_transit":false,"time":3,"station_id":"JMU","station_name":"Jurangmangu","transit":false,"i_lat":-6.288927},{"station_name":"Sudimara","station_id":"SDM","time":4,"i_lat":-6.296963,"transit":false,"i_long":106.712277,"distance":1994,"line":6,"is_transit":false},{"transit":false,"station_id":"RU","line":6,"distance":4566,"time":6,"i_lat":-6.314823,"i_long":106.675475,"is_transit":false,"station_name":"Rawa Buntu"},{"i_long":106.66566,"transit":false,"is_transit":false,"station_id":"SRP","station_name":"Serpong","time":4,"distance":2413,"i_lat":-6.319871,"line":6},{"station_id":"CSK","distance":1784,"is_transit":false,"transit":false,"line":0,"i_lat":-6.32484,"station_name":"Cisauk","i_long":106.640411,"time":4},{"transit":false,"time":4,"i_lat":-6.329547,"line":0,"i_long":106.617853,"is_transit":false,"station_id":"CC","station_name":"Cicayur","distance":2519},{"i_lat":-6.3441410000000005,"station_id":"PRP","distance":5968,"station_name":"Parung Panjang","transit":false,"line":6,"is_transit":false,"time":8,"i_long":106.568863},{"i_long":106.508482,"line":0,"station_id":"CJT","station_name":"Cilejit","is_transit":false,"i_lat":-6.354349,"transit":false,"distance":7025,"time":9},{"time":6,"distance":2675,"is_transit":false,"station_name":"Daru","station_id":"DAR","i_lat":-6.338021,"i_long":106.491338,"transit":false,"line":0},{"time":5,"i_long":106.460812,"station_id":"TEJ","line":6,"station_name":"Tenjo","distance":3902,"is_transit":false,"transit":false,"i_lat":-6.327251},{"i_long":106.425991,"distance":2974,"line":6,"i_lat":-6.328533,"is_transit":false,"station_id":"TGS","transit":false,"time":5,"station_name":"Tigaraksa"},{"distance":2651,"transit":false,"line":0,"is_transit":false,"station_name":"Cikoya","i_lat":-6.33561,"i_long":106.411216,"station_id":"CKY","time":3},{"is_transit":false,"distance":1853,"station_name":"Maja","transit":false,"time":4,"i_long":106.394373,"i_lat":-6.332307,"line":6,"station_id":"MJ"}],[{"station_id":"TPK","line":4,"is_transit":false,"transit":false,"i_lat":-6.1109480000000005,"station_name":"Tanjung Priuk","i_long":106.880089,"distance":0,"time":0},{"line":0,"is_transit":false,"i_long":106.84464,"station_name":"Ancol","distance":4566,"i_lat":-6.128023,"transit":false,"station_id":"AC","time":9},{"is_transit":true,"station_id":"KPB","transit":false,"i_long":106.826365,"line":0,"time":4,"station_name":"Kampung Bandan","i_lat":-6.132549,"distance":2185},{"i_lat":-6.137569,"i_long":106.812439,"station_id":"JAKK","distance":1364,"time":3,"is_transit":true,"line":0,"station_name":"Jakarta Kota","transit":true},{"transit":false,"distance":1264,"station_id":"JAY","station_name":"Jayakarta","i_lat":-6.141205,"i_long":106.820901,"is_transit":false,"time":4,"line":7},{"transit":false,"i_long":106.82482,"line":2,"is_transit":false,"station_name":"Manggabesar","i_lat":-6.149769,"time":2,"distance":1080,"station_id":"MGB"},{"i_long":106.827103,"time":2,"station_id":"SW","station_name":"Sawah Besar","distance":906,"line":2,"i_lat":-6.160725,"transit":false,"is_transit":false},{"distance":1149,"is_transit":false,"station_id":"JUA","time":2,"station_name":"Juanda","i_long":106.828284,"i_lat":-6.166716,"line":2,"transit":false},{"i_lat":-6.186295,"i_long":106.832183,"station_id":"GDD","distance":2015,"station_name":"Gondangdia","is_transit":false,"transit":false,"line":2,"time":4},{"line":0,"time":3,"is_transit":false,"station_id":"CKI","i_lat":-6.198556,"transit":false,"station_name":"Cikini","i_long":106.840169,"distance":1750},{"i_lat":-6.209883,"transit":true,"distance":1590,"is_transit":true,"line":0,"i_long":106.84912,"time":4,"station_name":"Manggarai","station_id":"MRI"},{"time":4,"station_id":"SUD","distance":3186,"transit":false,"line":1,"i_lat":-6.202263,"i_long":106.822649,"is_transit":false,"station_name":"Sudirman"},{"station_id":"SUDB","transit":false,"time":1,"i_lat":-6.201433,"i_long":106.819881,"station_name":"Sudirman Baru","is_transit":false,"line":1,"distance":280},{"is_transit":false,"transit":false,"i_lat":-6.20132,"time":1,"station_id":"KAT","line":1,"station_name":"Karet","i_long":106.816351,"distance":471},{"i_long":106.811091,"station_name":"Tanah Abang","is_transit":true,"transit":true,"time":5,"i_lat":-6.185545,"distance":2029,"line":1,"station_id":"THB"},{"station_id":"PLM","is_transit":false,"transit":false,"time":6,"distance":3191,"i_lat":-6.207404,"station_name":"Palmerah","line":6,"i_long":106.79689},{"i_long":106.780334,"line":6,"station_id":"KBY","i_lat":-6.237242,"is_transit":false,"station_name":"Kebayoran","time":7,"distance":3737,"transit":false},{"i_long":106.74273,"line":6,"station_id":"PDJ","is_transit":false,"distance":6218,"i_lat":-6.276362,"time":8,"station_name":"Pondokranji","transit":false},{"is_transit":false,"i_lat":-6.288927,"station_name":"Jurangmangu","time":3,"line":6,"distance":2179,"station_id":"JMU","transit":false,"i_long":106.728916},{"time":4,"i_long":106.712277,"line":6,"distance":1994,"i_lat":-6.296963,"is_transit":false,"station_id":"SDM","station_name":"Sudimara","transit":false},{"station_name":"Rawa Buntu","time":6,"distance":4566,"line":6,"station_id":"RU","i_lat":-6.314823,"i_long":106.675475,"is_transit":false,"transit":false},{"is_transit":false,"station_id":"SRP","transit":false,"time":4,"distance":2413,"i_lat":-6.319871,"i_long":106.66566,"station_name":"Serpong","line":6},{"station_name":"Cisauk","line":0,"distance":1784,"time":4,"i_lat":-6.32484,"station_id":"CSK","i_long":106.640411,"is_transit":false,"transit":false},{"time":4,"transit":false,"i_lat":-6.329547,"i_long":106.617853,"distance":2519,"station_id":"CC","line":0,"station_name":"Cicayur","is_transit":false},{"is_transit":false,"line":6,"station_name":"Parung Panjang","time":8,"i_long":106.568863,"i_lat":-6.3441410000000005,"distance":5968,"transit":false,"station_id":"PRP"},{"distance":7025,"station_name":"Cilejit","is_transit":false,"station_id":"CJT","transit":false,"time":9,"i_lat":-6.354349,"i_long":106.508482,"line":0},{"transit":false,"station_name":"Daru","i_long":106.491338,"time":6,"distance":2675,"station_id":"DAR","line":0,"i_lat":-6.338021,"is_transit":false},{"i_long":106.460812,"i_lat":-6.327251,"is_transit":false,"time":5,"station_name":"Tenjo","transit":false,"line":6,"distance":3902,"station_id":"TEJ"},{"time":5,"line":6,"transit":false,"i_lat":-6.328533,"station_id":"TGS","station_name":"Tigaraksa","distance":2974,"is_transit":false,"i_long":106.425991},{"line":0,"station_id":"CKY","i_long":106.411216,"i_lat":-6.33561,"distance":2651,"transit":false,"is_transit":false,"station_name":"Cikoya","time":3},{"i_long":106.394373,"station_id":"MJ","time":4,"transit":false,"i_lat":-6.332307,"is_transit":false,"distance":1853,"station_name":"Maja","line":6}],[{"is_transit":false,"station_id":"TPK","time":0,"distance":0,"station_name":"Tanjung Priuk","i_lat":-6.1109480000000005,"line":4,"transit":false,"i_long":106.880089},{"station_id":"AC","time":9,"i_long":106.84464,"distance":4566,"is_transit":false,"station_name":"Ancol","transit":false,"line":0,"i_lat":-6.128023},{"i_lat":-6.132549,"is_transit":true,"transit":true,"i_long":106.826365,"line":0,"distance":2185,"station_name":"Kampung Bandan","time":4,"station_id":"KPB"},{"transit":false,"i_long":106.836569,"station_id":"RJW","station_name":"Rajawali","distance":1444,"time":3,"i_lat":-6.14505,"is_transit":false,"line":11},{"distance":1901,"time":5,"i_lat":-6.161728,"transit":false,"is_transit":false,"station_name":"Kemayoran","i_long":106.839204,"station_id":"KMO","line":11},{"distance":1436,"station_name":"Pasar Senen","is_transit":false,"time":4,"i_long":106.84368,"transit":false,"line":11,"i_lat":-6.174784,"station_id":"PSE"},{"line":11,"transit":false,"i_long":106.850107,"station_id":"GST","is_transit":false,"distance":1567,"station_name":"Gang Sentiong","i_lat":-6.185975,"time":8},{"distance":973,"station_name":"Kramat","i_lat":-6.193792,"i_long":106.855437,"line":11,"transit":false,"time":1,"is_transit":false,"station_id":"KMT"},{"i_long":106.861737,"i_lat":-6.209188,"transit":false,"distance":1829,"is_transit":false,"station_id":"POK","station_name":"Pondok Jati","time":2,"line":11},{"line":0,"is_transit":true,"distance":1236,"time":9,"station_id":"JNG","station_name":"Jatinegara","transit":true,"i_lat":-6.215091,"i_long":106.86807400000001},{"i_long":106.858896,"i_lat":-6.212485,"transit":false,"time":2,"station_name":"Matraman","line":1,"distance":1377,"is_transit":false,"station_id":"MTR"},{"line":0,"station_id":"MRI","station_name":"Manggarai","i_long":106.84912,"transit":false,"time":2,"i_lat":-6.209883,"is_transit":true,"distance":1275},{"i_lat":-6.202263,"transit":false,"station_id":"SUD","station_name":"Sudirman","i_long":106.822649,"line":1,"distance":3186,"is_transit":false,"time":4},{"i_long":106.819881,"transit":false,"station_name":"Sudirman Baru","distance":280,"is_transit":false,"station_id":"SUDB","time":1,"i_lat":-6.201433,"line":1},{"distance":471,"time":1,"station_name":"Karet","station_id":"KAT","transit":false,"is_transit":false,"i_lat":-6.20132,"i_long":106.816351,"line":1},{"transit":true,"i_lat":-6.185545,"i_long":106.811091,"line":1,"is_transit":true,"station_name":"Tanah Abang","station_id":"THB","distance":2029,"time":5},{"time":6,"i_lat":-6.207404,"is_transit":false,"station_name":"Palmerah","distance":3191,"i_long":106.79689,"transit":false,"line":6,"station_id":"PLM"},{"line":6,"time":7,"i_lat":-6.237242,"station_id":"KBY","station_name":"Kebayoran","is_transit":false,"distance":3737,"transit":false,"i_long":106.780334},{"transit":false,"station_name":"Pondokranji","time":8,"i_lat":-6.276362,"distance":6218,"i_long":106.74273,"line":6,"is_transit":false,"station_id":"PDJ"},{"i_lat":-6.288927,"time":3,"i_long":106.728916,"station_id":"JMU","line":6,"distance":2179,"is_transit":false,"station_name":"Jurangmangu","transit":false},{"station_id":"SDM","line":6,"i_long":106.712277,"distance":1994,"i_lat":-6.296963,"station_name":"Sudimara","transit":false,"is_transit":false,"time":4},{"time":6,"i_lat":-6.314823,"i_long":106.675475,"is_transit":false,"distance":4566,"transit":false,"station_name":"Rawa Buntu","line":6,"station_id":"RU"},{"time":4,"distance":2413,"transit":false,"i_lat":-6.319871,"i_long":106.66566,"line":6,"station_name":"Serpong","is_transit":false,"station_id":"SRP"},{"line":0,"i_lat":-6.32484,"distance":1784,"station_id":"CSK","is_transit":false,"time":4,"station_name":"Cisauk","transit":false,"i_long":106.640411},{"time":4,"i_long":106.617853,"station_id":"CC","distance":2519,"station_name":"Cicayur","line":0,"i_lat":-6.329547,"transit":false,"is_transit":false},{"time":8,"station_id":"PRP","transit":false,"station_name":"Parung Panjang","i_lat":-6.3441410000000005,"line":6,"distance":5968,"is_transit":false,"i_long":106.568863},{"time":9,"transit":false,"is_transit":false,"i_lat":-6.354349,"distance":7025,"station_id":"CJT","i_long":106.508482,"line":0,"station_name":"Cilejit"},{"line":0,"distance":2675,"i_lat":-6.338021,"station_id":"DAR","transit":false,"station_name":"Daru","time":6,"is_transit":false,"i_long":106.491338},{"station_id":"TEJ","transit":false,"time":5,"station_name":"Tenjo","is_transit":false,"i_long":106.460812,"distance":3902,"line":6,"i_lat":-6.327251},{"time":5,"distance":2974,"station_name":"Tigaraksa","i_lat":-6.328533,"transit":false,"station_id":"TGS","is_transit":false,"i_long":106.425991,"line":6},{"station_id":"CKY","i_lat":-6.33561,"is_transit":false,"station_name":"Cikoya","time":3,"distance":2651,"line":0,"transit":false,"i_long":106.411216},{"is_transit":false,"station_id":"MJ","station_name":"Maja","transit":false,"time":4,"line":6,"i_lat":-6.332307,"distance":1853,"i_long":106.394373}]]}