{"data":[[{"distance":0,"time":0,"i_lat":-6.1109480000000005,"i_long":106.880089,"line":4,"station_name":"Tanjung Priuk","transit":false,"is_transit":false,"station_id":"TPK"},{"is_transit":false,"i_lat":-6.128023,"station_name":"Ancol","station_id":"AC","transit":false,"i_long":106.84464,"line":4,"time":9,"distance":4566},{"time":4,"i_long":106.826365,"transit":true,"distance":2185,"i_lat":-6.132549,"station_id":"KPB","line":4,"is_transit":true,"station_name":"Kampung Bandan"},{"is_transit":false,"transit":false,"station_id":"RJW","distance":1444,"station_name":"Rajawali","time":3,"i_long":106.836569,"i_lat":-6.14505,"line":11},{"i_long":106.839204,"distance":1901,"station_id":"KMO","transit":false,"is_transit":false,"line":11,"station_name":"Kemayoran","i_lat":-6.161728,"time":5},{"is_transit":false,"i_long":106.84368,"transit":false,"station_id":"PSE","time":4,"distance":1436,"i_lat":-6.174784,"station_name":"Pasar Senen","line":11},{"time":8,"station_name":"Gang Sentiong","distance":1567,"is_transit":false,"i_long":106.850107,"transit":false,"i_lat":-6.185975,"line":11,"station_id":"GST"},{"station_id":"KMT","line":11,"is_transit":false,"time":1,"station_name":"Kramat","i_lat":-6.193792,"i_long":106.855437,"distance":973,"transit":false}],[{"time":0,"station_id":"TPK","transit":false,"distance":0,"line":4,"i_long":106.880089,"station_name":"Tanjung Priuk","i_lat":-6.1109480000000005,"is_transit":false},{"line":4,"i_long":106.84464,"station_id":"AC","station_name":"Ancol","distance":4566,"i_lat":-6.128023,"time":9,"transit":false,"is_transit":false},{"i_lat":-6.132549,"station_name":"Kampung Bandan","station_id":"KPB","transit":true,"i_long":106.826365,"is_transit":true,"time":4,"line":4,"distance":2185},{"is_transit":false,"i_long":106.79867,"i_lat":-6.144674,"time":9,"station_name":"Angke","distance":4102,"line":1,"transit":false,"station_id":"AK"},{"time":4,"is_transit":false,"station_id":"DU","i_long":106.800832,"station_name":"Duri","distance":1230,"i_lat":-6.155215,"line":1,"transit":false},{"line":1,"distance":3632,"time":8,"i_lat":-6.185545,"transit":false,"station_name":"Tanah Abang","i_long":106.811091,"station_id":"THB","is_transit":false},{"is_transit":false,"distance":2029,"i_lat":-6.20132,"time":5,"line":1,"station_name":"Karet","station_id":"KAT","i_long":106.816351,"transit":false},{"station_name":"Sudirman Baru","time":1,"distance":471,"i_lat":-6.201433,"i_long":106.819881,"transit":false,"station_id":"SUDB","is_transit":false,"line":1},{"line":1,"transit":false,"station_name":"Sudirman","distance":280,"i_long":106.822649,"time":1,"is_transit":false,"i_lat":-6.202263,"station_id":"SUD"},{"is_transit":false,"station_name":"Manggarai","time":4,"i_long":106.84912,"station_id":"MRI","distance":3186,"i_lat":-6.209883,"line":2,"transit":false},{"station_id":"MTR","line":1,"is_transit":false,"i_lat":-6.212485,"time":2,"station_name":"Matraman","i_long":106.858896,"transit":false,"distance":1275},{"time":8,"station_id":"JNG","i_long":106.86807400000001,"station_name":"Jatinegara","is_transit":true,"i_lat":-6.215091,"transit":true,"distance":1377,"line":1},{"station_name":"Pondok Jati","station_id":"POK","i_lat":-6.209188,"transit":false,"is_transit":false,"time":2,"distance":1236,"line":11,"i_long":106.861737},{"distance":1829,"line":11,"station_id":"KMT","i_lat":-6.193792,"transit":false,"station_name":"Kramat","is_transit":false,"time":2,"i_long":106.855437}],[{"station_id":"TPK","distance":0,"i_lat":-6.1109480000000005,"i_long":106.880089,"time":0,"line":4,"transit":false,"station_name":"Tanjung Priuk","is_transit":false},{"line":4,"distance":4566,"station_id":"AC","i_lat":-6.128023,"station_name":"Ancol","is_transit":false,"transit":false,"i_long":106.84464,"time":9},{"station_id":"KPB","distance":2185,"time":4,"i_long":106.826365,"line":4,"transit":true,"is_transit":true,"i_lat":-6.132549,"station_name":"Kampung Bandan"},{"distance":1364,"station_name":"Jakarta Kota","i_long":106.812439,"transit":true,"is_transit":true,"i_lat":-6.137569,"time":3,"station_id":"JAKK","line":2},{"transit":false,"is_transit":false,"i_lat":-6.141205,"distance":1264,"line":2,"station_name":"Jayakarta","station_id":"JAY","time":4,"i_long":106.820901},{"station_id":"MGB","distance":1080,"line":2,"transit":false,"is_transit":false,"i_long":106.82482,"i_lat":-6.149769,"station_name":"Manggabesar","time":2},{"distance":906,"i_lat":-6.160725,"station_id":"SW","is_transit":false,"transit":false,"station_name":"Sawah Besar","line":2,"time":2,"i_long":106.827103},{"i_long":106.828284,"line":2,"time":2,"transit":false,"station_name":"Juanda","station_id":"JUA","distance":1149,"is_transit":false,"i_lat":-6.166716},{"line":2,"transit":false,"is_transit":false,"i_long":106.832183,"time":4,"distance":2015,"station_name":"Gondangdia","station_id":"GDD","i_lat":-6.186295},{"station_name":"Cikini","is_transit":false,"distance":1750,"line":2,"station_id":"CKI","time":3,"i_lat":-6.198556,"i_long":106.840169,"transit":false},{"station_id":"MRI","time":4,"is_transit":true,"transit":true,"line":2,"station_name":"Manggarai","distance":1590,"i_lat":-6.209883,"i_long":106.84912},{"line":1,"time":2,"is_transit":false,"i_lat":-6.212485,"station_name":"Matraman","station_id":"MTR","transit":false,"distance":1275,"i_long":106.858896},{"station_name":"Jatinegara","i_long":106.86807400000001,"line":1,"i_lat":-6.215091,"is_transit":true,"distance":1377,"transit":true,"station_id":"JNG","time":8},{"station_id":"POK","line":11,"station_name":"Pondok Jati","i_lat":-6.209188,"distance":1236,"transit":false,"is_transit":false,"i_long":106.861737,"time":2},{"transit":false,"line":11,"i_long":106.855437,"time":2,"station_id":"KMT","station_name":"Kramat","i_lat":-6.193792,"is_transit":false,"distance":1829}]]}