{"data":[[{"is_transit":false,"i_long":106.880089,"line":4,"distance":0,"transit":false,"station_name":"Tanjung Priuk","station_id":"TPK","time":0,"i_lat":-6.1109480000000005},{"transit":false,"i_long":106.84464,"distance":4566,"station_id":"AC","i_lat":-6.128023,"time":9,"station_name":"Ancol","is_transit":false,"line":4},{"time":4,"station_name":"Kampung Bandan","i_lat":-6.132549,"distance":2185,"station_id":"KPB","line":4,"is_transit":true,"transit":true,"i_long":106.826365},{"line":1,"i_long":106.79867,"i_lat":-6.144674,"is_transit":false,"station_name":"Angke","time":9,"distance":4102,"station_id":"AK","transit":false},{"is_transit":false,"i_long":106.800832,"time":4,"station_id":"DU","transit":false,"i_lat":-6.155215,"station_name":"Duri","line":1,"distance":1230},{"i_lat":-6.185545,"i_long":106.811091,"is_transit":false,"time":8,"station_name":"Tanah Abang","distance":3632,"station_id":"THB","line":1,"transit":false},{"time":5,"distance":2029,"transit":false,"i_long":106.816351,"line":1,"i_lat":-6.20132,"station_name":"Karet","is_transit":false,"station_id":"KAT"},{"i_long":106.819881,"distance":471,"line":1,"station_id":"SUDB","is_transit":false,"transit":false,"station_name":"Sudirman Baru","i_lat":-6.201433,"time":1},{"station_name":"Sudirman","i_long":106.822649,"time":1,"i_lat":-6.202263,"line":1,"transit":false,"station_id":"SUD","distance":280,"is_transit":false},{"is_transit":true,"distance":3186,"station_id":"MRI","i_long":106.84912,"time":4,"transit":true,"i_lat":-6.209883,"station_name":"Manggarai","line":2},{"time":4,"line":2,"station_id":"TEB","station_name":"Tebet","distance":2610,"i_lat":-6.226659,"transit":false,"is_transit":false,"i_long":106.857948},{"transit":false,"distance":1230,"is_transit":false,"i_long":106.856607,"i_lat":-6.242512,"line":2,"time":2,"station_id":"CW","station_name":"Cawang"},{"time":3,"transit":false,"i_lat":-6.255332,"distance":1546,"station_id":"DRN","is_transit":false,"line":2,"station_name":"Duren Kalibata","i_long":106.85449},{"station_name":"Pasar Minggu Baru","i_lat":-6.263214,"line":2,"station_id":"PSMB","is_transit":false,"distance":824,"i_long":106.851577,"time":2,"transit":false}],[{"line":4,"time":0,"station_id":"TPK","station_name":"Tanjung Priuk","i_lat":-6.1109480000000005,"is_transit":false,"transit":false,"distance":0,"i_long":106.880089},{"is_transit":false,"transit":false,"time":9,"station_name":"Ancol","i_lat":-6.128023,"i_long":106.84464,"distance":4566,"line":4,"station_id":"AC"},{"time":4,"distance":2185,"station_id":"KPB","is_transit":true,"transit":true,"station_name":"Kampung Bandan","i_lat":-6.132549,"line":4,"i_long":106.826365},{"line":2,"station_name":"Jakarta Kota","is_transit":true,"distance":1364,"station_id":"JAKK","i_lat":-6.137569,"transit":true,"time":3,"i_long":106.812439},{"line":2,"distance":1264,"i_long":106.820901,"is_transit":false,"transit":false,"station_name":"Jayakarta","i_lat":-6.141205,"station_id":"JAY","time":4},{"transit":false,"station_id":"MGB","distance":1080,"i_lat":-6.149769,"station_name":"Manggabesar","time":2,"i_long":106.82482,"line":2,"is_transit":false},{"station_id":"SW","station_name":"Sawah Besar","transit":false,"i_long":106.827103,"distance":906,"i_lat":-6.160725,"line":2,"time":2,"is_transit":false},{"is_transit":false,"i_long":106.828284,"line":2,"station_name":"Juanda","time":2,"distance":1149,"transit":false,"i_lat":-6.166716,"station_id":"JUA"},{"i_long":106.832183,"i_lat":-6.186295,"line":2,"time":4,"station_id":"GDD","transit":false,"is_transit":false,"distance":2015,"station_name":"Gondangdia"},{"i_lat":-6.198556,"transit":false,"line":2,"station_id":"CKI","i_long":106.840169,"distance":1750,"time":3,"is_transit":false,"station_name":"Cikini"},{"i_long":106.84912,"line":2,"transit":false,"i_lat":-6.209883,"distance":1590,"time":4,"station_id":"MRI","is_transit":false,"station_name":"Manggarai"},{"distance":2610,"is_transit":false,"time":4,"transit":false,"station_name":"Tebet","line":2,"station_id":"TEB","i_lat":-6.226659,"i_long":106.857948},{"transit":false,"station_name":"Cawang","distance":1230,"station_id":"CW","line":2,"i_lat":-6.242512,"is_transit":false,"i_long":106.856607,"time":2},{"station_name":"Duren Kalibata","transit":false,"i_long":106.85449,"line":2,"station_id":"DRN","distance":1546,"time":3,"i_lat":-6.255332,"is_transit":false},{"i_lat":-6.263214,"line":2,"station_name":"Pasar Minggu Baru","station_id":"PSMB","time":2,"distance":824,"is_transit":false,"transit":false,"i_long":106.851577}],[{"distance":0,"i_lat":-6.1109480000000005,"station_name":"Tanjung Priuk","line":4,"i_long":106.880089,"is_transit":false,"transit":false,"station_id":"TPK","time":0},{"is_transit":false,"i_long":106.84464,"i_lat":-6.128023,"transit":false,"time":9,"station_id":"AC","line":4,"station_name":"Ancol","distance":4566},{"i_long":106.826365,"time":4,"station_id":"KPB","transit":true,"station_name":"Kampung Bandan","i_lat":-6.132549,"is_transit":true,"distance":2185,"line":4},{"line":11,"distance":1444,"station_name":"Rajawali","transit":false,"time":3,"station_id":"RJW","is_transit":false,"i_lat":-6.14505,"i_long":106.836569},{"i_lat":-6.161728,"time":5,"transit":false,"line":11,"is_transit":false,"station_id":"KMO","i_long":106.839204,"distance":1901,"station_name":"Kemayoran"},{"i_long":106.84368,"transit":false,"time":4,"is_transit":false,"distance":1436,"line":11,"station_id":"PSE","station_name":"Pasar Senen","i_lat":-6.174784},{"is_transit":false,"line":11,"station_id":"GST","distance":1567,"station_name":"Gang Sentiong","time":8,"i_long":106.850107,"i_lat":-6.185975,"transit":false},{"line":11,"time":1,"station_name":"Kramat","is_transit":false,"station_id":"KMT","distance":973,"i_lat":-6.193792,"transit":false,"i_long":106.855437},{"is_transit":false,"station_id":"POK","transit":false,"time":2,"station_name":"Pondok Jati","i_lat":-6.209188,"i_long":106.861737,"line":11,"distance":1829},{"station_name":"Jatinegara","distance":1236,"time":9,"is_transit":true,"i_long":106.86807400000001,"line":1,"transit":true,"station_id":"JNG","i_lat":-6.215091},{"i_long":106.858896,"station_id":"MTR","distance":1377,"i_lat":-6.212485,"transit":false,"station_name":"Matraman","line":1,"time":2,"is_transit":false},{"transit":true,"time":2,"station_name":"Manggarai","i_lat":-6.209883,"i_long":106.84912,"distance":1275,"is_transit":true,"station_id":"MRI","line":2},{"is_transit":false,"transit":false,"station_id":"TEB","time":4,"line":2,"i_long":106.857948,"distance":2610,"i_lat":-6.226659,"station_name":"Tebet"},{"distance":1230,"time":2,"i_lat":-6.242512,"station_id":"CW","is_transit":false,"i_long":106.856607,"transit":false,"line":2,"station_name":"Cawang"},{"transit":false,"time":3,"station_id":"DRN","i_lat":-6.255332,"is_transit":false,"distance":1546,"station_name":"Duren Kalibata","line":2,"i_long":106.85449},{"time":2,"transit":false,"i_long":106.851577,"station_name":"Pasar Minggu Baru","i_lat":-6.263214,"station_id":"PSMB","line":2,"distance":824,"is_transit":false}]]}