{"data":[[{"station_name":"Tanjung Priuk","station_id":"TPK","transit":false,"time":0,"distance":0,"i_lat":-6.1109480000000005,"i_long":106.880089,"is_transit":false,"line":4},{"i_lat":-6.128023,"station_id":"AC","transit":false,"station_name":"Ancol","time":9,"line":4,"i_long":106.84464,"is_transit":false,"distance":4566},{"is_transit":true,"distance":2185,"station_id":"KPB","transit":true,"time":4,"station_name":"Kampung Bandan","i_long":106.826365,"line":4,"i_lat":-6.132549},{"i_lat":-6.14505,"station_id":"RJW","transit":false,"is_transit":false,"time":3,"distance":1444,"station_name":"Rajawali","i_long":106.836569,"line":11},{"i_long":106.839204,"station_id":"KMO","is_transit":false,"distance":1901,"line":11,"transit":false,"i_lat":-6.161728,"station_name":"Kemayoran","time":5},{"is_transit":false,"i_lat":-6.174784,"time":4,"line":11,"station_id":"PSE","transit":false,"station_name":"Pasar Senen","distance":1436,"i_long":106.84368},{"is_transit":false,"i_lat":-6.185975,"station_id":"GST","transit":false,"distance":1567,"station_name":"Gang Sentiong","time":8,"i_long":106.850107,"line":11},{"i_lat":-6.193792,"time":1,"station_id":"KMT","is_transit":false,"transit":false,"distance":973,"station_name":"Kramat","i_long":106.855437,"line":11},{"distance":1829,"station_id":"POK","transit":false,"time":2,"i_long":106.861737,"line":11,"station_name":"Pondok Jati","is_transit":false,"i_lat":-6.209188},{"is_transit":false,"station_name":"Jatinegara","time":9,"i_long":106.86807400000001,"line":1,"transit":false,"station_id":"JNG","distance":1236,"i_lat":-6.215091}],[{"i_long":106.880089,"transit":false,"time":0,"i_lat":-6.1109480000000005,"line":4,"station_name":"Tanjung Priuk","station_id":"TPK","is_transit":false,"distance":0},{"i_long":106.84464,"station_id":"AC","line":4,"transit":false,"time":9,"station_name":"Ancol","is_transit":false,"distance":4566,"i_lat":-6.128023},{"is_transit":true,"i_lat":-6.132549,"distance":2185,"time":4,"line":4,"station_id":"KPB","transit":true,"station_name":"Kampung Bandan","i_long":106.826365},{"i_lat":-6.144674,"is_transit":false,"distance":4102,"line":1,"transit":false,"i_long":106.79867,"station_id":"AK","station_name":"Angke","time":9},{"line":1,"time":4,"transit":false,"station_name":"Duri","station_id":"DU","i_lat":-6.155215,"distance":1230,"i_long":106.800832,"is_transit":false},{"i_lat":-6.185545,"station_id":"THB","distance":3632,"time":8,"is_transit":false,"line":1,"transit":false,"station_name":"Tanah Abang","i_long":106.811091},{"i_lat":-6.20132,"station_name":"Karet","time":5,"distance":2029,"line":1,"station_id":"KAT","transit":false,"is_transit":false,"i_long":106.816351},{"time":1,"i_lat":-6.201433,"is_transit":false,"distance":471,"line":1,"transit":false,"i_long":106.819881,"station_name":"Sudirman Baru","station_id":"SUDB"},{"station_id":"SUD","is_transit":false,"time":1,"distance":280,"line":1,"i_lat":-6.202263,"i_long":106.822649,"transit":false,"station_name":"Sudirman"},{"transit":false,"distance":3186,"i_lat":-6.209883,"i_long":106.84912,"station_name":"Manggarai","station_id":"MRI","time":4,"line":2,"is_transit":false},{"line":1,"i_lat":-6.212485,"time":2,"is_transit":false,"transit":false,"i_long":106.858896,"station_name":"Matraman","station_id":"MTR","distance":1275},{"distance":1377,"station_id":"JNG","station_name":"Jatinegara","i_long":106.86807400000001,"line":1,"transit":false,"is_transit":false,"time":8,"i_lat":-6.215091}],[{"is_transit":false,"station_name":"Tanjung Priuk","transit":false,"i_lat":-6.1109480000000005,"distance":0,"i_long":106.880089,"station_id":"TPK","time":0,"line":4},{"i_lat":-6.128023,"distance":4566,"line":4,"time":9,"station_id":"AC","is_transit":false,"i_long":106.84464,"station_name":"Ancol","transit":false},{"i_lat":-6.132549,"distance":2185,"i_long":106.826365,"station_id":"KPB","station_name":"Kampung Bandan","is_transit":true,"transit":true,"time":4,"line":4},{"transit":true,"station_name":"Jakarta Kota","i_lat":-6.137569,"i_long":106.812439,"station_id":"JAKK","time":3,"is_transit":true,"line":2,"distance":1364},{"line":2,"time":4,"station_id":"JAY","i_lat":-6.141205,"i_long":106.820901,"is_transit":false,"transit":false,"station_name":"Jayakarta","distance":1264},{"distance":1080,"station_name":"Manggabesar","i_lat":-6.149769,"station_id":"MGB","line":2,"transit":false,"i_long":106.82482,"is_transit":false,"time":2},{"i_long":106.827103,"transit":false,"time":2,"station_name":"Sawah Besar","is_transit":false,"distance":906,"station_id":"SW","i_lat":-6.160725,"line":2},{"i_lat":-6.166716,"station_name":"Juanda","station_id":"JUA","line":2,"is_transit":false,"time":2,"transit":false,"i_long":106.828284,"distance":1149},{"is_transit":false,"transit":false,"station_name":"Gondangdia","distance":2015,"i_long":106.832183,"line":2,"time":4,"station_id":"GDD","i_lat":-6.186295},{"i_lat":-6.198556,"i_long":106.840169,"line":2,"time":3,"is_transit":false,"distance":1750,"station_id":"CKI","station_name":"Cikini","transit":false},{"distance":1590,"time":4,"station_name":"Manggarai","station_id":"MRI","is_transit":true,"i_long":106.84912,"i_lat":-6.209883,"line":2,"transit":true},{"is_transit":false,"station_name":"Matraman","distance":1275,"time":2,"i_lat":-6.212485,"i_long":106.858896,"line":1,"transit":false,"station_id":"MTR"},{"station_name":"Jatinegara","time":8,"transit":false,"i_lat":-6.215091,"is_transit":false,"distance":1377,"station_id":"JNG","i_long":106.86807400000001,"line":1}]]}