{"data":[[{"i_lat":-6.1109480000000005,"i_long":106.880089,"time":0,"distance":0,"station_name":"Tanjung Priuk","transit":false,"is_transit":false,"line":4,"station_id":"TPK"},{"i_long":106.84464,"is_transit":false,"transit":false,"station_name":"Ancol","i_lat":-6.128023,"line":0,"distance":4566,"time":9,"station_id":"AC"},{"is_transit":true,"transit":false,"time":4,"station_id":"KPB","i_long":106.826365,"line":0,"distance":2185,"station_name":"Kampung Bandan","i_lat":-6.132549},{"i_lat":-6.144674,"line":0,"station_id":"AK","transit":false,"station_name":"Angke","i_long":106.79867,"is_transit":false,"distance":4102,"time":9},{"line":1,"i_lat":-6.155215,"distance":1230,"station_id":"DU","i_long":106.800832,"transit":true,"is_transit":true,"time":4,"station_name":"Duri"},{"distance":3632,"station_name":"Tanah Abang","station_id":"THB","i_lat":-6.185545,"time":8,"i_long":106.811091,"line":1,"is_transit":true,"transit":false},{"station_name":"Karet","i_lat":-6.20132,"line":1,"station_id":"KAT","time":5,"distance":2029,"is_transit":false,"i_long":106.816351,"transit":false},{"is_transit":false,"i_lat":-6.201433,"time":1,"line":1,"station_id":"SUDB","i_long":106.819881,"distance":471,"transit":false,"station_name":"Sudirman Baru"},{"is_transit":false,"station_id":"SUD","line":1,"i_lat":-6.202263,"station_name":"Sudirman","i_long":106.822649,"time":1,"transit":false,"distance":280},{"station_name":"Manggarai","is_transit":true,"station_id":"MRI","line":0,"distance":3186,"time":4,"i_lat":-6.209883,"i_long":106.84912,"transit":true},{"i_long":106.857948,"transit":false,"line":2,"time":4,"station_id":"TEB","i_lat":-6.226659,"station_name":"Tebet","is_transit":false,"distance":2610},{"is_transit":false,"time":2,"line":0,"distance":1230,"station_id":"CW","i_long":106.856607,"transit":false,"station_name":"Cawang","i_lat":-6.242512},{"is_transit":false,"time":3,"station_name":"Duren Kalibata","distance":1546,"station_id":"DRN","i_long":106.85449,"line":0,"transit":false,"i_lat":-6.255332},{"time":2,"i_long":106.851577,"line":2,"transit":false,"station_id":"PSMB","station_name":"Pasar Minggu Baru","is_transit":false,"i_lat":-6.263214,"distance":824}],[{"station_name":"Tanjung Priuk","line":4,"distance":0,"station_id":"TPK","time":0,"i_lat":-6.1109480000000005,"transit":false,"is_transit":false,"i_long":106.880089},{"i_long":106.84464,"line":0,"time":9,"is_transit":false,"i_lat":-6.128023,"distance":4566,"station_name":"Ancol","transit":false,"station_id":"AC"},{"transit":false,"is_transit":true,"station_id":"KPB","i_lat":-6.132549,"i_long":106.826365,"distance":2185,"line":0,"station_name":"Kampung Bandan","time":4},{"station_id":"JAKK","transit":true,"line":0,"distance":1364,"is_transit":true,"station_name":"Jakarta Kota","i_long":106.812439,"i_lat":-6.137569,"time":3},{"i_lat":-6.141205,"i_long":106.820901,"is_transit":false,"line":7,"station_id":"JAY","time":4,"distance":1264,"transit":false,"station_name":"Jayakarta"},{"station_id":"MGB","i_lat":-6.149769,"distance":1080,"line":2,"i_long":106.82482,"time":2,"station_name":"Manggabesar","transit":false,"is_transit":false},{"is_transit":false,"distance":906,"i_lat":-6.160725,"line":2,"station_id":"SW","transit":false,"station_name":"Sawah Besar","i_long":106.827103,"time":2},{"time":2,"i_lat":-6.166716,"line":2,"transit":false,"station_name":"Juanda","station_id":"JUA","distance":1149,"is_transit":false,"i_long":106.828284},{"distance":2015,"transit":false,"station_name":"Gondangdia","line":2,"station_id":"GDD","time":4,"is_transit":false,"i_lat":-6.186295,"i_long":106.832183},{"distance":1750,"line":0,"time":3,"i_lat":-6.198556,"transit":false,"i_long":106.840169,"is_transit":false,"station_name":"Cikini","station_id":"CKI"},{"is_transit":true,"time":4,"distance":1590,"i_lat":-6.209883,"station_name":"Manggarai","line":0,"station_id":"MRI","transit":true,"i_long":106.84912},{"transit":false,"time":4,"station_id":"TEB","is_transit":false,"i_long":106.857948,"line":2,"station_name":"Tebet","distance":2610,"i_lat":-6.226659},{"i_lat":-6.242512,"station_id":"CW","is_transit":false,"distance":1230,"time":2,"i_long":106.856607,"transit":false,"station_name":"Cawang","line":0},{"station_name":"Duren Kalibata","is_transit":false,"transit":false,"distance":1546,"station_id":"DRN","i_lat":-6.255332,"time":3,"line":0,"i_long":106.85449},{"transit":false,"time":2,"line":2,"i_lat":-6.263214,"station_id":"PSMB","station_name":"Pasar Minggu Baru","i_long":106.851577,"distance":824,"is_transit":false}],[{"is_transit":false,"transit":false,"station_id":"TPK","distance":0,"station_name":"Tanjung Priuk","line":4,"time":0,"i_long":106.880089,"i_lat":-6.1109480000000005},{"distance":4566,"i_lat":-6.128023,"station_name":"Ancol","i_long":106.84464,"line":0,"is_transit":false,"time":9,"transit":false,"station_id":"AC"},{"i_long":106.826365,"line":0,"transit":true,"station_id":"KPB","distance":2185,"is_transit":true,"time":4,"i_lat":-6.132549,"station_name":"Kampung Bandan"},{"i_lat":-6.14505,"i_long":106.836569,"station_name":"Rajawali","time":3,"transit":false,"station_id":"RJW","is_transit":false,"line":11,"distance":1444},{"transit":false,"is_transit":false,"distance":1901,"line":11,"station_name":"Kemayoran","station_id":"KMO","i_long":106.839204,"time":5,"i_lat":-6.161728},{"time":4,"station_id":"PSE","transit":false,"station_name":"Pasar Senen","line":11,"i_lat":-6.174784,"distance":1436,"is_transit":false,"i_long":106.84368},{"transit":false,"line":11,"is_transit":false,"time":8,"station_id":"GST","i_lat":-6.185975,"distance":1567,"station_name":"Gang Sentiong","i_long":106.850107},{"i_long":106.855437,"line":11,"distance":973,"i_lat":-6.193792,"time":1,"is_transit":false,"transit":false,"station_name":"Kramat","station_id":"KMT"},{"station_name":"Pondok Jati","time":2,"station_id":"POK","i_long":106.861737,"distance":1829,"i_lat":-6.209188,"line":11,"is_transit":false,"transit":false},{"station_id":"JNG","distance":1236,"transit":true,"station_name":"Jatinegara","i_long":106.86807400000001,"line":0,"i_lat":-6.215091,"is_transit":true,"time":9},{"i_long":106.858896,"line":1,"transit":false,"station_name":"Matraman","time":2,"is_transit":false,"i_lat":-6.212485,"distance":1377,"station_id":"MTR"},{"distance":1275,"is_transit":true,"line":0,"i_long":106.84912,"i_lat":-6.209883,"transit":true,"time":2,"station_name":"Manggarai","station_id":"MRI"},{"i_lat":-6.226659,"station_name":"Tebet","distance":2610,"time":4,"i_long":106.857948,"station_id":"TEB","is_transit":false,"line":2,"transit":false},{"i_long":106.856607,"line":0,"transit":false,"i_lat":-6.242512,"distance":1230,"station_id":"CW","is_transit":false,"time":2,"station_name":"Cawang"},{"station_id":"DRN","line":0,"distance":1546,"i_long":106.85449,"transit":false,"station_name":"Duren Kalibata","i_lat":-6.255332,"is_transit":false,"time":3},{"i_lat":-6.263214,"station_id":"PSMB","distance":824,"station_name":"Pasar Minggu Baru","is_transit":false,"time":2,"i_long":106.851577,"line":2,"transit":false}]]}