{"data":[[{"transit":false,"line":4,"distance":0,"station_name":"Tanjung Priuk","time":0,"is_transit":false,"i_lat":-6.1109480000000005,"i_long":106.880089,"station_id":"TPK"},{"distance":4566,"transit":false,"time":9,"station_id":"AC","i_long":106.84464,"is_transit":false,"line":0,"station_name":"Ancol","i_lat":-6.128023},{"is_transit":true,"time":4,"i_long":106.826365,"station_name":"Kampung Bandan","line":0,"transit":true,"distance":2185,"station_id":"KPB","i_lat":-6.132549},{"is_transit":false,"distance":1444,"i_lat":-6.14505,"i_long":106.836569,"transit":false,"station_name":"Rajawali","line":11,"station_id":"RJW","time":3},{"i_long":106.839204,"station_id":"KMO","transit":false,"i_lat":-6.161728,"station_name":"Kemayoran","is_transit":false,"time":5,"line":11,"distance":1901},{"station_name":"Pasar Senen","line":11,"i_lat":-6.174784,"i_long":106.84368,"station_id":"PSE","is_transit":false,"time":4,"transit":false,"distance":1436},{"distance":1567,"is_transit":false,"station_id":"GST","time":8,"station_name":"Gang Sentiong","i_long":106.850107,"transit":false,"line":11,"i_lat":-6.185975},{"i_lat":-6.193792,"station_id":"KMT","time":1,"is_transit":false,"distance":973,"station_name":"Kramat","transit":false,"i_long":106.855437,"line":11},{"i_lat":-6.209188,"line":11,"distance":1829,"station_name":"Pondok Jati","is_transit":false,"station_id":"POK","transit":false,"i_long":106.861737,"time":2},{"distance":1236,"station_id":"JNG","transit":true,"time":9,"i_lat":-6.215091,"station_name":"Jatinegara","is_transit":true,"i_long":106.86807400000001,"line":0},{"distance":3395,"station_id":"KLD","is_transit":false,"station_name":"Klender","line":1,"transit":false,"i_lat":-6.2135,"time":3,"i_long":106.899548},{"distance":3100,"i_long":106.922662,"time":2,"line":0,"i_lat":-6.215568,"transit":false,"station_id":"BUA","is_transit":false,"station_name":"Buaran"},{"transit":false,"distance":1305,"station_name":"Klenderbaru","station_id":"KLDB","time":1,"i_long":106.939679,"i_lat":-6.217455,"is_transit":false,"line":1},{"station_name":"Cakung","distance":1385,"station_id":"CUK","is_transit":false,"transit":false,"i_lat":-6.219053,"i_long":106.951283,"line":0,"time":8}],[{"transit":false,"is_transit":false,"station_id":"TPK","time":0,"station_name":"Tanjung Priuk","i_lat":-6.1109480000000005,"i_long":106.880089,"line":4,"distance":0},{"time":9,"transit":false,"i_long":106.84464,"line":0,"is_transit":false,"distance":4566,"station_name":"Ancol","station_id":"AC","i_lat":-6.128023},{"line":0,"station_name":"Kampung Bandan","station_id":"KPB","is_transit":true,"time":4,"transit":false,"i_long":106.826365,"distance":2185,"i_lat":-6.132549},{"line":0,"station_name":"Angke","is_transit":false,"i_long":106.79867,"time":9,"station_id":"AK","transit":false,"i_lat":-6.144674,"distance":4102},{"station_id":"DU","distance":1230,"time":4,"i_lat":-6.155215,"line":1,"i_long":106.800832,"station_name":"Duri","transit":true,"is_transit":true},{"transit":false,"time":8,"i_lat":-6.185545,"is_transit":true,"station_id":"THB","distance":3632,"line":1,"i_long":106.811091,"station_name":"Tanah Abang"},{"station_id":"KAT","i_lat":-6.20132,"line":1,"distance":2029,"transit":false,"is_transit":false,"time":5,"i_long":106.816351,"station_name":"Karet"},{"line":1,"station_id":"SUDB","i_lat":-6.201433,"distance":471,"is_transit":false,"time":1,"transit":false,"i_long":106.819881,"station_name":"Sudirman Baru"},{"i_long":106.822649,"i_lat":-6.202263,"line":1,"transit":false,"station_id":"SUD","distance":280,"time":1,"is_transit":false,"station_name":"Sudirman"},{"i_long":106.84912,"is_transit":true,"transit":false,"distance":3186,"line":0,"station_name":"Manggarai","station_id":"MRI","time":4,"i_lat":-6.209883},{"i_long":106.858896,"i_lat":-6.212485,"station_id":"MTR","transit":false,"line":1,"is_transit":false,"station_name":"Matraman","time":2,"distance":1275},{"i_lat":-6.215091,"is_transit":true,"station_name":"Jatinegara","distance":1377,"station_id":"JNG","transit":false,"line":0,"i_long":106.86807400000001,"time":8},{"transit":false,"station_id":"KLD","time":3,"station_name":"Klender","distance":3395,"is_transit":false,"i_long":106.899548,"i_lat":-6.2135,"line":1},{"line":0,"transit":false,"i_lat":-6.215568,"distance":3100,"i_long":106.922662,"station_name":"Buaran","station_id":"BUA","is_transit":false,"time":2},{"distance":1305,"i_long":106.939679,"transit":false,"is_transit":false,"station_name":"Klenderbaru","line":1,"i_lat":-6.217455,"station_id":"KLDB","time":1},{"line":0,"distance":1385,"time":8,"i_lat":-6.219053,"station_name":"Cakung","i_long":106.951283,"is_transit":false,"station_id":"CUK","transit":false}],[{"station_name":"Tanjung Priuk","distance":0,"station_id":"TPK","transit":false,"line":4,"is_transit":false,"time":0,"i_long":106.880089,"i_lat":-6.1109480000000005},{"line":0,"i_lat":-6.128023,"time":9,"station_name":"Ancol","i_long":106.84464,"distance":4566,"transit":false,"station_id":"AC","is_transit":false},{"is_transit":true,"station_id":"KPB","i_long":106.826365,"transit":false,"time":4,"i_lat":-6.132549,"line":0,"station_name":"Kampung Bandan","distance":2185},{"i_long":106.812439,"time":3,"is_transit":true,"transit":true,"i_lat":-6.137569,"line":0,"station_id":"JAKK","distance":1364,"station_name":"Jakarta Kota"},{"station_id":"JAY","i_lat":-6.141205,"is_transit":false,"distance":1264,"time":4,"transit":false,"i_long":106.820901,"station_name":"Jayakarta","line":7},{"i_lat":-6.149769,"time":2,"is_transit":false,"station_name":"Manggabesar","station_id":"MGB","i_long":106.82482,"distance":1080,"transit":false,"line":2},{"time":2,"line":2,"is_transit":false,"station_id":"SW","distance":906,"station_name":"Sawah Besar","transit":false,"i_lat":-6.160725,"i_long":106.827103},{"station_name":"Juanda","transit":false,"i_lat":-6.166716,"line":2,"distance":1149,"is_transit":false,"station_id":"JUA","i_long":106.828284,"time":2},{"is_transit":false,"i_lat":-6.186295,"station_id":"GDD","station_name":"Gondangdia","time":4,"i_long":106.832183,"transit":false,"line":2,"distance":2015},{"distance":1750,"i_lat":-6.198556,"transit":false,"time":3,"is_transit":false,"station_name":"Cikini","station_id":"CKI","i_long":106.840169,"line":0},{"station_name":"Manggarai","line":0,"transit":true,"time":4,"i_lat":-6.209883,"distance":1590,"station_id":"MRI","i_long":106.84912,"is_transit":true},{"station_id":"MTR","i_lat":-6.212485,"i_long":106.858896,"line":1,"distance":1275,"is_transit":false,"station_name":"Matraman","transit":false,"time":2},{"station_name":"Jatinegara","line":0,"time":8,"i_long":106.86807400000001,"is_transit":true,"station_id":"JNG","transit":false,"i_lat":-6.215091,"distance":1377},{"transit":false,"time":3,"station_name":"Klender","is_transit":false,"line":1,"distance":3395,"i_long":106.899548,"station_id":"KLD","i_lat":-6.2135},{"distance":3100,"i_lat":-6.215568,"line":0,"is_transit":false,"i_long":106.922662,"transit":false,"station_id":"BUA","time":2,"station_name":"Buaran"},{"is_transit":false,"station_name":"Klenderbaru","i_long":106.939679,"station_id":"KLDB","line":1,"time":1,"i_lat":-6.217455,"distance":1305,"transit":false},{"time":8,"transit":false,"distance":1385,"line":0,"is_transit":false,"station_name":"Cakung","i_lat":-6.219053,"i_long":106.951283,"station_id":"CUK"}]]}