{"data":[[{"station_name":"Tanjung Priuk","transit":false,"i_lat":-6.1109480000000005,"station_id":"TPK","line":4,"is_transit":false,"distance":0,"time":0,"i_long":106.880089},{"station_id":"AC","i_long":106.84464,"distance":4566,"is_transit":false,"station_name":"Ancol","line":4,"i_lat":-6.128023,"time":9,"transit":false},{"station_name":"Kampung Bandan","transit":true,"i_long":106.826365,"line":4,"is_transit":true,"time":4,"distance":2185,"station_id":"KPB","i_lat":-6.132549},{"station_id":"AK","time":9,"i_lat":-6.144674,"transit":false,"i_long":106.79867,"distance":4102,"station_name":"Angke","line":1,"is_transit":false},{"transit":true,"station_id":"DU","i_lat":-6.155215,"time":4,"is_transit":true,"station_name":"Duri","i_long":106.800832,"distance":1230,"line":1},{"i_lat":-6.162021,"station_id":"GGL","time":3,"distance":1700,"is_transit":false,"i_long":106.788277,"transit":false,"station_name":"Grogol","line":5},{"station_name":"Pesing","line":5,"transit":false,"time":2,"is_transit":false,"station_id":"PSG","distance":2036,"i_lat":-6.161433,"i_long":106.771379},{"station_id":"TKO","i_long":106.756522,"line":5,"transit":false,"station_name":"Taman Kota","is_transit":false,"time":2,"distance":1614,"i_lat":-6.1587309999999995}],[{"is_transit":false,"i_lat":-6.1109480000000005,"i_long":106.880089,"line":4,"transit":false,"time":0,"distance":0,"station_name":"Tanjung Priuk","station_id":"TPK"},{"distance":4566,"is_transit":false,"transit":false,"time":9,"station_id":"AC","i_lat":-6.128023,"station_name":"Ancol","i_long":106.84464,"line":4},{"i_long":106.826365,"station_id":"KPB","time":4,"distance":2185,"station_name":"Kampung Bandan","i_lat":-6.132549,"transit":true,"is_transit":true,"line":4},{"is_transit":true,"line":2,"transit":true,"station_id":"JAKK","station_name":"Jakarta Kota","time":3,"i_long":106.812439,"i_lat":-6.137569,"distance":1364},{"transit":false,"i_long":106.820901,"time":4,"station_id":"JAY","i_lat":-6.141205,"station_name":"Jayakarta","distance":1264,"line":2,"is_transit":false},{"time":2,"is_transit":false,"i_long":106.82482,"transit":false,"line":2,"station_name":"Manggabesar","station_id":"MGB","distance":1080,"i_lat":-6.149769},{"is_transit":false,"i_long":106.827103,"i_lat":-6.160725,"transit":false,"station_name":"Sawah Besar","distance":906,"station_id":"SW","line":2,"time":2},{"is_transit":false,"line":2,"i_lat":-6.166716,"transit":false,"distance":1149,"station_name":"Juanda","station_id":"JUA","i_long":106.828284,"time":2},{"transit":false,"time":4,"i_lat":-6.186295,"station_id":"GDD","i_long":106.832183,"distance":2015,"line":2,"station_name":"Gondangdia","is_transit":false},{"transit":false,"station_id":"CKI","station_name":"Cikini","distance":1750,"line":2,"i_lat":-6.198556,"is_transit":false,"time":3,"i_long":106.840169},{"distance":1590,"line":2,"is_transit":true,"station_name":"Manggarai","transit":true,"station_id":"MRI","time":4,"i_lat":-6.209883,"i_long":106.84912},{"station_name":"Sudirman","line":1,"transit":false,"station_id":"SUD","is_transit":false,"distance":3186,"i_lat":-6.202263,"i_long":106.822649,"time":4},{"time":1,"i_long":106.819881,"station_name":"Sudirman Baru","station_id":"SUDB","is_transit":false,"i_lat":-6.201433,"line":1,"transit":false,"distance":280},{"line":1,"station_name":"Karet","i_long":106.816351,"transit":false,"time":1,"is_transit":false,"station_id":"KAT","distance":471,"i_lat":-6.20132},{"line":1,"is_transit":false,"station_id":"THB","i_lat":-6.185545,"time":5,"i_long":106.811091,"station_name":"Tanah Abang","distance":2029,"transit":false},{"i_lat":-6.155215,"transit":true,"station_name":"Duri","time":8,"distance":3632,"i_long":106.800832,"is_transit":true,"station_id":"DU","line":1},{"i_long":106.788277,"transit":false,"i_lat":-6.162021,"time":3,"station_id":"GGL","is_transit":false,"station_name":"Grogol","distance":1700,"line":5},{"transit":false,"i_lat":-6.161433,"station_name":"Pesing","time":2,"i_long":106.771379,"line":5,"distance":2036,"is_transit":false,"station_id":"PSG"},{"i_lat":-6.1587309999999995,"is_transit":false,"distance":1614,"station_id":"TKO","time":2,"i_long":106.756522,"line":5,"transit":false,"station_name":"Taman Kota"}],[{"transit":false,"line":4,"station_name":"Tanjung Priuk","i_long":106.880089,"distance":0,"i_lat":-6.1109480000000005,"is_transit":false,"station_id":"TPK","time":0},{"transit":false,"time":9,"i_lat":-6.128023,"station_id":"AC","line":4,"distance":4566,"is_transit":false,"i_long":106.84464,"station_name":"Ancol"},{"time":4,"is_transit":true,"station_id":"KPB","line":4,"i_lat":-6.132549,"station_name":"Kampung Bandan","distance":2185,"i_long":106.826365,"transit":true},{"station_name":"Rajawali","time":3,"distance":1444,"i_lat":-6.14505,"is_transit":false,"i_long":106.836569,"line":11,"transit":false,"station_id":"RJW"},{"time":5,"transit":false,"i_long":106.839204,"is_transit":false,"distance":1901,"line":11,"station_id":"KMO","i_lat":-6.161728,"station_name":"Kemayoran"},{"line":11,"is_transit":false,"time":4,"station_name":"Pasar Senen","station_id":"PSE","i_lat":-6.174784,"distance":1436,"i_long":106.84368,"transit":false},{"line":11,"station_name":"Gang Sentiong","station_id":"GST","is_transit":false,"time":8,"i_lat":-6.185975,"transit":false,"distance":1567,"i_long":106.850107},{"transit":false,"i_lat":-6.193792,"station_id":"KMT","line":11,"is_transit":false,"time":1,"distance":973,"station_name":"Kramat","i_long":106.855437},{"transit":false,"station_name":"Pondok Jati","time":2,"distance":1829,"i_lat":-6.209188,"station_id":"POK","line":11,"i_long":106.861737,"is_transit":false},{"is_transit":true,"station_id":"JNG","station_name":"Jatinegara","i_long":106.86807400000001,"line":1,"time":9,"i_lat":-6.215091,"transit":true,"distance":1236},{"i_long":106.858896,"i_lat":-6.212485,"is_transit":false,"distance":1377,"station_id":"MTR","transit":false,"time":2,"line":1,"station_name":"Matraman"},{"time":2,"station_name":"Manggarai","i_long":106.84912,"transit":false,"station_id":"MRI","distance":1275,"line":2,"is_transit":false,"i_lat":-6.209883},{"time":4,"station_name":"Sudirman","station_id":"SUD","i_long":106.822649,"i_lat":-6.202263,"line":1,"transit":false,"is_transit":false,"distance":3186},{"time":1,"i_lat":-6.201433,"line":1,"transit":false,"distance":280,"station_name":"Sudirman Baru","station_id":"SUDB","is_transit":false,"i_long":106.819881},{"station_id":"KAT","station_name":"Karet","is_transit":false,"distance":471,"i_lat":-6.20132,"i_long":106.816351,"transit":false,"time":1,"line":1},{"line":1,"distance":2029,"station_id":"THB","i_long":106.811091,"time":5,"i_lat":-6.185545,"transit":false,"station_name":"Tanah Abang","is_transit":false},{"station_id":"DU","station_name":"Duri","is_transit":true,"distance":3632,"i_lat":-6.155215,"i_long":106.800832,"line":1,"transit":true,"time":8},{"time":3,"station_id":"GGL","distance":1700,"i_long":106.788277,"is_transit":false,"station_name":"Grogol","transit":false,"line":5,"i_lat":-6.162021},{"distance":2036,"i_lat":-6.161433,"i_long":106.771379,"is_transit":false,"station_id":"PSG","line":5,"transit":false,"station_name":"Pesing","time":2},{"distance":1614,"i_lat":-6.1587309999999995,"i_long":106.756522,"line":5,"transit":false,"is_transit":false,"station_name":"Taman Kota","time":2,"station_id":"TKO"}]]}