{"data":[[{"transit":false,"station_name":"Tanjung Priuk","station_id":"TPK","is_transit":false,"i_long":106.880089,"line":4,"i_lat":-6.1109480000000005,"time":0,"distance":0},{"station_name":"Ancol","time":9,"i_lat":-6.128023,"line":4,"is_transit":false,"transit":false,"distance":4566,"station_id":"AC","i_long":106.84464},{"station_id":"KPB","is_transit":true,"i_long":106.826365,"time":4,"i_lat":-6.132549,"line":4,"station_name":"Kampung Bandan","transit":true,"distance":2185},{"is_transit":false,"i_long":106.79867,"transit":false,"station_id":"AK","station_name":"Angke","line":1,"i_lat":-6.144674,"time":9,"distance":4102},{"i_lat":-6.155215,"line":1,"station_name":"Duri","distance":1230,"time":4,"is_transit":true,"transit":true,"i_long":106.800832,"station_id":"DU"},{"distance":1700,"i_lat":-6.162021,"transit":false,"line":5,"time":3,"i_long":106.788277,"station_id":"GGL","station_name":"Grogol","is_transit":false},{"is_transit":false,"distance":2036,"i_long":106.771379,"station_name":"Pesing","line":5,"time":2,"i_lat":-6.161433,"transit":false,"station_id":"PSG"},{"i_long":106.756522,"is_transit":false,"station_id":"TKO","time":2,"transit":false,"station_name":"Taman Kota","line":5,"distance":1614,"i_lat":-6.1587309999999995},{"station_id":"BOI","transit":false,"distance":2334,"i_lat":-6.159876,"line":5,"station_name":"Bojongindah","time":2,"i_long":106.737035,"is_transit":false},{"is_transit":false,"i_lat":-6.162758,"distance":1152,"station_name":"Rawa Buaya","station_id":"RW","i_long":106.723064,"time":4,"line":5,"transit":false}],[{"station_id":"TPK","is_transit":false,"station_name":"Tanjung Priuk","time":0,"line":4,"distance":0,"i_lat":-6.1109480000000005,"transit":false,"i_long":106.880089},{"station_name":"Ancol","line":4,"time":9,"distance":4566,"i_long":106.84464,"i_lat":-6.128023,"transit":false,"is_transit":false,"station_id":"AC"},{"station_id":"KPB","i_long":106.826365,"is_transit":true,"i_lat":-6.132549,"time":4,"transit":true,"station_name":"Kampung Bandan","line":4,"distance":2185},{"distance":1364,"station_id":"JAKK","i_lat":-6.137569,"is_transit":true,"i_long":106.812439,"station_name":"Jakarta Kota","time":3,"line":2,"transit":true},{"i_long":106.820901,"station_id":"JAY","is_transit":false,"transit":false,"station_name":"Jayakarta","i_lat":-6.141205,"time":4,"line":2,"distance":1264},{"i_lat":-6.149769,"i_long":106.82482,"station_name":"Manggabesar","transit":false,"time":2,"distance":1080,"line":2,"station_id":"MGB","is_transit":false},{"transit":false,"i_long":106.827103,"is_transit":false,"i_lat":-6.160725,"distance":906,"time":2,"station_id":"SW","line":2,"station_name":"Sawah Besar"},{"is_transit":false,"i_lat":-6.166716,"distance":1149,"i_long":106.828284,"station_id":"JUA","transit":false,"station_name":"Juanda","line":2,"time":2},{"station_name":"Gondangdia","transit":false,"distance":2015,"line":2,"station_id":"GDD","i_lat":-6.186295,"i_long":106.832183,"time":4,"is_transit":false},{"is_transit":false,"i_lat":-6.198556,"station_name":"Cikini","station_id":"CKI","time":3,"transit":false,"distance":1750,"i_long":106.840169,"line":2},{"i_lat":-6.209883,"station_id":"MRI","is_transit":true,"transit":true,"station_name":"Manggarai","i_long":106.84912,"line":2,"time":4,"distance":1590},{"distance":3186,"station_name":"Sudirman","transit":false,"time":4,"is_transit":false,"i_lat":-6.202263,"i_long":106.822649,"station_id":"SUD","line":1},{"transit":false,"time":1,"is_transit":false,"distance":280,"i_long":106.819881,"station_id":"SUDB","i_lat":-6.201433,"station_name":"Sudirman Baru","line":1},{"i_long":106.816351,"line":1,"distance":471,"is_transit":false,"i_lat":-6.20132,"transit":false,"station_id":"KAT","station_name":"Karet","time":1},{"station_id":"THB","is_transit":false,"time":5,"distance":2029,"i_long":106.811091,"i_lat":-6.185545,"line":1,"station_name":"Tanah Abang","transit":false},{"distance":3632,"i_long":106.800832,"time":8,"is_transit":true,"station_id":"DU","i_lat":-6.155215,"line":1,"transit":true,"station_name":"Duri"},{"station_id":"GGL","station_name":"Grogol","is_transit":false,"distance":1700,"time":3,"i_long":106.788277,"line":5,"i_lat":-6.162021,"transit":false},{"is_transit":false,"i_lat":-6.161433,"transit":false,"station_id":"PSG","station_name":"Pesing","distance":2036,"i_long":106.771379,"line":5,"time":2},{"station_id":"TKO","line":5,"station_name":"Taman Kota","transit":false,"distance":1614,"is_transit":false,"time":2,"i_lat":-6.1587309999999995,"i_long":106.756522},{"line":5,"time":2,"i_lat":-6.159876,"is_transit":false,"station_id":"BOI","transit":false,"station_name":"Bojongindah","distance":2334,"i_long":106.737035},{"station_id":"RW","time":4,"distance":1152,"is_transit":false,"i_lat":-6.162758,"station_name":"Rawa Buaya","line":5,"transit":false,"i_long":106.723064}],[{"i_long":106.880089,"i_lat":-6.1109480000000005,"time":0,"is_transit":false,"distance":0,"station_name":"Tanjung Priuk","line":4,"transit":false,"station_id":"TPK"},{"i_lat":-6.128023,"station_id":"AC","station_name":"Ancol","is_transit":false,"transit":false,"time":9,"i_long":106.84464,"distance":4566,"line":4},{"transit":true,"i_long":106.826365,"station_id":"KPB","is_transit":true,"time":4,"distance":2185,"station_name":"Kampung Bandan","i_lat":-6.132549,"line":4},{"distance":1444,"station_id":"RJW","i_lat":-6.14505,"time":3,"transit":false,"i_long":106.836569,"line":11,"station_name":"Rajawali","is_transit":false},{"station_id":"KMO","time":5,"is_transit":false,"i_long":106.839204,"station_name":"Kemayoran","distance":1901,"line":11,"transit":false,"i_lat":-6.161728},{"i_long":106.84368,"transit":false,"i_lat":-6.174784,"station_id":"PSE","is_transit":false,"distance":1436,"station_name":"Pasar Senen","time":4,"line":11},{"station_name":"Gang Sentiong","station_id":"GST","time":8,"distance":1567,"line":11,"is_transit":false,"i_lat":-6.185975,"i_long":106.850107,"transit":false},{"i_long":106.855437,"station_id":"KMT","is_transit":false,"line":11,"i_lat":-6.193792,"time":1,"distance":973,"transit":false,"station_name":"Kramat"},{"time":2,"i_lat":-6.209188,"station_name":"Pondok Jati","distance":1829,"i_long":106.861737,"station_id":"POK","transit":false,"is_transit":false,"line":11},{"station_name":"Jatinegara","i_lat":-6.215091,"distance":1236,"is_transit":true,"transit":true,"i_long":106.86807400000001,"time":9,"station_id":"JNG","line":1},{"i_long":106.858896,"transit":false,"line":1,"distance":1377,"is_transit":false,"time":2,"station_name":"Matraman","i_lat":-6.212485,"station_id":"MTR"},{"station_id":"MRI","time":2,"is_transit":false,"distance":1275,"station_name":"Manggarai","i_long":106.84912,"i_lat":-6.209883,"line":2,"transit":false},{"distance":3186,"station_name":"Sudirman","transit":false,"station_id":"SUD","i_lat":-6.202263,"is_transit":false,"i_long":106.822649,"line":1,"time":4},{"time":1,"station_id":"SUDB","distance":280,"i_long":106.819881,"line":1,"i_lat":-6.201433,"is_transit":false,"station_name":"Sudirman Baru","transit":false},{"station_id":"KAT","station_name":"Karet","line":1,"transit":false,"i_long":106.816351,"i_lat":-6.20132,"distance":471,"time":1,"is_transit":false},{"transit":false,"i_lat":-6.185545,"line":1,"station_name":"Tanah Abang","time":5,"station_id":"THB","is_transit":false,"i_long":106.811091,"distance":2029},{"i_long":106.800832,"station_name":"Duri","is_transit":true,"time":8,"transit":true,"station_id":"DU","i_lat":-6.155215,"line":1,"distance":3632},{"station_id":"GGL","station_name":"Grogol","distance":1700,"i_lat":-6.162021,"line":5,"time":3,"i_long":106.788277,"is_transit":false,"transit":false},{"station_id":"PSG","line":5,"i_lat":-6.161433,"distance":2036,"transit":false,"station_name":"Pesing","is_transit":false,"i_long":106.771379,"time":2},{"transit":false,"distance":1614,"station_id":"TKO","is_transit":false,"i_long":106.756522,"station_name":"Taman Kota","i_lat":-6.1587309999999995,"line":5,"time":2},{"i_long":106.737035,"distance":2334,"time":2,"station_id":"BOI","line":5,"is_transit":false,"station_name":"Bojongindah","transit":false,"i_lat":-6.159876},{"station_name":"Rawa Buaya","station_id":"RW","transit":false,"i_lat":-6.162758,"i_long":106.723064,"is_transit":false,"distance":1152,"line":5,"time":4}]]}