{"data":[[{"station_id":"TPK","station_name":"Tanjung Priuk","line":4,"distance":0,"i_long":106.880089,"is_transit":false,"time":0,"transit":false,"i_lat":-6.1109480000000005},{"station_name":"Ancol","i_long":106.84464,"line":4,"transit":false,"station_id":"AC","is_transit":false,"distance":4566,"i_lat":-6.128023,"time":9},{"station_id":"KPB","transit":true,"is_transit":true,"line":4,"distance":2185,"time":4,"station_name":"Kampung Bandan","i_lat":-6.132549,"i_long":106.826365},{"line":1,"i_long":106.79867,"transit":false,"is_transit":false,"station_id":"AK","distance":4102,"time":9,"i_lat":-6.144674,"station_name":"Angke"},{"station_id":"DU","time":4,"distance":1230,"is_transit":false,"station_name":"Duri","transit":false,"line":1,"i_long":106.800832,"i_lat":-6.155215},{"i_long":106.811091,"line":1,"transit":false,"station_id":"THB","station_name":"Tanah Abang","i_lat":-6.185545,"time":8,"distance":3632,"is_transit":false},{"i_lat":-6.20132,"distance":2029,"i_long":106.816351,"is_transit":false,"line":1,"time":5,"station_id":"KAT","transit":false,"station_name":"Karet"},{"time":1,"i_long":106.819881,"distance":471,"station_id":"SUDB","line":1,"i_lat":-6.201433,"is_transit":false,"transit":false,"station_name":"Sudirman Baru"},{"is_transit":false,"time":1,"transit":false,"station_name":"Sudirman","station_id":"SUD","distance":280,"i_long":106.822649,"i_lat":-6.202263,"line":1},{"i_long":106.84912,"transit":true,"station_name":"Manggarai","i_lat":-6.209883,"line":2,"time":4,"distance":3186,"station_id":"MRI","is_transit":true},{"i_lat":-6.226659,"time":4,"station_id":"TEB","station_name":"Tebet","distance":2610,"is_transit":false,"transit":false,"i_long":106.857948,"line":2},{"station_name":"Cawang","i_long":106.856607,"station_id":"CW","line":2,"is_transit":false,"transit":false,"time":2,"i_lat":-6.242512,"distance":1230},{"i_lat":-6.255332,"line":2,"i_long":106.85449,"distance":1546,"station_id":"DRN","is_transit":false,"transit":false,"time":3,"station_name":"Duren Kalibata"},{"i_lat":-6.263214,"i_long":106.851577,"time":2,"transit":false,"distance":824,"line":2,"station_id":"PSMB","is_transit":false,"station_name":"Pasar Minggu Baru"},{"station_id":"PSM","time":2,"i_lat":-6.2842400000000005,"station_name":"Pasar Minggu","line":2,"is_transit":false,"distance":2380,"i_long":106.843999,"transit":false},{"station_id":"TNT","transit":false,"distance":2820,"line":2,"i_lat":-6.3080680000000005,"i_long":106.838896,"time":4,"is_transit":false,"station_name":"Tanjung Barat"},{"station_id":"LNA","is_transit":false,"i_lat":-6.330363,"line":2,"station_name":"Lenteng Agung","transit":false,"i_long":106.832616,"distance":2671,"time":3},{"station_id":"UP","station_name":"Univ. Pancasila","time":2,"is_transit":false,"i_lat":-6.339291,"transit":false,"i_long":106.834175,"line":2,"distance":1029},{"distance":2264,"transit":false,"is_transit":false,"i_long":106.831474,"line":2,"station_id":"UI","time":3,"i_lat":-6.360749,"station_name":"Univ. Indonesia"},{"line":2,"station_id":"POC","transit":false,"i_lat":-6.369073,"i_long":106.831114,"distance":1109,"time":2,"is_transit":false,"station_name":"Pondok Cina"},{"distance":2727,"station_id":"DPB","time":4,"i_lat":-6.391065,"line":2,"transit":false,"is_transit":false,"i_long":106.819451,"station_name":"Depokbaru"},{"station_name":"Depok","i_long":106.816926,"time":3,"distance":1584,"line":2,"i_lat":-6.405256,"transit":false,"station_id":"DP","is_transit":false},{"i_long":106.800298,"line":2,"transit":true,"time":6,"is_transit":true,"station_name":"Citayam","i_lat":-6.448811,"distance":5084,"station_id":"CTA"},{"transit":false,"station_name":"Pondok Rajeg","is_transit":false,"time":0,"station_id":"PDRG","i_lat":-6.460735,"distance":0,"i_long":106.824374,"line":21},{"is_transit":false,"station_name":"Cibinong","i_lat":-6.46424,"i_long":106.851978,"time":0,"station_id":"CBN","transit":false,"distance":0,"line":21},{"station_id":"NMO","is_transit":false,"station_name":"Nambo","transit":false,"i_long":106.905196,"distance":6527,"i_lat":-6.466285,"line":21,"time":10}],[{"station_id":"TPK","distance":0,"time":0,"line":4,"transit":false,"station_name":"Tanjung Priuk","is_transit":false,"i_lat":-6.1109480000000005,"i_long":106.880089},{"i_lat":-6.128023,"time":9,"transit":false,"station_name":"Ancol","is_transit":false,"station_id":"AC","line":4,"i_long":106.84464,"distance":4566},{"distance":2185,"time":4,"line":4,"i_lat":-6.132549,"station_name":"Kampung Bandan","station_id":"KPB","i_long":106.826365,"transit":true,"is_transit":true},{"i_lat":-6.137569,"line":2,"distance":1364,"station_id":"JAKK","transit":true,"i_long":106.812439,"time":3,"is_transit":true,"station_name":"Jakarta Kota"},{"i_long":106.820901,"is_transit":false,"line":2,"i_lat":-6.141205,"distance":1264,"station_name":"Jayakarta","time":4,"station_id":"JAY","transit":false},{"station_id":"MGB","station_name":"Manggabesar","time":2,"transit":false,"is_transit":false,"i_long":106.82482,"line":2,"distance":1080,"i_lat":-6.149769},{"is_transit":false,"i_lat":-6.160725,"time":2,"line":2,"station_name":"Sawah Besar","i_long":106.827103,"station_id":"SW","distance":906,"transit":false},{"i_long":106.828284,"station_name":"Juanda","station_id":"JUA","is_transit":false,"line":2,"time":2,"i_lat":-6.166716,"transit":false,"distance":1149},{"distance":2015,"i_long":106.832183,"station_name":"Gondangdia","time":4,"station_id":"GDD","transit":false,"line":2,"is_transit":false,"i_lat":-6.186295},{"station_name":"Cikini","transit":false,"i_lat":-6.198556,"i_long":106.840169,"line":2,"time":3,"is_transit":false,"distance":1750,"station_id":"CKI"},{"is_transit":false,"transit":false,"distance":1590,"station_id":"MRI","line":2,"station_name":"Manggarai","i_lat":-6.209883,"time":4,"i_long":106.84912},{"line":2,"i_long":106.857948,"station_name":"Tebet","transit":false,"time":4,"i_lat":-6.226659,"distance":2610,"is_transit":false,"station_id":"TEB"},{"is_transit":false,"i_long":106.856607,"line":2,"i_lat":-6.242512,"station_name":"Cawang","transit":false,"distance":1230,"time":2,"station_id":"CW"},{"is_transit":false,"station_id":"DRN","i_lat":-6.255332,"transit":false,"station_name":"Duren Kalibata","time":3,"i_long":106.85449,"distance":1546,"line":2},{"line":2,"station_name":"Pasar Minggu Baru","is_transit":false,"i_lat":-6.263214,"transit":false,"station_id":"PSMB","time":2,"distance":824,"i_long":106.851577},{"distance":2380,"i_lat":-6.2842400000000005,"station_id":"PSM","time":2,"is_transit":false,"line":2,"transit":false,"station_name":"Pasar Minggu","i_long":106.843999},{"time":4,"station_id":"TNT","distance":2820,"transit":false,"station_name":"Tanjung Barat","i_long":106.838896,"line":2,"i_lat":-6.3080680000000005,"is_transit":false},{"station_name":"Lenteng Agung","time":3,"i_lat":-6.330363,"i_long":106.832616,"transit":false,"is_transit":false,"distance":2671,"line":2,"station_id":"LNA"},{"station_name":"Univ. Pancasila","line":2,"time":2,"station_id":"UP","is_transit":false,"distance":1029,"i_long":106.834175,"i_lat":-6.339291,"transit":false},{"station_id":"UI","is_transit":false,"line":2,"i_lat":-6.360749,"transit":false,"station_name":"Univ. Indonesia","time":3,"i_long":106.831474,"distance":2264},{"transit":false,"distance":1109,"i_lat":-6.369073,"station_name":"Pondok Cina","is_transit":false,"time":2,"i_long":106.831114,"line":2,"station_id":"POC"},{"i_long":106.819451,"line":2,"station_name":"Depokbaru","time":4,"distance":2727,"transit":false,"is_transit":false,"i_lat":-6.391065,"station_id":"DPB"},{"line":2,"i_lat":-6.405256,"transit":false,"distance":1584,"station_name":"Depok","i_long":106.816926,"station_id":"DP","time":3,"is_transit":false},{"time":6,"i_long":106.800298,"line":2,"station_name":"Citayam","is_transit":true,"i_lat":-6.448811,"distance":5084,"station_id":"CTA","transit":true},{"time":0,"i_lat":-6.460735,"i_long":106.824374,"transit":false,"distance":0,"line":21,"station_name":"Pondok Rajeg","is_transit":false,"station_id":"PDRG"},{"station_id":"CBN","time":0,"i_lat":-6.46424,"station_name":"Cibinong","transit":false,"is_transit":false,"distance":0,"i_long":106.851978,"line":21},{"station_id":"NMO","i_long":106.905196,"time":10,"station_name":"Nambo","transit":false,"is_transit":false,"i_lat":-6.466285,"line":21,"distance":6527}],[{"station_id":"TPK","distance":0,"is_transit":false,"time":0,"i_lat":-6.1109480000000005,"station_name":"Tanjung Priuk","i_long":106.880089,"line":4,"transit":false},{"transit":false,"time":9,"distance":4566,"station_name":"Ancol","is_transit":false,"i_lat":-6.128023,"i_long":106.84464,"station_id":"AC","line":4},{"station_name":"Kampung Bandan","i_long":106.826365,"time":4,"is_transit":true,"station_id":"KPB","line":4,"transit":true,"distance":2185,"i_lat":-6.132549},{"line":11,"transit":false,"i_lat":-6.14505,"station_name":"Rajawali","is_transit":false,"distance":1444,"time":3,"i_long":106.836569,"station_id":"RJW"},{"station_id":"KMO","station_name":"Kemayoran","time":5,"is_transit":false,"i_lat":-6.161728,"transit":false,"distance":1901,"i_long":106.839204,"line":11},{"station_id":"PSE","line":11,"transit":false,"station_name":"Pasar Senen","time":4,"i_lat":-6.174784,"i_long":106.84368,"is_transit":false,"distance":1436},{"transit":false,"i_lat":-6.185975,"station_name":"Gang Sentiong","is_transit":false,"line":11,"station_id":"GST","i_long":106.850107,"time":8,"distance":1567},{"line":11,"station_id":"KMT","time":1,"i_long":106.855437,"transit":false,"distance":973,"i_lat":-6.193792,"is_transit":false,"station_name":"Kramat"},{"time":2,"line":11,"i_long":106.861737,"station_name":"Pondok Jati","distance":1829,"station_id":"POK","transit":false,"is_transit":false,"i_lat":-6.209188},{"time":9,"line":1,"is_transit":true,"distance":1236,"transit":true,"i_lat":-6.215091,"station_id":"JNG","station_name":"Jatinegara","i_long":106.86807400000001},{"station_id":"MTR","transit":false,"i_lat":-6.212485,"station_name":"Matraman","line":1,"i_long":106.858896,"is_transit":false,"time":2,"distance":1377},{"time":2,"i_long":106.84912,"transit":true,"line":2,"station_name":"Manggarai","station_id":"MRI","is_transit":true,"i_lat":-6.209883,"distance":1275},{"station_name":"Tebet","is_transit":false,"i_lat":-6.226659,"distance":2610,"transit":false,"station_id":"TEB","line":2,"time":4,"i_long":106.857948},{"is_transit":false,"i_long":106.856607,"station_name":"Cawang","time":2,"i_lat":-6.242512,"station_id":"CW","line":2,"transit":false,"distance":1230},{"station_name":"Duren Kalibata","i_long":106.85449,"line":2,"i_lat":-6.255332,"distance":1546,"time":3,"transit":false,"station_id":"DRN","is_transit":false},{"distance":824,"i_long":106.851577,"time":2,"is_transit":false,"station_id":"PSMB","transit":false,"i_lat":-6.263214,"line":2,"station_name":"Pasar Minggu Baru"},{"station_id":"PSM","distance":2380,"time":2,"transit":false,"is_transit":false,"station_name":"Pasar Minggu","line":2,"i_lat":-6.2842400000000005,"i_long":106.843999},{"transit":false,"i_long":106.838896,"station_id":"TNT","line":2,"time":4,"is_transit":false,"i_lat":-6.3080680000000005,"distance":2820,"station_name":"Tanjung Barat"},{"i_long":106.832616,"line":2,"station_name":"Lenteng Agung","transit":false,"time":3,"i_lat":-6.330363,"is_transit":false,"distance":2671,"station_id":"LNA"},{"station_id":"UP","transit":false,"i_long":106.834175,"i_lat":-6.339291,"station_name":"Univ. Pancasila","distance":1029,"time":2,"is_transit":false,"line":2},{"is_transit":false,"station_id":"UI","time":3,"line":2,"distance":2264,"transit":false,"i_lat":-6.360749,"i_long":106.831474,"station_name":"Univ. Indonesia"},{"i_lat":-6.369073,"station_id":"POC","distance":1109,"line":2,"time":2,"transit":false,"station_name":"Pondok Cina","is_transit":false,"i_long":106.831114},{"line":2,"distance":2727,"i_long":106.819451,"transit":false,"time":4,"is_transit":false,"station_id":"DPB","i_lat":-6.391065,"station_name":"Depokbaru"},{"station_name":"Depok","transit":false,"is_transit":false,"time":3,"i_long":106.816926,"station_id":"DP","distance":1584,"i_lat":-6.405256,"line":2},{"i_long":106.800298,"line":2,"transit":true,"distance":5084,"i_lat":-6.448811,"is_transit":true,"station_id":"CTA","station_name":"Citayam","time":6},{"station_id":"PDRG","i_long":106.824374,"distance":0,"time":0,"station_name":"Pondok Rajeg","i_lat":-6.460735,"transit":false,"is_transit":false,"line":21},{"distance":0,"is_transit":false,"line":21,"transit":false,"station_name":"Cibinong","time":0,"i_long":106.851978,"i_lat":-6.46424,"station_id":"CBN"},{"distance":6527,"i_long":106.905196,"transit":false,"station_name":"Nambo","is_transit":false,"i_lat":-6.466285,"time":10,"line":21,"station_id":"NMO"}]]}