{"data":[[{"time":0,"is_transit":false,"line":4,"distance":0,"station_name":"Tanjung Priuk","i_lat":-6.1109480000000005,"station_id":"TPK","transit":false,"i_long":106.880089},{"time":9,"i_long":106.84464,"line":4,"station_name":"Ancol","is_transit":false,"distance":4566,"transit":false,"station_id":"AC","i_lat":-6.128023},{"i_long":106.826365,"distance":2185,"station_id":"KPB","transit":true,"station_name":"Kampung Bandan","is_transit":true,"time":4,"i_lat":-6.132549,"line":4},{"distance":1444,"time":3,"station_id":"RJW","i_lat":-6.14505,"station_name":"Rajawali","line":11,"i_long":106.836569,"is_transit":false,"transit":false},{"distance":1901,"i_lat":-6.161728,"i_long":106.839204,"station_id":"KMO","time":5,"line":11,"is_transit":false,"transit":false,"station_name":"Kemayoran"},{"transit":false,"is_transit":false,"i_long":106.84368,"time":4,"i_lat":-6.174784,"station_name":"Pasar Senen","distance":1436,"station_id":"PSE","line":11},{"station_id":"GST","i_lat":-6.185975,"i_long":106.850107,"is_transit":false,"time":8,"line":11,"station_name":"Gang Sentiong","transit":false,"distance":1567},{"transit":false,"is_transit":false,"distance":973,"i_long":106.855437,"station_name":"Kramat","i_lat":-6.193792,"line":11,"station_id":"KMT","time":1},{"station_id":"POK","i_lat":-6.209188,"line":11,"distance":1829,"is_transit":false,"time":2,"transit":false,"station_name":"Pondok Jati","i_long":106.861737},{"is_transit":true,"line":1,"i_long":106.86807400000001,"i_lat":-6.215091,"station_name":"Jatinegara","distance":1236,"station_id":"JNG","transit":true,"time":9},{"i_lat":-6.2135,"i_long":106.899548,"station_id":"KLD","station_name":"Klender","distance":3395,"transit":false,"time":3,"line":1,"is_transit":false},{"time":2,"line":1,"station_name":"Buaran","i_lat":-6.215568,"station_id":"BUA","is_transit":false,"distance":3100,"transit":false,"i_long":106.922662},{"station_id":"KLDB","distance":1305,"line":1,"is_transit":false,"transit":false,"i_lat":-6.217455,"i_long":106.939679,"station_name":"Klenderbaru","time":1},{"line":1,"distance":1385,"time":8,"transit":false,"station_name":"Cakung","station_id":"CUK","is_transit":false,"i_lat":-6.219053,"i_long":106.951283}],[{"line":4,"time":0,"station_name":"Tanjung Priuk","distance":0,"is_transit":false,"i_lat":-6.1109480000000005,"transit":false,"i_long":106.880089,"station_id":"TPK"},{"transit":false,"station_name":"Ancol","is_transit":false,"i_long":106.84464,"line":4,"station_id":"AC","time":9,"distance":4566,"i_lat":-6.128023},{"station_id":"KPB","distance":2185,"station_name":"Kampung Bandan","time":4,"transit":true,"i_lat":-6.132549,"is_transit":true,"i_long":106.826365,"line":4},{"is_transit":false,"time":9,"station_id":"AK","distance":4102,"transit":false,"i_lat":-6.144674,"line":1,"i_long":106.79867,"station_name":"Angke"},{"line":1,"distance":1230,"time":4,"i_long":106.800832,"station_id":"DU","i_lat":-6.155215,"is_transit":false,"station_name":"Duri","transit":false},{"time":8,"station_id":"THB","transit":false,"line":1,"distance":3632,"station_name":"Tanah Abang","i_lat":-6.185545,"i_long":106.811091,"is_transit":false},{"time":5,"is_transit":false,"transit":false,"station_name":"Karet","station_id":"KAT","distance":2029,"line":1,"i_lat":-6.20132,"i_long":106.816351},{"station_id":"SUDB","i_lat":-6.201433,"time":1,"i_long":106.819881,"is_transit":false,"transit":false,"line":1,"distance":471,"station_name":"Sudirman Baru"},{"i_lat":-6.202263,"is_transit":false,"transit":false,"i_long":106.822649,"line":1,"distance":280,"station_name":"Sudirman","time":1,"station_id":"SUD"},{"distance":3186,"station_name":"Manggarai","i_long":106.84912,"i_lat":-6.209883,"is_transit":false,"transit":false,"station_id":"MRI","line":2,"time":4},{"station_id":"MTR","is_transit":false,"station_name":"Matraman","time":2,"i_long":106.858896,"transit":false,"distance":1275,"i_lat":-6.212485,"line":1},{"i_lat":-6.215091,"line":1,"is_transit":false,"transit":false,"time":8,"i_long":106.86807400000001,"distance":1377,"station_name":"Jatinegara","station_id":"JNG"},{"station_id":"KLD","transit":false,"station_name":"Klender","is_transit":false,"i_lat":-6.2135,"time":3,"distance":3395,"i_long":106.899548,"line":1},{"distance":3100,"station_name":"Buaran","station_id":"BUA","i_lat":-6.215568,"i_long":106.922662,"transit":false,"line":1,"is_transit":false,"time":2},{"is_transit":false,"station_name":"Klenderbaru","time":1,"i_long":106.939679,"line":1,"distance":1305,"i_lat":-6.217455,"transit":false,"station_id":"KLDB"},{"i_long":106.951283,"line":1,"station_name":"Cakung","distance":1385,"is_transit":false,"station_id":"CUK","i_lat":-6.219053,"time":8,"transit":false}],[{"time":0,"transit":false,"is_transit":false,"station_id":"TPK","distance":0,"i_long":106.880089,"station_name":"Tanjung Priuk","i_lat":-6.1109480000000005,"line":4},{"is_transit":false,"station_name":"Ancol","time":9,"i_long":106.84464,"line":4,"i_lat":-6.128023,"station_id":"AC","distance":4566,"transit":false},{"i_lat":-6.132549,"is_transit":true,"distance":2185,"time":4,"transit":true,"station_id":"KPB","i_long":106.826365,"station_name":"Kampung Bandan","line":4},{"line":2,"i_lat":-6.137569,"is_transit":true,"transit":true,"time":3,"distance":1364,"i_long":106.812439,"station_id":"JAKK","station_name":"Jakarta Kota"},{"time":4,"transit":false,"station_name":"Jayakarta","i_long":106.820901,"line":2,"station_id":"JAY","is_transit":false,"distance":1264,"i_lat":-6.141205},{"is_transit":false,"i_long":106.82482,"i_lat":-6.149769,"station_id":"MGB","distance":1080,"time":2,"transit":false,"line":2,"station_name":"Manggabesar"},{"distance":906,"i_long":106.827103,"i_lat":-6.160725,"line":2,"station_name":"Sawah Besar","time":2,"transit":false,"station_id":"SW","is_transit":false},{"distance":1149,"i_lat":-6.166716,"station_name":"Juanda","time":2,"transit":false,"is_transit":false,"station_id":"JUA","i_long":106.828284,"line":2},{"time":4,"i_long":106.832183,"line":2,"distance":2015,"transit":false,"is_transit":false,"station_name":"Gondangdia","station_id":"GDD","i_lat":-6.186295},{"time":3,"i_lat":-6.198556,"station_name":"Cikini","transit":false,"i_long":106.840169,"distance":1750,"line":2,"station_id":"CKI","is_transit":false},{"station_id":"MRI","i_lat":-6.209883,"distance":1590,"time":4,"i_long":106.84912,"is_transit":true,"station_name":"Manggarai","line":2,"transit":true},{"is_transit":false,"time":2,"line":1,"distance":1275,"station_id":"MTR","station_name":"Matraman","i_lat":-6.212485,"transit":false,"i_long":106.858896},{"station_id":"JNG","i_lat":-6.215091,"time":8,"transit":false,"station_name":"Jatinegara","is_transit":false,"distance":1377,"i_long":106.86807400000001,"line":1},{"distance":3395,"i_long":106.899548,"i_lat":-6.2135,"station_name":"Klender","transit":false,"station_id":"KLD","is_transit":false,"time":3,"line":1},{"i_long":106.922662,"distance":3100,"is_transit":false,"time":2,"station_id":"BUA","station_name":"Buaran","line":1,"transit":false,"i_lat":-6.215568},{"station_id":"KLDB","is_transit":false,"i_lat":-6.217455,"transit":false,"distance":1305,"station_name":"Klenderbaru","i_long":106.939679,"time":1,"line":1},{"transit":false,"i_long":106.951283,"time":8,"station_id":"CUK","station_name":"Cakung","is_transit":false,"i_lat":-6.219053,"line":1,"distance":1385}]]}