{"data":[[{"time":0,"station_id":"TPK","i_lat":-6.1109480000000005,"i_long":106.880089,"station_name":"Tanjung Priuk","is_transit":false,"line":4,"transit":false,"distance":0},{"i_long":106.84464,"distance":4566,"line":0,"is_transit":false,"station_id":"AC","i_lat":-6.128023,"time":9,"transit":false,"station_name":"Ancol"},{"station_id":"KPB","i_lat":-6.132549,"time":4,"distance":2185,"station_name":"Kampung Bandan","is_transit":true,"i_long":106.826365,"line":0,"transit":true},{"i_lat":-6.14505,"transit":false,"i_long":106.836569,"station_id":"RJW","time":3,"line":11,"distance":1444,"station_name":"Rajawali","is_transit":false},{"transit":false,"i_lat":-6.161728,"is_transit":false,"time":5,"distance":1901,"line":11,"station_name":"Kemayoran","station_id":"KMO","i_long":106.839204},{"is_transit":false,"time":4,"station_name":"Pasar Senen","i_lat":-6.174784,"line":11,"distance":1436,"transit":false,"station_id":"PSE","i_long":106.84368},{"transit":false,"station_id":"GST","line":11,"distance":1567,"station_name":"Gang Sentiong","i_lat":-6.185975,"i_long":106.850107,"is_transit":false,"time":8},{"distance":973,"is_transit":false,"station_id":"KMT","i_lat":-6.193792,"transit":false,"station_name":"Kramat","time":1,"i_long":106.855437,"line":11},{"line":11,"station_id":"POK","time":2,"i_long":106.861737,"transit":false,"distance":1829,"station_name":"Pondok Jati","is_transit":false,"i_lat":-6.209188},{"line":0,"station_id":"JNG","time":9,"i_long":106.86807400000001,"is_transit":true,"i_lat":-6.215091,"transit":false,"distance":1236,"station_name":"Jatinegara"}],[{"line":4,"is_transit":false,"transit":false,"time":0,"distance":0,"station_name":"Tanjung Priuk","station_id":"TPK","i_long":106.880089,"i_lat":-6.1109480000000005},{"i_long":106.84464,"line":0,"is_transit":false,"station_name":"Ancol","i_lat":-6.128023,"time":9,"distance":4566,"station_id":"AC","transit":false},{"time":4,"i_lat":-6.132549,"line":0,"is_transit":true,"distance":2185,"transit":false,"station_id":"KPB","station_name":"Kampung Bandan","i_long":106.826365},{"distance":4102,"station_name":"Angke","station_id":"AK","is_transit":false,"time":9,"i_lat":-6.144674,"i_long":106.79867,"line":0,"transit":false},{"station_id":"DU","is_transit":true,"i_long":106.800832,"transit":true,"station_name":"Duri","time":4,"i_lat":-6.155215,"line":1,"distance":1230},{"time":8,"station_name":"Tanah Abang","station_id":"THB","i_long":106.811091,"transit":false,"is_transit":true,"i_lat":-6.185545,"distance":3632,"line":1},{"time":5,"is_transit":false,"i_lat":-6.20132,"distance":2029,"station_name":"Karet","station_id":"KAT","i_long":106.816351,"line":1,"transit":false},{"distance":471,"station_id":"SUDB","i_lat":-6.201433,"i_long":106.819881,"is_transit":false,"transit":false,"station_name":"Sudirman Baru","line":1,"time":1},{"line":1,"station_id":"SUD","i_long":106.822649,"i_lat":-6.202263,"distance":280,"transit":false,"is_transit":false,"time":1,"station_name":"Sudirman"},{"line":0,"station_id":"MRI","transit":false,"is_transit":true,"distance":3186,"i_long":106.84912,"i_lat":-6.209883,"station_name":"Manggarai","time":4},{"is_transit":false,"time":2,"station_name":"Matraman","distance":1275,"station_id":"MTR","transit":false,"i_lat":-6.212485,"i_long":106.858896,"line":1},{"station_id":"JNG","i_lat":-6.215091,"transit":false,"i_long":106.86807400000001,"line":0,"is_transit":true,"time":8,"station_name":"Jatinegara","distance":1377}],[{"line":4,"transit":false,"i_long":106.880089,"station_name":"Tanjung Priuk","i_lat":-6.1109480000000005,"time":0,"is_transit":false,"distance":0,"station_id":"TPK"},{"time":9,"i_lat":-6.128023,"i_long":106.84464,"is_transit":false,"line":0,"transit":false,"station_name":"Ancol","distance":4566,"station_id":"AC"},{"station_id":"KPB","time":4,"i_lat":-6.132549,"is_transit":true,"station_name":"Kampung Bandan","line":0,"distance":2185,"transit":false,"i_long":106.826365},{"distance":1364,"is_transit":true,"transit":true,"line":0,"station_id":"JAKK","time":3,"station_name":"Jakarta Kota","i_long":106.812439,"i_lat":-6.137569},{"i_long":106.820901,"distance":1264,"line":7,"is_transit":false,"time":4,"station_name":"Jayakarta","station_id":"JAY","transit":false,"i_lat":-6.141205},{"i_lat":-6.149769,"line":2,"transit":false,"i_long":106.82482,"is_transit":false,"distance":1080,"station_id":"MGB","time":2,"station_name":"Manggabesar"},{"station_id":"SW","time":2,"line":2,"station_name":"Sawah Besar","distance":906,"i_lat":-6.160725,"transit":false,"is_transit":false,"i_long":106.827103},{"i_long":106.828284,"line":2,"distance":1149,"is_transit":false,"station_name":"Juanda","time":2,"transit":false,"station_id":"JUA","i_lat":-6.166716},{"station_name":"Gondangdia","time":4,"station_id":"GDD","is_transit":false,"i_lat":-6.186295,"transit":false,"distance":2015,"i_long":106.832183,"line":2},{"transit":false,"i_long":106.840169,"i_lat":-6.198556,"station_id":"CKI","station_name":"Cikini","distance":1750,"time":3,"line":0,"is_transit":false},{"is_transit":true,"i_lat":-6.209883,"time":4,"transit":true,"line":0,"i_long":106.84912,"distance":1590,"station_name":"Manggarai","station_id":"MRI"},{"station_name":"Matraman","i_long":106.858896,"station_id":"MTR","distance":1275,"i_lat":-6.212485,"line":1,"transit":false,"is_transit":false,"time":2},{"line":0,"i_lat":-6.215091,"station_name":"Jatinegara","is_transit":true,"transit":false,"i_long":106.86807400000001,"station_id":"JNG","time":8,"distance":1377}]]}