{"data":[[{"distance":0,"is_transit":false,"transit":false,"time":0,"i_lat":-6.1109480000000005,"line":4,"station_id":"TPK","station_name":"Tanjung Priuk","i_long":106.880089},{"station_id":"AC","distance":4566,"i_long":106.84464,"i_lat":-6.128023,"line":4,"time":9,"is_transit":false,"station_name":"Ancol","transit":false},{"station_name":"Kampung Bandan","is_transit":true,"line":4,"time":4,"distance":2185,"station_id":"KPB","i_lat":-6.132549,"i_long":106.826365,"transit":true},{"station_name":"Rajawali","time":3,"transit":false,"is_transit":false,"line":11,"distance":1444,"station_id":"RJW","i_lat":-6.14505,"i_long":106.836569},{"station_name":"Kemayoran","transit":false,"station_id":"KMO","i_long":106.839204,"time":5,"is_transit":false,"line":11,"distance":1901,"i_lat":-6.161728},{"transit":false,"i_long":106.84368,"station_name":"Pasar Senen","i_lat":-6.174784,"line":11,"station_id":"PSE","distance":1436,"is_transit":false,"time":4},{"line":11,"i_long":106.850107,"station_name":"Gang Sentiong","is_transit":false,"station_id":"GST","i_lat":-6.185975,"distance":1567,"transit":false,"time":8}],[{"station_id":"TPK","line":4,"transit":false,"time":0,"is_transit":false,"i_long":106.880089,"station_name":"Tanjung Priuk","distance":0,"i_lat":-6.1109480000000005},{"distance":4566,"i_long":106.84464,"line":4,"transit":false,"station_name":"Ancol","is_transit":false,"i_lat":-6.128023,"station_id":"AC","time":9},{"transit":true,"line":4,"i_lat":-6.132549,"station_id":"KPB","is_transit":true,"station_name":"Kampung Bandan","time":4,"i_long":106.826365,"distance":2185},{"is_transit":false,"transit":false,"station_name":"Angke","i_long":106.79867,"line":1,"distance":4102,"time":9,"station_id":"AK","i_lat":-6.144674},{"line":1,"distance":1230,"station_id":"DU","transit":false,"station_name":"Duri","i_lat":-6.155215,"is_transit":false,"i_long":106.800832,"time":4},{"is_transit":false,"station_name":"Tanah Abang","line":1,"station_id":"THB","transit":false,"i_lat":-6.185545,"i_long":106.811091,"distance":3632,"time":8},{"is_transit":false,"distance":2029,"i_lat":-6.20132,"station_name":"Karet","station_id":"KAT","time":5,"line":1,"i_long":106.816351,"transit":false},{"i_lat":-6.201433,"i_long":106.819881,"time":1,"station_name":"Sudirman Baru","is_transit":false,"transit":false,"distance":471,"station_id":"SUDB","line":1},{"i_lat":-6.202263,"transit":false,"line":1,"station_name":"Sudirman","is_transit":false,"i_long":106.822649,"station_id":"SUD","distance":280,"time":1},{"station_id":"MRI","is_transit":false,"i_long":106.84912,"i_lat":-6.209883,"station_name":"Manggarai","line":2,"transit":false,"time":4,"distance":3186},{"station_name":"Matraman","distance":1275,"line":1,"station_id":"MTR","time":2,"i_lat":-6.212485,"transit":false,"is_transit":false,"i_long":106.858896},{"station_name":"Jatinegara","i_lat":-6.215091,"transit":true,"time":8,"is_transit":true,"i_long":106.86807400000001,"line":1,"distance":1377,"station_id":"JNG"},{"station_id":"POK","station_name":"Pondok Jati","line":11,"time":2,"i_long":106.861737,"is_transit":false,"transit":false,"distance":1236,"i_lat":-6.209188},{"line":11,"is_transit":false,"transit":false,"station_name":"Kramat","station_id":"KMT","distance":1829,"time":2,"i_lat":-6.193792,"i_long":106.855437},{"line":11,"station_name":"Gang Sentiong","transit":false,"time":1,"distance":973,"station_id":"GST","is_transit":false,"i_lat":-6.185975,"i_long":106.850107}],[{"station_id":"TPK","time":0,"distance":0,"i_lat":-6.1109480000000005,"transit":false,"i_long":106.880089,"station_name":"Tanjung Priuk","is_transit":false,"line":4},{"transit":false,"distance":4566,"station_id":"AC","time":9,"station_name":"Ancol","is_transit":false,"line":4,"i_long":106.84464,"i_lat":-6.128023},{"line":4,"distance":2185,"time":4,"i_lat":-6.132549,"station_name":"Kampung Bandan","is_transit":true,"i_long":106.826365,"transit":true,"station_id":"KPB"},{"line":2,"station_id":"JAKK","i_lat":-6.137569,"station_name":"Jakarta Kota","i_long":106.812439,"time":3,"transit":true,"distance":1364,"is_transit":true},{"i_lat":-6.141205,"transit":false,"line":2,"time":4,"distance":1264,"i_long":106.820901,"station_name":"Jayakarta","station_id":"JAY","is_transit":false},{"transit":false,"i_lat":-6.149769,"i_long":106.82482,"time":2,"distance":1080,"line":2,"station_id":"MGB","station_name":"Manggabesar","is_transit":false},{"distance":906,"station_name":"Sawah Besar","time":2,"is_transit":false,"i_lat":-6.160725,"station_id":"SW","transit":false,"i_long":106.827103,"line":2},{"is_transit":false,"distance":1149,"station_id":"JUA","transit":false,"station_name":"Juanda","line":2,"time":2,"i_lat":-6.166716,"i_long":106.828284},{"station_id":"GDD","time":4,"station_name":"Gondangdia","i_lat":-6.186295,"i_long":106.832183,"is_transit":false,"distance":2015,"transit":false,"line":2},{"station_id":"CKI","is_transit":false,"transit":false,"station_name":"Cikini","i_long":106.840169,"distance":1750,"i_lat":-6.198556,"line":2,"time":3},{"i_lat":-6.209883,"line":2,"station_name":"Manggarai","transit":true,"i_long":106.84912,"distance":1590,"time":4,"station_id":"MRI","is_transit":true},{"station_id":"MTR","station_name":"Matraman","i_long":106.858896,"time":2,"distance":1275,"is_transit":false,"transit":false,"i_lat":-6.212485,"line":1},{"i_long":106.86807400000001,"distance":1377,"station_id":"JNG","i_lat":-6.215091,"line":1,"station_name":"Jatinegara","is_transit":true,"time":8,"transit":true},{"time":2,"is_transit":false,"line":11,"transit":false,"station_name":"Pondok Jati","distance":1236,"station_id":"POK","i_long":106.861737,"i_lat":-6.209188},{"distance":1829,"station_name":"Kramat","is_transit":false,"station_id":"KMT","time":2,"transit":false,"i_long":106.855437,"i_lat":-6.193792,"line":11},{"station_name":"Gang Sentiong","i_long":106.850107,"line":11,"i_lat":-6.185975,"time":1,"is_transit":false,"transit":false,"station_id":"GST","distance":973}]]}