{"data":[[{"time":0,"is_transit":false,"station_name":"Tanjung Priuk","transit":false,"station_id":"TPK","line":4,"distance":0,"i_lat":-6.1109480000000005,"i_long":106.880089},{"line":4,"time":9,"i_lat":-6.128023,"i_long":106.84464,"distance":4566,"station_id":"AC","station_name":"Ancol","is_transit":false,"transit":false},{"station_name":"Kampung Bandan","station_id":"KPB","line":4,"i_lat":-6.132549,"i_long":106.826365,"distance":2185,"is_transit":true,"transit":true,"time":4},{"station_name":"Angke","transit":false,"station_id":"AK","is_transit":false,"i_long":106.79867,"line":1,"time":9,"i_lat":-6.144674,"distance":4102},{"i_long":106.800832,"is_transit":true,"station_id":"DU","distance":1230,"station_name":"Duri","transit":true,"i_lat":-6.155215,"time":4,"line":1},{"transit":false,"time":3,"station_id":"GRG","distance":1700,"i_lat":-6.162021,"i_long":106.788277,"is_transit":false,"line":5,"station_name":"Grogol"},{"i_lat":-6.161433,"distance":2036,"station_name":"Pesing","transit":false,"i_long":106.771379,"line":5,"time":2,"is_transit":false,"station_id":"PSG"},{"i_lat":-6.1587309999999995,"i_long":106.756522,"time":2,"line":5,"station_name":"Taman Kota","station_id":"TKO","distance":1614,"is_transit":false,"transit":false},{"line":5,"i_lat":-6.159876,"transit":false,"station_id":"BOI","time":2,"distance":2334,"station_name":"Bojongindah","is_transit":false,"i_long":106.737035},{"i_long":106.723064,"is_transit":false,"station_name":"Rawa Buaya","station_id":"RW","time":4,"transit":false,"line":5,"distance":1152,"i_lat":-6.162758}],[{"distance":0,"transit":false,"i_lat":-6.1109480000000005,"station_name":"Tanjung Priuk","line":4,"i_long":106.880089,"time":0,"is_transit":false,"station_id":"TPK"},{"distance":4566,"i_lat":-6.128023,"is_transit":false,"time":9,"station_id":"AC","station_name":"Ancol","transit":false,"i_long":106.84464,"line":4},{"station_name":"Kampung Bandan","transit":true,"i_lat":-6.132549,"i_long":106.826365,"time":4,"station_id":"KPB","is_transit":true,"line":4,"distance":2185},{"line":2,"i_lat":-6.137569,"time":3,"station_id":"JAKK","station_name":"Jakarta Kota","distance":1364,"is_transit":true,"transit":true,"i_long":106.812439},{"transit":false,"i_long":106.820901,"line":2,"i_lat":-6.141205,"time":4,"station_name":"Jayakarta","station_id":"JAY","is_transit":false,"distance":1264},{"station_id":"MGB","distance":1080,"station_name":"Manggabesar","i_lat":-6.149769,"i_long":106.82482,"time":2,"transit":false,"is_transit":false,"line":2},{"i_long":106.827103,"i_lat":-6.160725,"time":2,"is_transit":false,"station_name":"Sawah Besar","line":2,"transit":false,"station_id":"SW","distance":906},{"i_long":106.828284,"line":2,"station_id":"JUA","is_transit":false,"transit":false,"time":2,"station_name":"Juanda","i_lat":-6.166716,"distance":1149},{"distance":2015,"i_lat":-6.186295,"line":2,"station_name":"Gondangdia","station_id":"GDD","is_transit":false,"transit":false,"time":4,"i_long":106.832183},{"is_transit":false,"i_long":106.840169,"time":3,"station_name":"Cikini","line":2,"transit":false,"station_id":"CKI","i_lat":-6.198556,"distance":1750},{"i_long":106.84912,"time":4,"station_name":"Manggarai","station_id":"MRI","is_transit":true,"transit":true,"i_lat":-6.209883,"line":2,"distance":1590},{"time":4,"transit":false,"i_long":106.822649,"station_id":"SUD","is_transit":false,"line":1,"station_name":"Sudirman","distance":3186,"i_lat":-6.202263},{"time":1,"i_long":106.819881,"i_lat":-6.201433,"is_transit":false,"line":1,"station_name":"Sudirman Baru","station_id":"SUDB","distance":280,"transit":false},{"i_lat":-6.20132,"is_transit":false,"i_long":106.816351,"time":1,"line":1,"distance":471,"station_name":"Karet","transit":false,"station_id":"KAT"},{"i_long":106.811091,"time":5,"line":1,"i_lat":-6.185545,"transit":false,"is_transit":false,"station_id":"THB","station_name":"Tanah Abang","distance":2029},{"time":8,"transit":true,"i_lat":-6.155215,"distance":3632,"is_transit":true,"station_id":"DU","station_name":"Duri","i_long":106.800832,"line":1},{"distance":1700,"transit":false,"i_lat":-6.162021,"station_name":"Grogol","i_long":106.788277,"line":5,"time":3,"station_id":"GRG","is_transit":false},{"is_transit":false,"distance":2036,"line":5,"station_name":"Pesing","station_id":"PSG","i_lat":-6.161433,"i_long":106.771379,"time":2,"transit":false},{"i_long":106.756522,"distance":1614,"time":2,"line":5,"transit":false,"station_id":"TKO","is_transit":false,"i_lat":-6.1587309999999995,"station_name":"Taman Kota"},{"i_long":106.737035,"i_lat":-6.159876,"line":5,"station_name":"Bojongindah","distance":2334,"is_transit":false,"transit":false,"time":2,"station_id":"BOI"},{"is_transit":false,"i_lat":-6.162758,"i_long":106.723064,"time":4,"station_name":"Rawa Buaya","transit":false,"distance":1152,"line":5,"station_id":"RW"}],[{"i_lat":-6.1109480000000005,"transit":false,"distance":0,"is_transit":false,"station_id":"TPK","time":0,"line":4,"station_name":"Tanjung Priuk","i_long":106.880089},{"i_lat":-6.128023,"i_long":106.84464,"line":4,"time":9,"station_id":"AC","distance":4566,"is_transit":false,"transit":false,"station_name":"Ancol"},{"distance":2185,"station_id":"KPB","line":4,"time":4,"transit":true,"i_lat":-6.132549,"i_long":106.826365,"is_transit":true,"station_name":"Kampung Bandan"},{"i_lat":-6.14505,"distance":1444,"i_long":106.836569,"station_name":"Rajawali","station_id":"RJW","line":11,"time":3,"is_transit":false,"transit":false},{"distance":1901,"i_long":106.839204,"station_name":"Kemayoran","time":5,"station_id":"KMO","transit":false,"i_lat":-6.161728,"is_transit":false,"line":11},{"station_id":"PSE","transit":false,"i_long":106.84368,"distance":1436,"is_transit":false,"station_name":"Pasar Senen","i_lat":-6.174784,"line":11,"time":4},{"is_transit":false,"distance":1567,"transit":false,"line":11,"time":8,"i_long":106.850107,"station_name":"Gang Sentiong","i_lat":-6.185975,"station_id":"GST"},{"transit":false,"station_id":"KMT","i_lat":-6.193792,"line":11,"time":1,"i_long":106.855437,"distance":973,"is_transit":false,"station_name":"Kramat"},{"is_transit":false,"station_name":"Pondok Jati","line":11,"transit":false,"i_long":106.861737,"station_id":"POK","i_lat":-6.209188,"distance":1829,"time":2},{"station_name":"Jatinegara","i_long":106.86807400000001,"time":9,"i_lat":-6.215091,"line":1,"transit":true,"distance":1236,"station_id":"JNG","is_transit":true},{"is_transit":false,"i_lat":-6.212485,"i_long":106.858896,"time":2,"station_name":"Matraman","line":1,"distance":1377,"transit":false,"station_id":"MTR"},{"is_transit":false,"transit":false,"line":2,"station_id":"MRI","distance":1275,"station_name":"Manggarai","time":2,"i_lat":-6.209883,"i_long":106.84912},{"station_name":"Sudirman","transit":false,"i_long":106.822649,"time":4,"line":1,"is_transit":false,"station_id":"SUD","i_lat":-6.202263,"distance":3186},{"transit":false,"station_name":"Sudirman Baru","distance":280,"station_id":"SUDB","is_transit":false,"i_long":106.819881,"i_lat":-6.201433,"line":1,"time":1},{"is_transit":false,"transit":false,"i_lat":-6.20132,"time":1,"station_name":"Karet","station_id":"KAT","distance":471,"i_long":106.816351,"line":1},{"distance":2029,"i_long":106.811091,"i_lat":-6.185545,"line":1,"is_transit":false,"transit":false,"time":5,"station_name":"Tanah Abang","station_id":"THB"},{"transit":true,"i_lat":-6.155215,"is_transit":true,"station_id":"DU","time":8,"line":1,"station_name":"Duri","distance":3632,"i_long":106.800832},{"time":3,"i_lat":-6.162021,"line":5,"transit":false,"station_name":"Grogol","station_id":"GRG","is_transit":false,"distance":1700,"i_long":106.788277},{"i_lat":-6.161433,"line":5,"distance":2036,"i_long":106.771379,"station_id":"PSG","time":2,"station_name":"Pesing","is_transit":false,"transit":false},{"transit":false,"station_id":"TKO","distance":1614,"station_name":"Taman Kota","time":2,"i_lat":-6.1587309999999995,"is_transit":false,"i_long":106.756522,"line":5},{"transit":false,"time":2,"distance":2334,"i_lat":-6.159876,"line":5,"station_name":"Bojongindah","is_transit":false,"i_long":106.737035,"station_id":"BOI"},{"i_lat":-6.162758,"time":4,"station_name":"Rawa Buaya","transit":false,"is_transit":false,"station_id":"RW","distance":1152,"line":5,"i_long":106.723064}]]}