{"data":[[{"line":4,"station_name":"Tanjung Priuk","i_lat":-6.1109480000000005,"i_long":106.880089,"distance":0,"transit":false,"station_id":"TPK","is_transit":false,"time":0},{"i_long":106.84464,"i_lat":-6.128023,"station_id":"AC","transit":false,"line":4,"station_name":"Ancol","time":9,"distance":4566,"is_transit":false},{"is_transit":true,"i_long":106.826365,"distance":2185,"time":4,"station_name":"Kampung Bandan","i_lat":-6.132549,"line":4,"transit":true,"station_id":"KPB"},{"i_long":106.79867,"station_name":"Angke","time":9,"distance":4102,"station_id":"AK","is_transit":false,"i_lat":-6.144674,"line":1,"transit":false},{"i_lat":-6.155215,"station_id":"DU","station_name":"Duri","is_transit":false,"distance":1230,"transit":false,"i_long":106.800832,"time":4,"line":1},{"transit":false,"line":1,"station_id":"THB","station_name":"Tanah Abang","distance":3632,"i_lat":-6.185545,"time":8,"i_long":106.811091,"is_transit":false},{"station_id":"KAT","distance":2029,"time":5,"is_transit":false,"i_lat":-6.20132,"transit":false,"i_long":106.816351,"station_name":"Karet","line":1},{"station_id":"SUDB","is_transit":false,"station_name":"Sudirman Baru","i_long":106.819881,"time":1,"transit":false,"line":1,"distance":471,"i_lat":-6.201433},{"station_name":"Sudirman","transit":false,"time":1,"i_lat":-6.202263,"station_id":"SUD","is_transit":false,"i_long":106.822649,"line":1,"distance":280},{"i_long":106.84912,"time":4,"is_transit":true,"station_name":"Manggarai","transit":true,"line":2,"distance":3186,"i_lat":-6.209883,"station_id":"MRI"},{"station_name":"Tebet","i_lat":-6.226659,"line":2,"is_transit":false,"transit":false,"time":4,"i_long":106.857948,"distance":2610,"station_id":"TEB"},{"station_id":"CW","i_lat":-6.242512,"is_transit":false,"transit":false,"station_name":"Cawang","i_long":106.856607,"line":2,"time":2,"distance":1230},{"station_id":"DRN","i_long":106.85449,"distance":1546,"is_transit":false,"time":3,"station_name":"Duren Kalibata","line":2,"transit":false,"i_lat":-6.255332},{"line":2,"i_long":106.851577,"time":2,"station_name":"Pasar Minggu Baru","distance":824,"transit":false,"station_id":"PSMB","i_lat":-6.263214,"is_transit":false},{"line":2,"distance":2380,"i_lat":-6.2842400000000005,"i_long":106.843999,"station_id":"PSM","transit":false,"is_transit":false,"station_name":"Pasar Minggu","time":2},{"time":4,"i_lat":-6.3080680000000005,"station_id":"TNT","transit":false,"i_long":106.838896,"is_transit":false,"station_name":"Tanjung Barat","distance":2820,"line":2},{"station_name":"Lenteng Agung","time":3,"station_id":"LNA","is_transit":false,"distance":2671,"line":2,"i_lat":-6.330363,"i_long":106.832616,"transit":false},{"distance":1029,"station_id":"UP","is_transit":false,"station_name":"Univ. Pancasila","i_long":106.834175,"line":2,"time":2,"transit":false,"i_lat":-6.339291},{"time":3,"station_name":"Univ. Indonesia","line":2,"distance":2264,"station_id":"UI","is_transit":false,"i_lat":-6.360749,"transit":false,"i_long":106.831474},{"transit":false,"station_id":"POC","station_name":"Pondok Cina","is_transit":false,"line":2,"i_long":106.831114,"time":2,"distance":1109,"i_lat":-6.369073}],[{"line":4,"distance":0,"time":0,"i_lat":-6.1109480000000005,"station_name":"Tanjung Priuk","station_id":"TPK","is_transit":false,"transit":false,"i_long":106.880089},{"station_id":"AC","station_name":"Ancol","is_transit":false,"distance":4566,"transit":false,"time":9,"i_lat":-6.128023,"i_long":106.84464,"line":4},{"station_name":"Kampung Bandan","transit":true,"is_transit":true,"i_long":106.826365,"distance":2185,"time":4,"line":4,"i_lat":-6.132549,"station_id":"KPB"},{"i_long":106.812439,"is_transit":true,"station_name":"Jakarta Kota","transit":true,"i_lat":-6.137569,"time":3,"line":2,"station_id":"JAKK","distance":1364},{"is_transit":false,"time":4,"line":2,"station_name":"Jayakarta","distance":1264,"transit":false,"i_lat":-6.141205,"station_id":"JAY","i_long":106.820901},{"time":2,"distance":1080,"is_transit":false,"station_name":"Manggabesar","station_id":"MGB","transit":false,"i_lat":-6.149769,"i_long":106.82482,"line":2},{"transit":false,"time":2,"distance":906,"station_id":"SW","station_name":"Sawah Besar","i_lat":-6.160725,"is_transit":false,"i_long":106.827103,"line":2},{"i_long":106.828284,"distance":1149,"i_lat":-6.166716,"station_id":"JUA","is_transit":false,"station_name":"Juanda","transit":false,"time":2,"line":2},{"station_name":"Gondangdia","time":4,"i_long":106.832183,"i_lat":-6.186295,"is_transit":false,"station_id":"GDD","distance":2015,"transit":false,"line":2},{"station_name":"Cikini","i_lat":-6.198556,"is_transit":false,"line":2,"time":3,"distance":1750,"station_id":"CKI","i_long":106.840169,"transit":false},{"is_transit":false,"station_id":"MRI","station_name":"Manggarai","transit":false,"i_long":106.84912,"line":2,"time":4,"distance":1590,"i_lat":-6.209883},{"time":4,"transit":false,"station_id":"TEB","i_lat":-6.226659,"distance":2610,"is_transit":false,"station_name":"Tebet","i_long":106.857948,"line":2},{"i_long":106.856607,"distance":1230,"transit":false,"is_transit":false,"station_name":"Cawang","station_id":"CW","i_lat":-6.242512,"time":2,"line":2},{"i_lat":-6.255332,"transit":false,"line":2,"station_id":"DRN","time":3,"distance":1546,"station_name":"Duren Kalibata","i_long":106.85449,"is_transit":false},{"distance":824,"station_id":"PSMB","line":2,"station_name":"Pasar Minggu Baru","i_long":106.851577,"is_transit":false,"i_lat":-6.263214,"transit":false,"time":2},{"i_lat":-6.2842400000000005,"i_long":106.843999,"station_name":"Pasar Minggu","transit":false,"station_id":"PSM","line":2,"distance":2380,"is_transit":false,"time":2},{"is_transit":false,"station_id":"TNT","station_name":"Tanjung Barat","time":4,"i_lat":-6.3080680000000005,"distance":2820,"i_long":106.838896,"transit":false,"line":2},{"station_id":"LNA","i_long":106.832616,"station_name":"Lenteng Agung","line":2,"is_transit":false,"distance":2671,"i_lat":-6.330363,"transit":false,"time":3},{"station_name":"Univ. Pancasila","i_lat":-6.339291,"line":2,"transit":false,"time":2,"distance":1029,"is_transit":false,"station_id":"UP","i_long":106.834175},{"i_long":106.831474,"is_transit":false,"station_id":"UI","transit":false,"distance":2264,"time":3,"station_name":"Univ. Indonesia","i_lat":-6.360749,"line":2},{"i_lat":-6.369073,"transit":false,"distance":1109,"is_transit":false,"time":2,"station_id":"POC","station_name":"Pondok Cina","line":2,"i_long":106.831114}],[{"is_transit":false,"i_lat":-6.1109480000000005,"transit":false,"station_id":"TPK","i_long":106.880089,"line":4,"distance":0,"time":0,"station_name":"Tanjung Priuk"},{"i_long":106.84464,"line":4,"distance":4566,"time":9,"is_transit":false,"transit":false,"station_name":"Ancol","station_id":"AC","i_lat":-6.128023},{"i_long":106.826365,"line":4,"distance":2185,"time":4,"station_id":"KPB","station_name":"Kampung Bandan","i_lat":-6.132549,"transit":true,"is_transit":true},{"station_name":"Rajawali","transit":false,"station_id":"RJW","is_transit":false,"time":3,"line":11,"i_lat":-6.14505,"distance":1444,"i_long":106.836569},{"station_name":"Kemayoran","i_lat":-6.161728,"line":11,"distance":1901,"i_long":106.839204,"is_transit":false,"station_id":"KMO","time":5,"transit":false},{"time":4,"distance":1436,"station_name":"Pasar Senen","station_id":"PSE","i_long":106.84368,"is_transit":false,"i_lat":-6.174784,"line":11,"transit":false},{"station_name":"Gang Sentiong","time":8,"distance":1567,"i_lat":-6.185975,"line":11,"transit":false,"station_id":"GST","i_long":106.850107,"is_transit":false},{"station_name":"Kramat","i_lat":-6.193792,"time":1,"station_id":"KMT","transit":false,"i_long":106.855437,"line":11,"distance":973,"is_transit":false},{"i_lat":-6.209188,"line":11,"distance":1829,"station_name":"Pondok Jati","transit":false,"station_id":"POK","is_transit":false,"time":2,"i_long":106.861737},{"i_long":106.86807400000001,"time":9,"line":1,"i_lat":-6.215091,"is_transit":true,"distance":1236,"station_name":"Jatinegara","transit":true,"station_id":"JNG"},{"i_lat":-6.212485,"station_id":"MTR","transit":false,"time":2,"station_name":"Matraman","is_transit":false,"i_long":106.858896,"line":1,"distance":1377},{"station_name":"Manggarai","i_lat":-6.209883,"transit":true,"line":2,"distance":1275,"time":2,"is_transit":true,"i_long":106.84912,"station_id":"MRI"},{"i_lat":-6.226659,"station_id":"TEB","distance":2610,"is_transit":false,"station_name":"Tebet","i_long":106.857948,"line":2,"transit":false,"time":4},{"line":2,"distance":1230,"transit":false,"is_transit":false,"station_id":"CW","i_lat":-6.242512,"time":2,"i_long":106.856607,"station_name":"Cawang"},{"distance":1546,"station_id":"DRN","transit":false,"time":3,"i_lat":-6.255332,"i_long":106.85449,"line":2,"is_transit":false,"station_name":"Duren Kalibata"},{"time":2,"station_id":"PSMB","station_name":"Pasar Minggu Baru","is_transit":false,"line":2,"distance":824,"transit":false,"i_long":106.851577,"i_lat":-6.263214},{"station_name":"Pasar Minggu","i_long":106.843999,"distance":2380,"transit":false,"station_id":"PSM","i_lat":-6.2842400000000005,"line":2,"is_transit":false,"time":2},{"time":4,"i_long":106.838896,"transit":false,"line":2,"is_transit":false,"station_id":"TNT","station_name":"Tanjung Barat","i_lat":-6.3080680000000005,"distance":2820},{"station_name":"Lenteng Agung","is_transit":false,"i_lat":-6.330363,"distance":2671,"transit":false,"station_id":"LNA","line":2,"time":3,"i_long":106.832616},{"is_transit":false,"i_long":106.834175,"station_name":"Univ. Pancasila","time":2,"i_lat":-6.339291,"station_id":"UP","line":2,"transit":false,"distance":1029},{"station_name":"Univ. Indonesia","i_long":106.831474,"line":2,"i_lat":-6.360749,"distance":2264,"transit":false,"time":3,"is_transit":false,"station_id":"UI"},{"distance":1109,"i_long":106.831114,"time":2,"is_transit":false,"station_id":"POC","transit":false,"i_lat":-6.369073,"line":2,"station_name":"Pondok Cina"}]]}