{"data":[[{"station_name":"Tanjung Priuk","station_id":"TPK","i_lat":-6.1109480000000005,"line":4,"time":0,"is_transit":false,"distance":0,"i_long":106.880089,"transit":false},{"transit":false,"is_transit":false,"i_long":106.84464,"distance":4566,"i_lat":-6.128023,"station_name":"Ancol","line":4,"station_id":"AC","time":9},{"is_transit":true,"station_id":"KPB","line":4,"transit":true,"station_name":"Kampung Bandan","i_lat":-6.132549,"i_long":106.826365,"time":4,"distance":2185},{"distance":1444,"line":11,"station_name":"Rajawali","i_long":106.836569,"transit":false,"is_transit":false,"station_id":"RJW","time":3,"i_lat":-6.14505},{"is_transit":false,"distance":1901,"i_lat":-6.161728,"transit":false,"i_long":106.839204,"station_id":"KMO","station_name":"Kemayoran","time":5,"line":11},{"i_long":106.84368,"time":4,"is_transit":false,"station_id":"PSE","i_lat":-6.174784,"distance":1436,"line":11,"transit":false,"station_name":"Pasar Senen"},{"line":11,"i_long":106.850107,"station_name":"Gang Sentiong","distance":1567,"i_lat":-6.185975,"transit":false,"station_id":"GST","time":8,"is_transit":false}],[{"is_transit":false,"distance":0,"station_name":"Tanjung Priuk","i_lat":-6.1109480000000005,"station_id":"TPK","transit":false,"i_long":106.880089,"time":0,"line":4},{"distance":4566,"i_lat":-6.128023,"time":9,"station_id":"AC","is_transit":false,"i_long":106.84464,"station_name":"Ancol","line":4,"transit":false},{"station_id":"KPB","line":4,"time":4,"transit":true,"distance":2185,"i_long":106.826365,"station_name":"Kampung Bandan","is_transit":true,"i_lat":-6.132549},{"station_id":"AK","line":1,"transit":false,"distance":4102,"is_transit":false,"station_name":"Angke","i_lat":-6.144674,"i_long":106.79867,"time":9},{"station_name":"Duri","i_lat":-6.155215,"is_transit":false,"station_id":"DU","time":4,"line":1,"distance":1230,"i_long":106.800832,"transit":false},{"transit":false,"time":8,"is_transit":false,"distance":3632,"i_long":106.811091,"i_lat":-6.185545,"line":1,"station_name":"Tanah Abang","station_id":"THB"},{"i_lat":-6.20132,"station_name":"Karet","station_id":"KAT","is_transit":false,"line":1,"time":5,"transit":false,"distance":2029,"i_long":106.816351},{"station_name":"Sudirman Baru","i_long":106.819881,"time":1,"station_id":"SUDB","line":1,"transit":false,"is_transit":false,"i_lat":-6.201433,"distance":471},{"is_transit":false,"transit":false,"time":1,"distance":280,"i_lat":-6.202263,"i_long":106.822649,"station_id":"SUD","station_name":"Sudirman","line":1},{"station_name":"Manggarai","i_lat":-6.209883,"line":2,"station_id":"MRI","is_transit":false,"distance":3186,"transit":false,"time":4,"i_long":106.84912},{"i_long":106.858896,"transit":false,"time":2,"is_transit":false,"distance":1275,"i_lat":-6.212485,"line":1,"station_id":"MTR","station_name":"Matraman"},{"i_lat":-6.215091,"i_long":106.86807400000001,"line":1,"station_id":"JNG","transit":true,"time":8,"station_name":"Jatinegara","is_transit":true,"distance":1377},{"is_transit":false,"i_lat":-6.209188,"i_long":106.861737,"line":11,"time":2,"station_name":"Pondok Jati","station_id":"POK","transit":false,"distance":1236},{"transit":false,"distance":1829,"is_transit":false,"station_name":"Kramat","station_id":"KMT","time":2,"i_lat":-6.193792,"line":11,"i_long":106.855437},{"time":1,"station_name":"Gang Sentiong","station_id":"GST","distance":973,"i_lat":-6.185975,"i_long":106.850107,"line":11,"is_transit":false,"transit":false}],[{"distance":0,"time":0,"line":4,"transit":false,"is_transit":false,"i_lat":-6.1109480000000005,"station_id":"TPK","i_long":106.880089,"station_name":"Tanjung Priuk"},{"line":4,"station_name":"Ancol","transit":false,"distance":4566,"i_lat":-6.128023,"time":9,"is_transit":false,"i_long":106.84464,"station_id":"AC"},{"transit":true,"i_lat":-6.132549,"time":4,"i_long":106.826365,"line":4,"is_transit":true,"station_id":"KPB","station_name":"Kampung Bandan","distance":2185},{"station_name":"Jakarta Kota","i_long":106.812439,"time":3,"line":2,"distance":1364,"transit":true,"i_lat":-6.137569,"is_transit":true,"station_id":"JAKK"},{"station_name":"Jayakarta","is_transit":false,"distance":1264,"i_lat":-6.141205,"time":4,"transit":false,"station_id":"JAY","line":2,"i_long":106.820901},{"i_long":106.82482,"station_name":"Manggabesar","line":2,"transit":false,"i_lat":-6.149769,"is_transit":false,"station_id":"MGB","distance":1080,"time":2},{"station_id":"SW","time":2,"i_lat":-6.160725,"transit":false,"is_transit":false,"distance":906,"station_name":"Sawah Besar","i_long":106.827103,"line":2},{"transit":false,"time":2,"station_id":"JUA","line":2,"station_name":"Juanda","i_long":106.828284,"distance":1149,"is_transit":false,"i_lat":-6.166716},{"distance":2015,"station_id":"GDD","station_name":"Gondangdia","i_lat":-6.186295,"i_long":106.832183,"time":4,"line":2,"transit":false,"is_transit":false},{"station_id":"CKI","station_name":"Cikini","i_long":106.840169,"line":2,"time":3,"i_lat":-6.198556,"transit":false,"is_transit":false,"distance":1750},{"time":4,"station_name":"Manggarai","i_lat":-6.209883,"is_transit":true,"i_long":106.84912,"station_id":"MRI","transit":true,"distance":1590,"line":2},{"station_name":"Matraman","distance":1275,"transit":false,"station_id":"MTR","time":2,"i_lat":-6.212485,"i_long":106.858896,"is_transit":false,"line":1},{"line":1,"transit":true,"station_name":"Jatinegara","i_lat":-6.215091,"time":8,"i_long":106.86807400000001,"distance":1377,"station_id":"JNG","is_transit":true},{"transit":false,"i_long":106.861737,"station_id":"POK","distance":1236,"station_name":"Pondok Jati","i_lat":-6.209188,"is_transit":false,"time":2,"line":11},{"station_name":"Kramat","station_id":"KMT","distance":1829,"i_lat":-6.193792,"line":11,"i_long":106.855437,"time":2,"is_transit":false,"transit":false},{"distance":973,"i_lat":-6.185975,"station_id":"GST","station_name":"Gang Sentiong","time":1,"transit":false,"is_transit":false,"i_long":106.850107,"line":11}]]}