{"data":[[{"station_name":"Tanjung Priuk","i_long":106.880089,"is_transit":false,"time":0,"station_id":"TPK","transit":false,"line":4,"i_lat":-6.1109480000000005,"distance":0},{"line":4,"i_lat":-6.128023,"i_long":106.84464,"distance":4566,"time":9,"is_transit":false,"transit":false,"station_name":"Ancol","station_id":"AC"},{"station_id":"KPB","i_lat":-6.132549,"time":4,"line":4,"is_transit":true,"i_long":106.826365,"distance":2185,"transit":true,"station_name":"Kampung Bandan"},{"transit":false,"station_id":"AK","i_lat":-6.144674,"distance":4102,"is_transit":false,"i_long":106.79867,"station_name":"Angke","line":1,"time":9},{"station_id":"DU","transit":true,"line":1,"station_name":"Duri","distance":1230,"i_lat":-6.155215,"i_long":106.800832,"time":4,"is_transit":true},{"is_transit":false,"station_name":"Grogol","distance":1700,"line":5,"i_long":106.788277,"i_lat":-6.162021,"station_id":"GGL","transit":false,"time":3},{"i_long":106.771379,"i_lat":-6.161433,"time":2,"distance":2036,"is_transit":false,"station_id":"PSG","transit":false,"station_name":"Pesing","line":5},{"station_id":"TKO","distance":1614,"time":2,"line":5,"is_transit":false,"i_long":106.756522,"station_name":"Taman Kota","transit":false,"i_lat":-6.1587309999999995},{"i_lat":-6.159876,"time":2,"station_id":"BOI","i_long":106.737035,"distance":2334,"transit":false,"station_name":"Bojongindah","line":5,"is_transit":false},{"distance":1152,"station_id":"RW","transit":false,"line":5,"station_name":"Rawa Buaya","i_long":106.723064,"is_transit":false,"time":4,"i_lat":-6.162758}],[{"station_name":"Tanjung Priuk","i_long":106.880089,"station_id":"TPK","distance":0,"time":0,"is_transit":false,"transit":false,"i_lat":-6.1109480000000005,"line":4},{"station_name":"Ancol","i_long":106.84464,"line":4,"distance":4566,"i_lat":-6.128023,"transit":false,"is_transit":false,"station_id":"AC","time":9},{"is_transit":true,"transit":true,"station_id":"KPB","i_lat":-6.132549,"distance":2185,"time":4,"i_long":106.826365,"line":4,"station_name":"Kampung Bandan"},{"i_lat":-6.137569,"i_long":106.812439,"station_name":"Jakarta Kota","distance":1364,"is_transit":true,"transit":true,"line":2,"time":3,"station_id":"JAKK"},{"is_transit":false,"i_lat":-6.141205,"transit":false,"distance":1264,"time":4,"station_name":"Jayakarta","i_long":106.820901,"line":2,"station_id":"JAY"},{"i_lat":-6.149769,"station_id":"MGB","station_name":"Manggabesar","transit":false,"time":2,"distance":1080,"is_transit":false,"i_long":106.82482,"line":2},{"station_id":"SW","time":2,"is_transit":false,"transit":false,"distance":906,"station_name":"Sawah Besar","i_long":106.827103,"line":2,"i_lat":-6.160725},{"i_long":106.828284,"station_name":"Juanda","distance":1149,"transit":false,"i_lat":-6.166716,"is_transit":false,"station_id":"JUA","line":2,"time":2},{"i_lat":-6.186295,"line":2,"transit":false,"distance":2015,"i_long":106.832183,"time":4,"station_id":"GDD","is_transit":false,"station_name":"Gondangdia"},{"station_id":"CKI","line":2,"time":3,"station_name":"Cikini","i_long":106.840169,"distance":1750,"is_transit":false,"transit":false,"i_lat":-6.198556},{"station_name":"Manggarai","station_id":"MRI","distance":1590,"i_long":106.84912,"line":2,"is_transit":true,"time":4,"transit":true,"i_lat":-6.209883},{"time":4,"distance":3186,"is_transit":false,"transit":false,"i_lat":-6.202263,"i_long":106.822649,"station_name":"Sudirman","line":1,"station_id":"SUD"},{"line":1,"transit":false,"distance":280,"station_name":"Sudirman Baru","station_id":"SUDB","i_long":106.819881,"i_lat":-6.201433,"is_transit":false,"time":1},{"i_long":106.816351,"station_id":"KAT","line":1,"i_lat":-6.20132,"time":1,"distance":471,"is_transit":false,"transit":false,"station_name":"Karet"},{"station_name":"Tanah Abang","time":5,"transit":false,"i_long":106.811091,"is_transit":false,"i_lat":-6.185545,"line":1,"distance":2029,"station_id":"THB"},{"station_id":"DU","time":8,"transit":true,"distance":3632,"station_name":"Duri","i_lat":-6.155215,"is_transit":true,"i_long":106.800832,"line":1},{"time":3,"transit":false,"i_long":106.788277,"line":5,"station_name":"Grogol","distance":1700,"is_transit":false,"i_lat":-6.162021,"station_id":"GGL"},{"station_name":"Pesing","line":5,"is_transit":false,"i_lat":-6.161433,"transit":false,"station_id":"PSG","time":2,"i_long":106.771379,"distance":2036},{"transit":false,"is_transit":false,"station_id":"TKO","distance":1614,"i_long":106.756522,"time":2,"station_name":"Taman Kota","i_lat":-6.1587309999999995,"line":5},{"i_long":106.737035,"transit":false,"i_lat":-6.159876,"is_transit":false,"time":2,"station_id":"BOI","distance":2334,"line":5,"station_name":"Bojongindah"},{"station_name":"Rawa Buaya","is_transit":false,"i_lat":-6.162758,"line":5,"transit":false,"time":4,"distance":1152,"station_id":"RW","i_long":106.723064}],[{"station_name":"Tanjung Priuk","distance":0,"is_transit":false,"line":4,"i_lat":-6.1109480000000005,"transit":false,"i_long":106.880089,"station_id":"TPK","time":0},{"station_id":"AC","transit":false,"i_lat":-6.128023,"time":9,"station_name":"Ancol","line":4,"is_transit":false,"i_long":106.84464,"distance":4566},{"station_name":"Kampung Bandan","time":4,"station_id":"KPB","line":4,"transit":true,"is_transit":true,"i_long":106.826365,"distance":2185,"i_lat":-6.132549},{"i_lat":-6.14505,"station_id":"RJW","i_long":106.836569,"distance":1444,"station_name":"Rajawali","time":3,"is_transit":false,"transit":false,"line":11},{"is_transit":false,"line":11,"station_id":"KMO","station_name":"Kemayoran","distance":1901,"time":5,"i_long":106.839204,"i_lat":-6.161728,"transit":false},{"station_name":"Pasar Senen","i_lat":-6.174784,"time":4,"distance":1436,"is_transit":false,"i_long":106.84368,"transit":false,"station_id":"PSE","line":11},{"time":8,"line":11,"distance":1567,"i_lat":-6.185975,"station_name":"Gang Sentiong","i_long":106.850107,"station_id":"GST","transit":false,"is_transit":false},{"is_transit":false,"distance":973,"time":1,"i_long":106.855437,"transit":false,"i_lat":-6.193792,"line":11,"station_id":"KMT","station_name":"Kramat"},{"station_name":"Pondok Jati","i_lat":-6.209188,"line":11,"distance":1829,"transit":false,"i_long":106.861737,"is_transit":false,"time":2,"station_id":"POK"},{"time":9,"station_name":"Jatinegara","transit":true,"is_transit":true,"distance":1236,"i_long":106.86807400000001,"station_id":"JNG","i_lat":-6.215091,"line":1},{"transit":false,"station_id":"MTR","time":2,"distance":1377,"is_transit":false,"line":1,"i_lat":-6.212485,"i_long":106.858896,"station_name":"Matraman"},{"time":2,"distance":1275,"station_name":"Manggarai","transit":false,"station_id":"MRI","line":2,"is_transit":false,"i_long":106.84912,"i_lat":-6.209883},{"station_id":"SUD","station_name":"Sudirman","time":4,"is_transit":false,"line":1,"transit":false,"i_lat":-6.202263,"distance":3186,"i_long":106.822649},{"station_name":"Sudirman Baru","i_lat":-6.201433,"time":1,"transit":false,"is_transit":false,"distance":280,"station_id":"SUDB","i_long":106.819881,"line":1},{"station_id":"KAT","transit":false,"time":1,"i_lat":-6.20132,"distance":471,"is_transit":false,"i_long":106.816351,"line":1,"station_name":"Karet"},{"i_lat":-6.185545,"i_long":106.811091,"line":1,"station_id":"THB","is_transit":false,"time":5,"station_name":"Tanah Abang","transit":false,"distance":2029},{"is_transit":true,"i_lat":-6.155215,"line":1,"station_name":"Duri","transit":true,"station_id":"DU","time":8,"distance":3632,"i_long":106.800832},{"line":5,"station_name":"Grogol","i_lat":-6.162021,"is_transit":false,"transit":false,"station_id":"GGL","time":3,"distance":1700,"i_long":106.788277},{"line":5,"station_name":"Pesing","station_id":"PSG","transit":false,"is_transit":false,"distance":2036,"i_lat":-6.161433,"time":2,"i_long":106.771379},{"station_id":"TKO","i_lat":-6.1587309999999995,"i_long":106.756522,"time":2,"line":5,"is_transit":false,"station_name":"Taman Kota","distance":1614,"transit":false},{"is_transit":false,"i_long":106.737035,"line":5,"station_id":"BOI","transit":false,"time":2,"i_lat":-6.159876,"station_name":"Bojongindah","distance":2334},{"station_id":"RW","station_name":"Rawa Buaya","line":5,"transit":false,"is_transit":false,"i_long":106.723064,"time":4,"i_lat":-6.162758,"distance":1152}]]}