{"data":[[{"time":0,"distance":0,"is_transit":false,"i_lat":-6.1109480000000005,"station_name":"Tanjung Priuk","transit":false,"station_id":"TPK","i_long":106.880089,"line":4},{"time":9,"i_lat":-6.128023,"distance":4566,"i_long":106.84464,"line":4,"transit":false,"station_name":"Ancol","station_id":"AC","is_transit":false},{"station_id":"KPB","station_name":"Kampung Bandan","i_lat":-6.132549,"time":4,"i_long":106.826365,"line":4,"distance":2185,"transit":true,"is_transit":true},{"distance":4102,"line":1,"i_lat":-6.144674,"transit":false,"station_name":"Angke","station_id":"AK","time":9,"i_long":106.79867,"is_transit":false},{"station_name":"Duri","time":4,"i_lat":-6.155215,"line":1,"transit":false,"is_transit":false,"distance":1230,"i_long":106.800832,"station_id":"DU"},{"i_long":106.811091,"station_name":"Tanah Abang","i_lat":-6.185545,"is_transit":false,"line":1,"distance":3632,"transit":false,"station_id":"THB","time":8},{"i_long":106.816351,"transit":false,"i_lat":-6.20132,"distance":2029,"time":5,"is_transit":false,"station_name":"Karet","line":1,"station_id":"KAT"},{"time":1,"i_lat":-6.201433,"line":1,"distance":471,"i_long":106.819881,"station_id":"SUDB","station_name":"Sudirman Baru","transit":false,"is_transit":false},{"time":1,"station_name":"Sudirman","transit":false,"station_id":"SUD","i_long":106.822649,"is_transit":false,"distance":280,"i_lat":-6.202263,"line":1},{"is_transit":true,"i_long":106.84912,"station_name":"Manggarai","station_id":"MRI","transit":true,"time":4,"distance":3186,"line":2,"i_lat":-6.209883},{"station_name":"Tebet","is_transit":false,"time":4,"station_id":"TEB","line":2,"transit":false,"distance":2610,"i_lat":-6.226659,"i_long":106.857948},{"distance":1230,"station_id":"CW","i_lat":-6.242512,"line":2,"station_name":"Cawang","transit":false,"time":2,"is_transit":false,"i_long":106.856607},{"i_lat":-6.255332,"i_long":106.85449,"line":2,"time":3,"distance":1546,"is_transit":false,"station_id":"DRN","transit":false,"station_name":"Duren Kalibata"}],[{"time":0,"line":4,"transit":false,"is_transit":false,"station_name":"Tanjung Priuk","station_id":"TPK","i_lat":-6.1109480000000005,"distance":0,"i_long":106.880089},{"station_name":"Ancol","distance":4566,"time":9,"is_transit":false,"i_lat":-6.128023,"line":4,"station_id":"AC","i_long":106.84464,"transit":false},{"transit":true,"i_lat":-6.132549,"line":4,"time":4,"distance":2185,"station_id":"KPB","i_long":106.826365,"is_transit":true,"station_name":"Kampung Bandan"},{"i_long":106.812439,"i_lat":-6.137569,"station_id":"JAKK","transit":true,"station_name":"Jakarta Kota","distance":1364,"line":2,"time":3,"is_transit":true},{"transit":false,"distance":1264,"i_long":106.820901,"time":4,"station_id":"JAY","station_name":"Jayakarta","is_transit":false,"i_lat":-6.141205,"line":2},{"station_name":"Manggabesar","transit":false,"i_lat":-6.149769,"distance":1080,"time":2,"line":2,"is_transit":false,"station_id":"MGB","i_long":106.82482},{"time":2,"transit":false,"i_long":106.827103,"is_transit":false,"i_lat":-6.160725,"station_id":"SW","station_name":"Sawah Besar","line":2,"distance":906},{"time":2,"station_id":"JUA","line":2,"station_name":"Juanda","i_long":106.828284,"is_transit":false,"i_lat":-6.166716,"transit":false,"distance":1149},{"i_lat":-6.186295,"station_name":"Gondangdia","transit":false,"distance":2015,"line":2,"is_transit":false,"station_id":"GDD","time":4,"i_long":106.832183},{"line":2,"time":3,"distance":1750,"is_transit":false,"transit":false,"station_name":"Cikini","i_lat":-6.198556,"i_long":106.840169,"station_id":"CKI"},{"station_id":"MRI","station_name":"Manggarai","line":2,"transit":false,"time":4,"i_long":106.84912,"is_transit":false,"distance":1590,"i_lat":-6.209883},{"i_long":106.857948,"line":2,"time":4,"transit":false,"i_lat":-6.226659,"station_id":"TEB","distance":2610,"station_name":"Tebet","is_transit":false},{"distance":1230,"i_lat":-6.242512,"is_transit":false,"station_id":"CW","time":2,"station_name":"Cawang","line":2,"transit":false,"i_long":106.856607},{"line":2,"i_lat":-6.255332,"i_long":106.85449,"is_transit":false,"time":3,"distance":1546,"transit":false,"station_name":"Duren Kalibata","station_id":"DRN"}],[{"station_id":"TPK","station_name":"Tanjung Priuk","is_transit":false,"distance":0,"i_lat":-6.1109480000000005,"i_long":106.880089,"transit":false,"line":4,"time":0},{"transit":false,"station_name":"Ancol","is_transit":false,"station_id":"AC","i_long":106.84464,"time":9,"line":4,"i_lat":-6.128023,"distance":4566},{"station_name":"Kampung Bandan","i_lat":-6.132549,"distance":2185,"transit":true,"station_id":"KPB","line":4,"time":4,"is_transit":true,"i_long":106.826365},{"i_lat":-6.14505,"i_long":106.836569,"is_transit":false,"distance":1444,"station_name":"Rajawali","time":3,"line":11,"transit":false,"station_id":"RJW"},{"i_lat":-6.161728,"time":5,"line":11,"transit":false,"station_id":"KMO","station_name":"Kemayoran","is_transit":false,"distance":1901,"i_long":106.839204},{"transit":false,"distance":1436,"time":4,"i_lat":-6.174784,"station_name":"Pasar Senen","line":11,"i_long":106.84368,"station_id":"PSE","is_transit":false},{"transit":false,"time":8,"station_name":"Gang Sentiong","station_id":"GST","i_lat":-6.185975,"is_transit":false,"line":11,"distance":1567,"i_long":106.850107},{"i_long":106.855437,"is_transit":false,"distance":973,"time":1,"i_lat":-6.193792,"station_name":"Kramat","line":11,"transit":false,"station_id":"KMT"},{"transit":false,"distance":1829,"station_name":"Pondok Jati","i_lat":-6.209188,"i_long":106.861737,"is_transit":false,"line":11,"station_id":"POK","time":2},{"line":1,"i_long":106.86807400000001,"station_name":"Jatinegara","is_transit":true,"time":9,"transit":true,"station_id":"JNG","distance":1236,"i_lat":-6.215091},{"i_long":106.858896,"station_id":"MTR","time":2,"transit":false,"station_name":"Matraman","line":1,"distance":1377,"is_transit":false,"i_lat":-6.212485},{"is_transit":true,"station_name":"Manggarai","i_lat":-6.209883,"time":2,"transit":true,"station_id":"MRI","line":2,"distance":1275,"i_long":106.84912},{"station_id":"TEB","i_long":106.857948,"is_transit":false,"line":2,"distance":2610,"time":4,"i_lat":-6.226659,"transit":false,"station_name":"Tebet"},{"distance":1230,"line":2,"i_long":106.856607,"time":2,"station_id":"CW","transit":false,"station_name":"Cawang","i_lat":-6.242512,"is_transit":false},{"distance":1546,"station_name":"Duren Kalibata","transit":false,"time":3,"is_transit":false,"station_id":"DRN","line":2,"i_long":106.85449,"i_lat":-6.255332}]]}