{"data":[[{"time":0,"station_id":"TPK","i_lat":-6.1109480000000005,"line":4,"station_name":"Tanjung Priuk","is_transit":false,"transit":false,"distance":0,"i_long":106.880089},{"is_transit":false,"station_id":"AC","distance":4566,"i_long":106.84464,"line":0,"transit":false,"i_lat":-6.128023,"time":9,"station_name":"Ancol"},{"station_id":"KPB","line":0,"station_name":"Kampung Bandan","transit":false,"i_long":106.826365,"is_transit":true,"distance":2185,"i_lat":-6.132549,"time":4},{"distance":4102,"line":0,"transit":false,"is_transit":false,"i_long":106.79867,"time":9,"station_name":"Angke","station_id":"AK","i_lat":-6.144674},{"distance":1230,"i_long":106.800832,"i_lat":-6.155215,"line":1,"station_name":"Duri","transit":true,"time":4,"is_transit":true,"station_id":"DU"},{"transit":false,"distance":3632,"time":8,"i_lat":-6.185545,"line":1,"i_long":106.811091,"station_name":"Tanah Abang","is_transit":true,"station_id":"THB"},{"station_id":"KAT","time":5,"distance":2029,"i_lat":-6.20132,"station_name":"Karet","is_transit":false,"line":1,"i_long":106.816351,"transit":false},{"distance":471,"station_id":"SUDB","i_lat":-6.201433,"is_transit":false,"i_long":106.819881,"time":1,"line":1,"station_name":"Sudirman Baru","transit":false},{"distance":280,"station_name":"Sudirman","station_id":"SUD","i_long":106.822649,"transit":false,"time":1,"i_lat":-6.202263,"line":1,"is_transit":false},{"distance":3186,"i_lat":-6.209883,"time":4,"station_name":"Manggarai","i_long":106.84912,"station_id":"MRI","is_transit":true,"line":0,"transit":true},{"time":4,"distance":2610,"transit":false,"is_transit":false,"i_long":106.857948,"station_name":"Tebet","i_lat":-6.226659,"line":2,"station_id":"TEB"},{"line":0,"i_lat":-6.242512,"distance":1230,"i_long":106.856607,"time":2,"station_name":"Cawang","is_transit":false,"station_id":"CW","transit":false},{"station_id":"DRN","time":3,"i_long":106.85449,"line":0,"transit":false,"i_lat":-6.255332,"station_name":"Duren Kalibata","is_transit":false,"distance":1546}],[{"station_id":"TPK","time":0,"i_long":106.880089,"line":4,"is_transit":false,"station_name":"Tanjung Priuk","i_lat":-6.1109480000000005,"transit":false,"distance":0},{"line":0,"is_transit":false,"time":9,"distance":4566,"station_id":"AC","station_name":"Ancol","i_lat":-6.128023,"i_long":106.84464,"transit":false},{"i_lat":-6.132549,"station_id":"KPB","i_long":106.826365,"station_name":"Kampung Bandan","is_transit":true,"transit":false,"time":4,"distance":2185,"line":0},{"time":3,"distance":1364,"transit":true,"is_transit":true,"station_id":"JAKK","station_name":"Jakarta Kota","i_long":106.812439,"line":0,"i_lat":-6.137569},{"distance":1264,"is_transit":false,"i_lat":-6.141205,"transit":false,"i_long":106.820901,"station_name":"Jayakarta","station_id":"JAY","line":7,"time":4},{"station_name":"Manggabesar","time":2,"distance":1080,"is_transit":false,"station_id":"MGB","i_lat":-6.149769,"i_long":106.82482,"line":2,"transit":false},{"is_transit":false,"time":2,"station_name":"Sawah Besar","distance":906,"station_id":"SW","i_lat":-6.160725,"i_long":106.827103,"line":2,"transit":false},{"i_long":106.828284,"transit":false,"station_name":"Juanda","station_id":"JUA","distance":1149,"line":2,"i_lat":-6.166716,"is_transit":false,"time":2},{"distance":2015,"transit":false,"i_lat":-6.186295,"station_name":"Gondangdia","time":4,"line":2,"station_id":"GDD","i_long":106.832183,"is_transit":false},{"is_transit":false,"i_long":106.840169,"distance":1750,"station_id":"CKI","time":3,"line":0,"transit":false,"station_name":"Cikini","i_lat":-6.198556},{"time":4,"transit":true,"distance":1590,"is_transit":true,"station_id":"MRI","station_name":"Manggarai","i_long":106.84912,"i_lat":-6.209883,"line":0},{"distance":2610,"station_id":"TEB","is_transit":false,"time":4,"i_lat":-6.226659,"transit":false,"line":2,"station_name":"Tebet","i_long":106.857948},{"station_id":"CW","distance":1230,"i_long":106.856607,"station_name":"Cawang","i_lat":-6.242512,"line":0,"is_transit":false,"transit":false,"time":2},{"time":3,"station_name":"Duren Kalibata","station_id":"DRN","transit":false,"line":0,"distance":1546,"i_lat":-6.255332,"is_transit":false,"i_long":106.85449}],[{"is_transit":false,"distance":0,"i_long":106.880089,"station_name":"Tanjung Priuk","transit":false,"time":0,"station_id":"TPK","i_lat":-6.1109480000000005,"line":4},{"i_lat":-6.128023,"station_name":"Ancol","station_id":"AC","transit":false,"distance":4566,"time":9,"is_transit":false,"i_long":106.84464,"line":0},{"distance":2185,"transit":true,"line":0,"station_id":"KPB","i_long":106.826365,"is_transit":true,"time":4,"station_name":"Kampung Bandan","i_lat":-6.132549},{"i_lat":-6.14505,"station_id":"RJW","station_name":"Rajawali","i_long":106.836569,"transit":false,"line":11,"is_transit":false,"time":3,"distance":1444},{"is_transit":false,"i_lat":-6.161728,"station_id":"KMO","transit":false,"station_name":"Kemayoran","distance":1901,"i_long":106.839204,"line":11,"time":5},{"is_transit":false,"line":11,"transit":false,"station_name":"Pasar Senen","station_id":"PSE","distance":1436,"time":4,"i_lat":-6.174784,"i_long":106.84368},{"is_transit":false,"time":8,"distance":1567,"i_long":106.850107,"line":11,"i_lat":-6.185975,"station_id":"GST","transit":false,"station_name":"Gang Sentiong"},{"i_lat":-6.193792,"transit":false,"station_name":"Kramat","time":1,"distance":973,"i_long":106.855437,"station_id":"KMT","is_transit":false,"line":11},{"i_long":106.861737,"line":11,"transit":false,"is_transit":false,"i_lat":-6.209188,"distance":1829,"station_name":"Pondok Jati","station_id":"POK","time":2},{"is_transit":true,"transit":true,"station_id":"JNG","line":0,"time":9,"distance":1236,"i_lat":-6.215091,"i_long":106.86807400000001,"station_name":"Jatinegara"},{"distance":1377,"is_transit":false,"i_long":106.858896,"line":1,"i_lat":-6.212485,"station_name":"Matraman","transit":false,"time":2,"station_id":"MTR"},{"distance":1275,"i_lat":-6.209883,"i_long":106.84912,"station_id":"MRI","transit":true,"line":0,"is_transit":true,"time":2,"station_name":"Manggarai"},{"station_id":"TEB","time":4,"distance":2610,"transit":false,"is_transit":false,"line":2,"i_long":106.857948,"i_lat":-6.226659,"station_name":"Tebet"},{"distance":1230,"transit":false,"i_long":106.856607,"line":0,"is_transit":false,"station_name":"Cawang","time":2,"i_lat":-6.242512,"station_id":"CW"},{"station_id":"DRN","i_long":106.85449,"station_name":"Duren Kalibata","transit":false,"time":3,"i_lat":-6.255332,"line":0,"distance":1546,"is_transit":false}]]}