{"data":[[{"i_lat":-6.1109480000000005,"line":4,"is_transit":false,"time":0,"station_id":"TPK","transit":false,"distance":0,"i_long":106.880089,"station_name":"Tanjung Priuk"},{"transit":false,"distance":4566,"i_lat":-6.128023,"station_id":"AC","time":9,"station_name":"Ancol","is_transit":false,"line":4,"i_long":106.84464},{"station_id":"KPB","transit":true,"station_name":"Kampung Bandan","is_transit":true,"i_long":106.826365,"i_lat":-6.132549,"time":4,"line":4,"distance":2185},{"time":9,"station_id":"AK","transit":false,"i_lat":-6.144674,"line":1,"is_transit":false,"station_name":"Angke","distance":4102,"i_long":106.79867},{"station_id":"DU","distance":1230,"time":4,"transit":false,"station_name":"Duri","is_transit":false,"line":1,"i_lat":-6.155215,"i_long":106.800832},{"station_id":"THB","time":8,"i_lat":-6.185545,"transit":false,"line":1,"distance":3632,"station_name":"Tanah Abang","is_transit":false,"i_long":106.811091},{"station_id":"KAT","i_lat":-6.20132,"is_transit":false,"i_long":106.816351,"station_name":"Karet","transit":false,"line":1,"distance":2029,"time":5},{"time":1,"transit":false,"line":1,"distance":471,"is_transit":false,"station_name":"Sudirman Baru","station_id":"SUDB","i_long":106.819881,"i_lat":-6.201433},{"station_id":"SUD","time":1,"line":1,"i_long":106.822649,"station_name":"Sudirman","i_lat":-6.202263,"distance":280,"is_transit":false,"transit":false},{"station_name":"Manggarai","line":2,"station_id":"MRI","is_transit":true,"distance":3186,"time":4,"transit":true,"i_long":106.84912,"i_lat":-6.209883},{"station_name":"Tebet","transit":false,"distance":2610,"station_id":"TEB","line":2,"time":4,"is_transit":false,"i_lat":-6.226659,"i_long":106.857948},{"time":2,"line":2,"i_lat":-6.242512,"station_id":"CW","distance":1230,"transit":false,"i_long":106.856607,"station_name":"Cawang","is_transit":false},{"time":3,"transit":false,"is_transit":false,"i_long":106.85449,"station_id":"DRN","i_lat":-6.255332,"distance":1546,"line":2,"station_name":"Duren Kalibata"},{"station_id":"PSMB","transit":false,"i_long":106.851577,"i_lat":-6.263214,"is_transit":false,"time":2,"distance":824,"station_name":"Pasar Minggu Baru","line":2},{"is_transit":false,"transit":false,"station_name":"Pasar Minggu","line":2,"time":2,"station_id":"PSM","i_long":106.843999,"distance":2380,"i_lat":-6.2842400000000005},{"station_name":"Tanjung Barat","is_transit":false,"i_lat":-6.3080680000000005,"i_long":106.838896,"distance":2820,"time":4,"line":2,"transit":false,"station_id":"TNT"},{"transit":false,"distance":2671,"i_lat":-6.330363,"i_long":106.832616,"line":2,"time":3,"station_id":"LNA","station_name":"Lenteng Agung","is_transit":false},{"line":2,"time":2,"station_id":"UP","transit":false,"i_lat":-6.339291,"i_long":106.834175,"is_transit":false,"station_name":"Univ. Pancasila","distance":1029},{"i_lat":-6.360749,"time":3,"i_long":106.831474,"distance":2264,"is_transit":false,"line":2,"station_id":"UI","station_name":"Univ. Indonesia","transit":false},{"transit":false,"distance":1109,"station_name":"Pondok Cina","i_lat":-6.369073,"station_id":"POC","line":2,"i_long":106.831114,"time":2,"is_transit":false}],[{"station_id":"TPK","distance":0,"i_lat":-6.1109480000000005,"line":4,"station_name":"Tanjung Priuk","transit":false,"i_long":106.880089,"time":0,"is_transit":false},{"time":9,"station_id":"AC","is_transit":false,"transit":false,"i_lat":-6.128023,"distance":4566,"station_name":"Ancol","i_long":106.84464,"line":4},{"time":4,"station_name":"Kampung Bandan","line":4,"transit":true,"i_long":106.826365,"station_id":"KPB","distance":2185,"is_transit":true,"i_lat":-6.132549},{"station_id":"JAKK","transit":true,"station_name":"Jakarta Kota","line":2,"distance":1364,"is_transit":true,"time":3,"i_long":106.812439,"i_lat":-6.137569},{"distance":1264,"station_id":"JAY","i_long":106.820901,"is_transit":false,"time":4,"transit":false,"station_name":"Jayakarta","i_lat":-6.141205,"line":2},{"time":2,"i_lat":-6.149769,"transit":false,"station_id":"MGB","line":2,"distance":1080,"is_transit":false,"station_name":"Manggabesar","i_long":106.82482},{"time":2,"station_name":"Sawah Besar","i_long":106.827103,"is_transit":false,"distance":906,"transit":false,"i_lat":-6.160725,"line":2,"station_id":"SW"},{"station_id":"JUA","line":2,"distance":1149,"transit":false,"i_lat":-6.166716,"i_long":106.828284,"time":2,"station_name":"Juanda","is_transit":false},{"i_lat":-6.186295,"is_transit":false,"i_long":106.832183,"station_id":"GDD","line":2,"transit":false,"distance":2015,"time":4,"station_name":"Gondangdia"},{"transit":false,"i_lat":-6.198556,"time":3,"is_transit":false,"i_long":106.840169,"station_id":"CKI","distance":1750,"station_name":"Cikini","line":2},{"is_transit":false,"distance":1590,"transit":false,"station_name":"Manggarai","line":2,"time":4,"i_lat":-6.209883,"i_long":106.84912,"station_id":"MRI"},{"i_long":106.857948,"station_name":"Tebet","station_id":"TEB","line":2,"is_transit":false,"time":4,"transit":false,"distance":2610,"i_lat":-6.226659},{"i_long":106.856607,"time":2,"line":2,"station_name":"Cawang","distance":1230,"i_lat":-6.242512,"transit":false,"is_transit":false,"station_id":"CW"},{"station_id":"DRN","line":2,"distance":1546,"time":3,"is_transit":false,"station_name":"Duren Kalibata","i_long":106.85449,"i_lat":-6.255332,"transit":false},{"station_name":"Pasar Minggu Baru","time":2,"i_lat":-6.263214,"transit":false,"station_id":"PSMB","is_transit":false,"line":2,"distance":824,"i_long":106.851577},{"transit":false,"station_name":"Pasar Minggu","distance":2380,"is_transit":false,"i_lat":-6.2842400000000005,"time":2,"line":2,"station_id":"PSM","i_long":106.843999},{"time":4,"i_long":106.838896,"is_transit":false,"distance":2820,"transit":false,"station_id":"TNT","line":2,"i_lat":-6.3080680000000005,"station_name":"Tanjung Barat"},{"distance":2671,"station_id":"LNA","time":3,"i_lat":-6.330363,"i_long":106.832616,"station_name":"Lenteng Agung","is_transit":false,"line":2,"transit":false},{"time":2,"station_name":"Univ. Pancasila","i_lat":-6.339291,"i_long":106.834175,"line":2,"distance":1029,"is_transit":false,"station_id":"UP","transit":false},{"i_long":106.831474,"transit":false,"station_name":"Univ. Indonesia","station_id":"UI","time":3,"line":2,"is_transit":false,"distance":2264,"i_lat":-6.360749},{"i_long":106.831114,"transit":false,"time":2,"line":2,"distance":1109,"station_id":"POC","is_transit":false,"station_name":"Pondok Cina","i_lat":-6.369073}],[{"distance":0,"transit":false,"i_long":106.880089,"line":4,"station_name":"Tanjung Priuk","station_id":"TPK","is_transit":false,"time":0,"i_lat":-6.1109480000000005},{"transit":false,"station_id":"AC","station_name":"Ancol","distance":4566,"time":9,"i_long":106.84464,"i_lat":-6.128023,"line":4,"is_transit":false},{"i_lat":-6.132549,"time":4,"line":4,"distance":2185,"i_long":106.826365,"is_transit":true,"transit":true,"station_name":"Kampung Bandan","station_id":"KPB"},{"transit":false,"time":3,"i_long":106.836569,"line":11,"station_name":"Rajawali","distance":1444,"station_id":"RJW","i_lat":-6.14505,"is_transit":false},{"distance":1901,"time":5,"station_id":"KMO","is_transit":false,"i_long":106.839204,"i_lat":-6.161728,"transit":false,"line":11,"station_name":"Kemayoran"},{"time":4,"station_name":"Pasar Senen","i_long":106.84368,"i_lat":-6.174784,"line":11,"transit":false,"station_id":"PSE","is_transit":false,"distance":1436},{"station_id":"GST","time":8,"line":11,"is_transit":false,"station_name":"Gang Sentiong","i_long":106.850107,"transit":false,"i_lat":-6.185975,"distance":1567},{"transit":false,"time":1,"distance":973,"is_transit":false,"station_id":"KMT","i_lat":-6.193792,"station_name":"Kramat","i_long":106.855437,"line":11},{"transit":false,"is_transit":false,"station_id":"POK","i_long":106.861737,"i_lat":-6.209188,"distance":1829,"station_name":"Pondok Jati","line":11,"time":2},{"station_name":"Jatinegara","transit":true,"line":1,"is_transit":true,"time":9,"i_lat":-6.215091,"station_id":"JNG","distance":1236,"i_long":106.86807400000001},{"line":1,"i_long":106.858896,"station_id":"MTR","transit":false,"distance":1377,"station_name":"Matraman","is_transit":false,"i_lat":-6.212485,"time":2},{"distance":1275,"time":2,"station_name":"Manggarai","line":2,"station_id":"MRI","i_long":106.84912,"is_transit":true,"transit":true,"i_lat":-6.209883},{"i_lat":-6.226659,"transit":false,"station_id":"TEB","i_long":106.857948,"station_name":"Tebet","distance":2610,"time":4,"line":2,"is_transit":false},{"transit":false,"station_id":"CW","station_name":"Cawang","distance":1230,"i_lat":-6.242512,"i_long":106.856607,"time":2,"line":2,"is_transit":false},{"transit":false,"is_transit":false,"time":3,"distance":1546,"i_lat":-6.255332,"i_long":106.85449,"line":2,"station_id":"DRN","station_name":"Duren Kalibata"},{"distance":824,"station_id":"PSMB","is_transit":false,"transit":false,"time":2,"i_lat":-6.263214,"line":2,"station_name":"Pasar Minggu Baru","i_long":106.851577},{"station_id":"PSM","i_long":106.843999,"is_transit":false,"transit":false,"i_lat":-6.2842400000000005,"time":2,"line":2,"station_name":"Pasar Minggu","distance":2380},{"station_name":"Tanjung Barat","transit":false,"line":2,"i_long":106.838896,"i_lat":-6.3080680000000005,"time":4,"is_transit":false,"distance":2820,"station_id":"TNT"},{"station_name":"Lenteng Agung","transit":false,"line":2,"time":3,"i_long":106.832616,"i_lat":-6.330363,"distance":2671,"is_transit":false,"station_id":"LNA"},{"transit":false,"is_transit":false,"i_long":106.834175,"time":2,"i_lat":-6.339291,"station_id":"UP","distance":1029,"station_name":"Univ. Pancasila","line":2},{"time":3,"i_lat":-6.360749,"station_id":"UI","i_long":106.831474,"station_name":"Univ. Indonesia","transit":false,"line":2,"is_transit":false,"distance":2264},{"time":2,"line":2,"i_lat":-6.369073,"distance":1109,"station_id":"POC","i_long":106.831114,"is_transit":false,"station_name":"Pondok Cina","transit":false}]]}