{"data":[[{"station_id":"TPK","time":0,"station_name":"Tanjung Priuk","is_transit":false,"i_lat":-6.1109480000000005,"distance":0,"i_long":106.880089,"line":4,"transit":false},{"station_name":"Ancol","transit":false,"distance":4566,"station_id":"AC","i_lat":-6.128023,"i_long":106.84464,"is_transit":false,"line":4,"time":9},{"distance":2185,"i_lat":-6.132549,"station_id":"KPB","transit":true,"time":4,"i_long":106.826365,"is_transit":true,"station_name":"Kampung Bandan","line":4},{"station_name":"Angke","i_lat":-6.144674,"is_transit":false,"i_long":106.79867,"transit":false,"line":1,"time":9,"station_id":"AK","distance":4102},{"i_long":106.800832,"i_lat":-6.155215,"line":1,"time":4,"station_id":"DU","distance":1230,"transit":false,"station_name":"Duri","is_transit":false},{"transit":false,"i_lat":-6.185545,"distance":3632,"is_transit":false,"station_name":"Tanah Abang","station_id":"THB","i_long":106.811091,"time":8,"line":1},{"is_transit":false,"distance":2029,"station_name":"Karet","time":5,"i_lat":-6.20132,"i_long":106.816351,"transit":false,"line":1,"station_id":"KAT"},{"i_lat":-6.201433,"station_id":"SUDB","line":1,"time":1,"is_transit":false,"station_name":"Sudirman Baru","i_long":106.819881,"transit":false,"distance":471},{"time":1,"transit":false,"station_name":"Sudirman","station_id":"SUD","is_transit":false,"i_lat":-6.202263,"i_long":106.822649,"distance":280,"line":1},{"is_transit":true,"station_name":"Manggarai","station_id":"MRI","distance":3186,"time":4,"i_long":106.84912,"line":2,"transit":true,"i_lat":-6.209883},{"station_id":"TEB","i_lat":-6.226659,"station_name":"Tebet","is_transit":false,"transit":false,"i_long":106.857948,"distance":2610,"time":4,"line":2},{"transit":false,"station_name":"Cawang","time":2,"is_transit":false,"i_lat":-6.242512,"station_id":"CW","i_long":106.856607,"distance":1230,"line":2},{"line":2,"time":3,"station_id":"DRN","transit":false,"i_lat":-6.255332,"i_long":106.85449,"station_name":"Duren Kalibata","is_transit":false,"distance":1546}],[{"i_long":106.880089,"time":0,"i_lat":-6.1109480000000005,"distance":0,"station_name":"Tanjung Priuk","station_id":"TPK","line":4,"is_transit":false,"transit":false},{"i_lat":-6.128023,"station_id":"AC","is_transit":false,"station_name":"Ancol","time":9,"transit":false,"distance":4566,"i_long":106.84464,"line":4},{"transit":true,"station_id":"KPB","is_transit":true,"distance":2185,"i_long":106.826365,"time":4,"line":4,"station_name":"Kampung Bandan","i_lat":-6.132549},{"i_lat":-6.137569,"time":3,"i_long":106.812439,"transit":true,"is_transit":true,"distance":1364,"line":2,"station_id":"JAKK","station_name":"Jakarta Kota"},{"station_name":"Jayakarta","line":2,"i_long":106.820901,"station_id":"JAY","time":4,"is_transit":false,"transit":false,"i_lat":-6.141205,"distance":1264},{"is_transit":false,"time":2,"i_lat":-6.149769,"i_long":106.82482,"station_id":"MGB","station_name":"Manggabesar","distance":1080,"line":2,"transit":false},{"distance":906,"station_id":"SW","transit":false,"i_lat":-6.160725,"time":2,"line":2,"is_transit":false,"station_name":"Sawah Besar","i_long":106.827103},{"distance":1149,"i_lat":-6.166716,"time":2,"line":2,"station_id":"JUA","is_transit":false,"transit":false,"station_name":"Juanda","i_long":106.828284},{"transit":false,"line":2,"station_name":"Gondangdia","time":4,"is_transit":false,"i_long":106.832183,"i_lat":-6.186295,"station_id":"GDD","distance":2015},{"is_transit":false,"station_id":"CKI","i_lat":-6.198556,"station_name":"Cikini","i_long":106.840169,"line":2,"distance":1750,"transit":false,"time":3},{"i_long":106.84912,"station_id":"MRI","distance":1590,"time":4,"is_transit":false,"i_lat":-6.209883,"transit":false,"line":2,"station_name":"Manggarai"},{"line":2,"i_lat":-6.226659,"is_transit":false,"time":4,"station_id":"TEB","transit":false,"distance":2610,"station_name":"Tebet","i_long":106.857948},{"transit":false,"station_id":"CW","distance":1230,"i_long":106.856607,"is_transit":false,"station_name":"Cawang","time":2,"i_lat":-6.242512,"line":2},{"i_lat":-6.255332,"line":2,"time":3,"distance":1546,"station_id":"DRN","station_name":"Duren Kalibata","is_transit":false,"i_long":106.85449,"transit":false}],[{"station_id":"TPK","time":0,"distance":0,"is_transit":false,"i_lat":-6.1109480000000005,"i_long":106.880089,"line":4,"transit":false,"station_name":"Tanjung Priuk"},{"transit":false,"line":4,"is_transit":false,"distance":4566,"station_name":"Ancol","time":9,"i_lat":-6.128023,"station_id":"AC","i_long":106.84464},{"is_transit":true,"station_name":"Kampung Bandan","i_lat":-6.132549,"i_long":106.826365,"station_id":"KPB","transit":true,"line":4,"distance":2185,"time":4},{"transit":false,"station_name":"Rajawali","is_transit":false,"station_id":"RJW","i_lat":-6.14505,"i_long":106.836569,"line":11,"time":3,"distance":1444},{"transit":false,"is_transit":false,"station_name":"Kemayoran","i_lat":-6.161728,"i_long":106.839204,"station_id":"KMO","time":5,"distance":1901,"line":11},{"transit":false,"station_name":"Pasar Senen","line":11,"i_lat":-6.174784,"is_transit":false,"distance":1436,"station_id":"PSE","time":4,"i_long":106.84368},{"distance":1567,"is_transit":false,"line":11,"i_lat":-6.185975,"time":8,"i_long":106.850107,"transit":false,"station_id":"GST","station_name":"Gang Sentiong"},{"transit":false,"station_name":"Kramat","line":11,"distance":973,"i_lat":-6.193792,"i_long":106.855437,"is_transit":false,"time":1,"station_id":"KMT"},{"station_id":"POK","transit":false,"is_transit":false,"time":2,"distance":1829,"i_lat":-6.209188,"line":11,"station_name":"Pondok Jati","i_long":106.861737},{"i_lat":-6.215091,"time":9,"transit":true,"i_long":106.86807400000001,"is_transit":true,"distance":1236,"station_id":"JNG","station_name":"Jatinegara","line":1},{"station_name":"Matraman","i_long":106.858896,"line":1,"distance":1377,"transit":false,"time":2,"station_id":"MTR","is_transit":false,"i_lat":-6.212485},{"distance":1275,"station_id":"MRI","i_lat":-6.209883,"time":2,"station_name":"Manggarai","transit":true,"is_transit":true,"i_long":106.84912,"line":2},{"station_name":"Tebet","i_lat":-6.226659,"is_transit":false,"line":2,"time":4,"i_long":106.857948,"distance":2610,"transit":false,"station_id":"TEB"},{"time":2,"is_transit":false,"i_long":106.856607,"line":2,"station_name":"Cawang","station_id":"CW","distance":1230,"transit":false,"i_lat":-6.242512},{"transit":false,"time":3,"is_transit":false,"i_lat":-6.255332,"station_id":"DRN","station_name":"Duren Kalibata","line":2,"i_long":106.85449,"distance":1546}]]}