{"data":[[{"line":4,"station_id":"TPK","transit":false,"i_lat":-6.1109480000000005,"i_long":106.880089,"distance":0,"is_transit":false,"station_name":"Tanjung Priuk","time":0},{"time":9,"i_long":106.84464,"transit":false,"is_transit":false,"distance":4566,"i_lat":-6.128023,"line":0,"station_name":"Ancol","station_id":"AC"},{"is_transit":true,"station_id":"KPB","i_long":106.826365,"distance":2185,"station_name":"Kampung Bandan","time":4,"transit":false,"line":0,"i_lat":-6.132549},{"station_id":"AK","i_lat":-6.144674,"line":0,"transit":false,"i_long":106.79867,"is_transit":false,"station_name":"Angke","time":9,"distance":4102},{"is_transit":true,"transit":true,"i_lat":-6.155215,"station_name":"Duri","i_long":106.800832,"time":4,"station_id":"DU","line":1,"distance":1230},{"i_long":106.811091,"is_transit":true,"station_name":"Tanah Abang","line":1,"i_lat":-6.185545,"station_id":"THB","time":8,"distance":3632,"transit":false},{"time":5,"distance":2029,"line":1,"is_transit":false,"transit":false,"station_id":"KAT","station_name":"Karet","i_lat":-6.20132,"i_long":106.816351},{"station_id":"SUDB","is_transit":false,"line":1,"i_long":106.819881,"time":1,"station_name":"Sudirman Baru","distance":471,"transit":false,"i_lat":-6.201433},{"time":1,"i_long":106.822649,"is_transit":false,"line":1,"station_id":"SUD","i_lat":-6.202263,"transit":false,"distance":280,"station_name":"Sudirman"}],[{"i_long":106.880089,"transit":false,"distance":0,"station_name":"Tanjung Priuk","line":4,"is_transit":false,"station_id":"TPK","time":0,"i_lat":-6.1109480000000005},{"i_lat":-6.128023,"station_id":"AC","is_transit":false,"transit":false,"station_name":"Ancol","line":0,"distance":4566,"time":9,"i_long":106.84464},{"i_long":106.826365,"transit":false,"distance":2185,"station_name":"Kampung Bandan","time":4,"station_id":"KPB","is_transit":true,"i_lat":-6.132549,"line":0},{"distance":1364,"time":3,"is_transit":true,"station_name":"Jakarta Kota","i_lat":-6.137569,"line":0,"transit":true,"station_id":"JAKK","i_long":106.812439},{"station_name":"Jayakarta","distance":1264,"station_id":"JAY","transit":false,"is_transit":false,"i_lat":-6.141205,"line":7,"i_long":106.820901,"time":4},{"transit":false,"i_long":106.82482,"i_lat":-6.149769,"line":2,"distance":1080,"station_id":"MGB","time":2,"is_transit":false,"station_name":"Manggabesar"},{"time":2,"transit":false,"is_transit":false,"i_lat":-6.160725,"i_long":106.827103,"distance":906,"station_name":"Sawah Besar","station_id":"SW","line":2},{"line":2,"transit":false,"i_lat":-6.166716,"distance":1149,"is_transit":false,"station_name":"Juanda","i_long":106.828284,"station_id":"JUA","time":2},{"line":2,"time":4,"is_transit":false,"transit":false,"station_name":"Gondangdia","i_lat":-6.186295,"i_long":106.832183,"distance":2015,"station_id":"GDD"},{"line":0,"station_name":"Cikini","transit":false,"time":3,"i_long":106.840169,"distance":1750,"is_transit":false,"station_id":"CKI","i_lat":-6.198556},{"line":0,"i_long":106.84912,"time":4,"station_name":"Manggarai","transit":true,"i_lat":-6.209883,"is_transit":true,"station_id":"MRI","distance":1590},{"is_transit":false,"transit":false,"i_long":106.822649,"time":4,"station_id":"SUD","distance":3186,"i_lat":-6.202263,"station_name":"Sudirman","line":1}],[{"distance":0,"transit":false,"station_name":"Tanjung Priuk","i_lat":-6.1109480000000005,"i_long":106.880089,"station_id":"TPK","is_transit":false,"time":0,"line":4},{"i_long":106.84464,"transit":false,"station_name":"Ancol","is_transit":false,"station_id":"AC","time":9,"i_lat":-6.128023,"line":0,"distance":4566},{"distance":2185,"transit":true,"is_transit":true,"i_long":106.826365,"time":4,"station_name":"Kampung Bandan","i_lat":-6.132549,"station_id":"KPB","line":0},{"line":11,"distance":1444,"i_lat":-6.14505,"is_transit":false,"transit":false,"station_name":"Rajawali","i_long":106.836569,"time":3,"station_id":"RJW"},{"station_name":"Kemayoran","station_id":"KMO","time":5,"transit":false,"i_long":106.839204,"is_transit":false,"line":11,"i_lat":-6.161728,"distance":1901},{"line":11,"time":4,"is_transit":false,"station_name":"Pasar Senen","station_id":"PSE","distance":1436,"transit":false,"i_lat":-6.174784,"i_long":106.84368},{"time":8,"station_id":"GST","distance":1567,"station_name":"Gang Sentiong","i_long":106.850107,"is_transit":false,"transit":false,"i_lat":-6.185975,"line":11},{"i_lat":-6.193792,"is_transit":false,"transit":false,"line":11,"i_long":106.855437,"station_name":"Kramat","station_id":"KMT","time":1,"distance":973},{"station_name":"Pondok Jati","i_long":106.861737,"is_transit":false,"distance":1829,"transit":false,"line":11,"station_id":"POK","i_lat":-6.209188,"time":2},{"transit":true,"distance":1236,"time":9,"i_lat":-6.215091,"station_id":"JNG","line":0,"is_transit":true,"station_name":"Jatinegara","i_long":106.86807400000001},{"distance":1377,"i_lat":-6.212485,"is_transit":false,"i_long":106.858896,"time":2,"station_id":"MTR","station_name":"Matraman","transit":false,"line":1},{"distance":1275,"i_long":106.84912,"transit":false,"is_transit":true,"station_name":"Manggarai","i_lat":-6.209883,"station_id":"MRI","time":2,"line":0},{"transit":false,"line":1,"distance":3186,"time":4,"station_id":"SUD","is_transit":false,"i_long":106.822649,"i_lat":-6.202263,"station_name":"Sudirman"}]]}