{"data":[[{"station_name":"Tanjung Priuk","time":0,"is_transit":false,"i_long":106.880089,"station_id":"TPK","line":4,"transit":false,"i_lat":-6.1109480000000005,"distance":0},{"station_id":"AC","transit":false,"distance":4566,"i_long":106.84464,"station_name":"Ancol","is_transit":false,"time":9,"line":4,"i_lat":-6.128023},{"is_transit":true,"time":4,"distance":2185,"transit":true,"line":4,"i_lat":-6.132549,"station_name":"Kampung Bandan","station_id":"KPB","i_long":106.826365},{"line":1,"time":9,"i_long":106.79867,"is_transit":false,"transit":false,"distance":4102,"station_name":"Angke","i_lat":-6.144674,"station_id":"AK"},{"distance":1230,"station_name":"Duri","i_long":106.800832,"time":4,"station_id":"DU","line":1,"transit":false,"i_lat":-6.155215,"is_transit":false},{"station_id":"THB","distance":3632,"transit":false,"time":8,"i_lat":-6.185545,"station_name":"Tanah Abang","line":1,"is_transit":false,"i_long":106.811091},{"i_lat":-6.20132,"station_name":"Karet","line":1,"station_id":"KAT","is_transit":false,"time":5,"transit":false,"distance":2029,"i_long":106.816351},{"distance":471,"station_name":"Sudirman Baru","station_id":"SUDB","time":1,"transit":false,"line":1,"is_transit":false,"i_long":106.819881,"i_lat":-6.201433},{"distance":280,"station_id":"SUD","station_name":"Sudirman","transit":false,"i_lat":-6.202263,"i_long":106.822649,"line":1,"is_transit":false,"time":1},{"time":4,"station_id":"MRI","is_transit":true,"transit":true,"i_lat":-6.209883,"i_long":106.84912,"line":2,"station_name":"Manggarai","distance":3186},{"line":2,"is_transit":false,"transit":false,"station_name":"Tebet","time":4,"station_id":"TEB","i_long":106.857948,"distance":2610,"i_lat":-6.226659},{"station_name":"Cawang","transit":false,"distance":1230,"is_transit":false,"i_long":106.856607,"line":2,"time":2,"station_id":"CW","i_lat":-6.242512},{"station_id":"DRN","time":3,"i_long":106.85449,"is_transit":false,"distance":1546,"transit":false,"line":2,"station_name":"Duren Kalibata","i_lat":-6.255332},{"station_name":"Pasar Minggu Baru","station_id":"PSMB","i_lat":-6.263214,"line":2,"distance":824,"is_transit":false,"i_long":106.851577,"time":2,"transit":false}],[{"distance":0,"station_name":"Tanjung Priuk","time":0,"line":4,"i_lat":-6.1109480000000005,"is_transit":false,"i_long":106.880089,"station_id":"TPK","transit":false},{"distance":4566,"time":9,"is_transit":false,"station_name":"Ancol","i_lat":-6.128023,"i_long":106.84464,"line":4,"transit":false,"station_id":"AC"},{"time":4,"is_transit":true,"transit":true,"distance":2185,"line":4,"i_long":106.826365,"station_id":"KPB","station_name":"Kampung Bandan","i_lat":-6.132549},{"time":3,"is_transit":true,"station_name":"Jakarta Kota","distance":1364,"station_id":"JAKK","transit":true,"i_lat":-6.137569,"i_long":106.812439,"line":2},{"station_name":"Jayakarta","is_transit":false,"station_id":"JAY","i_lat":-6.141205,"line":2,"transit":false,"distance":1264,"time":4,"i_long":106.820901},{"is_transit":false,"distance":1080,"station_name":"Manggabesar","i_long":106.82482,"station_id":"MGB","time":2,"i_lat":-6.149769,"line":2,"transit":false},{"i_lat":-6.160725,"is_transit":false,"transit":false,"time":2,"station_name":"Sawah Besar","line":2,"distance":906,"station_id":"SW","i_long":106.827103},{"distance":1149,"i_lat":-6.166716,"line":2,"station_name":"Juanda","is_transit":false,"time":2,"i_long":106.828284,"station_id":"JUA","transit":false},{"i_lat":-6.186295,"line":2,"i_long":106.832183,"station_id":"GDD","distance":2015,"transit":false,"station_name":"Gondangdia","time":4,"is_transit":false},{"i_lat":-6.198556,"i_long":106.840169,"station_name":"Cikini","transit":false,"time":3,"line":2,"station_id":"CKI","distance":1750,"is_transit":false},{"station_id":"MRI","distance":1590,"is_transit":false,"time":4,"i_long":106.84912,"line":2,"station_name":"Manggarai","transit":false,"i_lat":-6.209883},{"line":2,"time":4,"distance":2610,"station_name":"Tebet","i_long":106.857948,"station_id":"TEB","is_transit":false,"i_lat":-6.226659,"transit":false},{"line":2,"distance":1230,"is_transit":false,"transit":false,"station_id":"CW","station_name":"Cawang","time":2,"i_lat":-6.242512,"i_long":106.856607},{"station_id":"DRN","line":2,"i_lat":-6.255332,"transit":false,"distance":1546,"is_transit":false,"i_long":106.85449,"station_name":"Duren Kalibata","time":3},{"i_lat":-6.263214,"is_transit":false,"station_id":"PSMB","i_long":106.851577,"station_name":"Pasar Minggu Baru","distance":824,"time":2,"transit":false,"line":2}],[{"line":4,"time":0,"distance":0,"is_transit":false,"station_name":"Tanjung Priuk","i_long":106.880089,"station_id":"TPK","transit":false,"i_lat":-6.1109480000000005},{"is_transit":false,"station_name":"Ancol","i_long":106.84464,"line":4,"time":9,"station_id":"AC","transit":false,"distance":4566,"i_lat":-6.128023},{"station_name":"Kampung Bandan","i_long":106.826365,"is_transit":true,"i_lat":-6.132549,"distance":2185,"transit":true,"line":4,"station_id":"KPB","time":4},{"is_transit":false,"line":11,"i_long":106.836569,"station_name":"Rajawali","station_id":"RJW","transit":false,"distance":1444,"i_lat":-6.14505,"time":3},{"is_transit":false,"station_name":"Kemayoran","transit":false,"i_long":106.839204,"distance":1901,"station_id":"KMO","time":5,"i_lat":-6.161728,"line":11},{"transit":false,"station_id":"PSE","is_transit":false,"i_long":106.84368,"i_lat":-6.174784,"time":4,"distance":1436,"line":11,"station_name":"Pasar Senen"},{"i_long":106.850107,"transit":false,"i_lat":-6.185975,"station_id":"GST","line":11,"distance":1567,"time":8,"station_name":"Gang Sentiong","is_transit":false},{"time":1,"transit":false,"line":11,"station_name":"Kramat","i_long":106.855437,"station_id":"KMT","is_transit":false,"i_lat":-6.193792,"distance":973},{"station_id":"POK","i_lat":-6.209188,"time":2,"line":11,"transit":false,"is_transit":false,"station_name":"Pondok Jati","i_long":106.861737,"distance":1829},{"is_transit":true,"i_lat":-6.215091,"time":9,"station_id":"JNG","station_name":"Jatinegara","transit":true,"distance":1236,"line":1,"i_long":106.86807400000001},{"distance":1377,"station_id":"MTR","is_transit":false,"i_long":106.858896,"station_name":"Matraman","time":2,"line":1,"transit":false,"i_lat":-6.212485},{"i_long":106.84912,"station_name":"Manggarai","i_lat":-6.209883,"is_transit":true,"station_id":"MRI","time":2,"distance":1275,"transit":true,"line":2},{"line":2,"time":4,"station_name":"Tebet","i_lat":-6.226659,"station_id":"TEB","i_long":106.857948,"is_transit":false,"transit":false,"distance":2610},{"station_id":"CW","distance":1230,"i_long":106.856607,"is_transit":false,"time":2,"station_name":"Cawang","i_lat":-6.242512,"line":2,"transit":false},{"time":3,"i_lat":-6.255332,"line":2,"i_long":106.85449,"distance":1546,"is_transit":false,"station_id":"DRN","transit":false,"station_name":"Duren Kalibata"},{"time":2,"station_name":"Pasar Minggu Baru","distance":824,"i_long":106.851577,"transit":false,"line":2,"station_id":"PSMB","i_lat":-6.263214,"is_transit":false}]]}