{"data":[[{"time":0,"station_name":"Tanjung Priuk","is_transit":false,"line":4,"distance":0,"i_lat":-6.1109480000000005,"station_id":"TPK","transit":false,"i_long":106.880089},{"time":9,"station_name":"Ancol","line":4,"station_id":"AC","distance":4566,"i_lat":-6.128023,"is_transit":false,"transit":false,"i_long":106.84464},{"station_name":"Kampung Bandan","line":4,"i_lat":-6.132549,"i_long":106.826365,"station_id":"KPB","distance":2185,"time":4,"is_transit":true,"transit":true},{"time":3,"is_transit":true,"transit":true,"distance":1364,"i_long":106.812439,"line":2,"station_id":"JAKK","station_name":"Jakarta Kota","i_lat":-6.137569},{"transit":false,"line":2,"i_long":106.820901,"distance":1264,"station_name":"Jayakarta","is_transit":false,"i_lat":-6.141205,"time":4,"station_id":"JAY"},{"i_lat":-6.149769,"i_long":106.82482,"distance":1080,"station_name":"Manggabesar","time":2,"transit":false,"line":2,"is_transit":false,"station_id":"MGB"},{"line":2,"station_name":"Sawah Besar","is_transit":false,"distance":906,"time":2,"station_id":"SW","i_long":106.827103,"i_lat":-6.160725,"transit":false},{"station_id":"JUA","distance":1149,"i_lat":-6.166716,"transit":false,"is_transit":false,"line":2,"time":2,"station_name":"Juanda","i_long":106.828284},{"station_id":"GDD","station_name":"Gondangdia","time":4,"line":2,"distance":2015,"is_transit":false,"i_lat":-6.186295,"transit":false,"i_long":106.832183}],[{"distance":0,"station_id":"TPK","is_transit":false,"station_name":"Tanjung Priuk","time":0,"transit":false,"i_lat":-6.1109480000000005,"i_long":106.880089,"line":4},{"is_transit":false,"i_long":106.84464,"i_lat":-6.128023,"time":9,"line":4,"distance":4566,"station_id":"AC","transit":false,"station_name":"Ancol"},{"time":4,"station_id":"KPB","is_transit":true,"station_name":"Kampung Bandan","i_lat":-6.132549,"i_long":106.826365,"line":4,"transit":true,"distance":2185},{"i_long":106.79867,"station_name":"Angke","station_id":"AK","transit":false,"is_transit":false,"i_lat":-6.144674,"line":1,"distance":4102,"time":9},{"transit":false,"i_long":106.800832,"line":1,"distance":1230,"is_transit":false,"i_lat":-6.155215,"station_name":"Duri","station_id":"DU","time":4},{"station_name":"Tanah Abang","is_transit":false,"line":1,"i_long":106.811091,"distance":3632,"transit":false,"i_lat":-6.185545,"time":8,"station_id":"THB"},{"distance":2029,"transit":false,"i_long":106.816351,"time":5,"i_lat":-6.20132,"is_transit":false,"station_id":"KAT","station_name":"Karet","line":1},{"line":1,"i_lat":-6.201433,"transit":false,"i_long":106.819881,"distance":471,"time":1,"is_transit":false,"station_name":"Sudirman Baru","station_id":"SUDB"},{"i_long":106.822649,"time":1,"station_id":"SUD","station_name":"Sudirman","transit":false,"i_lat":-6.202263,"line":1,"is_transit":false,"distance":280},{"station_id":"MRI","time":4,"station_name":"Manggarai","line":2,"i_long":106.84912,"is_transit":true,"i_lat":-6.209883,"transit":true,"distance":3186},{"time":4,"is_transit":false,"distance":1590,"station_name":"Cikini","transit":false,"i_long":106.840169,"station_id":"CKI","i_lat":-6.198556,"line":2},{"distance":1750,"time":3,"is_transit":false,"i_lat":-6.186295,"station_id":"GDD","station_name":"Gondangdia","i_long":106.832183,"transit":false,"line":2}],[{"station_name":"Tanjung Priuk","is_transit":false,"time":0,"transit":false,"i_long":106.880089,"line":4,"i_lat":-6.1109480000000005,"station_id":"TPK","distance":0},{"i_long":106.84464,"station_id":"AC","station_name":"Ancol","is_transit":false,"line":4,"i_lat":-6.128023,"time":9,"distance":4566,"transit":false},{"line":4,"i_long":106.826365,"station_id":"KPB","distance":2185,"station_name":"Kampung Bandan","transit":true,"i_lat":-6.132549,"is_transit":true,"time":4},{"i_long":106.836569,"station_name":"Rajawali","is_transit":false,"distance":1444,"i_lat":-6.14505,"time":3,"line":11,"transit":false,"station_id":"RJW"},{"transit":false,"i_long":106.839204,"station_name":"Kemayoran","time":5,"is_transit":false,"i_lat":-6.161728,"station_id":"KMO","distance":1901,"line":11},{"line":11,"distance":1436,"transit":false,"is_transit":false,"station_name":"Pasar Senen","station_id":"PSE","time":4,"i_lat":-6.174784,"i_long":106.84368},{"station_name":"Gang Sentiong","transit":false,"station_id":"GST","line":11,"is_transit":false,"time":8,"i_long":106.850107,"distance":1567,"i_lat":-6.185975},{"station_id":"KMT","transit":false,"distance":973,"station_name":"Kramat","time":1,"i_lat":-6.193792,"i_long":106.855437,"line":11,"is_transit":false},{"is_transit":false,"i_lat":-6.209188,"transit":false,"i_long":106.861737,"station_name":"Pondok Jati","distance":1829,"time":2,"line":11,"station_id":"POK"},{"line":1,"time":9,"is_transit":true,"i_long":106.86807400000001,"transit":true,"distance":1236,"station_name":"Jatinegara","station_id":"JNG","i_lat":-6.215091},{"i_lat":-6.212485,"line":1,"i_long":106.858896,"station_id":"MTR","station_name":"Matraman","transit":false,"time":2,"distance":1377,"is_transit":false},{"station_id":"MRI","station_name":"Manggarai","is_transit":true,"line":2,"i_lat":-6.209883,"transit":true,"distance":1275,"i_long":106.84912,"time":2},{"time":4,"i_long":106.840169,"i_lat":-6.198556,"line":2,"station_id":"CKI","transit":false,"station_name":"Cikini","is_transit":false,"distance":1590},{"station_name":"Gondangdia","is_transit":false,"distance":1750,"i_lat":-6.186295,"station_id":"GDD","transit":false,"time":3,"i_long":106.832183,"line":2}]]}