{"data":[[{"station_id":"TPK","i_lat":-6.1109480000000005,"i_long":106.880089,"is_transit":false,"transit":false,"station_name":"Tanjung Priuk","line":4,"distance":0,"time":0},{"is_transit":false,"station_id":"AC","i_lat":-6.128023,"i_long":106.84464,"time":9,"transit":false,"station_name":"Ancol","line":4,"distance":4566},{"line":4,"is_transit":true,"distance":2185,"time":4,"station_id":"KPB","station_name":"Kampung Bandan","transit":true,"i_lat":-6.132549,"i_long":106.826365},{"transit":false,"is_transit":false,"time":9,"station_id":"AK","station_name":"Angke","i_lat":-6.144674,"distance":4102,"line":1,"i_long":106.79867},{"i_lat":-6.155215,"i_long":106.800832,"transit":false,"station_id":"DU","is_transit":false,"line":1,"distance":1230,"station_name":"Duri","time":4},{"station_id":"THB","is_transit":false,"i_lat":-6.185545,"i_long":106.811091,"station_name":"Tanah Abang","line":1,"distance":3632,"transit":false,"time":8},{"station_id":"KAT","transit":false,"distance":2029,"station_name":"Karet","i_lat":-6.20132,"time":5,"i_long":106.816351,"line":1,"is_transit":false},{"time":1,"station_name":"Sudirman Baru","i_lat":-6.201433,"line":1,"i_long":106.819881,"transit":false,"distance":471,"is_transit":false,"station_id":"SUDB"},{"station_name":"Sudirman","transit":false,"i_long":106.822649,"is_transit":false,"distance":280,"line":1,"i_lat":-6.202263,"time":1,"station_id":"SUD"},{"is_transit":true,"time":4,"station_name":"Manggarai","line":2,"station_id":"MRI","i_lat":-6.209883,"distance":3186,"transit":true,"i_long":106.84912},{"distance":2610,"station_id":"TEB","station_name":"Tebet","line":2,"time":4,"is_transit":false,"transit":false,"i_lat":-6.226659,"i_long":106.857948},{"station_id":"CW","is_transit":false,"i_lat":-6.242512,"i_long":106.856607,"line":2,"distance":1230,"station_name":"Cawang","transit":false,"time":2},{"station_name":"Duren Kalibata","time":3,"is_transit":false,"line":2,"i_lat":-6.255332,"i_long":106.85449,"distance":1546,"transit":false,"station_id":"DRN"},{"time":2,"is_transit":false,"i_lat":-6.263214,"station_name":"Pasar Minggu Baru","station_id":"PSMB","distance":824,"i_long":106.851577,"transit":false,"line":2},{"line":2,"time":2,"station_name":"Pasar Minggu","i_lat":-6.2842400000000005,"station_id":"PSM","i_long":106.843999,"is_transit":false,"distance":2380,"transit":false},{"time":4,"distance":2820,"station_id":"TNT","station_name":"Tanjung Barat","i_lat":-6.3080680000000005,"i_long":106.838896,"is_transit":false,"line":2,"transit":false},{"time":3,"transit":false,"station_id":"LNA","distance":2671,"i_long":106.832616,"station_name":"Lenteng Agung","i_lat":-6.330363,"line":2,"is_transit":false},{"time":2,"is_transit":false,"i_lat":-6.339291,"transit":false,"distance":1029,"station_name":"Univ. Pancasila","line":2,"station_id":"UP","i_long":106.834175},{"time":3,"line":2,"distance":2264,"is_transit":false,"station_name":"Univ. Indonesia","transit":false,"station_id":"UI","i_lat":-6.360749,"i_long":106.831474},{"is_transit":false,"transit":false,"time":2,"i_lat":-6.369073,"line":2,"distance":1109,"i_long":106.831114,"station_name":"Pondok Cina","station_id":"POC"},{"is_transit":false,"distance":2727,"transit":false,"line":2,"station_name":"Depokbaru","time":4,"station_id":"DPB","i_lat":-6.391065,"i_long":106.819451},{"i_long":106.816926,"distance":1584,"time":3,"line":2,"station_id":"DP","station_name":"Depok","is_transit":false,"transit":false,"i_lat":-6.405256},{"is_transit":true,"time":6,"transit":true,"i_lat":-6.448811,"distance":5084,"i_long":106.800298,"station_id":"CTA","line":2,"station_name":"Citayam"},{"station_id":"PDRG","is_transit":false,"i_long":106.824374,"transit":false,"station_name":"Pondok Rajeg","distance":0,"line":21,"time":0,"i_lat":-6.460735},{"station_id":"CBN","line":21,"time":0,"distance":0,"transit":false,"station_name":"Cibinong","i_lat":-6.46424,"i_long":106.851978,"is_transit":false},{"distance":6527,"time":10,"station_id":"NMO","i_lat":-6.466285,"transit":false,"i_long":106.905196,"line":21,"station_name":"Nambo","is_transit":false}],[{"transit":false,"station_name":"Tanjung Priuk","i_lat":-6.1109480000000005,"is_transit":false,"time":0,"station_id":"TPK","i_long":106.880089,"line":4,"distance":0},{"time":9,"distance":4566,"station_name":"Ancol","is_transit":false,"station_id":"AC","i_long":106.84464,"transit":false,"line":4,"i_lat":-6.128023},{"time":4,"is_transit":true,"distance":2185,"i_lat":-6.132549,"i_long":106.826365,"transit":true,"line":4,"station_name":"Kampung Bandan","station_id":"KPB"},{"is_transit":true,"i_long":106.812439,"distance":1364,"transit":true,"station_id":"JAKK","station_name":"Jakarta Kota","i_lat":-6.137569,"time":3,"line":2},{"is_transit":false,"line":2,"station_name":"Jayakarta","i_long":106.820901,"station_id":"JAY","i_lat":-6.141205,"distance":1264,"transit":false,"time":4},{"distance":1080,"transit":false,"i_lat":-6.149769,"station_name":"Manggabesar","station_id":"MGB","line":2,"is_transit":false,"i_long":106.82482,"time":2},{"time":2,"station_id":"SW","i_long":106.827103,"line":2,"distance":906,"is_transit":false,"station_name":"Sawah Besar","transit":false,"i_lat":-6.160725},{"time":2,"line":2,"is_transit":false,"i_long":106.828284,"station_id":"JUA","i_lat":-6.166716,"transit":false,"distance":1149,"station_name":"Juanda"},{"distance":2015,"station_name":"Gondangdia","line":2,"i_lat":-6.186295,"station_id":"GDD","transit":false,"is_transit":false,"i_long":106.832183,"time":4},{"station_id":"CKI","transit":false,"station_name":"Cikini","i_lat":-6.198556,"i_long":106.840169,"line":2,"time":3,"distance":1750,"is_transit":false},{"time":4,"distance":1590,"i_lat":-6.209883,"is_transit":false,"line":2,"station_name":"Manggarai","i_long":106.84912,"transit":false,"station_id":"MRI"},{"station_id":"TEB","i_long":106.857948,"time":4,"is_transit":false,"transit":false,"station_name":"Tebet","distance":2610,"line":2,"i_lat":-6.226659},{"distance":1230,"transit":false,"station_name":"Cawang","time":2,"station_id":"CW","i_lat":-6.242512,"is_transit":false,"i_long":106.856607,"line":2},{"distance":1546,"is_transit":false,"line":2,"transit":false,"time":3,"station_id":"DRN","i_lat":-6.255332,"i_long":106.85449,"station_name":"Duren Kalibata"},{"i_lat":-6.263214,"station_name":"Pasar Minggu Baru","line":2,"distance":824,"station_id":"PSMB","i_long":106.851577,"time":2,"transit":false,"is_transit":false},{"line":2,"is_transit":false,"i_lat":-6.2842400000000005,"transit":false,"distance":2380,"station_id":"PSM","i_long":106.843999,"station_name":"Pasar Minggu","time":2},{"time":4,"station_id":"TNT","i_lat":-6.3080680000000005,"is_transit":false,"distance":2820,"i_long":106.838896,"line":2,"station_name":"Tanjung Barat","transit":false},{"transit":false,"time":3,"distance":2671,"i_long":106.832616,"i_lat":-6.330363,"line":2,"is_transit":false,"station_name":"Lenteng Agung","station_id":"LNA"},{"station_name":"Univ. Pancasila","i_lat":-6.339291,"i_long":106.834175,"time":2,"station_id":"UP","transit":false,"is_transit":false,"distance":1029,"line":2},{"station_id":"UI","transit":false,"i_lat":-6.360749,"line":2,"distance":2264,"time":3,"is_transit":false,"station_name":"Univ. Indonesia","i_long":106.831474},{"station_id":"POC","is_transit":false,"i_lat":-6.369073,"i_long":106.831114,"station_name":"Pondok Cina","time":2,"distance":1109,"line":2,"transit":false},{"is_transit":false,"i_lat":-6.391065,"transit":false,"station_id":"DPB","station_name":"Depokbaru","i_long":106.819451,"distance":2727,"line":2,"time":4},{"i_long":106.816926,"time":3,"i_lat":-6.405256,"station_name":"Depok","station_id":"DP","is_transit":false,"distance":1584,"transit":false,"line":2},{"distance":5084,"i_lat":-6.448811,"station_id":"CTA","is_transit":true,"time":6,"transit":true,"station_name":"Citayam","i_long":106.800298,"line":2},{"station_name":"Pondok Rajeg","is_transit":false,"transit":false,"station_id":"PDRG","line":21,"distance":0,"time":0,"i_lat":-6.460735,"i_long":106.824374},{"i_lat":-6.46424,"time":0,"is_transit":false,"i_long":106.851978,"transit":false,"line":21,"distance":0,"station_name":"Cibinong","station_id":"CBN"},{"is_transit":false,"distance":6527,"station_id":"NMO","station_name":"Nambo","transit":false,"i_lat":-6.466285,"line":21,"time":10,"i_long":106.905196}],[{"i_lat":-6.1109480000000005,"station_id":"TPK","is_transit":false,"line":4,"distance":0,"station_name":"Tanjung Priuk","i_long":106.880089,"transit":false,"time":0},{"transit":false,"station_id":"AC","station_name":"Ancol","is_transit":false,"distance":4566,"i_lat":-6.128023,"line":4,"time":9,"i_long":106.84464},{"is_transit":true,"line":4,"time":4,"distance":2185,"transit":true,"i_lat":-6.132549,"station_name":"Kampung Bandan","i_long":106.826365,"station_id":"KPB"},{"station_id":"RJW","distance":1444,"is_transit":false,"i_long":106.836569,"transit":false,"station_name":"Rajawali","line":11,"time":3,"i_lat":-6.14505},{"transit":false,"station_id":"KMO","i_long":106.839204,"time":5,"station_name":"Kemayoran","distance":1901,"i_lat":-6.161728,"line":11,"is_transit":false},{"transit":false,"i_lat":-6.174784,"distance":1436,"station_id":"PSE","station_name":"Pasar Senen","time":4,"line":11,"is_transit":false,"i_long":106.84368},{"i_long":106.850107,"station_id":"GST","is_transit":false,"time":8,"line":11,"transit":false,"distance":1567,"i_lat":-6.185975,"station_name":"Gang Sentiong"},{"time":1,"i_lat":-6.193792,"i_long":106.855437,"is_transit":false,"transit":false,"line":11,"station_name":"Kramat","distance":973,"station_id":"KMT"},{"i_lat":-6.209188,"is_transit":false,"transit":false,"time":2,"i_long":106.861737,"station_id":"POK","station_name":"Pondok Jati","distance":1829,"line":11},{"is_transit":true,"transit":true,"i_lat":-6.215091,"distance":1236,"station_name":"Jatinegara","i_long":106.86807400000001,"station_id":"JNG","line":1,"time":9},{"station_id":"MTR","transit":false,"time":2,"distance":1377,"i_long":106.858896,"line":1,"is_transit":false,"station_name":"Matraman","i_lat":-6.212485},{"i_lat":-6.209883,"transit":true,"time":2,"distance":1275,"line":2,"station_name":"Manggarai","is_transit":true,"i_long":106.84912,"station_id":"MRI"},{"time":4,"i_lat":-6.226659,"distance":2610,"line":2,"station_id":"TEB","station_name":"Tebet","transit":false,"is_transit":false,"i_long":106.857948},{"distance":1230,"time":2,"is_transit":false,"transit":false,"i_lat":-6.242512,"line":2,"i_long":106.856607,"station_id":"CW","station_name":"Cawang"},{"station_name":"Duren Kalibata","transit":false,"station_id":"DRN","is_transit":false,"distance":1546,"time":3,"i_lat":-6.255332,"line":2,"i_long":106.85449},{"is_transit":false,"station_name":"Pasar Minggu Baru","i_long":106.851577,"distance":824,"transit":false,"time":2,"i_lat":-6.263214,"line":2,"station_id":"PSMB"},{"is_transit":false,"i_long":106.843999,"station_id":"PSM","transit":false,"distance":2380,"i_lat":-6.2842400000000005,"line":2,"time":2,"station_name":"Pasar Minggu"},{"line":2,"time":4,"distance":2820,"i_long":106.838896,"station_id":"TNT","is_transit":false,"transit":false,"station_name":"Tanjung Barat","i_lat":-6.3080680000000005},{"station_id":"LNA","is_transit":false,"i_lat":-6.330363,"line":2,"station_name":"Lenteng Agung","time":3,"distance":2671,"transit":false,"i_long":106.832616},{"distance":1029,"station_id":"UP","is_transit":false,"line":2,"i_long":106.834175,"station_name":"Univ. Pancasila","transit":false,"i_lat":-6.339291,"time":2},{"distance":2264,"i_long":106.831474,"is_transit":false,"time":3,"station_name":"Univ. Indonesia","transit":false,"station_id":"UI","i_lat":-6.360749,"line":2},{"i_lat":-6.369073,"station_name":"Pondok Cina","is_transit":false,"transit":false,"station_id":"POC","time":2,"i_long":106.831114,"line":2,"distance":1109},{"distance":2727,"station_id":"DPB","time":4,"line":2,"transit":false,"i_lat":-6.391065,"station_name":"Depokbaru","is_transit":false,"i_long":106.819451},{"is_transit":false,"station_id":"DP","distance":1584,"transit":false,"i_long":106.816926,"station_name":"Depok","i_lat":-6.405256,"line":2,"time":3},{"is_transit":true,"distance":5084,"i_long":106.800298,"line":2,"i_lat":-6.448811,"station_name":"Citayam","station_id":"CTA","transit":true,"time":6},{"time":0,"i_long":106.824374,"i_lat":-6.460735,"station_id":"PDRG","is_transit":false,"transit":false,"line":21,"station_name":"Pondok Rajeg","distance":0},{"station_name":"Cibinong","transit":false,"is_transit":false,"i_long":106.851978,"line":21,"i_lat":-6.46424,"station_id":"CBN","time":0,"distance":0},{"i_long":106.905196,"line":21,"i_lat":-6.466285,"time":10,"is_transit":false,"station_id":"NMO","distance":6527,"station_name":"Nambo","transit":false}]]}