{"data":[[{"distance":0,"time":0,"i_lat":-6.1109480000000005,"i_long":106.880089,"is_transit":false,"station_name":"Tanjung Priuk","transit":false,"line":4,"station_id":"TPK"},{"transit":false,"line":4,"distance":4566,"station_name":"Ancol","i_lat":-6.128023,"is_transit":false,"i_long":106.84464,"time":9,"station_id":"AC"},{"i_lat":-6.132549,"is_transit":true,"distance":2185,"station_id":"KPB","station_name":"Kampung Bandan","i_long":106.826365,"line":4,"transit":true,"time":4},{"i_long":106.79867,"station_id":"AK","i_lat":-6.144674,"time":9,"transit":false,"is_transit":false,"line":1,"distance":4102,"station_name":"Angke"},{"i_lat":-6.155215,"time":4,"is_transit":false,"transit":false,"station_name":"Duri","station_id":"DU","i_long":106.800832,"line":1,"distance":1230},{"transit":false,"i_lat":-6.185545,"distance":3632,"station_id":"THB","is_transit":false,"time":8,"station_name":"Tanah Abang","i_long":106.811091,"line":1},{"time":5,"transit":false,"i_long":106.816351,"is_transit":false,"i_lat":-6.20132,"station_name":"Karet","distance":2029,"station_id":"KAT","line":1},{"transit":false,"station_id":"SUDB","is_transit":false,"i_long":106.819881,"line":1,"station_name":"Sudirman Baru","time":1,"i_lat":-6.201433,"distance":471},{"is_transit":false,"transit":false,"line":1,"i_long":106.822649,"i_lat":-6.202263,"distance":280,"time":1,"station_id":"SUD","station_name":"Sudirman"},{"time":4,"distance":3186,"is_transit":true,"line":2,"station_name":"Manggarai","transit":true,"i_lat":-6.209883,"i_long":106.84912,"station_id":"MRI"},{"transit":false,"distance":2610,"station_name":"Tebet","is_transit":false,"time":4,"i_lat":-6.226659,"i_long":106.857948,"line":2,"station_id":"TEB"},{"transit":false,"i_lat":-6.242512,"station_name":"Cawang","is_transit":false,"i_long":106.856607,"time":2,"line":2,"station_id":"CW","distance":1230},{"line":2,"station_id":"DRN","distance":1546,"station_name":"Duren Kalibata","time":3,"is_transit":false,"transit":false,"i_lat":-6.255332,"i_long":106.85449},{"distance":824,"i_long":106.851577,"time":2,"transit":false,"i_lat":-6.263214,"is_transit":false,"line":2,"station_id":"PSMB","station_name":"Pasar Minggu Baru"},{"distance":2380,"transit":false,"i_lat":-6.2842400000000005,"time":2,"station_id":"PSM","station_name":"Pasar Minggu","line":2,"is_transit":false,"i_long":106.843999},{"time":4,"station_name":"Tanjung Barat","station_id":"TNT","transit":false,"distance":2820,"is_transit":false,"i_lat":-6.3080680000000005,"i_long":106.838896,"line":2},{"line":2,"time":3,"i_lat":-6.330363,"distance":2671,"station_id":"LNA","station_name":"Lenteng Agung","is_transit":false,"transit":false,"i_long":106.832616},{"transit":false,"distance":1029,"station_id":"UP","time":2,"is_transit":false,"i_long":106.834175,"i_lat":-6.339291,"line":2,"station_name":"Univ. Pancasila"},{"station_id":"UI","line":2,"distance":2264,"transit":false,"station_name":"Univ. Indonesia","time":3,"is_transit":false,"i_lat":-6.360749,"i_long":106.831474},{"distance":1109,"is_transit":false,"i_lat":-6.369073,"i_long":106.831114,"time":2,"station_name":"Pondok Cina","line":2,"transit":false,"station_id":"POC"},{"distance":2727,"i_lat":-6.391065,"station_name":"Depokbaru","i_long":106.819451,"is_transit":false,"transit":false,"station_id":"DPB","line":2,"time":4},{"i_lat":-6.405256,"i_long":106.816926,"is_transit":false,"time":3,"station_id":"DP","distance":1584,"line":2,"transit":false,"station_name":"Depok"},{"time":6,"i_long":106.800298,"i_lat":-6.448811,"line":2,"transit":true,"station_name":"Citayam","is_transit":true,"station_id":"CTA","distance":5084},{"station_id":"PDRG","transit":false,"i_long":106.824374,"i_lat":-6.460735,"is_transit":false,"line":21,"time":0,"distance":0,"station_name":"Pondok Rajeg"}],[{"distance":0,"i_lat":-6.1109480000000005,"i_long":106.880089,"station_name":"Tanjung Priuk","time":0,"transit":false,"is_transit":false,"line":4,"station_id":"TPK"},{"station_name":"Ancol","station_id":"AC","transit":false,"i_long":106.84464,"distance":4566,"i_lat":-6.128023,"line":4,"time":9,"is_transit":false},{"station_name":"Kampung Bandan","i_long":106.826365,"line":4,"transit":true,"distance":2185,"time":4,"i_lat":-6.132549,"station_id":"KPB","is_transit":true},{"distance":1364,"time":3,"transit":true,"is_transit":true,"i_lat":-6.137569,"i_long":106.812439,"line":2,"station_id":"JAKK","station_name":"Jakarta Kota"},{"station_id":"JAY","time":4,"transit":false,"station_name":"Jayakarta","is_transit":false,"distance":1264,"i_lat":-6.141205,"line":2,"i_long":106.820901},{"line":2,"time":2,"is_transit":false,"transit":false,"station_name":"Manggabesar","station_id":"MGB","i_lat":-6.149769,"distance":1080,"i_long":106.82482},{"distance":906,"station_id":"SW","time":2,"is_transit":false,"line":2,"station_name":"Sawah Besar","i_long":106.827103,"transit":false,"i_lat":-6.160725},{"line":2,"time":2,"station_name":"Juanda","transit":false,"station_id":"JUA","i_long":106.828284,"is_transit":false,"distance":1149,"i_lat":-6.166716},{"i_lat":-6.186295,"distance":2015,"transit":false,"i_long":106.832183,"line":2,"station_id":"GDD","is_transit":false,"time":4,"station_name":"Gondangdia"},{"line":2,"station_id":"CKI","station_name":"Cikini","i_lat":-6.198556,"distance":1750,"is_transit":false,"time":3,"transit":false,"i_long":106.840169},{"station_name":"Manggarai","line":2,"is_transit":false,"transit":false,"station_id":"MRI","i_long":106.84912,"time":4,"distance":1590,"i_lat":-6.209883},{"line":2,"station_id":"TEB","i_long":106.857948,"time":4,"i_lat":-6.226659,"station_name":"Tebet","transit":false,"distance":2610,"is_transit":false},{"time":2,"station_name":"Cawang","line":2,"station_id":"CW","i_lat":-6.242512,"transit":false,"is_transit":false,"distance":1230,"i_long":106.856607},{"i_lat":-6.255332,"transit":false,"station_name":"Duren Kalibata","is_transit":false,"i_long":106.85449,"line":2,"distance":1546,"time":3,"station_id":"DRN"},{"i_lat":-6.263214,"i_long":106.851577,"line":2,"is_transit":false,"distance":824,"transit":false,"time":2,"station_name":"Pasar Minggu Baru","station_id":"PSMB"},{"time":2,"line":2,"is_transit":false,"i_lat":-6.2842400000000005,"transit":false,"station_id":"PSM","i_long":106.843999,"station_name":"Pasar Minggu","distance":2380},{"i_long":106.838896,"distance":2820,"time":4,"station_name":"Tanjung Barat","line":2,"is_transit":false,"station_id":"TNT","transit":false,"i_lat":-6.3080680000000005},{"line":2,"station_id":"LNA","transit":false,"station_name":"Lenteng Agung","time":3,"i_long":106.832616,"distance":2671,"i_lat":-6.330363,"is_transit":false},{"transit":false,"i_lat":-6.339291,"station_name":"Univ. Pancasila","station_id":"UP","is_transit":false,"i_long":106.834175,"line":2,"distance":1029,"time":2},{"i_long":106.831474,"station_name":"Univ. Indonesia","i_lat":-6.360749,"line":2,"is_transit":false,"time":3,"transit":false,"distance":2264,"station_id":"UI"},{"transit":false,"time":2,"i_lat":-6.369073,"i_long":106.831114,"line":2,"station_id":"POC","station_name":"Pondok Cina","distance":1109,"is_transit":false},{"transit":false,"distance":2727,"line":2,"station_id":"DPB","is_transit":false,"station_name":"Depokbaru","time":4,"i_long":106.819451,"i_lat":-6.391065},{"distance":1584,"time":3,"i_lat":-6.405256,"is_transit":false,"station_id":"DP","station_name":"Depok","transit":false,"line":2,"i_long":106.816926},{"station_name":"Citayam","transit":true,"is_transit":true,"i_long":106.800298,"i_lat":-6.448811,"station_id":"CTA","time":6,"line":2,"distance":5084},{"time":0,"station_name":"Pondok Rajeg","i_lat":-6.460735,"line":21,"distance":0,"i_long":106.824374,"is_transit":false,"transit":false,"station_id":"PDRG"}],[{"transit":false,"line":4,"distance":0,"i_lat":-6.1109480000000005,"is_transit":false,"station_id":"TPK","station_name":"Tanjung Priuk","i_long":106.880089,"time":0},{"transit":false,"is_transit":false,"distance":4566,"time":9,"i_lat":-6.128023,"station_name":"Ancol","station_id":"AC","i_long":106.84464,"line":4},{"distance":2185,"station_id":"KPB","station_name":"Kampung Bandan","is_transit":true,"i_long":106.826365,"line":4,"time":4,"transit":true,"i_lat":-6.132549},{"station_id":"RJW","is_transit":false,"i_lat":-6.14505,"distance":1444,"i_long":106.836569,"line":11,"station_name":"Rajawali","transit":false,"time":3},{"i_long":106.839204,"i_lat":-6.161728,"is_transit":false,"transit":false,"distance":1901,"line":11,"station_id":"KMO","time":5,"station_name":"Kemayoran"},{"i_lat":-6.174784,"distance":1436,"is_transit":false,"transit":false,"station_name":"Pasar Senen","i_long":106.84368,"line":11,"station_id":"PSE","time":4},{"line":11,"i_lat":-6.185975,"is_transit":false,"station_name":"Gang Sentiong","i_long":106.850107,"station_id":"GST","distance":1567,"time":8,"transit":false},{"station_id":"KMT","distance":973,"station_name":"Kramat","time":1,"transit":false,"i_lat":-6.193792,"line":11,"is_transit":false,"i_long":106.855437},{"i_lat":-6.209188,"station_name":"Pondok Jati","station_id":"POK","time":2,"transit":false,"i_long":106.861737,"line":11,"distance":1829,"is_transit":false},{"transit":true,"is_transit":true,"distance":1236,"i_long":106.86807400000001,"station_id":"JNG","line":1,"time":9,"station_name":"Jatinegara","i_lat":-6.215091},{"time":2,"station_name":"Matraman","station_id":"MTR","i_lat":-6.212485,"line":1,"distance":1377,"i_long":106.858896,"is_transit":false,"transit":false},{"transit":true,"line":2,"time":2,"station_id":"MRI","station_name":"Manggarai","i_lat":-6.209883,"is_transit":true,"distance":1275,"i_long":106.84912},{"is_transit":false,"station_name":"Tebet","distance":2610,"station_id":"TEB","i_lat":-6.226659,"line":2,"time":4,"transit":false,"i_long":106.857948},{"i_long":106.856607,"i_lat":-6.242512,"station_name":"Cawang","is_transit":false,"line":2,"station_id":"CW","transit":false,"time":2,"distance":1230},{"station_id":"DRN","line":2,"time":3,"transit":false,"is_transit":false,"station_name":"Duren Kalibata","i_long":106.85449,"distance":1546,"i_lat":-6.255332},{"i_lat":-6.263214,"distance":824,"time":2,"is_transit":false,"i_long":106.851577,"line":2,"station_id":"PSMB","transit":false,"station_name":"Pasar Minggu Baru"},{"i_lat":-6.2842400000000005,"i_long":106.843999,"station_id":"PSM","transit":false,"station_name":"Pasar Minggu","is_transit":false,"time":2,"line":2,"distance":2380},{"station_id":"TNT","is_transit":false,"transit":false,"time":4,"distance":2820,"station_name":"Tanjung Barat","i_long":106.838896,"line":2,"i_lat":-6.3080680000000005},{"station_name":"Lenteng Agung","station_id":"LNA","time":3,"line":2,"transit":false,"i_lat":-6.330363,"i_long":106.832616,"is_transit":false,"distance":2671},{"station_name":"Univ. Pancasila","station_id":"UP","distance":1029,"time":2,"line":2,"is_transit":false,"transit":false,"i_long":106.834175,"i_lat":-6.339291},{"distance":2264,"station_name":"Univ. Indonesia","station_id":"UI","is_transit":false,"i_lat":-6.360749,"transit":false,"i_long":106.831474,"line":2,"time":3},{"distance":1109,"i_lat":-6.369073,"line":2,"station_id":"POC","time":2,"station_name":"Pondok Cina","is_transit":false,"transit":false,"i_long":106.831114},{"transit":false,"line":2,"i_long":106.819451,"station_id":"DPB","time":4,"station_name":"Depokbaru","is_transit":false,"distance":2727,"i_lat":-6.391065},{"line":2,"transit":false,"distance":1584,"i_long":106.816926,"station_name":"Depok","station_id":"DP","time":3,"is_transit":false,"i_lat":-6.405256},{"transit":true,"time":6,"station_name":"Citayam","i_lat":-6.448811,"distance":5084,"station_id":"CTA","i_long":106.800298,"line":2,"is_transit":true},{"time":0,"i_long":106.824374,"station_id":"PDRG","station_name":"Pondok Rajeg","distance":0,"i_lat":-6.460735,"line":21,"is_transit":false,"transit":false}]]}