{"data":[[{"station_id":"TPK","distance":0,"station_name":"Tanjung Priuk","i_lat":-6.1109480000000005,"time":0,"transit":false,"i_long":106.880089,"is_transit":false,"line":4},{"line":4,"transit":false,"is_transit":false,"distance":4566,"time":9,"i_lat":-6.128023,"i_long":106.84464,"station_name":"Ancol","station_id":"AC"},{"station_name":"Kampung Bandan","line":4,"station_id":"KPB","i_lat":-6.132549,"is_transit":true,"i_long":106.826365,"distance":2185,"time":4,"transit":true},{"i_lat":-6.14505,"i_long":106.836569,"is_transit":false,"line":11,"time":3,"transit":false,"station_name":"Rajawali","distance":1444,"station_id":"RJW"},{"time":5,"transit":false,"i_long":106.839204,"station_name":"Kemayoran","distance":1901,"station_id":"KMO","i_lat":-6.161728,"line":11,"is_transit":false},{"distance":1436,"transit":false,"i_lat":-6.174784,"i_long":106.84368,"station_id":"PSE","line":11,"station_name":"Pasar Senen","is_transit":false,"time":4},{"time":8,"i_lat":-6.185975,"line":11,"distance":1567,"i_long":106.850107,"is_transit":false,"station_id":"GST","station_name":"Gang Sentiong","transit":false},{"distance":973,"station_id":"KMT","station_name":"Kramat","transit":false,"time":1,"line":11,"is_transit":false,"i_long":106.855437,"i_lat":-6.193792}],[{"transit":false,"station_id":"TPK","station_name":"Tanjung Priuk","time":0,"i_long":106.880089,"is_transit":false,"line":4,"i_lat":-6.1109480000000005,"distance":0},{"station_name":"Ancol","i_lat":-6.128023,"line":4,"time":9,"distance":4566,"i_long":106.84464,"transit":false,"is_transit":false,"station_id":"AC"},{"is_transit":true,"distance":2185,"station_name":"Kampung Bandan","transit":true,"time":4,"station_id":"KPB","i_lat":-6.132549,"line":4,"i_long":106.826365},{"time":9,"i_lat":-6.144674,"i_long":106.79867,"line":1,"station_id":"AK","transit":false,"station_name":"Angke","distance":4102,"is_transit":false},{"station_name":"Duri","distance":1230,"line":1,"i_lat":-6.155215,"time":4,"is_transit":false,"station_id":"DU","i_long":106.800832,"transit":false},{"station_id":"THB","transit":false,"i_long":106.811091,"distance":3632,"station_name":"Tanah Abang","i_lat":-6.185545,"line":1,"is_transit":false,"time":8},{"transit":false,"time":5,"station_name":"Karet","is_transit":false,"station_id":"KAT","distance":2029,"i_lat":-6.20132,"line":1,"i_long":106.816351},{"transit":false,"i_long":106.819881,"station_id":"SUDB","i_lat":-6.201433,"distance":471,"time":1,"station_name":"Sudirman Baru","is_transit":false,"line":1},{"i_lat":-6.202263,"time":1,"station_id":"SUD","transit":false,"i_long":106.822649,"station_name":"Sudirman","is_transit":false,"line":1,"distance":280},{"time":4,"i_lat":-6.209883,"line":2,"station_name":"Manggarai","distance":3186,"i_long":106.84912,"is_transit":false,"station_id":"MRI","transit":false},{"is_transit":false,"station_id":"MTR","transit":false,"distance":1275,"time":2,"i_lat":-6.212485,"i_long":106.858896,"station_name":"Matraman","line":1},{"distance":1377,"line":1,"station_name":"Jatinegara","time":8,"transit":true,"station_id":"JNG","i_lat":-6.215091,"is_transit":true,"i_long":106.86807400000001},{"i_lat":-6.209188,"station_id":"POK","line":11,"i_long":106.861737,"station_name":"Pondok Jati","is_transit":false,"distance":1236,"transit":false,"time":2},{"station_id":"KMT","i_lat":-6.193792,"line":11,"station_name":"Kramat","transit":false,"is_transit":false,"distance":1829,"time":2,"i_long":106.855437}],[{"distance":0,"station_id":"TPK","transit":false,"line":4,"i_long":106.880089,"is_transit":false,"station_name":"Tanjung Priuk","time":0,"i_lat":-6.1109480000000005},{"i_lat":-6.128023,"i_long":106.84464,"distance":4566,"time":9,"line":4,"transit":false,"station_id":"AC","is_transit":false,"station_name":"Ancol"},{"transit":true,"distance":2185,"time":4,"station_name":"Kampung Bandan","is_transit":true,"i_lat":-6.132549,"line":4,"station_id":"KPB","i_long":106.826365},{"time":3,"transit":true,"station_name":"Jakarta Kota","line":2,"distance":1364,"is_transit":true,"station_id":"JAKK","i_lat":-6.137569,"i_long":106.812439},{"distance":1264,"i_long":106.820901,"transit":false,"time":4,"line":2,"is_transit":false,"i_lat":-6.141205,"station_name":"Jayakarta","station_id":"JAY"},{"distance":1080,"is_transit":false,"time":2,"station_id":"MGB","line":2,"station_name":"Manggabesar","transit":false,"i_lat":-6.149769,"i_long":106.82482},{"time":2,"is_transit":false,"station_id":"SW","i_long":106.827103,"distance":906,"station_name":"Sawah Besar","i_lat":-6.160725,"transit":false,"line":2},{"i_long":106.828284,"line":2,"is_transit":false,"time":2,"station_id":"JUA","distance":1149,"station_name":"Juanda","transit":false,"i_lat":-6.166716},{"station_id":"GDD","i_long":106.832183,"is_transit":false,"transit":false,"distance":2015,"line":2,"station_name":"Gondangdia","i_lat":-6.186295,"time":4},{"i_lat":-6.198556,"station_name":"Cikini","is_transit":false,"transit":false,"distance":1750,"i_long":106.840169,"station_id":"CKI","line":2,"time":3},{"station_id":"MRI","station_name":"Manggarai","time":4,"distance":1590,"transit":true,"i_lat":-6.209883,"i_long":106.84912,"line":2,"is_transit":true},{"station_id":"MTR","transit":false,"station_name":"Matraman","i_lat":-6.212485,"i_long":106.858896,"is_transit":false,"distance":1275,"line":1,"time":2},{"is_transit":true,"transit":true,"station_name":"Jatinegara","station_id":"JNG","time":8,"distance":1377,"i_lat":-6.215091,"line":1,"i_long":106.86807400000001},{"station_name":"Pondok Jati","time":2,"line":11,"i_long":106.861737,"i_lat":-6.209188,"station_id":"POK","transit":false,"distance":1236,"is_transit":false},{"time":2,"station_id":"KMT","station_name":"Kramat","i_long":106.855437,"transit":false,"distance":1829,"is_transit":false,"i_lat":-6.193792,"line":11}]]}