{"data":[[{"i_lat":-6.1109480000000005,"i_long":106.880089,"is_transit":false,"line":4,"distance":0,"time":0,"station_id":"TPK","transit":false,"station_name":"Tanjung Priuk"},{"transit":false,"time":9,"i_lat":-6.128023,"station_id":"AC","line":4,"distance":4566,"i_long":106.84464,"station_name":"Ancol","is_transit":false},{"i_long":106.826365,"transit":true,"time":4,"distance":2185,"station_id":"KPB","station_name":"Kampung Bandan","i_lat":-6.132549,"is_transit":true,"line":4},{"is_transit":false,"distance":4102,"station_name":"Angke","i_long":106.79867,"station_id":"AK","time":9,"transit":false,"line":1,"i_lat":-6.144674},{"line":1,"i_lat":-6.155215,"is_transit":false,"distance":1230,"station_name":"Duri","transit":false,"time":4,"i_long":106.800832,"station_id":"DU"},{"time":8,"station_name":"Tanah Abang","i_long":106.811091,"station_id":"THB","transit":true,"i_lat":-6.185545,"is_transit":true,"line":1,"distance":3632},{"station_id":"PLM","time":6,"is_transit":false,"i_long":106.79689,"distance":3191,"transit":false,"station_name":"Palmerah","i_lat":-6.207404,"line":6},{"station_id":"KBY","station_name":"Kebayoran","transit":false,"distance":3737,"i_lat":-6.237242,"is_transit":false,"i_long":106.780334,"line":6,"time":7}],[{"transit":false,"line":4,"station_name":"Tanjung Priuk","station_id":"TPK","is_transit":false,"i_lat":-6.1109480000000005,"time":0,"distance":0,"i_long":106.880089},{"distance":4566,"is_transit":false,"transit":false,"line":4,"time":9,"station_id":"AC","station_name":"Ancol","i_lat":-6.128023,"i_long":106.84464},{"line":4,"is_transit":true,"i_lat":-6.132549,"distance":2185,"station_name":"Kampung Bandan","transit":true,"time":4,"station_id":"KPB","i_long":106.826365},{"line":2,"is_transit":true,"station_id":"JAKK","distance":1364,"time":3,"station_name":"Jakarta Kota","transit":true,"i_lat":-6.137569,"i_long":106.812439},{"line":2,"i_long":106.820901,"is_transit":false,"station_id":"JAY","i_lat":-6.141205,"transit":false,"time":4,"distance":1264,"station_name":"Jayakarta"},{"station_name":"Manggabesar","line":2,"i_lat":-6.149769,"i_long":106.82482,"transit":false,"time":2,"station_id":"MGB","is_transit":false,"distance":1080},{"transit":false,"station_name":"Sawah Besar","i_long":106.827103,"i_lat":-6.160725,"line":2,"distance":906,"station_id":"SW","time":2,"is_transit":false},{"distance":1149,"station_id":"JUA","transit":false,"line":2,"i_long":106.828284,"i_lat":-6.166716,"is_transit":false,"time":2,"station_name":"Juanda"},{"time":4,"transit":false,"line":2,"station_id":"GDD","distance":2015,"is_transit":false,"i_long":106.832183,"i_lat":-6.186295,"station_name":"Gondangdia"},{"time":3,"line":2,"distance":1750,"i_lat":-6.198556,"station_id":"CKI","station_name":"Cikini","is_transit":false,"transit":false,"i_long":106.840169},{"time":4,"station_name":"Manggarai","line":2,"transit":true,"distance":1590,"station_id":"MRI","is_transit":true,"i_long":106.84912,"i_lat":-6.209883},{"is_transit":false,"i_lat":-6.202263,"i_long":106.822649,"line":1,"station_id":"SUD","station_name":"Sudirman","transit":false,"time":4,"distance":3186},{"i_long":106.819881,"is_transit":false,"i_lat":-6.201433,"time":1,"station_name":"Sudirman Baru","line":1,"distance":280,"transit":false,"station_id":"SUDB"},{"i_long":106.816351,"station_name":"Karet","is_transit":false,"i_lat":-6.20132,"time":1,"distance":471,"line":1,"transit":false,"station_id":"KAT"},{"is_transit":true,"line":1,"i_lat":-6.185545,"i_long":106.811091,"time":5,"distance":2029,"transit":true,"station_id":"THB","station_name":"Tanah Abang"},{"station_id":"PLM","is_transit":false,"i_long":106.79689,"transit":false,"distance":3191,"station_name":"Palmerah","time":6,"i_lat":-6.207404,"line":6},{"i_lat":-6.237242,"station_id":"KBY","transit":false,"is_transit":false,"i_long":106.780334,"time":7,"station_name":"Kebayoran","line":6,"distance":3737}],[{"station_id":"TPK","i_lat":-6.1109480000000005,"line":4,"time":0,"is_transit":false,"i_long":106.880089,"transit":false,"distance":0,"station_name":"Tanjung Priuk"},{"distance":4566,"line":4,"transit":false,"station_name":"Ancol","is_transit":false,"i_lat":-6.128023,"time":9,"station_id":"AC","i_long":106.84464},{"line":4,"time":4,"station_id":"KPB","station_name":"Kampung Bandan","i_long":106.826365,"distance":2185,"is_transit":true,"transit":true,"i_lat":-6.132549},{"station_name":"Rajawali","transit":false,"i_lat":-6.14505,"i_long":106.836569,"station_id":"RJW","line":11,"distance":1444,"is_transit":false,"time":3},{"distance":1901,"station_id":"KMO","station_name":"Kemayoran","time":5,"is_transit":false,"i_lat":-6.161728,"line":11,"i_long":106.839204,"transit":false},{"station_name":"Pasar Senen","i_lat":-6.174784,"distance":1436,"line":11,"station_id":"PSE","time":4,"is_transit":false,"i_long":106.84368,"transit":false},{"station_name":"Gang Sentiong","i_lat":-6.185975,"line":11,"time":8,"is_transit":false,"i_long":106.850107,"distance":1567,"station_id":"GST","transit":false},{"distance":973,"i_lat":-6.193792,"i_long":106.855437,"line":11,"station_name":"Kramat","is_transit":false,"station_id":"KMT","transit":false,"time":1},{"line":11,"time":2,"station_id":"POK","i_lat":-6.209188,"station_name":"Pondok Jati","distance":1829,"i_long":106.861737,"transit":false,"is_transit":false},{"i_long":106.86807400000001,"station_name":"Jatinegara","time":9,"is_transit":true,"transit":true,"station_id":"JNG","i_lat":-6.215091,"line":1,"distance":1236},{"transit":false,"is_transit":false,"station_id":"MTR","i_lat":-6.212485,"line":1,"distance":1377,"station_name":"Matraman","time":2,"i_long":106.858896},{"time":2,"station_name":"Manggarai","i_lat":-6.209883,"is_transit":false,"transit":false,"distance":1275,"station_id":"MRI","line":2,"i_long":106.84912},{"station_name":"Sudirman","i_lat":-6.202263,"time":4,"transit":false,"line":1,"i_long":106.822649,"distance":3186,"station_id":"SUD","is_transit":false},{"is_transit":false,"line":1,"station_id":"SUDB","transit":false,"distance":280,"station_name":"Sudirman Baru","i_lat":-6.201433,"i_long":106.819881,"time":1},{"time":1,"line":1,"transit":false,"i_long":106.816351,"is_transit":false,"station_id":"KAT","station_name":"Karet","i_lat":-6.20132,"distance":471},{"transit":true,"distance":2029,"station_id":"THB","line":1,"station_name":"Tanah Abang","i_long":106.811091,"i_lat":-6.185545,"time":5,"is_transit":true},{"transit":false,"i_lat":-6.207404,"line":6,"station_name":"Palmerah","time":6,"is_transit":false,"i_long":106.79689,"distance":3191,"station_id":"PLM"},{"station_id":"KBY","i_lat":-6.237242,"i_long":106.780334,"transit":false,"line":6,"time":7,"distance":3737,"is_transit":false,"station_name":"Kebayoran"}]]}