{"data":[[{"i_lat":-6.1109480000000005,"station_id":"TPK","is_transit":false,"i_long":106.880089,"line":4,"distance":0,"station_name":"Tanjung Priuk","transit":false,"time":0},{"line":0,"i_long":106.84464,"transit":false,"i_lat":-6.128023,"distance":4566,"station_id":"AC","station_name":"Ancol","is_transit":false,"time":9},{"transit":false,"time":4,"i_long":106.826365,"i_lat":-6.132549,"distance":2185,"is_transit":true,"station_id":"KPB","line":0,"station_name":"Kampung Bandan"},{"is_transit":false,"i_lat":-6.144674,"distance":4102,"station_name":"Angke","station_id":"AK","line":0,"i_long":106.79867,"time":9,"transit":false},{"i_lat":-6.155215,"transit":true,"station_id":"DU","i_long":106.800832,"distance":1230,"is_transit":true,"line":1,"station_name":"Duri","time":4},{"i_lat":-6.185545,"is_transit":true,"station_id":"THB","time":8,"distance":3632,"i_long":106.811091,"station_name":"Tanah Abang","line":1,"transit":false},{"distance":2029,"station_name":"Karet","time":5,"i_long":106.816351,"line":1,"is_transit":false,"transit":false,"station_id":"KAT","i_lat":-6.20132},{"station_name":"Sudirman Baru","i_lat":-6.201433,"transit":false,"distance":471,"time":1,"i_long":106.819881,"line":1,"is_transit":false,"station_id":"SUDB"},{"line":1,"distance":280,"station_name":"Sudirman","is_transit":false,"i_lat":-6.202263,"station_id":"SUD","transit":false,"time":1,"i_long":106.822649},{"line":0,"is_transit":true,"transit":true,"time":4,"distance":3186,"station_id":"MRI","i_lat":-6.209883,"i_long":106.84912,"station_name":"Manggarai"},{"station_id":"TEB","is_transit":false,"distance":2610,"transit":false,"i_long":106.857948,"time":4,"station_name":"Tebet","line":2,"i_lat":-6.226659},{"line":0,"is_transit":false,"transit":false,"distance":1230,"station_id":"CW","i_long":106.856607,"station_name":"Cawang","i_lat":-6.242512,"time":2},{"i_long":106.85449,"is_transit":false,"transit":false,"station_id":"DRN","i_lat":-6.255332,"line":0,"station_name":"Duren Kalibata","time":3,"distance":1546},{"time":2,"line":2,"distance":824,"is_transit":false,"station_id":"PSMB","i_lat":-6.263214,"i_long":106.851577,"station_name":"Pasar Minggu Baru","transit":false},{"time":2,"i_lat":-6.2842400000000005,"transit":false,"is_transit":false,"station_name":"Pasar Minggu","line":2,"distance":2380,"i_long":106.843999,"station_id":"PSM"},{"is_transit":false,"distance":2820,"i_lat":-6.3080680000000005,"station_id":"TNT","line":2,"transit":false,"time":4,"i_long":106.838896,"station_name":"Tanjung Barat"},{"station_name":"Lenteng Agung","line":2,"is_transit":false,"time":3,"station_id":"LNA","i_long":106.832616,"distance":2671,"i_lat":-6.330363,"transit":false},{"i_lat":-6.339291,"transit":false,"time":2,"line":2,"station_id":"UP","station_name":"Univ. Pancasila","is_transit":false,"i_long":106.834175,"distance":1029},{"i_long":106.831474,"line":2,"is_transit":false,"distance":2264,"transit":false,"time":3,"i_lat":-6.360749,"station_id":"UI","station_name":"Univ. Indonesia"},{"distance":1109,"station_id":"POC","time":2,"i_long":106.831114,"line":2,"is_transit":false,"i_lat":-6.369073,"station_name":"Pondok Cina","transit":false}],[{"is_transit":false,"distance":0,"station_name":"Tanjung Priuk","i_lat":-6.1109480000000005,"transit":false,"time":0,"station_id":"TPK","line":4,"i_long":106.880089},{"time":9,"distance":4566,"i_lat":-6.128023,"i_long":106.84464,"is_transit":false,"station_id":"AC","station_name":"Ancol","transit":false,"line":0},{"i_long":106.826365,"distance":2185,"is_transit":true,"station_name":"Kampung Bandan","station_id":"KPB","transit":false,"i_lat":-6.132549,"line":0,"time":4},{"transit":true,"is_transit":true,"i_lat":-6.137569,"i_long":106.812439,"line":0,"distance":1364,"station_name":"Jakarta Kota","station_id":"JAKK","time":3},{"is_transit":false,"station_name":"Jayakarta","transit":false,"distance":1264,"time":4,"station_id":"JAY","i_lat":-6.141205,"i_long":106.820901,"line":7},{"i_lat":-6.149769,"is_transit":false,"distance":1080,"time":2,"i_long":106.82482,"station_id":"MGB","station_name":"Manggabesar","line":2,"transit":false},{"line":2,"station_id":"SW","i_lat":-6.160725,"i_long":106.827103,"time":2,"station_name":"Sawah Besar","distance":906,"transit":false,"is_transit":false},{"distance":1149,"station_id":"JUA","transit":false,"time":2,"i_lat":-6.166716,"line":2,"i_long":106.828284,"station_name":"Juanda","is_transit":false},{"station_id":"GDD","i_lat":-6.186295,"station_name":"Gondangdia","line":2,"time":4,"transit":false,"i_long":106.832183,"distance":2015,"is_transit":false},{"i_lat":-6.198556,"station_name":"Cikini","time":3,"i_long":106.840169,"transit":false,"distance":1750,"is_transit":false,"station_id":"CKI","line":0},{"i_long":106.84912,"station_name":"Manggarai","line":0,"distance":1590,"station_id":"MRI","is_transit":true,"time":4,"i_lat":-6.209883,"transit":true},{"i_long":106.857948,"line":2,"station_name":"Tebet","is_transit":false,"distance":2610,"time":4,"i_lat":-6.226659,"station_id":"TEB","transit":false},{"time":2,"distance":1230,"i_long":106.856607,"i_lat":-6.242512,"line":0,"station_name":"Cawang","transit":false,"station_id":"CW","is_transit":false},{"i_lat":-6.255332,"transit":false,"time":3,"line":0,"distance":1546,"is_transit":false,"station_id":"DRN","i_long":106.85449,"station_name":"Duren Kalibata"},{"distance":824,"time":2,"i_long":106.851577,"station_id":"PSMB","line":2,"transit":false,"i_lat":-6.263214,"is_transit":false,"station_name":"Pasar Minggu Baru"},{"transit":false,"time":2,"i_long":106.843999,"is_transit":false,"station_name":"Pasar Minggu","line":2,"i_lat":-6.2842400000000005,"distance":2380,"station_id":"PSM"},{"i_lat":-6.3080680000000005,"station_id":"TNT","distance":2820,"station_name":"Tanjung Barat","line":2,"transit":false,"is_transit":false,"i_long":106.838896,"time":4},{"is_transit":false,"distance":2671,"station_id":"LNA","station_name":"Lenteng Agung","time":3,"i_lat":-6.330363,"line":2,"i_long":106.832616,"transit":false},{"is_transit":false,"transit":false,"i_lat":-6.339291,"station_name":"Univ. Pancasila","time":2,"i_long":106.834175,"station_id":"UP","distance":1029,"line":2},{"station_id":"UI","transit":false,"i_lat":-6.360749,"distance":2264,"line":2,"is_transit":false,"i_long":106.831474,"station_name":"Univ. Indonesia","time":3},{"i_lat":-6.369073,"distance":1109,"is_transit":false,"station_name":"Pondok Cina","transit":false,"i_long":106.831114,"time":2,"station_id":"POC","line":2}],[{"station_name":"Tanjung Priuk","transit":false,"i_long":106.880089,"is_transit":false,"line":4,"i_lat":-6.1109480000000005,"station_id":"TPK","distance":0,"time":0},{"is_transit":false,"line":0,"i_lat":-6.128023,"station_name":"Ancol","i_long":106.84464,"station_id":"AC","time":9,"distance":4566,"transit":false},{"line":0,"is_transit":true,"i_lat":-6.132549,"i_long":106.826365,"distance":2185,"station_name":"Kampung Bandan","station_id":"KPB","time":4,"transit":true},{"station_id":"RJW","station_name":"Rajawali","time":3,"is_transit":false,"i_long":106.836569,"line":11,"distance":1444,"transit":false,"i_lat":-6.14505},{"distance":1901,"is_transit":false,"i_lat":-6.161728,"transit":false,"station_id":"KMO","time":5,"station_name":"Kemayoran","i_long":106.839204,"line":11},{"distance":1436,"i_lat":-6.174784,"time":4,"line":11,"station_id":"PSE","transit":false,"is_transit":false,"i_long":106.84368,"station_name":"Pasar Senen"},{"transit":false,"time":8,"station_id":"GST","is_transit":false,"i_long":106.850107,"i_lat":-6.185975,"distance":1567,"station_name":"Gang Sentiong","line":11},{"transit":false,"line":11,"distance":973,"station_name":"Kramat","time":1,"is_transit":false,"i_lat":-6.193792,"i_long":106.855437,"station_id":"KMT"},{"station_name":"Pondok Jati","i_long":106.861737,"station_id":"POK","transit":false,"time":2,"line":11,"i_lat":-6.209188,"distance":1829,"is_transit":false},{"is_transit":true,"station_id":"JNG","i_long":106.86807400000001,"station_name":"Jatinegara","transit":true,"distance":1236,"time":9,"i_lat":-6.215091,"line":0},{"distance":1377,"i_lat":-6.212485,"line":1,"station_id":"MTR","station_name":"Matraman","time":2,"i_long":106.858896,"is_transit":false,"transit":false},{"i_lat":-6.209883,"station_name":"Manggarai","line":0,"station_id":"MRI","time":2,"i_long":106.84912,"is_transit":true,"transit":true,"distance":1275},{"transit":false,"is_transit":false,"i_long":106.857948,"station_id":"TEB","i_lat":-6.226659,"line":2,"distance":2610,"time":4,"station_name":"Tebet"},{"distance":1230,"station_name":"Cawang","line":0,"i_lat":-6.242512,"station_id":"CW","time":2,"is_transit":false,"transit":false,"i_long":106.856607},{"station_id":"DRN","transit":false,"i_lat":-6.255332,"distance":1546,"i_long":106.85449,"station_name":"Duren Kalibata","line":0,"is_transit":false,"time":3},{"i_long":106.851577,"distance":824,"i_lat":-6.263214,"time":2,"transit":false,"station_name":"Pasar Minggu Baru","line":2,"station_id":"PSMB","is_transit":false},{"line":2,"station_id":"PSM","transit":false,"i_lat":-6.2842400000000005,"is_transit":false,"i_long":106.843999,"distance":2380,"time":2,"station_name":"Pasar Minggu"},{"distance":2820,"transit":false,"time":4,"is_transit":false,"station_name":"Tanjung Barat","line":2,"station_id":"TNT","i_long":106.838896,"i_lat":-6.3080680000000005},{"transit":false,"i_long":106.832616,"station_name":"Lenteng Agung","time":3,"distance":2671,"is_transit":false,"line":2,"station_id":"LNA","i_lat":-6.330363},{"i_lat":-6.339291,"is_transit":false,"line":2,"i_long":106.834175,"time":2,"distance":1029,"transit":false,"station_name":"Univ. Pancasila","station_id":"UP"},{"line":2,"transit":false,"station_name":"Univ. Indonesia","time":3,"i_lat":-6.360749,"is_transit":false,"station_id":"UI","distance":2264,"i_long":106.831474},{"is_transit":false,"transit":false,"time":2,"i_lat":-6.369073,"line":2,"station_id":"POC","distance":1109,"i_long":106.831114,"station_name":"Pondok Cina"}]]}