{"data":[[{"station_name":"Tanjung Priuk","i_lat":-6.1109480000000005,"line":4,"distance":0,"is_transit":false,"transit":false,"time":0,"station_id":"TPK","i_long":106.880089},{"distance":4566,"time":9,"station_id":"AC","is_transit":false,"station_name":"Ancol","transit":false,"line":4,"i_lat":-6.128023,"i_long":106.84464},{"distance":2185,"is_transit":true,"line":4,"transit":true,"station_name":"Kampung Bandan","time":4,"i_lat":-6.132549,"i_long":106.826365,"station_id":"KPB"},{"station_name":"Rajawali","line":11,"is_transit":false,"transit":false,"station_id":"RJW","i_long":106.836569,"time":3,"i_lat":-6.14505,"distance":1444},{"time":5,"station_id":"KMO","transit":false,"i_long":106.839204,"station_name":"Kemayoran","is_transit":false,"distance":1901,"i_lat":-6.161728,"line":11},{"i_long":106.84368,"time":4,"is_transit":false,"i_lat":-6.174784,"distance":1436,"line":11,"station_name":"Pasar Senen","transit":false,"station_id":"PSE"},{"i_long":106.850107,"transit":false,"line":11,"time":8,"station_name":"Gang Sentiong","station_id":"GST","i_lat":-6.185975,"is_transit":false,"distance":1567},{"station_id":"KMT","line":11,"transit":false,"station_name":"Kramat","i_lat":-6.193792,"i_long":106.855437,"is_transit":false,"distance":973,"time":1},{"transit":false,"distance":1829,"station_name":"Pondok Jati","station_id":"POK","i_long":106.861737,"is_transit":false,"line":11,"time":2,"i_lat":-6.209188},{"i_lat":-6.215091,"i_long":106.86807400000001,"time":9,"station_name":"Jatinegara","station_id":"JNG","distance":1236,"transit":false,"is_transit":false,"line":1}],[{"is_transit":false,"line":4,"distance":0,"station_id":"TPK","i_long":106.880089,"i_lat":-6.1109480000000005,"station_name":"Tanjung Priuk","transit":false,"time":0},{"is_transit":false,"transit":false,"time":9,"i_long":106.84464,"i_lat":-6.128023,"station_id":"AC","distance":4566,"station_name":"Ancol","line":4},{"station_name":"Kampung Bandan","station_id":"KPB","i_lat":-6.132549,"i_long":106.826365,"time":4,"line":4,"distance":2185,"is_transit":true,"transit":true},{"station_name":"Angke","distance":4102,"time":9,"station_id":"AK","is_transit":false,"transit":false,"i_long":106.79867,"i_lat":-6.144674,"line":1},{"line":1,"transit":false,"distance":1230,"station_name":"Duri","i_lat":-6.155215,"i_long":106.800832,"is_transit":false,"station_id":"DU","time":4},{"transit":false,"i_long":106.811091,"i_lat":-6.185545,"distance":3632,"is_transit":false,"station_name":"Tanah Abang","line":1,"time":8,"station_id":"THB"},{"time":5,"station_name":"Karet","line":1,"station_id":"KAT","transit":false,"i_lat":-6.20132,"distance":2029,"is_transit":false,"i_long":106.816351},{"distance":471,"line":1,"transit":false,"station_name":"Sudirman Baru","i_long":106.819881,"station_id":"SUDB","time":1,"is_transit":false,"i_lat":-6.201433},{"distance":280,"is_transit":false,"transit":false,"i_long":106.822649,"time":1,"i_lat":-6.202263,"station_id":"SUD","station_name":"Sudirman","line":1},{"i_lat":-6.209883,"transit":false,"station_name":"Manggarai","time":4,"line":2,"distance":3186,"i_long":106.84912,"is_transit":false,"station_id":"MRI"},{"station_name":"Matraman","i_lat":-6.212485,"transit":false,"i_long":106.858896,"distance":1275,"is_transit":false,"time":2,"station_id":"MTR","line":1},{"station_id":"JNG","distance":1377,"i_lat":-6.215091,"line":1,"time":8,"is_transit":false,"transit":false,"i_long":106.86807400000001,"station_name":"Jatinegara"}],[{"i_lat":-6.1109480000000005,"i_long":106.880089,"station_id":"TPK","station_name":"Tanjung Priuk","time":0,"is_transit":false,"transit":false,"line":4,"distance":0},{"station_name":"Ancol","time":9,"station_id":"AC","transit":false,"i_lat":-6.128023,"is_transit":false,"i_long":106.84464,"line":4,"distance":4566},{"station_name":"Kampung Bandan","distance":2185,"time":4,"station_id":"KPB","is_transit":true,"transit":true,"i_lat":-6.132549,"i_long":106.826365,"line":4},{"station_id":"JAKK","distance":1364,"i_lat":-6.137569,"station_name":"Jakarta Kota","transit":true,"time":3,"is_transit":true,"i_long":106.812439,"line":2},{"is_transit":false,"i_long":106.820901,"time":4,"station_name":"Jayakarta","i_lat":-6.141205,"transit":false,"distance":1264,"station_id":"JAY","line":2},{"time":2,"station_id":"MGB","i_long":106.82482,"station_name":"Manggabesar","i_lat":-6.149769,"distance":1080,"transit":false,"line":2,"is_transit":false},{"is_transit":false,"distance":906,"station_name":"Sawah Besar","i_lat":-6.160725,"i_long":106.827103,"time":2,"line":2,"transit":false,"station_id":"SW"},{"is_transit":false,"station_id":"JUA","i_lat":-6.166716,"line":2,"distance":1149,"i_long":106.828284,"time":2,"transit":false,"station_name":"Juanda"},{"station_id":"GDD","station_name":"Gondangdia","is_transit":false,"time":4,"distance":2015,"transit":false,"i_lat":-6.186295,"line":2,"i_long":106.832183},{"station_name":"Cikini","station_id":"CKI","is_transit":false,"i_lat":-6.198556,"line":2,"transit":false,"i_long":106.840169,"distance":1750,"time":3},{"is_transit":true,"distance":1590,"time":4,"station_id":"MRI","station_name":"Manggarai","i_lat":-6.209883,"i_long":106.84912,"line":2,"transit":true},{"distance":1275,"transit":false,"station_id":"MTR","time":2,"is_transit":false,"line":1,"station_name":"Matraman","i_long":106.858896,"i_lat":-6.212485},{"is_transit":false,"transit":false,"i_long":106.86807400000001,"station_id":"JNG","i_lat":-6.215091,"time":8,"distance":1377,"line":1,"station_name":"Jatinegara"}]]}