{"data":[[{"station_id":"TPK","is_transit":false,"station_name":"Tanjung Priuk","i_lat":-6.1109480000000005,"transit":false,"time":0,"distance":0,"line":4,"i_long":106.880089},{"station_id":"AC","distance":4566,"transit":false,"i_long":106.84464,"line":4,"is_transit":false,"station_name":"Ancol","time":9,"i_lat":-6.128023},{"time":4,"is_transit":true,"line":4,"transit":true,"distance":2185,"station_id":"KPB","station_name":"Kampung Bandan","i_lat":-6.132549,"i_long":106.826365},{"is_transit":true,"i_long":106.812439,"transit":true,"line":2,"distance":1364,"i_lat":-6.137569,"station_id":"JAKK","station_name":"Jakarta Kota","time":3},{"station_name":"Jayakarta","is_transit":false,"line":2,"transit":false,"i_long":106.820901,"station_id":"JAY","time":4,"i_lat":-6.141205,"distance":1264},{"i_lat":-6.149769,"time":2,"transit":false,"station_name":"Manggabesar","station_id":"MGB","i_long":106.82482,"line":2,"is_transit":false,"distance":1080},{"i_lat":-6.160725,"station_id":"SW","is_transit":false,"station_name":"Sawah Besar","i_long":106.827103,"distance":906,"transit":false,"line":2,"time":2},{"i_lat":-6.166716,"time":2,"station_id":"JUA","transit":false,"i_long":106.828284,"line":2,"distance":1149,"station_name":"Juanda","is_transit":false},{"station_id":"GDD","i_long":106.832183,"line":2,"time":4,"i_lat":-6.186295,"is_transit":false,"distance":2015,"transit":false,"station_name":"Gondangdia"}],[{"line":4,"transit":false,"distance":0,"i_long":106.880089,"station_id":"TPK","is_transit":false,"station_name":"Tanjung Priuk","time":0,"i_lat":-6.1109480000000005},{"distance":4566,"station_name":"Ancol","line":4,"i_lat":-6.128023,"i_long":106.84464,"is_transit":false,"time":9,"transit":false,"station_id":"AC"},{"i_lat":-6.132549,"station_id":"KPB","line":4,"i_long":106.826365,"station_name":"Kampung Bandan","transit":true,"time":4,"is_transit":true,"distance":2185},{"is_transit":false,"line":1,"i_long":106.79867,"station_name":"Angke","i_lat":-6.144674,"time":9,"transit":false,"distance":4102,"station_id":"AK"},{"line":1,"station_id":"DU","i_lat":-6.155215,"transit":false,"i_long":106.800832,"distance":1230,"is_transit":false,"station_name":"Duri","time":4},{"distance":3632,"is_transit":false,"station_name":"Tanah Abang","line":1,"time":8,"station_id":"THB","i_lat":-6.185545,"transit":false,"i_long":106.811091},{"is_transit":false,"distance":2029,"station_id":"KAT","i_lat":-6.20132,"i_long":106.816351,"station_name":"Karet","line":1,"transit":false,"time":5},{"i_lat":-6.201433,"transit":false,"station_name":"Sudirman Baru","line":1,"station_id":"SUDB","i_long":106.819881,"is_transit":false,"distance":471,"time":1},{"line":1,"station_name":"Sudirman","is_transit":false,"transit":false,"time":1,"i_long":106.822649,"station_id":"SUD","i_lat":-6.202263,"distance":280},{"station_id":"MRI","i_lat":-6.209883,"distance":3186,"is_transit":true,"station_name":"Manggarai","time":4,"i_long":106.84912,"transit":true,"line":2},{"line":2,"distance":1590,"station_name":"Cikini","station_id":"CKI","is_transit":false,"transit":false,"time":4,"i_lat":-6.198556,"i_long":106.840169},{"i_long":106.832183,"station_id":"GDD","station_name":"Gondangdia","i_lat":-6.186295,"line":2,"distance":1750,"is_transit":false,"time":3,"transit":false}],[{"is_transit":false,"station_name":"Tanjung Priuk","line":4,"transit":false,"i_lat":-6.1109480000000005,"distance":0,"station_id":"TPK","i_long":106.880089,"time":0},{"station_name":"Ancol","is_transit":false,"distance":4566,"i_lat":-6.128023,"time":9,"station_id":"AC","transit":false,"line":4,"i_long":106.84464},{"transit":true,"is_transit":true,"i_long":106.826365,"line":4,"distance":2185,"station_name":"Kampung Bandan","time":4,"station_id":"KPB","i_lat":-6.132549},{"transit":false,"is_transit":false,"time":3,"line":11,"distance":1444,"station_name":"Rajawali","i_long":106.836569,"i_lat":-6.14505,"station_id":"RJW"},{"i_long":106.839204,"station_name":"Kemayoran","distance":1901,"time":5,"station_id":"KMO","is_transit":false,"transit":false,"i_lat":-6.161728,"line":11},{"station_name":"Pasar Senen","station_id":"PSE","is_transit":false,"distance":1436,"time":4,"i_lat":-6.174784,"transit":false,"i_long":106.84368,"line":11},{"i_long":106.850107,"line":11,"distance":1567,"station_name":"Gang Sentiong","station_id":"GST","is_transit":false,"time":8,"i_lat":-6.185975,"transit":false},{"station_id":"KMT","transit":false,"i_long":106.855437,"i_lat":-6.193792,"time":1,"station_name":"Kramat","line":11,"is_transit":false,"distance":973},{"line":11,"time":2,"is_transit":false,"transit":false,"distance":1829,"station_id":"POK","i_lat":-6.209188,"station_name":"Pondok Jati","i_long":106.861737},{"line":1,"time":9,"is_transit":true,"i_long":106.86807400000001,"station_id":"JNG","transit":true,"station_name":"Jatinegara","i_lat":-6.215091,"distance":1236},{"line":1,"transit":false,"time":2,"is_transit":false,"distance":1377,"station_id":"MTR","station_name":"Matraman","i_long":106.858896,"i_lat":-6.212485},{"i_lat":-6.209883,"distance":1275,"i_long":106.84912,"station_name":"Manggarai","line":2,"time":2,"transit":true,"station_id":"MRI","is_transit":true},{"time":4,"distance":1590,"line":2,"is_transit":false,"station_id":"CKI","transit":false,"station_name":"Cikini","i_lat":-6.198556,"i_long":106.840169},{"distance":1750,"station_id":"GDD","station_name":"Gondangdia","i_lat":-6.186295,"time":3,"line":2,"is_transit":false,"transit":false,"i_long":106.832183}]]}