{"data":[[{"i_long":106.880089,"time":0,"i_lat":-6.1109480000000005,"station_name":"Tanjung Priuk","station_id":"TPK","line":4,"transit":false,"is_transit":false,"distance":0},{"distance":4566,"time":9,"line":4,"i_lat":-6.128023,"i_long":106.84464,"station_id":"AC","transit":false,"station_name":"Ancol","is_transit":false},{"station_name":"Kampung Bandan","is_transit":true,"station_id":"KPB","distance":2185,"i_long":106.826365,"time":4,"transit":true,"i_lat":-6.132549,"line":4},{"station_id":"JAKK","line":2,"time":3,"distance":1364,"station_name":"Jakarta Kota","i_lat":-6.137569,"transit":true,"is_transit":true,"i_long":106.812439},{"distance":1264,"station_name":"Jayakarta","is_transit":false,"transit":false,"time":4,"i_lat":-6.141205,"i_long":106.820901,"station_id":"JAY","line":2},{"transit":false,"time":2,"is_transit":false,"station_name":"Manggabesar","station_id":"MGB","distance":1080,"i_long":106.82482,"line":2,"i_lat":-6.149769},{"time":2,"i_lat":-6.160725,"distance":906,"is_transit":false,"i_long":106.827103,"transit":false,"station_id":"SW","station_name":"Sawah Besar","line":2},{"i_long":106.828284,"time":2,"is_transit":false,"line":2,"station_name":"Juanda","station_id":"JUA","distance":1149,"i_lat":-6.166716,"transit":false},{"time":4,"station_id":"GDD","i_lat":-6.186295,"distance":2015,"station_name":"Gondangdia","is_transit":false,"i_long":106.832183,"line":2,"transit":false}],[{"is_transit":false,"i_long":106.880089,"line":4,"distance":0,"i_lat":-6.1109480000000005,"time":0,"station_id":"TPK","transit":false,"station_name":"Tanjung Priuk"},{"time":9,"distance":4566,"transit":false,"is_transit":false,"station_name":"Ancol","line":4,"i_lat":-6.128023,"i_long":106.84464,"station_id":"AC"},{"line":4,"i_long":106.826365,"i_lat":-6.132549,"station_id":"KPB","station_name":"Kampung Bandan","distance":2185,"time":4,"is_transit":true,"transit":true},{"i_long":106.79867,"line":1,"transit":false,"time":9,"station_id":"AK","distance":4102,"station_name":"Angke","is_transit":false,"i_lat":-6.144674},{"is_transit":false,"time":4,"transit":false,"station_name":"Duri","distance":1230,"i_long":106.800832,"i_lat":-6.155215,"line":1,"station_id":"DU"},{"station_id":"THB","is_transit":false,"i_lat":-6.185545,"transit":false,"line":1,"i_long":106.811091,"station_name":"Tanah Abang","distance":3632,"time":8},{"is_transit":false,"i_long":106.816351,"time":5,"station_id":"KAT","distance":2029,"line":1,"station_name":"Karet","i_lat":-6.20132,"transit":false},{"station_name":"Sudirman Baru","is_transit":false,"distance":471,"line":1,"i_lat":-6.201433,"transit":false,"i_long":106.819881,"time":1,"station_id":"SUDB"},{"transit":false,"station_name":"Sudirman","distance":280,"station_id":"SUD","is_transit":false,"line":1,"time":1,"i_long":106.822649,"i_lat":-6.202263},{"station_id":"MRI","station_name":"Manggarai","line":2,"is_transit":true,"i_lat":-6.209883,"distance":3186,"transit":true,"i_long":106.84912,"time":4},{"station_name":"Cikini","time":4,"i_long":106.840169,"transit":false,"station_id":"CKI","i_lat":-6.198556,"distance":1590,"is_transit":false,"line":2},{"station_name":"Gondangdia","time":3,"i_lat":-6.186295,"transit":false,"distance":1750,"line":2,"i_long":106.832183,"is_transit":false,"station_id":"GDD"}],[{"is_transit":false,"time":0,"line":4,"station_name":"Tanjung Priuk","i_long":106.880089,"transit":false,"i_lat":-6.1109480000000005,"distance":0,"station_id":"TPK"},{"time":9,"distance":4566,"line":4,"station_name":"Ancol","transit":false,"is_transit":false,"i_lat":-6.128023,"i_long":106.84464,"station_id":"AC"},{"i_lat":-6.132549,"distance":2185,"line":4,"time":4,"i_long":106.826365,"station_id":"KPB","transit":true,"station_name":"Kampung Bandan","is_transit":true},{"is_transit":false,"time":3,"station_name":"Rajawali","transit":false,"distance":1444,"i_long":106.836569,"i_lat":-6.14505,"line":11,"station_id":"RJW"},{"distance":1901,"i_lat":-6.161728,"line":11,"i_long":106.839204,"transit":false,"station_name":"Kemayoran","is_transit":false,"time":5,"station_id":"KMO"},{"i_long":106.84368,"is_transit":false,"transit":false,"distance":1436,"i_lat":-6.174784,"time":4,"station_id":"PSE","line":11,"station_name":"Pasar Senen"},{"transit":false,"line":11,"i_lat":-6.185975,"i_long":106.850107,"is_transit":false,"station_name":"Gang Sentiong","distance":1567,"station_id":"GST","time":8},{"station_id":"KMT","time":1,"distance":973,"i_lat":-6.193792,"i_long":106.855437,"station_name":"Kramat","line":11,"transit":false,"is_transit":false},{"distance":1829,"station_name":"Pondok Jati","station_id":"POK","i_long":106.861737,"time":2,"is_transit":false,"i_lat":-6.209188,"line":11,"transit":false},{"i_lat":-6.215091,"distance":1236,"station_name":"Jatinegara","is_transit":true,"transit":true,"i_long":106.86807400000001,"time":9,"station_id":"JNG","line":1},{"is_transit":false,"station_name":"Matraman","station_id":"MTR","time":2,"distance":1377,"i_long":106.858896,"transit":false,"line":1,"i_lat":-6.212485},{"i_lat":-6.209883,"i_long":106.84912,"transit":true,"station_id":"MRI","distance":1275,"station_name":"Manggarai","time":2,"line":2,"is_transit":true},{"distance":1590,"i_long":106.840169,"station_name":"Cikini","line":2,"time":4,"i_lat":-6.198556,"transit":false,"station_id":"CKI","is_transit":false},{"line":2,"distance":1750,"station_name":"Gondangdia","i_lat":-6.186295,"is_transit":false,"station_id":"GDD","time":3,"i_long":106.832183,"transit":false}]]}