{"data":[[{"distance":0,"time":0,"transit":false,"i_lat":-6.1109480000000005,"station_id":"TPK","is_transit":false,"i_long":106.880089,"line":4,"station_name":"Tanjung Priuk"},{"time":9,"transit":false,"station_id":"AC","i_lat":-6.128023,"i_long":106.84464,"station_name":"Ancol","line":4,"distance":4566,"is_transit":false},{"i_lat":-6.132549,"i_long":106.826365,"station_name":"Kampung Bandan","transit":true,"time":4,"station_id":"KPB","line":4,"distance":2185,"is_transit":true},{"line":1,"transit":false,"i_long":106.79867,"distance":4102,"station_name":"Angke","station_id":"AK","i_lat":-6.144674,"time":9,"is_transit":false},{"station_name":"Duri","station_id":"DU","transit":true,"distance":1230,"is_transit":true,"i_lat":-6.155215,"line":1,"i_long":106.800832,"time":4},{"line":5,"station_name":"Grogol","time":3,"transit":false,"station_id":"GRG","is_transit":false,"i_lat":-6.162021,"i_long":106.788277,"distance":1700}],[{"station_id":"TPK","transit":false,"line":4,"time":0,"i_long":106.880089,"is_transit":false,"station_name":"Tanjung Priuk","i_lat":-6.1109480000000005,"distance":0},{"time":9,"station_name":"Ancol","distance":4566,"i_long":106.84464,"line":4,"station_id":"AC","transit":false,"is_transit":false,"i_lat":-6.128023},{"station_name":"Kampung Bandan","time":4,"i_lat":-6.132549,"distance":2185,"is_transit":true,"transit":true,"i_long":106.826365,"station_id":"KPB","line":4},{"transit":true,"time":3,"distance":1364,"station_id":"JAKK","station_name":"Jakarta Kota","i_long":106.812439,"line":2,"i_lat":-6.137569,"is_transit":true},{"station_id":"JAY","time":4,"station_name":"Jayakarta","transit":false,"i_long":106.820901,"line":2,"is_transit":false,"distance":1264,"i_lat":-6.141205},{"station_id":"MGB","i_lat":-6.149769,"i_long":106.82482,"time":2,"transit":false,"line":2,"distance":1080,"is_transit":false,"station_name":"Manggabesar"},{"transit":false,"is_transit":false,"i_long":106.827103,"station_id":"SW","time":2,"station_name":"Sawah Besar","i_lat":-6.160725,"line":2,"distance":906},{"is_transit":false,"distance":1149,"station_name":"Juanda","transit":false,"i_lat":-6.166716,"station_id":"JUA","line":2,"i_long":106.828284,"time":2},{"is_transit":false,"i_lat":-6.186295,"i_long":106.832183,"transit":false,"distance":2015,"line":2,"time":4,"station_id":"GDD","station_name":"Gondangdia"},{"is_transit":false,"transit":false,"line":2,"station_id":"CKI","i_lat":-6.198556,"time":3,"station_name":"Cikini","i_long":106.840169,"distance":1750},{"station_id":"MRI","station_name":"Manggarai","is_transit":true,"transit":true,"time":4,"distance":1590,"i_lat":-6.209883,"i_long":106.84912,"line":2},{"station_name":"Sudirman","distance":3186,"station_id":"SUD","i_lat":-6.202263,"is_transit":false,"time":4,"transit":false,"i_long":106.822649,"line":1},{"time":1,"i_lat":-6.201433,"station_name":"Sudirman Baru","distance":280,"station_id":"SUDB","is_transit":false,"i_long":106.819881,"line":1,"transit":false},{"time":1,"transit":false,"i_lat":-6.20132,"is_transit":false,"distance":471,"station_id":"KAT","i_long":106.816351,"line":1,"station_name":"Karet"},{"i_long":106.811091,"station_id":"THB","station_name":"Tanah Abang","i_lat":-6.185545,"line":1,"distance":2029,"transit":false,"is_transit":false,"time":5},{"line":1,"distance":3632,"i_long":106.800832,"station_id":"DU","is_transit":true,"time":8,"i_lat":-6.155215,"station_name":"Duri","transit":true},{"time":3,"distance":1700,"station_name":"Grogol","is_transit":false,"transit":false,"line":5,"i_lat":-6.162021,"station_id":"GRG","i_long":106.788277}],[{"i_lat":-6.1109480000000005,"station_id":"TPK","station_name":"Tanjung Priuk","distance":0,"transit":false,"time":0,"is_transit":false,"line":4,"i_long":106.880089},{"time":9,"distance":4566,"is_transit":false,"transit":false,"station_name":"Ancol","line":4,"station_id":"AC","i_lat":-6.128023,"i_long":106.84464},{"is_transit":true,"distance":2185,"time":4,"transit":true,"station_name":"Kampung Bandan","line":4,"i_long":106.826365,"station_id":"KPB","i_lat":-6.132549},{"line":11,"i_lat":-6.14505,"i_long":106.836569,"transit":false,"is_transit":false,"distance":1444,"station_name":"Rajawali","time":3,"station_id":"RJW"},{"time":5,"transit":false,"station_name":"Kemayoran","line":11,"distance":1901,"i_long":106.839204,"i_lat":-6.161728,"station_id":"KMO","is_transit":false},{"i_lat":-6.174784,"time":4,"is_transit":false,"station_name":"Pasar Senen","station_id":"PSE","line":11,"distance":1436,"i_long":106.84368,"transit":false},{"time":8,"station_id":"GST","i_long":106.850107,"transit":false,"is_transit":false,"distance":1567,"station_name":"Gang Sentiong","line":11,"i_lat":-6.185975},{"distance":973,"station_id":"KMT","line":11,"i_lat":-6.193792,"time":1,"is_transit":false,"station_name":"Kramat","transit":false,"i_long":106.855437},{"station_name":"Pondok Jati","i_long":106.861737,"distance":1829,"line":11,"transit":false,"station_id":"POK","i_lat":-6.209188,"is_transit":false,"time":2},{"line":1,"i_lat":-6.215091,"station_name":"Jatinegara","distance":1236,"station_id":"JNG","is_transit":true,"time":9,"transit":true,"i_long":106.86807400000001},{"distance":1377,"time":2,"is_transit":false,"station_name":"Matraman","station_id":"MTR","transit":false,"i_long":106.858896,"line":1,"i_lat":-6.212485},{"is_transit":false,"station_id":"MRI","time":2,"distance":1275,"i_long":106.84912,"transit":false,"i_lat":-6.209883,"line":2,"station_name":"Manggarai"},{"station_name":"Sudirman","distance":3186,"i_long":106.822649,"transit":false,"line":1,"i_lat":-6.202263,"time":4,"is_transit":false,"station_id":"SUD"},{"station_id":"SUDB","time":1,"transit":false,"i_long":106.819881,"line":1,"distance":280,"is_transit":false,"station_name":"Sudirman Baru","i_lat":-6.201433},{"time":1,"station_id":"KAT","i_lat":-6.20132,"transit":false,"distance":471,"line":1,"i_long":106.816351,"is_transit":false,"station_name":"Karet"},{"is_transit":false,"i_lat":-6.185545,"time":5,"i_long":106.811091,"line":1,"distance":2029,"station_id":"THB","station_name":"Tanah Abang","transit":false},{"station_id":"DU","station_name":"Duri","is_transit":true,"time":8,"i_long":106.800832,"transit":true,"line":1,"i_lat":-6.155215,"distance":3632},{"time":3,"transit":false,"station_name":"Grogol","station_id":"GRG","distance":1700,"line":5,"is_transit":false,"i_lat":-6.162021,"i_long":106.788277}]]}