{"data":[[{"is_transit":false,"station_id":"TPK","time":0,"transit":false,"line":4,"i_long":106.880089,"station_name":"Tanjung Priuk","distance":0,"i_lat":-6.1109480000000005},{"line":4,"station_name":"Ancol","is_transit":false,"time":9,"i_long":106.84464,"station_id":"AC","distance":4566,"transit":false,"i_lat":-6.128023},{"station_name":"Kampung Bandan","distance":2185,"line":4,"station_id":"KPB","transit":true,"i_lat":-6.132549,"i_long":106.826365,"time":4,"is_transit":true},{"time":9,"line":1,"distance":4102,"transit":false,"station_id":"AK","station_name":"Angke","i_lat":-6.144674,"i_long":106.79867,"is_transit":false},{"i_lat":-6.155215,"line":1,"is_transit":true,"station_id":"DU","i_long":106.800832,"station_name":"Duri","time":4,"distance":1230,"transit":true},{"transit":false,"is_transit":false,"i_lat":-6.162021,"distance":1700,"station_name":"Grogol","i_long":106.788277,"time":3,"line":5,"station_id":"GGL"},{"distance":2036,"transit":false,"station_name":"Pesing","i_long":106.771379,"is_transit":false,"i_lat":-6.161433,"time":2,"station_id":"PSG","line":5}],[{"line":4,"time":0,"i_long":106.880089,"i_lat":-6.1109480000000005,"distance":0,"is_transit":false,"transit":false,"station_id":"TPK","station_name":"Tanjung Priuk"},{"i_lat":-6.128023,"time":9,"i_long":106.84464,"distance":4566,"transit":false,"station_name":"Ancol","station_id":"AC","line":4,"is_transit":false},{"station_name":"Kampung Bandan","transit":true,"i_lat":-6.132549,"station_id":"KPB","i_long":106.826365,"distance":2185,"time":4,"is_transit":true,"line":4},{"is_transit":true,"station_id":"JAKK","station_name":"Jakarta Kota","distance":1364,"transit":true,"i_lat":-6.137569,"time":3,"line":2,"i_long":106.812439},{"i_lat":-6.141205,"station_name":"Jayakarta","transit":false,"is_transit":false,"station_id":"JAY","time":4,"i_long":106.820901,"line":2,"distance":1264},{"distance":1080,"i_long":106.82482,"station_name":"Manggabesar","is_transit":false,"time":2,"transit":false,"station_id":"MGB","i_lat":-6.149769,"line":2},{"time":2,"line":2,"i_lat":-6.160725,"is_transit":false,"station_name":"Sawah Besar","station_id":"SW","distance":906,"i_long":106.827103,"transit":false},{"distance":1149,"line":2,"station_id":"JUA","time":2,"station_name":"Juanda","is_transit":false,"transit":false,"i_lat":-6.166716,"i_long":106.828284},{"transit":false,"station_id":"GDD","time":4,"i_lat":-6.186295,"line":2,"i_long":106.832183,"is_transit":false,"distance":2015,"station_name":"Gondangdia"},{"time":3,"distance":1750,"transit":false,"station_id":"CKI","i_lat":-6.198556,"station_name":"Cikini","is_transit":false,"i_long":106.840169,"line":2},{"time":4,"distance":1590,"i_lat":-6.209883,"i_long":106.84912,"station_name":"Manggarai","line":2,"transit":true,"station_id":"MRI","is_transit":true},{"station_id":"SUD","i_long":106.822649,"line":1,"transit":false,"station_name":"Sudirman","is_transit":false,"i_lat":-6.202263,"distance":3186,"time":4},{"transit":false,"station_name":"Sudirman Baru","is_transit":false,"i_lat":-6.201433,"station_id":"SUDB","time":1,"distance":280,"line":1,"i_long":106.819881},{"i_long":106.816351,"line":1,"station_id":"KAT","distance":471,"transit":false,"time":1,"station_name":"Karet","i_lat":-6.20132,"is_transit":false},{"distance":2029,"is_transit":false,"station_name":"Tanah Abang","station_id":"THB","transit":false,"time":5,"i_lat":-6.185545,"i_long":106.811091,"line":1},{"i_long":106.800832,"time":8,"transit":true,"i_lat":-6.155215,"line":1,"distance":3632,"station_name":"Duri","station_id":"DU","is_transit":true},{"is_transit":false,"i_long":106.788277,"station_id":"GGL","distance":1700,"line":5,"station_name":"Grogol","time":3,"transit":false,"i_lat":-6.162021},{"i_lat":-6.161433,"time":2,"station_name":"Pesing","distance":2036,"line":5,"is_transit":false,"station_id":"PSG","transit":false,"i_long":106.771379}],[{"station_id":"TPK","station_name":"Tanjung Priuk","i_lat":-6.1109480000000005,"i_long":106.880089,"distance":0,"transit":false,"time":0,"is_transit":false,"line":4},{"i_lat":-6.128023,"i_long":106.84464,"is_transit":false,"station_name":"Ancol","line":4,"transit":false,"time":9,"distance":4566,"station_id":"AC"},{"station_name":"Kampung Bandan","i_long":106.826365,"i_lat":-6.132549,"station_id":"KPB","is_transit":true,"line":4,"distance":2185,"transit":true,"time":4},{"distance":1444,"station_name":"Rajawali","i_lat":-6.14505,"station_id":"RJW","i_long":106.836569,"line":11,"transit":false,"time":3,"is_transit":false},{"station_id":"KMO","i_lat":-6.161728,"line":11,"i_long":106.839204,"station_name":"Kemayoran","is_transit":false,"time":5,"distance":1901,"transit":false},{"time":4,"line":11,"transit":false,"is_transit":false,"station_id":"PSE","distance":1436,"i_long":106.84368,"station_name":"Pasar Senen","i_lat":-6.174784},{"is_transit":false,"i_long":106.850107,"transit":false,"distance":1567,"station_name":"Gang Sentiong","station_id":"GST","line":11,"time":8,"i_lat":-6.185975},{"transit":false,"station_name":"Kramat","is_transit":false,"i_lat":-6.193792,"i_long":106.855437,"time":1,"distance":973,"line":11,"station_id":"KMT"},{"distance":1829,"station_id":"POK","i_lat":-6.209188,"transit":false,"line":11,"station_name":"Pondok Jati","is_transit":false,"time":2,"i_long":106.861737},{"line":1,"i_long":106.86807400000001,"transit":true,"station_id":"JNG","time":9,"distance":1236,"is_transit":true,"i_lat":-6.215091,"station_name":"Jatinegara"},{"i_lat":-6.212485,"transit":false,"i_long":106.858896,"station_name":"Matraman","station_id":"MTR","is_transit":false,"line":1,"time":2,"distance":1377},{"i_long":106.84912,"time":2,"line":2,"station_id":"MRI","is_transit":false,"transit":false,"distance":1275,"i_lat":-6.209883,"station_name":"Manggarai"},{"time":4,"station_name":"Sudirman","i_long":106.822649,"transit":false,"distance":3186,"is_transit":false,"i_lat":-6.202263,"station_id":"SUD","line":1},{"time":1,"distance":280,"transit":false,"is_transit":false,"station_name":"Sudirman Baru","i_lat":-6.201433,"i_long":106.819881,"line":1,"station_id":"SUDB"},{"station_id":"KAT","distance":471,"station_name":"Karet","is_transit":false,"i_long":106.816351,"time":1,"transit":false,"i_lat":-6.20132,"line":1},{"station_name":"Tanah Abang","i_long":106.811091,"is_transit":false,"time":5,"i_lat":-6.185545,"distance":2029,"transit":false,"station_id":"THB","line":1},{"line":1,"station_name":"Duri","station_id":"DU","is_transit":true,"time":8,"transit":true,"i_long":106.800832,"distance":3632,"i_lat":-6.155215},{"station_id":"GGL","i_lat":-6.162021,"is_transit":false,"line":5,"i_long":106.788277,"time":3,"distance":1700,"transit":false,"station_name":"Grogol"},{"station_id":"PSG","distance":2036,"transit":false,"is_transit":false,"i_long":106.771379,"line":5,"i_lat":-6.161433,"station_name":"Pesing","time":2}]]}