{"data":[[{"station_name":"Tanjung Priuk","is_transit":false,"transit":false,"line":4,"i_long":106.880089,"time":0,"i_lat":-6.1109480000000005,"distance":0,"station_id":"TPK"},{"i_lat":-6.128023,"line":4,"station_id":"AC","station_name":"Ancol","is_transit":false,"i_long":106.84464,"transit":false,"distance":4566,"time":9},{"is_transit":true,"line":4,"station_id":"KPB","transit":true,"i_long":106.826365,"time":4,"i_lat":-6.132549,"distance":2185,"station_name":"Kampung Bandan"},{"station_name":"Angke","transit":false,"is_transit":false,"station_id":"AK","i_lat":-6.144674,"time":9,"i_long":106.79867,"distance":4102,"line":1},{"is_transit":false,"distance":1230,"transit":false,"i_long":106.800832,"station_name":"Duri","time":4,"i_lat":-6.155215,"line":1,"station_id":"DU"},{"station_id":"THB","transit":false,"i_lat":-6.185545,"line":1,"i_long":106.811091,"time":8,"distance":3632,"station_name":"Tanah Abang","is_transit":false},{"time":5,"i_long":106.816351,"is_transit":false,"station_name":"Karet","transit":false,"distance":2029,"i_lat":-6.20132,"station_id":"KAT","line":1},{"time":1,"station_name":"Sudirman Baru","station_id":"SUDB","i_lat":-6.201433,"distance":471,"is_transit":false,"transit":false,"line":1,"i_long":106.819881},{"station_name":"Sudirman","is_transit":false,"line":1,"distance":280,"time":1,"station_id":"SUD","i_long":106.822649,"transit":false,"i_lat":-6.202263}],[{"station_id":"TPK","distance":0,"station_name":"Tanjung Priuk","is_transit":false,"transit":false,"line":4,"i_lat":-6.1109480000000005,"i_long":106.880089,"time":0},{"line":4,"time":9,"distance":4566,"is_transit":false,"station_id":"AC","station_name":"Ancol","transit":false,"i_lat":-6.128023,"i_long":106.84464},{"time":4,"station_name":"Kampung Bandan","distance":2185,"transit":true,"i_lat":-6.132549,"is_transit":true,"i_long":106.826365,"station_id":"KPB","line":4},{"line":2,"station_name":"Jakarta Kota","transit":true,"distance":1364,"i_long":106.812439,"time":3,"i_lat":-6.137569,"station_id":"JAKK","is_transit":true},{"distance":1264,"station_id":"JAY","time":4,"i_lat":-6.141205,"line":2,"is_transit":false,"transit":false,"station_name":"Jayakarta","i_long":106.820901},{"transit":false,"is_transit":false,"i_lat":-6.149769,"i_long":106.82482,"station_name":"Manggabesar","distance":1080,"station_id":"MGB","time":2,"line":2},{"line":2,"station_name":"Sawah Besar","is_transit":false,"time":2,"transit":false,"station_id":"SW","i_long":106.827103,"distance":906,"i_lat":-6.160725},{"station_id":"JUA","is_transit":false,"transit":false,"i_lat":-6.166716,"time":2,"i_long":106.828284,"station_name":"Juanda","line":2,"distance":1149},{"station_name":"Gondangdia","i_lat":-6.186295,"i_long":106.832183,"distance":2015,"transit":false,"station_id":"GDD","time":4,"line":2,"is_transit":false},{"transit":false,"line":2,"station_name":"Cikini","time":3,"station_id":"CKI","i_lat":-6.198556,"distance":1750,"i_long":106.840169,"is_transit":false},{"i_long":106.84912,"time":4,"station_id":"MRI","transit":true,"line":2,"station_name":"Manggarai","is_transit":true,"i_lat":-6.209883,"distance":1590},{"station_id":"SUD","distance":3186,"transit":false,"i_long":106.822649,"i_lat":-6.202263,"time":4,"station_name":"Sudirman","is_transit":false,"line":1}],[{"is_transit":false,"i_long":106.880089,"i_lat":-6.1109480000000005,"time":0,"station_name":"Tanjung Priuk","station_id":"TPK","transit":false,"distance":0,"line":4},{"line":4,"i_long":106.84464,"station_id":"AC","is_transit":false,"time":9,"distance":4566,"station_name":"Ancol","i_lat":-6.128023,"transit":false},{"line":4,"time":4,"is_transit":true,"station_id":"KPB","i_lat":-6.132549,"distance":2185,"transit":true,"station_name":"Kampung Bandan","i_long":106.826365},{"is_transit":false,"transit":false,"i_long":106.836569,"station_id":"RJW","i_lat":-6.14505,"line":11,"distance":1444,"time":3,"station_name":"Rajawali"},{"i_lat":-6.161728,"is_transit":false,"station_name":"Kemayoran","station_id":"KMO","transit":false,"distance":1901,"line":11,"i_long":106.839204,"time":5},{"i_lat":-6.174784,"i_long":106.84368,"station_name":"Pasar Senen","is_transit":false,"transit":false,"station_id":"PSE","line":11,"distance":1436,"time":4},{"distance":1567,"station_id":"GST","station_name":"Gang Sentiong","transit":false,"is_transit":false,"time":8,"i_lat":-6.185975,"line":11,"i_long":106.850107},{"is_transit":false,"time":1,"line":11,"station_name":"Kramat","transit":false,"distance":973,"station_id":"KMT","i_long":106.855437,"i_lat":-6.193792},{"i_long":106.861737,"time":2,"line":11,"station_name":"Pondok Jati","is_transit":false,"transit":false,"i_lat":-6.209188,"distance":1829,"station_id":"POK"},{"is_transit":true,"distance":1236,"station_name":"Jatinegara","i_lat":-6.215091,"i_long":106.86807400000001,"time":9,"line":1,"station_id":"JNG","transit":true},{"is_transit":false,"i_lat":-6.212485,"station_id":"MTR","time":2,"i_long":106.858896,"station_name":"Matraman","line":1,"transit":false,"distance":1377},{"station_id":"MRI","time":2,"station_name":"Manggarai","is_transit":false,"distance":1275,"i_lat":-6.209883,"i_long":106.84912,"transit":false,"line":2},{"station_id":"SUD","station_name":"Sudirman","distance":3186,"is_transit":false,"time":4,"line":1,"i_lat":-6.202263,"i_long":106.822649,"transit":false}]]}