{"data":[[{"is_transit":false,"transit":false,"i_long":106.880089,"i_lat":-6.1109480000000005,"distance":0,"time":0,"station_name":"Tanjung Priuk","line":4,"station_id":"TPK"},{"is_transit":false,"distance":4566,"i_long":106.84464,"station_name":"Ancol","i_lat":-6.128023,"transit":false,"line":4,"station_id":"AC","time":9},{"station_name":"Kampung Bandan","transit":true,"station_id":"KPB","is_transit":true,"i_lat":-6.132549,"line":4,"i_long":106.826365,"distance":2185,"time":4},{"transit":false,"distance":4102,"station_id":"AK","i_long":106.79867,"is_transit":false,"i_lat":-6.144674,"station_name":"Angke","line":1,"time":9},{"transit":false,"i_lat":-6.155215,"i_long":106.800832,"station_id":"DU","is_transit":false,"line":1,"station_name":"Duri","time":4,"distance":1230},{"station_id":"THB","is_transit":false,"distance":3632,"i_lat":-6.185545,"line":1,"time":8,"station_name":"Tanah Abang","i_long":106.811091,"transit":false},{"i_lat":-6.20132,"transit":false,"distance":2029,"station_name":"Karet","line":1,"is_transit":false,"i_long":106.816351,"time":5,"station_id":"KAT"},{"station_id":"SUDB","time":1,"is_transit":false,"i_long":106.819881,"line":1,"transit":false,"distance":471,"station_name":"Sudirman Baru","i_lat":-6.201433},{"i_long":106.822649,"distance":280,"is_transit":false,"station_id":"SUD","station_name":"Sudirman","transit":false,"line":1,"time":1,"i_lat":-6.202263},{"time":4,"station_name":"Manggarai","is_transit":true,"i_long":106.84912,"station_id":"MRI","transit":true,"i_lat":-6.209883,"line":2,"distance":3186},{"transit":false,"distance":2610,"i_lat":-6.226659,"station_id":"TEB","time":4,"is_transit":false,"station_name":"Tebet","line":2,"i_long":106.857948},{"line":2,"is_transit":false,"distance":1230,"station_name":"Cawang","transit":false,"station_id":"CW","time":2,"i_long":106.856607,"i_lat":-6.242512},{"i_long":106.85449,"distance":1546,"station_name":"Duren Kalibata","transit":false,"time":3,"i_lat":-6.255332,"is_transit":false,"station_id":"DRN","line":2},{"distance":824,"i_lat":-6.263214,"i_long":106.851577,"station_name":"Pasar Minggu Baru","line":2,"station_id":"PSMB","transit":false,"is_transit":false,"time":2},{"transit":false,"time":2,"i_long":106.843999,"is_transit":false,"line":2,"station_id":"PSM","station_name":"Pasar Minggu","distance":2380,"i_lat":-6.2842400000000005},{"station_id":"TNT","i_long":106.838896,"line":2,"transit":false,"is_transit":false,"station_name":"Tanjung Barat","i_lat":-6.3080680000000005,"time":4,"distance":2820},{"station_name":"Lenteng Agung","i_lat":-6.330363,"station_id":"LNA","transit":false,"i_long":106.832616,"line":2,"time":3,"distance":2671,"is_transit":false},{"transit":false,"time":2,"i_lat":-6.339291,"distance":1029,"station_id":"UP","station_name":"Univ. Pancasila","is_transit":false,"line":2,"i_long":106.834175},{"distance":2264,"time":3,"i_lat":-6.360749,"i_long":106.831474,"is_transit":false,"station_name":"Univ. Indonesia","station_id":"UI","line":2,"transit":false},{"time":2,"distance":1109,"transit":false,"station_name":"Pondok Cina","station_id":"POC","is_transit":false,"i_long":106.831114,"line":2,"i_lat":-6.369073},{"transit":false,"time":4,"distance":2727,"station_name":"Depokbaru","is_transit":false,"station_id":"DPB","i_lat":-6.391065,"i_long":106.819451,"line":2},{"is_transit":false,"i_lat":-6.405256,"transit":false,"i_long":106.816926,"time":3,"line":2,"distance":1584,"station_name":"Depok","station_id":"DP"},{"i_lat":-6.448811,"line":2,"time":6,"is_transit":true,"transit":true,"i_long":106.800298,"distance":5084,"station_name":"Citayam","station_id":"CTA"},{"i_long":106.824374,"distance":0,"station_id":"PDRG","is_transit":false,"station_name":"Pondok Rajeg","transit":false,"line":21,"time":0,"i_lat":-6.460735},{"i_long":106.851978,"station_name":"Cibinong","distance":0,"is_transit":false,"line":21,"time":0,"i_lat":-6.46424,"station_id":"CBN","transit":false},{"distance":6527,"time":10,"transit":false,"is_transit":false,"station_id":"NMO","i_lat":-6.466285,"station_name":"Nambo","line":21,"i_long":106.905196}],[{"line":4,"time":0,"i_long":106.880089,"station_id":"TPK","is_transit":false,"transit":false,"i_lat":-6.1109480000000005,"station_name":"Tanjung Priuk","distance":0},{"i_lat":-6.128023,"i_long":106.84464,"transit":false,"station_name":"Ancol","time":9,"line":4,"is_transit":false,"station_id":"AC","distance":4566},{"distance":2185,"is_transit":true,"time":4,"transit":true,"station_name":"Kampung Bandan","station_id":"KPB","i_long":106.826365,"i_lat":-6.132549,"line":4},{"station_id":"JAKK","time":3,"i_long":106.812439,"i_lat":-6.137569,"is_transit":true,"distance":1364,"transit":true,"line":2,"station_name":"Jakarta Kota"},{"station_name":"Jayakarta","transit":false,"i_lat":-6.141205,"time":4,"station_id":"JAY","is_transit":false,"distance":1264,"i_long":106.820901,"line":2},{"i_long":106.82482,"transit":false,"i_lat":-6.149769,"station_id":"MGB","time":2,"is_transit":false,"line":2,"station_name":"Manggabesar","distance":1080},{"is_transit":false,"station_name":"Sawah Besar","distance":906,"station_id":"SW","i_lat":-6.160725,"line":2,"time":2,"transit":false,"i_long":106.827103},{"time":2,"i_long":106.828284,"transit":false,"station_name":"Juanda","distance":1149,"station_id":"JUA","i_lat":-6.166716,"is_transit":false,"line":2},{"distance":2015,"is_transit":false,"transit":false,"station_id":"GDD","i_long":106.832183,"line":2,"station_name":"Gondangdia","i_lat":-6.186295,"time":4},{"transit":false,"time":3,"i_lat":-6.198556,"i_long":106.840169,"is_transit":false,"station_id":"CKI","line":2,"station_name":"Cikini","distance":1750},{"transit":false,"is_transit":false,"time":4,"i_long":106.84912,"line":2,"station_name":"Manggarai","i_lat":-6.209883,"distance":1590,"station_id":"MRI"},{"time":4,"i_lat":-6.226659,"station_name":"Tebet","i_long":106.857948,"transit":false,"line":2,"distance":2610,"is_transit":false,"station_id":"TEB"},{"time":2,"i_long":106.856607,"i_lat":-6.242512,"transit":false,"distance":1230,"station_name":"Cawang","station_id":"CW","line":2,"is_transit":false},{"transit":false,"is_transit":false,"i_lat":-6.255332,"line":2,"station_name":"Duren Kalibata","i_long":106.85449,"station_id":"DRN","time":3,"distance":1546},{"i_long":106.851577,"line":2,"station_name":"Pasar Minggu Baru","distance":824,"is_transit":false,"i_lat":-6.263214,"transit":false,"station_id":"PSMB","time":2},{"is_transit":false,"i_long":106.843999,"i_lat":-6.2842400000000005,"line":2,"station_name":"Pasar Minggu","station_id":"PSM","time":2,"distance":2380,"transit":false},{"distance":2820,"transit":false,"station_name":"Tanjung Barat","station_id":"TNT","time":4,"i_long":106.838896,"line":2,"i_lat":-6.3080680000000005,"is_transit":false},{"transit":false,"is_transit":false,"time":3,"i_lat":-6.330363,"i_long":106.832616,"distance":2671,"station_name":"Lenteng Agung","station_id":"LNA","line":2},{"line":2,"station_id":"UP","is_transit":false,"i_lat":-6.339291,"distance":1029,"time":2,"station_name":"Univ. Pancasila","transit":false,"i_long":106.834175},{"time":3,"i_long":106.831474,"is_transit":false,"station_name":"Univ. Indonesia","station_id":"UI","transit":false,"line":2,"distance":2264,"i_lat":-6.360749},{"is_transit":false,"i_lat":-6.369073,"distance":1109,"station_id":"POC","transit":false,"station_name":"Pondok Cina","line":2,"time":2,"i_long":106.831114},{"transit":false,"distance":2727,"is_transit":false,"i_long":106.819451,"time":4,"station_name":"Depokbaru","station_id":"DPB","line":2,"i_lat":-6.391065},{"i_long":106.816926,"is_transit":false,"line":2,"station_id":"DP","i_lat":-6.405256,"distance":1584,"station_name":"Depok","transit":false,"time":3},{"i_long":106.800298,"distance":5084,"station_name":"Citayam","station_id":"CTA","transit":true,"is_transit":true,"i_lat":-6.448811,"time":6,"line":2},{"distance":0,"station_id":"PDRG","time":0,"i_lat":-6.460735,"is_transit":false,"i_long":106.824374,"line":21,"transit":false,"station_name":"Pondok Rajeg"},{"distance":0,"i_lat":-6.46424,"station_id":"CBN","time":0,"i_long":106.851978,"transit":false,"line":21,"is_transit":false,"station_name":"Cibinong"},{"is_transit":false,"time":10,"i_lat":-6.466285,"line":21,"distance":6527,"station_id":"NMO","station_name":"Nambo","i_long":106.905196,"transit":false}],[{"is_transit":false,"transit":false,"i_lat":-6.1109480000000005,"station_name":"Tanjung Priuk","time":0,"line":4,"distance":0,"station_id":"TPK","i_long":106.880089},{"distance":4566,"line":4,"i_long":106.84464,"station_name":"Ancol","station_id":"AC","i_lat":-6.128023,"transit":false,"is_transit":false,"time":9},{"is_transit":true,"line":4,"transit":true,"i_lat":-6.132549,"distance":2185,"i_long":106.826365,"time":4,"station_id":"KPB","station_name":"Kampung Bandan"},{"line":11,"station_id":"RJW","is_transit":false,"time":3,"i_lat":-6.14505,"i_long":106.836569,"transit":false,"distance":1444,"station_name":"Rajawali"},{"line":11,"is_transit":false,"i_long":106.839204,"station_id":"KMO","station_name":"Kemayoran","transit":false,"distance":1901,"time":5,"i_lat":-6.161728},{"i_long":106.84368,"line":11,"station_name":"Pasar Senen","is_transit":false,"time":4,"distance":1436,"station_id":"PSE","transit":false,"i_lat":-6.174784},{"transit":false,"is_transit":false,"i_long":106.850107,"distance":1567,"station_name":"Gang Sentiong","i_lat":-6.185975,"line":11,"station_id":"GST","time":8},{"station_name":"Kramat","station_id":"KMT","transit":false,"time":1,"line":11,"i_lat":-6.193792,"i_long":106.855437,"is_transit":false,"distance":973},{"distance":1829,"is_transit":false,"i_long":106.861737,"i_lat":-6.209188,"time":2,"station_id":"POK","line":11,"transit":false,"station_name":"Pondok Jati"},{"station_name":"Jatinegara","transit":true,"i_long":106.86807400000001,"line":1,"distance":1236,"station_id":"JNG","is_transit":true,"i_lat":-6.215091,"time":9},{"i_lat":-6.212485,"line":1,"transit":false,"time":2,"station_name":"Matraman","i_long":106.858896,"station_id":"MTR","distance":1377,"is_transit":false},{"distance":1275,"i_long":106.84912,"station_id":"MRI","is_transit":true,"station_name":"Manggarai","time":2,"transit":true,"i_lat":-6.209883,"line":2},{"line":2,"distance":2610,"station_id":"TEB","transit":false,"is_transit":false,"time":4,"i_lat":-6.226659,"i_long":106.857948,"station_name":"Tebet"},{"is_transit":false,"time":2,"station_name":"Cawang","station_id":"CW","i_lat":-6.242512,"distance":1230,"transit":false,"i_long":106.856607,"line":2},{"i_long":106.85449,"is_transit":false,"transit":false,"line":2,"station_name":"Duren Kalibata","time":3,"i_lat":-6.255332,"distance":1546,"station_id":"DRN"},{"station_name":"Pasar Minggu Baru","time":2,"i_lat":-6.263214,"i_long":106.851577,"distance":824,"line":2,"station_id":"PSMB","transit":false,"is_transit":false},{"i_lat":-6.2842400000000005,"transit":false,"distance":2380,"line":2,"is_transit":false,"station_name":"Pasar Minggu","time":2,"station_id":"PSM","i_long":106.843999},{"i_long":106.838896,"distance":2820,"station_name":"Tanjung Barat","is_transit":false,"time":4,"line":2,"station_id":"TNT","transit":false,"i_lat":-6.3080680000000005},{"station_name":"Lenteng Agung","distance":2671,"time":3,"i_long":106.832616,"transit":false,"line":2,"station_id":"LNA","is_transit":false,"i_lat":-6.330363},{"i_lat":-6.339291,"time":2,"station_name":"Univ. Pancasila","station_id":"UP","line":2,"distance":1029,"transit":false,"i_long":106.834175,"is_transit":false},{"transit":false,"is_transit":false,"time":3,"i_long":106.831474,"line":2,"distance":2264,"i_lat":-6.360749,"station_id":"UI","station_name":"Univ. Indonesia"},{"line":2,"distance":1109,"i_lat":-6.369073,"time":2,"station_id":"POC","station_name":"Pondok Cina","transit":false,"is_transit":false,"i_long":106.831114},{"distance":2727,"station_id":"DPB","transit":false,"line":2,"station_name":"Depokbaru","i_long":106.819451,"is_transit":false,"i_lat":-6.391065,"time":4},{"time":3,"distance":1584,"line":2,"i_lat":-6.405256,"station_name":"Depok","i_long":106.816926,"transit":false,"is_transit":false,"station_id":"DP"},{"is_transit":true,"distance":5084,"station_name":"Citayam","transit":true,"time":6,"i_long":106.800298,"line":2,"station_id":"CTA","i_lat":-6.448811},{"station_id":"PDRG","is_transit":false,"i_long":106.824374,"i_lat":-6.460735,"line":21,"time":0,"distance":0,"station_name":"Pondok Rajeg","transit":false},{"i_long":106.851978,"transit":false,"i_lat":-6.46424,"line":21,"time":0,"station_name":"Cibinong","distance":0,"station_id":"CBN","is_transit":false},{"line":21,"i_long":106.905196,"transit":false,"distance":6527,"station_id":"NMO","station_name":"Nambo","is_transit":false,"i_lat":-6.466285,"time":10}]]}