{"data":[[{"line":4,"i_lat":-6.1109480000000005,"transit":false,"is_transit":false,"station_name":"Tanjung Priuk","distance":0,"station_id":"TPK","time":0,"i_long":106.880089},{"i_lat":-6.128023,"i_long":106.84464,"station_id":"AC","line":0,"transit":false,"is_transit":false,"station_name":"Ancol","time":9,"distance":4566},{"station_id":"KPB","time":4,"distance":2185,"i_lat":-6.132549,"line":0,"is_transit":true,"i_long":106.826365,"station_name":"Kampung Bandan","transit":false},{"station_id":"AK","i_long":106.79867,"transit":false,"station_name":"Angke","is_transit":false,"distance":4102,"i_lat":-6.144674,"time":9,"line":0},{"i_lat":-6.155215,"is_transit":true,"time":4,"station_id":"DU","distance":1230,"transit":true,"line":1,"i_long":106.800832,"station_name":"Duri"},{"station_id":"GGL","transit":false,"i_long":106.788277,"station_name":"Grogol","is_transit":false,"time":3,"distance":1700,"line":5,"i_lat":-6.162021},{"transit":false,"station_name":"Pesing","line":5,"i_lat":-6.161433,"station_id":"PSG","is_transit":false,"i_long":106.771379,"distance":2036,"time":2},{"distance":1614,"i_long":106.756522,"line":5,"station_name":"Taman Kota","station_id":"TKO","time":2,"i_lat":-6.1587309999999995,"is_transit":false,"transit":false}],[{"is_transit":false,"i_lat":-6.1109480000000005,"distance":0,"transit":false,"station_id":"TPK","station_name":"Tanjung Priuk","i_long":106.880089,"time":0,"line":4},{"station_name":"Ancol","time":9,"i_lat":-6.128023,"i_long":106.84464,"line":0,"transit":false,"distance":4566,"is_transit":false,"station_id":"AC"},{"station_name":"Kampung Bandan","is_transit":true,"time":4,"i_long":106.826365,"line":0,"transit":false,"distance":2185,"i_lat":-6.132549,"station_id":"KPB"},{"is_transit":true,"distance":1364,"i_lat":-6.137569,"i_long":106.812439,"station_id":"JAKK","transit":true,"time":3,"station_name":"Jakarta Kota","line":0},{"line":7,"i_lat":-6.141205,"station_name":"Jayakarta","transit":false,"distance":1264,"is_transit":false,"time":4,"i_long":106.820901,"station_id":"JAY"},{"time":2,"distance":1080,"station_name":"Manggabesar","line":2,"is_transit":false,"station_id":"MGB","i_long":106.82482,"transit":false,"i_lat":-6.149769},{"station_id":"SW","distance":906,"time":2,"is_transit":false,"i_long":106.827103,"line":2,"transit":false,"station_name":"Sawah Besar","i_lat":-6.160725},{"station_id":"JUA","transit":false,"i_lat":-6.166716,"i_long":106.828284,"is_transit":false,"station_name":"Juanda","distance":1149,"line":2,"time":2},{"line":2,"time":4,"distance":2015,"station_id":"GDD","station_name":"Gondangdia","transit":false,"i_lat":-6.186295,"is_transit":false,"i_long":106.832183},{"station_name":"Cikini","distance":1750,"i_lat":-6.198556,"time":3,"is_transit":false,"station_id":"CKI","transit":false,"i_long":106.840169,"line":0},{"i_long":106.84912,"distance":1590,"station_id":"MRI","i_lat":-6.209883,"is_transit":true,"line":0,"time":4,"transit":true,"station_name":"Manggarai"},{"transit":false,"station_id":"SUD","i_long":106.822649,"line":1,"is_transit":false,"distance":3186,"i_lat":-6.202263,"time":4,"station_name":"Sudirman"},{"station_id":"SUDB","transit":false,"i_long":106.819881,"line":1,"is_transit":false,"time":1,"distance":280,"i_lat":-6.201433,"station_name":"Sudirman Baru"},{"time":1,"distance":471,"station_id":"KAT","i_lat":-6.20132,"is_transit":false,"station_name":"Karet","transit":false,"i_long":106.816351,"line":1},{"i_long":106.811091,"time":5,"station_id":"THB","is_transit":true,"line":1,"transit":false,"distance":2029,"station_name":"Tanah Abang","i_lat":-6.185545},{"i_long":106.800832,"is_transit":true,"station_id":"DU","i_lat":-6.155215,"station_name":"Duri","line":1,"time":8,"distance":3632,"transit":true},{"i_long":106.788277,"time":3,"line":5,"i_lat":-6.162021,"station_id":"GGL","station_name":"Grogol","transit":false,"is_transit":false,"distance":1700},{"i_lat":-6.161433,"transit":false,"distance":2036,"i_long":106.771379,"station_name":"Pesing","is_transit":false,"line":5,"time":2,"station_id":"PSG"},{"distance":1614,"transit":false,"station_id":"TKO","is_transit":false,"i_long":106.756522,"line":5,"time":2,"station_name":"Taman Kota","i_lat":-6.1587309999999995}],[{"distance":0,"line":4,"is_transit":false,"transit":false,"station_name":"Tanjung Priuk","time":0,"station_id":"TPK","i_long":106.880089,"i_lat":-6.1109480000000005},{"line":0,"station_id":"AC","distance":4566,"station_name":"Ancol","is_transit":false,"transit":false,"i_lat":-6.128023,"time":9,"i_long":106.84464},{"station_name":"Kampung Bandan","line":0,"distance":2185,"is_transit":true,"time":4,"i_long":106.826365,"station_id":"KPB","transit":true,"i_lat":-6.132549},{"time":3,"transit":false,"station_name":"Rajawali","i_lat":-6.14505,"station_id":"RJW","distance":1444,"is_transit":false,"i_long":106.836569,"line":11},{"is_transit":false,"i_long":106.839204,"transit":false,"distance":1901,"line":11,"i_lat":-6.161728,"time":5,"station_id":"KMO","station_name":"Kemayoran"},{"i_lat":-6.174784,"station_id":"PSE","station_name":"Pasar Senen","time":4,"transit":false,"i_long":106.84368,"distance":1436,"is_transit":false,"line":11},{"is_transit":false,"i_lat":-6.185975,"distance":1567,"transit":false,"station_id":"GST","line":11,"time":8,"station_name":"Gang Sentiong","i_long":106.850107},{"is_transit":false,"i_lat":-6.193792,"line":11,"station_id":"KMT","i_long":106.855437,"transit":false,"station_name":"Kramat","time":1,"distance":973},{"i_lat":-6.209188,"transit":false,"station_name":"Pondok Jati","i_long":106.861737,"time":2,"station_id":"POK","distance":1829,"line":11,"is_transit":false},{"i_long":106.86807400000001,"station_name":"Jatinegara","time":9,"distance":1236,"transit":true,"station_id":"JNG","i_lat":-6.215091,"is_transit":true,"line":0},{"transit":false,"i_long":106.858896,"station_id":"MTR","time":2,"is_transit":false,"distance":1377,"i_lat":-6.212485,"station_name":"Matraman","line":1},{"transit":false,"distance":1275,"line":0,"i_long":106.84912,"station_id":"MRI","station_name":"Manggarai","is_transit":true,"i_lat":-6.209883,"time":2},{"is_transit":false,"line":1,"i_long":106.822649,"transit":false,"time":4,"station_name":"Sudirman","i_lat":-6.202263,"station_id":"SUD","distance":3186},{"time":1,"i_long":106.819881,"line":1,"is_transit":false,"distance":280,"station_name":"Sudirman Baru","i_lat":-6.201433,"transit":false,"station_id":"SUDB"},{"transit":false,"station_id":"KAT","i_lat":-6.20132,"is_transit":false,"station_name":"Karet","time":1,"line":1,"i_long":106.816351,"distance":471},{"station_name":"Tanah Abang","is_transit":true,"line":1,"time":5,"i_long":106.811091,"distance":2029,"transit":false,"i_lat":-6.185545,"station_id":"THB"},{"station_id":"DU","is_transit":true,"i_long":106.800832,"line":1,"transit":true,"distance":3632,"i_lat":-6.155215,"time":8,"station_name":"Duri"},{"i_long":106.788277,"station_name":"Grogol","i_lat":-6.162021,"station_id":"GGL","line":5,"distance":1700,"is_transit":false,"time":3,"transit":false},{"is_transit":false,"line":5,"station_id":"PSG","transit":false,"station_name":"Pesing","distance":2036,"i_lat":-6.161433,"i_long":106.771379,"time":2},{"time":2,"station_id":"TKO","station_name":"Taman Kota","i_lat":-6.1587309999999995,"distance":1614,"transit":false,"is_transit":false,"i_long":106.756522,"line":5}]]}