{"data":[[{"is_transit":false,"station_id":"TPK","i_lat":-6.1109480000000005,"transit":false,"distance":0,"time":0,"station_name":"Tanjung Priuk","i_long":106.880089,"line":4},{"station_name":"Ancol","i_long":106.84464,"time":9,"line":0,"i_lat":-6.128023,"distance":4566,"transit":false,"station_id":"AC","is_transit":false},{"transit":true,"station_name":"Kampung Bandan","is_transit":true,"time":4,"i_long":106.826365,"i_lat":-6.132549,"line":0,"distance":2185,"station_id":"KPB"},{"line":11,"transit":false,"station_id":"RJW","i_long":106.836569,"time":3,"distance":1444,"station_name":"Rajawali","is_transit":false,"i_lat":-6.14505},{"transit":false,"time":5,"distance":1901,"station_id":"KMO","station_name":"Kemayoran","i_lat":-6.161728,"line":11,"is_transit":false,"i_long":106.839204},{"i_lat":-6.174784,"transit":false,"is_transit":false,"time":4,"i_long":106.84368,"station_name":"Pasar Senen","station_id":"PSE","line":11,"distance":1436},{"transit":false,"station_name":"Gang Sentiong","line":11,"is_transit":false,"i_long":106.850107,"distance":1567,"station_id":"GST","time":8,"i_lat":-6.185975},{"line":11,"distance":973,"station_name":"Kramat","transit":false,"is_transit":false,"station_id":"KMT","i_long":106.855437,"i_lat":-6.193792,"time":1},{"i_lat":-6.209188,"i_long":106.861737,"line":11,"station_id":"POK","distance":1829,"time":2,"station_name":"Pondok Jati","transit":false,"is_transit":false},{"is_transit":true,"station_id":"JNG","i_long":106.86807400000001,"line":0,"i_lat":-6.215091,"station_name":"Jatinegara","time":9,"transit":true,"distance":1236},{"line":1,"distance":3395,"is_transit":false,"i_lat":-6.2135,"transit":false,"station_name":"Klender","i_long":106.899548,"time":3,"station_id":"KLD"},{"is_transit":false,"line":0,"transit":false,"distance":3100,"station_id":"BUA","time":2,"i_lat":-6.215568,"station_name":"Buaran","i_long":106.922662},{"distance":1305,"time":1,"i_lat":-6.217455,"station_id":"KLDB","i_long":106.939679,"transit":false,"line":1,"is_transit":false,"station_name":"Klenderbaru"},{"station_name":"Cakung","station_id":"CUK","distance":1385,"is_transit":false,"i_lat":-6.219053,"transit":false,"line":0,"i_long":106.951283,"time":8},{"time":3,"station_id":"KRI","station_name":"Kranji","distance":3097,"transit":false,"i_long":106.977657,"is_transit":false,"line":1,"i_lat":-6.224515}],[{"station_id":"TPK","transit":false,"time":0,"i_lat":-6.1109480000000005,"line":4,"is_transit":false,"station_name":"Tanjung Priuk","i_long":106.880089,"distance":0},{"distance":4566,"station_id":"AC","i_lat":-6.128023,"is_transit":false,"station_name":"Ancol","line":0,"time":9,"transit":false,"i_long":106.84464},{"station_name":"Kampung Bandan","i_long":106.826365,"station_id":"KPB","distance":2185,"is_transit":true,"time":4,"line":0,"transit":false,"i_lat":-6.132549},{"line":0,"station_name":"Angke","i_lat":-6.144674,"distance":4102,"time":9,"i_long":106.79867,"transit":false,"is_transit":false,"station_id":"AK"},{"is_transit":true,"i_long":106.800832,"station_id":"DU","station_name":"Duri","time":4,"i_lat":-6.155215,"distance":1230,"line":1,"transit":true},{"time":8,"distance":3632,"station_id":"THB","i_lat":-6.185545,"station_name":"Tanah Abang","i_long":106.811091,"line":1,"transit":false,"is_transit":true},{"time":5,"is_transit":false,"i_lat":-6.20132,"i_long":106.816351,"station_id":"KAT","distance":2029,"line":1,"transit":false,"station_name":"Karet"},{"distance":471,"i_long":106.819881,"time":1,"i_lat":-6.201433,"is_transit":false,"station_id":"SUDB","line":1,"station_name":"Sudirman Baru","transit":false},{"transit":false,"time":1,"i_lat":-6.202263,"station_id":"SUD","line":1,"i_long":106.822649,"distance":280,"is_transit":false,"station_name":"Sudirman"},{"station_id":"MRI","distance":3186,"transit":false,"is_transit":true,"line":0,"time":4,"i_lat":-6.209883,"station_name":"Manggarai","i_long":106.84912},{"time":2,"transit":false,"station_id":"MTR","station_name":"Matraman","distance":1275,"i_lat":-6.212485,"is_transit":false,"line":1,"i_long":106.858896},{"is_transit":true,"i_lat":-6.215091,"station_name":"Jatinegara","i_long":106.86807400000001,"line":0,"distance":1377,"station_id":"JNG","time":8,"transit":false},{"station_name":"Klender","i_lat":-6.2135,"distance":3395,"i_long":106.899548,"transit":false,"is_transit":false,"station_id":"KLD","time":3,"line":1},{"is_transit":false,"time":2,"i_lat":-6.215568,"transit":false,"station_id":"BUA","station_name":"Buaran","distance":3100,"i_long":106.922662,"line":0},{"station_name":"Klenderbaru","i_lat":-6.217455,"line":1,"i_long":106.939679,"is_transit":false,"distance":1305,"station_id":"KLDB","transit":false,"time":1},{"is_transit":false,"i_lat":-6.219053,"distance":1385,"station_id":"CUK","transit":false,"station_name":"Cakung","time":8,"i_long":106.951283,"line":0},{"station_name":"Kranji","i_long":106.977657,"is_transit":false,"transit":false,"distance":3097,"time":3,"i_lat":-6.224515,"line":1,"station_id":"KRI"}],[{"station_name":"Tanjung Priuk","transit":false,"time":0,"i_lat":-6.1109480000000005,"i_long":106.880089,"distance":0,"line":4,"is_transit":false,"station_id":"TPK"},{"is_transit":false,"station_id":"AC","i_lat":-6.128023,"i_long":106.84464,"station_name":"Ancol","line":0,"time":9,"distance":4566,"transit":false},{"transit":false,"station_name":"Kampung Bandan","i_lat":-6.132549,"distance":2185,"i_long":106.826365,"station_id":"KPB","line":0,"time":4,"is_transit":true},{"distance":1364,"time":3,"station_id":"JAKK","i_long":106.812439,"line":0,"is_transit":true,"station_name":"Jakarta Kota","transit":true,"i_lat":-6.137569},{"distance":1264,"station_id":"JAY","time":4,"line":7,"station_name":"Jayakarta","is_transit":false,"transit":false,"i_long":106.820901,"i_lat":-6.141205},{"time":2,"station_name":"Manggabesar","station_id":"MGB","line":2,"i_lat":-6.149769,"is_transit":false,"i_long":106.82482,"transit":false,"distance":1080},{"line":2,"is_transit":false,"station_name":"Sawah Besar","station_id":"SW","distance":906,"transit":false,"time":2,"i_long":106.827103,"i_lat":-6.160725},{"transit":false,"is_transit":false,"i_long":106.828284,"line":2,"i_lat":-6.166716,"distance":1149,"station_id":"JUA","station_name":"Juanda","time":2},{"distance":2015,"transit":false,"time":4,"is_transit":false,"station_name":"Gondangdia","i_lat":-6.186295,"station_id":"GDD","line":2,"i_long":106.832183},{"is_transit":false,"line":0,"distance":1750,"i_long":106.840169,"time":3,"i_lat":-6.198556,"station_name":"Cikini","transit":false,"station_id":"CKI"},{"is_transit":true,"distance":1590,"station_id":"MRI","line":0,"station_name":"Manggarai","time":4,"i_lat":-6.209883,"i_long":106.84912,"transit":true},{"time":2,"i_long":106.858896,"line":1,"station_id":"MTR","transit":false,"i_lat":-6.212485,"station_name":"Matraman","is_transit":false,"distance":1275},{"station_name":"Jatinegara","transit":false,"i_long":106.86807400000001,"time":8,"line":0,"is_transit":true,"i_lat":-6.215091,"distance":1377,"station_id":"JNG"},{"time":3,"line":1,"distance":3395,"is_transit":false,"station_name":"Klender","transit":false,"i_lat":-6.2135,"i_long":106.899548,"station_id":"KLD"},{"distance":3100,"i_long":106.922662,"station_id":"BUA","time":2,"transit":false,"line":0,"is_transit":false,"i_lat":-6.215568,"station_name":"Buaran"},{"i_lat":-6.217455,"i_long":106.939679,"time":1,"transit":false,"is_transit":false,"line":1,"distance":1305,"station_id":"KLDB","station_name":"Klenderbaru"},{"distance":1385,"station_name":"Cakung","i_lat":-6.219053,"i_long":106.951283,"transit":false,"time":8,"line":0,"station_id":"CUK","is_transit":false},{"transit":false,"i_lat":-6.224515,"i_long":106.977657,"time":3,"line":1,"is_transit":false,"distance":3097,"station_id":"KRI","station_name":"Kranji"}]]}