{"data":[[{"line":4,"station_id":"TPK","time":0,"i_long":106.880089,"is_transit":false,"station_name":"Tanjung Priuk","transit":false,"distance":0,"i_lat":-6.1109480000000005},{"time":9,"i_long":106.84464,"is_transit":false,"i_lat":-6.128023,"station_id":"AC","distance":4566,"transit":false,"station_name":"Ancol","line":0},{"line":0,"transit":false,"station_name":"Kampung Bandan","i_long":106.826365,"i_lat":-6.132549,"station_id":"KPB","is_transit":true,"distance":2185,"time":4},{"is_transit":false,"station_name":"Angke","station_id":"AK","transit":false,"time":9,"i_lat":-6.144674,"i_long":106.79867,"line":0,"distance":4102},{"distance":1230,"transit":true,"line":1,"station_id":"DU","i_lat":-6.155215,"i_long":106.800832,"time":4,"station_name":"Duri","is_transit":true},{"station_name":"Tanah Abang","i_long":106.811091,"is_transit":true,"station_id":"THB","distance":3632,"i_lat":-6.185545,"time":8,"line":1,"transit":true},{"station_name":"Palmerah","i_lat":-6.207404,"distance":3191,"i_long":106.79689,"is_transit":false,"station_id":"PLM","line":6,"transit":false,"time":6},{"station_name":"Kebayoran","is_transit":false,"i_lat":-6.237242,"station_id":"KBY","i_long":106.780334,"transit":false,"time":7,"distance":3737,"line":6}],[{"i_long":106.880089,"i_lat":-6.1109480000000005,"distance":0,"transit":false,"station_name":"Tanjung Priuk","is_transit":false,"time":0,"station_id":"TPK","line":4},{"time":9,"transit":false,"line":0,"station_name":"Ancol","i_lat":-6.128023,"station_id":"AC","i_long":106.84464,"distance":4566,"is_transit":false},{"i_lat":-6.132549,"line":0,"time":4,"i_long":106.826365,"distance":2185,"is_transit":true,"station_name":"Kampung Bandan","transit":false,"station_id":"KPB"},{"transit":true,"i_long":106.812439,"line":0,"is_transit":true,"i_lat":-6.137569,"station_id":"JAKK","distance":1364,"time":3,"station_name":"Jakarta Kota"},{"station_name":"Jayakarta","station_id":"JAY","is_transit":false,"time":4,"line":7,"distance":1264,"transit":false,"i_long":106.820901,"i_lat":-6.141205},{"station_name":"Manggabesar","station_id":"MGB","i_long":106.82482,"time":2,"line":2,"distance":1080,"transit":false,"is_transit":false,"i_lat":-6.149769},{"i_lat":-6.160725,"line":2,"distance":906,"station_id":"SW","time":2,"transit":false,"station_name":"Sawah Besar","is_transit":false,"i_long":106.827103},{"is_transit":false,"transit":false,"time":2,"distance":1149,"station_name":"Juanda","line":2,"i_long":106.828284,"i_lat":-6.166716,"station_id":"JUA"},{"transit":false,"station_name":"Gondangdia","is_transit":false,"time":4,"distance":2015,"station_id":"GDD","i_lat":-6.186295,"i_long":106.832183,"line":2},{"time":3,"distance":1750,"station_id":"CKI","line":0,"i_long":106.840169,"i_lat":-6.198556,"is_transit":false,"transit":false,"station_name":"Cikini"},{"line":0,"distance":1590,"is_transit":true,"transit":true,"i_long":106.84912,"station_name":"Manggarai","time":4,"i_lat":-6.209883,"station_id":"MRI"},{"time":4,"transit":false,"is_transit":false,"i_lat":-6.202263,"line":1,"distance":3186,"station_id":"SUD","station_name":"Sudirman","i_long":106.822649},{"station_name":"Sudirman Baru","distance":280,"is_transit":false,"transit":false,"time":1,"i_long":106.819881,"i_lat":-6.201433,"line":1,"station_id":"SUDB"},{"is_transit":false,"time":1,"transit":false,"i_lat":-6.20132,"line":1,"distance":471,"i_long":106.816351,"station_id":"KAT","station_name":"Karet"},{"i_lat":-6.185545,"distance":2029,"transit":true,"station_id":"THB","is_transit":true,"station_name":"Tanah Abang","i_long":106.811091,"time":5,"line":1},{"is_transit":false,"transit":false,"i_lat":-6.207404,"i_long":106.79689,"time":6,"distance":3191,"line":6,"station_id":"PLM","station_name":"Palmerah"},{"time":7,"i_lat":-6.237242,"transit":false,"is_transit":false,"station_id":"KBY","i_long":106.780334,"line":6,"distance":3737,"station_name":"Kebayoran"}],[{"station_name":"Tanjung Priuk","is_transit":false,"time":0,"distance":0,"station_id":"TPK","line":4,"i_lat":-6.1109480000000005,"transit":false,"i_long":106.880089},{"is_transit":false,"station_name":"Ancol","time":9,"station_id":"AC","i_long":106.84464,"transit":false,"i_lat":-6.128023,"line":0,"distance":4566},{"time":4,"is_transit":true,"station_name":"Kampung Bandan","i_long":106.826365,"line":0,"distance":2185,"station_id":"KPB","transit":true,"i_lat":-6.132549},{"transit":false,"station_name":"Rajawali","time":3,"line":11,"distance":1444,"is_transit":false,"station_id":"RJW","i_lat":-6.14505,"i_long":106.836569},{"i_long":106.839204,"time":5,"i_lat":-6.161728,"station_id":"KMO","is_transit":false,"station_name":"Kemayoran","transit":false,"line":11,"distance":1901},{"station_id":"PSE","time":4,"i_long":106.84368,"i_lat":-6.174784,"line":11,"transit":false,"distance":1436,"station_name":"Pasar Senen","is_transit":false},{"time":8,"distance":1567,"station_name":"Gang Sentiong","line":11,"station_id":"GST","transit":false,"i_lat":-6.185975,"is_transit":false,"i_long":106.850107},{"time":1,"is_transit":false,"i_lat":-6.193792,"distance":973,"station_id":"KMT","transit":false,"i_long":106.855437,"station_name":"Kramat","line":11},{"station_id":"POK","transit":false,"station_name":"Pondok Jati","i_lat":-6.209188,"line":11,"time":2,"is_transit":false,"distance":1829,"i_long":106.861737},{"station_name":"Jatinegara","time":9,"transit":true,"station_id":"JNG","is_transit":true,"i_lat":-6.215091,"i_long":106.86807400000001,"line":0,"distance":1236},{"transit":false,"is_transit":false,"i_lat":-6.212485,"i_long":106.858896,"line":1,"distance":1377,"station_name":"Matraman","time":2,"station_id":"MTR"},{"i_long":106.84912,"i_lat":-6.209883,"transit":false,"distance":1275,"line":0,"is_transit":true,"station_id":"MRI","station_name":"Manggarai","time":2},{"transit":false,"station_id":"SUD","i_lat":-6.202263,"i_long":106.822649,"is_transit":false,"station_name":"Sudirman","line":1,"distance":3186,"time":4},{"distance":280,"i_lat":-6.201433,"line":1,"time":1,"is_transit":false,"station_id":"SUDB","station_name":"Sudirman Baru","transit":false,"i_long":106.819881},{"time":1,"station_id":"KAT","transit":false,"i_lat":-6.20132,"station_name":"Karet","is_transit":false,"i_long":106.816351,"line":1,"distance":471},{"station_name":"Tanah Abang","station_id":"THB","transit":true,"i_long":106.811091,"i_lat":-6.185545,"distance":2029,"is_transit":true,"time":5,"line":1},{"station_id":"PLM","i_long":106.79689,"distance":3191,"time":6,"line":6,"is_transit":false,"i_lat":-6.207404,"transit":false,"station_name":"Palmerah"},{"transit":false,"distance":3737,"station_name":"Kebayoran","line":6,"is_transit":false,"station_id":"KBY","i_lat":-6.237242,"i_long":106.780334,"time":7}]]}