{"data":[[{"distance":0,"i_lat":-6.1109480000000005,"station_id":"TPK","time":0,"station_name":"Tanjung Priuk","line":4,"i_long":106.880089,"transit":false,"is_transit":false},{"i_long":106.84464,"line":4,"station_name":"Ancol","station_id":"AC","transit":false,"time":9,"i_lat":-6.128023,"distance":4566,"is_transit":false},{"transit":true,"distance":2185,"is_transit":true,"station_name":"Kampung Bandan","time":4,"line":4,"i_lat":-6.132549,"i_long":106.826365,"station_id":"KPB"},{"line":1,"station_id":"AK","is_transit":false,"distance":4102,"i_long":106.79867,"transit":false,"i_lat":-6.144674,"station_name":"Angke","time":9},{"station_id":"DU","is_transit":false,"i_lat":-6.155215,"i_long":106.800832,"distance":1230,"time":4,"transit":false,"station_name":"Duri","line":1},{"i_long":106.811091,"i_lat":-6.185545,"station_id":"THB","is_transit":true,"transit":true,"distance":3632,"station_name":"Tanah Abang","line":1,"time":8},{"i_long":106.79689,"line":6,"time":6,"is_transit":false,"station_id":"PLM","i_lat":-6.207404,"station_name":"Palmerah","transit":false,"distance":3191},{"is_transit":false,"station_name":"Kebayoran","station_id":"KBY","transit":false,"time":7,"i_long":106.780334,"i_lat":-6.237242,"line":6,"distance":3737}],[{"i_lat":-6.1109480000000005,"i_long":106.880089,"line":4,"station_name":"Tanjung Priuk","station_id":"TPK","time":0,"is_transit":false,"distance":0,"transit":false},{"time":9,"station_id":"AC","line":4,"i_long":106.84464,"distance":4566,"transit":false,"station_name":"Ancol","i_lat":-6.128023,"is_transit":false},{"time":4,"transit":true,"distance":2185,"station_name":"Kampung Bandan","i_lat":-6.132549,"station_id":"KPB","i_long":106.826365,"line":4,"is_transit":true},{"station_id":"JAKK","i_lat":-6.137569,"is_transit":true,"distance":1364,"station_name":"Jakarta Kota","time":3,"i_long":106.812439,"line":2,"transit":true},{"station_name":"Jayakarta","is_transit":false,"station_id":"JAY","time":4,"distance":1264,"i_lat":-6.141205,"transit":false,"i_long":106.820901,"line":2},{"i_lat":-6.149769,"i_long":106.82482,"line":2,"is_transit":false,"time":2,"station_id":"MGB","transit":false,"station_name":"Manggabesar","distance":1080},{"station_id":"SW","transit":false,"is_transit":false,"i_long":106.827103,"station_name":"Sawah Besar","line":2,"time":2,"distance":906,"i_lat":-6.160725},{"transit":false,"i_long":106.828284,"i_lat":-6.166716,"distance":1149,"station_name":"Juanda","time":2,"is_transit":false,"line":2,"station_id":"JUA"},{"i_long":106.832183,"transit":false,"is_transit":false,"time":4,"i_lat":-6.186295,"line":2,"station_id":"GDD","station_name":"Gondangdia","distance":2015},{"i_lat":-6.198556,"time":3,"station_id":"CKI","station_name":"Cikini","is_transit":false,"distance":1750,"transit":false,"i_long":106.840169,"line":2},{"is_transit":true,"transit":true,"station_name":"Manggarai","distance":1590,"time":4,"i_lat":-6.209883,"line":2,"i_long":106.84912,"station_id":"MRI"},{"line":1,"i_long":106.822649,"station_id":"SUD","time":4,"distance":3186,"station_name":"Sudirman","transit":false,"i_lat":-6.202263,"is_transit":false},{"i_long":106.819881,"line":1,"i_lat":-6.201433,"distance":280,"transit":false,"station_id":"SUDB","is_transit":false,"station_name":"Sudirman Baru","time":1},{"is_transit":false,"transit":false,"time":1,"i_lat":-6.20132,"i_long":106.816351,"station_id":"KAT","station_name":"Karet","line":1,"distance":471},{"time":5,"station_name":"Tanah Abang","i_lat":-6.185545,"transit":true,"distance":2029,"line":1,"station_id":"THB","i_long":106.811091,"is_transit":true},{"distance":3191,"i_long":106.79689,"station_name":"Palmerah","is_transit":false,"i_lat":-6.207404,"line":6,"time":6,"station_id":"PLM","transit":false},{"is_transit":false,"i_long":106.780334,"line":6,"station_name":"Kebayoran","time":7,"distance":3737,"transit":false,"station_id":"KBY","i_lat":-6.237242}],[{"station_id":"TPK","station_name":"Tanjung Priuk","i_lat":-6.1109480000000005,"i_long":106.880089,"transit":false,"time":0,"is_transit":false,"line":4,"distance":0},{"i_lat":-6.128023,"station_id":"AC","station_name":"Ancol","line":4,"transit":false,"distance":4566,"i_long":106.84464,"is_transit":false,"time":9},{"station_name":"Kampung Bandan","i_long":106.826365,"distance":2185,"i_lat":-6.132549,"station_id":"KPB","line":4,"is_transit":true,"time":4,"transit":true},{"line":11,"station_id":"RJW","i_lat":-6.14505,"station_name":"Rajawali","transit":false,"distance":1444,"i_long":106.836569,"time":3,"is_transit":false},{"distance":1901,"i_lat":-6.161728,"station_id":"KMO","station_name":"Kemayoran","time":5,"i_long":106.839204,"transit":false,"is_transit":false,"line":11},{"station_id":"PSE","i_long":106.84368,"i_lat":-6.174784,"station_name":"Pasar Senen","is_transit":false,"transit":false,"line":11,"time":4,"distance":1436},{"transit":false,"station_id":"GST","is_transit":false,"distance":1567,"time":8,"i_long":106.850107,"line":11,"station_name":"Gang Sentiong","i_lat":-6.185975},{"time":1,"distance":973,"station_id":"KMT","i_lat":-6.193792,"station_name":"Kramat","is_transit":false,"i_long":106.855437,"line":11,"transit":false},{"transit":false,"distance":1829,"station_id":"POK","time":2,"i_long":106.861737,"line":11,"station_name":"Pondok Jati","i_lat":-6.209188,"is_transit":false},{"i_long":106.86807400000001,"station_id":"JNG","line":1,"station_name":"Jatinegara","time":9,"is_transit":true,"transit":true,"distance":1236,"i_lat":-6.215091},{"station_id":"MTR","station_name":"Matraman","time":2,"i_long":106.858896,"i_lat":-6.212485,"line":1,"transit":false,"is_transit":false,"distance":1377},{"distance":1275,"is_transit":false,"line":2,"station_name":"Manggarai","station_id":"MRI","transit":false,"i_long":106.84912,"i_lat":-6.209883,"time":2},{"station_id":"SUD","time":4,"i_lat":-6.202263,"is_transit":false,"distance":3186,"i_long":106.822649,"line":1,"transit":false,"station_name":"Sudirman"},{"station_name":"Sudirman Baru","station_id":"SUDB","time":1,"transit":false,"i_lat":-6.201433,"is_transit":false,"i_long":106.819881,"distance":280,"line":1},{"i_long":106.816351,"time":1,"transit":false,"distance":471,"line":1,"station_name":"Karet","station_id":"KAT","i_lat":-6.20132,"is_transit":false},{"transit":true,"distance":2029,"is_transit":true,"i_long":106.811091,"i_lat":-6.185545,"station_name":"Tanah Abang","time":5,"line":1,"station_id":"THB"},{"time":6,"station_name":"Palmerah","is_transit":false,"i_long":106.79689,"station_id":"PLM","distance":3191,"transit":false,"i_lat":-6.207404,"line":6},{"station_name":"Kebayoran","line":6,"transit":false,"time":7,"is_transit":false,"station_id":"KBY","distance":3737,"i_lat":-6.237242,"i_long":106.780334}]]}