{"data":[[{"i_lat":-6.1109480000000005,"i_long":106.880089,"station_id":"TPK","station_name":"Tanjung Priuk","is_transit":false,"distance":0,"transit":false,"line":4,"time":0},{"transit":false,"station_name":"Ancol","line":4,"i_long":106.84464,"station_id":"AC","distance":4566,"i_lat":-6.128023,"time":9,"is_transit":false},{"i_long":106.826365,"line":4,"is_transit":true,"i_lat":-6.132549,"station_name":"Kampung Bandan","transit":true,"distance":2185,"station_id":"KPB","time":4},{"is_transit":false,"time":3,"station_name":"Rajawali","distance":1444,"transit":false,"i_long":106.836569,"i_lat":-6.14505,"station_id":"RJW","line":11},{"station_name":"Kemayoran","station_id":"KMO","time":5,"i_lat":-6.161728,"is_transit":false,"i_long":106.839204,"transit":false,"distance":1901,"line":11},{"i_long":106.84368,"station_name":"Pasar Senen","time":4,"transit":false,"station_id":"PSE","distance":1436,"line":11,"i_lat":-6.174784,"is_transit":false},{"is_transit":false,"time":8,"distance":1567,"i_lat":-6.185975,"i_long":106.850107,"line":11,"transit":false,"station_name":"Gang Sentiong","station_id":"GST"},{"i_lat":-6.193792,"is_transit":false,"transit":false,"line":11,"distance":973,"station_name":"Kramat","station_id":"KMT","i_long":106.855437,"time":1},{"station_name":"Pondok Jati","is_transit":false,"time":2,"distance":1829,"line":11,"i_long":106.861737,"station_id":"POK","i_lat":-6.209188,"transit":false},{"station_name":"Jatinegara","station_id":"JNG","line":1,"time":9,"distance":1236,"transit":true,"i_long":106.86807400000001,"i_lat":-6.215091,"is_transit":true},{"station_id":"KLD","time":3,"distance":3395,"i_long":106.899548,"is_transit":false,"transit":false,"line":1,"station_name":"Klender","i_lat":-6.2135},{"time":2,"transit":false,"distance":3100,"i_lat":-6.215568,"station_id":"BUA","i_long":106.922662,"is_transit":false,"line":1,"station_name":"Buaran"},{"line":1,"transit":false,"station_name":"Klenderbaru","station_id":"KLDB","time":1,"distance":1305,"i_long":106.939679,"i_lat":-6.217455,"is_transit":false},{"station_name":"Cakung","is_transit":false,"transit":false,"i_long":106.951283,"distance":1385,"i_lat":-6.219053,"line":1,"station_id":"CUK","time":8},{"is_transit":false,"station_name":"Kranji","line":1,"i_long":106.977657,"i_lat":-6.224515,"station_id":"KRI","time":3,"distance":3097,"transit":false}],[{"line":4,"station_id":"TPK","distance":0,"i_long":106.880089,"time":0,"is_transit":false,"station_name":"Tanjung Priuk","i_lat":-6.1109480000000005,"transit":false},{"i_long":106.84464,"distance":4566,"i_lat":-6.128023,"line":4,"station_name":"Ancol","time":9,"station_id":"AC","is_transit":false,"transit":false},{"station_name":"Kampung Bandan","i_long":106.826365,"i_lat":-6.132549,"is_transit":true,"transit":true,"line":4,"station_id":"KPB","time":4,"distance":2185},{"time":9,"i_long":106.79867,"line":1,"transit":false,"is_transit":false,"station_id":"AK","station_name":"Angke","i_lat":-6.144674,"distance":4102},{"line":1,"i_lat":-6.155215,"station_id":"DU","is_transit":false,"station_name":"Duri","transit":false,"time":4,"distance":1230,"i_long":106.800832},{"station_name":"Tanah Abang","i_lat":-6.185545,"i_long":106.811091,"distance":3632,"is_transit":false,"line":1,"time":8,"station_id":"THB","transit":false},{"station_id":"KAT","station_name":"Karet","i_long":106.816351,"is_transit":false,"line":1,"distance":2029,"i_lat":-6.20132,"transit":false,"time":5},{"station_name":"Sudirman Baru","distance":471,"i_long":106.819881,"line":1,"time":1,"station_id":"SUDB","i_lat":-6.201433,"is_transit":false,"transit":false},{"station_name":"Sudirman","i_lat":-6.202263,"time":1,"is_transit":false,"station_id":"SUD","i_long":106.822649,"distance":280,"line":1,"transit":false},{"distance":3186,"is_transit":false,"transit":false,"station_id":"MRI","time":4,"i_lat":-6.209883,"station_name":"Manggarai","i_long":106.84912,"line":2},{"time":2,"station_name":"Matraman","station_id":"MTR","transit":false,"i_long":106.858896,"is_transit":false,"i_lat":-6.212485,"distance":1275,"line":1},{"line":1,"time":8,"distance":1377,"station_id":"JNG","station_name":"Jatinegara","i_lat":-6.215091,"is_transit":false,"i_long":106.86807400000001,"transit":false},{"i_long":106.899548,"distance":3395,"is_transit":false,"time":3,"i_lat":-6.2135,"station_id":"KLD","station_name":"Klender","transit":false,"line":1},{"station_id":"BUA","is_transit":false,"station_name":"Buaran","i_long":106.922662,"distance":3100,"transit":false,"i_lat":-6.215568,"line":1,"time":2},{"i_long":106.939679,"line":1,"distance":1305,"is_transit":false,"transit":false,"time":1,"i_lat":-6.217455,"station_id":"KLDB","station_name":"Klenderbaru"},{"i_lat":-6.219053,"line":1,"is_transit":false,"station_id":"CUK","station_name":"Cakung","i_long":106.951283,"time":8,"transit":false,"distance":1385},{"i_long":106.977657,"station_name":"Kranji","is_transit":false,"time":3,"transit":false,"distance":3097,"line":1,"station_id":"KRI","i_lat":-6.224515}],[{"station_id":"TPK","station_name":"Tanjung Priuk","time":0,"distance":0,"i_lat":-6.1109480000000005,"is_transit":false,"line":4,"transit":false,"i_long":106.880089},{"i_long":106.84464,"i_lat":-6.128023,"station_name":"Ancol","is_transit":false,"distance":4566,"transit":false,"time":9,"station_id":"AC","line":4},{"distance":2185,"i_long":106.826365,"transit":true,"station_id":"KPB","line":4,"is_transit":true,"station_name":"Kampung Bandan","time":4,"i_lat":-6.132549},{"time":3,"station_id":"JAKK","distance":1364,"transit":true,"i_long":106.812439,"is_transit":true,"station_name":"Jakarta Kota","i_lat":-6.137569,"line":2},{"line":2,"station_name":"Jayakarta","i_long":106.820901,"station_id":"JAY","transit":false,"i_lat":-6.141205,"distance":1264,"is_transit":false,"time":4},{"station_name":"Manggabesar","i_lat":-6.149769,"station_id":"MGB","transit":false,"i_long":106.82482,"time":2,"distance":1080,"line":2,"is_transit":false},{"station_id":"SW","is_transit":false,"i_lat":-6.160725,"transit":false,"i_long":106.827103,"time":2,"station_name":"Sawah Besar","distance":906,"line":2},{"station_id":"JUA","is_transit":false,"line":2,"i_lat":-6.166716,"transit":false,"time":2,"station_name":"Juanda","distance":1149,"i_long":106.828284},{"is_transit":false,"distance":2015,"transit":false,"i_lat":-6.186295,"i_long":106.832183,"line":2,"station_id":"GDD","station_name":"Gondangdia","time":4},{"station_id":"CKI","transit":false,"line":2,"i_long":106.840169,"time":3,"distance":1750,"is_transit":false,"i_lat":-6.198556,"station_name":"Cikini"},{"station_name":"Manggarai","is_transit":true,"distance":1590,"transit":true,"i_lat":-6.209883,"i_long":106.84912,"line":2,"station_id":"MRI","time":4},{"i_long":106.858896,"is_transit":false,"distance":1275,"i_lat":-6.212485,"station_id":"MTR","transit":false,"station_name":"Matraman","time":2,"line":1},{"line":1,"is_transit":false,"i_lat":-6.215091,"station_id":"JNG","time":8,"transit":false,"i_long":106.86807400000001,"station_name":"Jatinegara","distance":1377},{"distance":3395,"is_transit":false,"station_name":"Klender","station_id":"KLD","transit":false,"i_long":106.899548,"time":3,"line":1,"i_lat":-6.2135},{"line":1,"i_lat":-6.215568,"transit":false,"is_transit":false,"distance":3100,"i_long":106.922662,"station_id":"BUA","time":2,"station_name":"Buaran"},{"station_name":"Klenderbaru","transit":false,"i_lat":-6.217455,"time":1,"station_id":"KLDB","line":1,"is_transit":false,"distance":1305,"i_long":106.939679},{"is_transit":false,"time":8,"i_lat":-6.219053,"line":1,"transit":false,"i_long":106.951283,"distance":1385,"station_name":"Cakung","station_id":"CUK"},{"transit":false,"distance":3097,"station_id":"KRI","is_transit":false,"i_lat":-6.224515,"station_name":"Kranji","line":1,"time":3,"i_long":106.977657}]]}