{"data":[[{"station_name":"Tanjung Priuk","transit":false,"station_id":"TPK","i_lat":-6.1109480000000005,"i_long":106.880089,"is_transit":false,"time":0,"distance":0,"line":4},{"distance":4566,"i_lat":-6.128023,"i_long":106.84464,"line":4,"transit":false,"time":9,"station_name":"Ancol","is_transit":false,"station_id":"AC"},{"station_name":"Kampung Bandan","line":4,"transit":true,"i_long":106.826365,"is_transit":true,"time":4,"i_lat":-6.132549,"station_id":"KPB","distance":2185},{"station_name":"Rajawali","i_long":106.836569,"line":11,"distance":1444,"transit":false,"station_id":"RJW","i_lat":-6.14505,"time":3,"is_transit":false},{"station_id":"KMO","station_name":"Kemayoran","distance":1901,"is_transit":false,"i_long":106.839204,"line":11,"time":5,"transit":false,"i_lat":-6.161728},{"is_transit":false,"transit":false,"i_long":106.84368,"line":11,"station_id":"PSE","station_name":"Pasar Senen","time":4,"i_lat":-6.174784,"distance":1436},{"transit":false,"time":8,"is_transit":false,"station_name":"Gang Sentiong","station_id":"GST","line":11,"i_long":106.850107,"i_lat":-6.185975,"distance":1567},{"is_transit":false,"distance":973,"i_long":106.855437,"i_lat":-6.193792,"transit":false,"station_name":"Kramat","line":11,"time":1,"station_id":"KMT"},{"is_transit":false,"transit":false,"distance":1829,"i_lat":-6.209188,"i_long":106.861737,"station_name":"Pondok Jati","line":11,"station_id":"POK","time":2},{"station_name":"Jatinegara","transit":true,"is_transit":true,"station_id":"JNG","distance":1236,"line":1,"time":9,"i_lat":-6.215091,"i_long":106.86807400000001},{"transit":false,"i_long":106.899548,"line":1,"i_lat":-6.2135,"is_transit":false,"time":3,"station_name":"Klender","distance":3395,"station_id":"KLD"},{"station_id":"BUA","distance":3100,"is_transit":false,"transit":false,"i_lat":-6.215568,"i_long":106.922662,"station_name":"Buaran","line":1,"time":2},{"time":1,"transit":false,"distance":1305,"station_id":"KLDB","is_transit":false,"station_name":"Klenderbaru","i_lat":-6.217455,"i_long":106.939679,"line":1},{"station_id":"CUK","is_transit":false,"i_lat":-6.219053,"line":1,"time":8,"station_name":"Cakung","transit":false,"i_long":106.951283,"distance":1385}],[{"is_transit":false,"i_lat":-6.1109480000000005,"distance":0,"i_long":106.880089,"transit":false,"station_name":"Tanjung Priuk","line":4,"time":0,"station_id":"TPK"},{"is_transit":false,"station_id":"AC","time":9,"transit":false,"distance":4566,"i_lat":-6.128023,"line":4,"i_long":106.84464,"station_name":"Ancol"},{"transit":true,"station_name":"Kampung Bandan","is_transit":true,"i_long":106.826365,"station_id":"KPB","i_lat":-6.132549,"time":4,"distance":2185,"line":4},{"i_long":106.79867,"distance":4102,"is_transit":false,"station_id":"AK","station_name":"Angke","transit":false,"i_lat":-6.144674,"line":1,"time":9},{"line":1,"is_transit":false,"station_id":"DU","time":4,"transit":false,"i_lat":-6.155215,"i_long":106.800832,"distance":1230,"station_name":"Duri"},{"i_lat":-6.185545,"i_long":106.811091,"line":1,"time":8,"is_transit":false,"distance":3632,"transit":false,"station_id":"THB","station_name":"Tanah Abang"},{"i_lat":-6.20132,"station_name":"Karet","time":5,"distance":2029,"is_transit":false,"station_id":"KAT","i_long":106.816351,"line":1,"transit":false},{"station_name":"Sudirman Baru","transit":false,"is_transit":false,"time":1,"i_lat":-6.201433,"i_long":106.819881,"line":1,"distance":471,"station_id":"SUDB"},{"i_lat":-6.202263,"time":1,"is_transit":false,"station_id":"SUD","line":1,"transit":false,"station_name":"Sudirman","i_long":106.822649,"distance":280},{"is_transit":false,"station_id":"MRI","i_long":106.84912,"line":2,"time":4,"i_lat":-6.209883,"distance":3186,"transit":false,"station_name":"Manggarai"},{"station_name":"Matraman","transit":false,"distance":1275,"is_transit":false,"station_id":"MTR","line":1,"time":2,"i_long":106.858896,"i_lat":-6.212485},{"station_id":"JNG","distance":1377,"station_name":"Jatinegara","time":8,"is_transit":false,"transit":false,"i_lat":-6.215091,"i_long":106.86807400000001,"line":1},{"line":1,"is_transit":false,"time":3,"i_long":106.899548,"i_lat":-6.2135,"distance":3395,"station_name":"Klender","transit":false,"station_id":"KLD"},{"station_id":"BUA","is_transit":false,"station_name":"Buaran","i_long":106.922662,"line":1,"distance":3100,"time":2,"i_lat":-6.215568,"transit":false},{"is_transit":false,"time":1,"distance":1305,"transit":false,"i_lat":-6.217455,"station_id":"KLDB","i_long":106.939679,"station_name":"Klenderbaru","line":1},{"line":1,"station_id":"CUK","station_name":"Cakung","is_transit":false,"transit":false,"time":8,"i_lat":-6.219053,"distance":1385,"i_long":106.951283}],[{"i_long":106.880089,"station_id":"TPK","line":4,"i_lat":-6.1109480000000005,"time":0,"is_transit":false,"transit":false,"distance":0,"station_name":"Tanjung Priuk"},{"i_lat":-6.128023,"i_long":106.84464,"line":4,"is_transit":false,"time":9,"distance":4566,"station_name":"Ancol","transit":false,"station_id":"AC"},{"i_long":106.826365,"is_transit":true,"distance":2185,"transit":true,"station_name":"Kampung Bandan","station_id":"KPB","line":4,"time":4,"i_lat":-6.132549},{"distance":1364,"time":3,"line":2,"station_id":"JAKK","station_name":"Jakarta Kota","is_transit":true,"transit":true,"i_lat":-6.137569,"i_long":106.812439},{"line":2,"transit":false,"distance":1264,"time":4,"station_id":"JAY","station_name":"Jayakarta","is_transit":false,"i_lat":-6.141205,"i_long":106.820901},{"i_lat":-6.149769,"line":2,"station_id":"MGB","station_name":"Manggabesar","transit":false,"is_transit":false,"distance":1080,"i_long":106.82482,"time":2},{"i_lat":-6.160725,"line":2,"station_name":"Sawah Besar","distance":906,"time":2,"is_transit":false,"i_long":106.827103,"station_id":"SW","transit":false},{"line":2,"is_transit":false,"distance":1149,"transit":false,"station_name":"Juanda","time":2,"station_id":"JUA","i_lat":-6.166716,"i_long":106.828284},{"is_transit":false,"i_lat":-6.186295,"station_id":"GDD","transit":false,"time":4,"line":2,"i_long":106.832183,"distance":2015,"station_name":"Gondangdia"},{"i_lat":-6.198556,"station_id":"CKI","time":3,"transit":false,"is_transit":false,"i_long":106.840169,"line":2,"distance":1750,"station_name":"Cikini"},{"i_lat":-6.209883,"station_name":"Manggarai","transit":true,"station_id":"MRI","time":4,"distance":1590,"is_transit":true,"i_long":106.84912,"line":2},{"i_lat":-6.212485,"station_id":"MTR","time":2,"transit":false,"is_transit":false,"distance":1275,"station_name":"Matraman","line":1,"i_long":106.858896},{"is_transit":false,"transit":false,"station_id":"JNG","i_lat":-6.215091,"distance":1377,"station_name":"Jatinegara","i_long":106.86807400000001,"line":1,"time":8},{"line":1,"transit":false,"station_name":"Klender","i_long":106.899548,"distance":3395,"is_transit":false,"station_id":"KLD","i_lat":-6.2135,"time":3},{"distance":3100,"station_id":"BUA","line":1,"station_name":"Buaran","time":2,"is_transit":false,"transit":false,"i_lat":-6.215568,"i_long":106.922662},{"is_transit":false,"station_id":"KLDB","transit":false,"distance":1305,"station_name":"Klenderbaru","time":1,"i_long":106.939679,"i_lat":-6.217455,"line":1},{"is_transit":false,"i_lat":-6.219053,"time":8,"station_id":"CUK","line":1,"distance":1385,"station_name":"Cakung","i_long":106.951283,"transit":false}]]}