{"data":[[{"time":0,"distance":0,"station_id":"TPK","i_lat":-6.1109480000000005,"station_name":"Tanjung Priuk","is_transit":false,"line":4,"transit":false,"i_long":106.880089},{"transit":false,"i_long":106.84464,"station_id":"AC","line":4,"i_lat":-6.128023,"time":9,"is_transit":false,"station_name":"Ancol","distance":4566},{"line":4,"is_transit":true,"distance":2185,"station_id":"KPB","time":4,"station_name":"Kampung Bandan","transit":true,"i_lat":-6.132549,"i_long":106.826365},{"i_long":106.79867,"line":1,"station_id":"AK","i_lat":-6.144674,"time":9,"station_name":"Angke","distance":4102,"transit":false,"is_transit":false},{"transit":false,"station_id":"DU","time":4,"station_name":"Duri","distance":1230,"is_transit":false,"i_long":106.800832,"i_lat":-6.155215,"line":1},{"i_lat":-6.185545,"distance":3632,"is_transit":false,"i_long":106.811091,"line":1,"time":8,"transit":false,"station_id":"THB","station_name":"Tanah Abang"},{"distance":2029,"line":1,"is_transit":false,"station_id":"KAT","station_name":"Karet","time":5,"transit":false,"i_long":106.816351,"i_lat":-6.20132},{"station_name":"Sudirman Baru","i_long":106.819881,"i_lat":-6.201433,"station_id":"SUDB","transit":false,"line":1,"is_transit":false,"time":1,"distance":471},{"transit":false,"i_lat":-6.202263,"i_long":106.822649,"distance":280,"is_transit":false,"station_name":"Sudirman","station_id":"SUD","time":1,"line":1},{"line":2,"distance":3186,"station_name":"Manggarai","transit":true,"is_transit":true,"time":4,"i_long":106.84912,"i_lat":-6.209883,"station_id":"MRI"},{"line":2,"station_name":"Tebet","time":4,"i_long":106.857948,"transit":false,"i_lat":-6.226659,"station_id":"TEB","distance":2610,"is_transit":false},{"is_transit":false,"station_id":"CW","distance":1230,"station_name":"Cawang","transit":false,"time":2,"i_long":106.856607,"i_lat":-6.242512,"line":2},{"i_lat":-6.255332,"distance":1546,"line":2,"time":3,"station_id":"DRN","is_transit":false,"station_name":"Duren Kalibata","transit":false,"i_long":106.85449}],[{"distance":0,"station_name":"Tanjung Priuk","is_transit":false,"station_id":"TPK","i_lat":-6.1109480000000005,"transit":false,"time":0,"i_long":106.880089,"line":4},{"station_name":"Ancol","transit":false,"time":9,"line":4,"distance":4566,"i_lat":-6.128023,"station_id":"AC","i_long":106.84464,"is_transit":false},{"i_lat":-6.132549,"station_name":"Kampung Bandan","time":4,"is_transit":true,"transit":true,"line":4,"i_long":106.826365,"station_id":"KPB","distance":2185},{"station_id":"JAKK","i_lat":-6.137569,"line":2,"time":3,"distance":1364,"i_long":106.812439,"station_name":"Jakarta Kota","is_transit":true,"transit":true},{"i_long":106.820901,"time":4,"station_id":"JAY","is_transit":false,"station_name":"Jayakarta","i_lat":-6.141205,"distance":1264,"transit":false,"line":2},{"i_lat":-6.149769,"station_id":"MGB","distance":1080,"line":2,"station_name":"Manggabesar","time":2,"is_transit":false,"i_long":106.82482,"transit":false},{"i_long":106.827103,"i_lat":-6.160725,"is_transit":false,"transit":false,"station_name":"Sawah Besar","distance":906,"line":2,"station_id":"SW","time":2},{"transit":false,"line":2,"time":2,"i_lat":-6.166716,"i_long":106.828284,"station_id":"JUA","distance":1149,"is_transit":false,"station_name":"Juanda"},{"i_lat":-6.186295,"station_name":"Gondangdia","distance":2015,"line":2,"time":4,"is_transit":false,"i_long":106.832183,"station_id":"GDD","transit":false},{"station_id":"CKI","time":3,"station_name":"Cikini","is_transit":false,"transit":false,"line":2,"distance":1750,"i_lat":-6.198556,"i_long":106.840169},{"is_transit":false,"station_id":"MRI","line":2,"i_lat":-6.209883,"station_name":"Manggarai","i_long":106.84912,"time":4,"transit":false,"distance":1590},{"i_lat":-6.226659,"i_long":106.857948,"station_id":"TEB","station_name":"Tebet","line":2,"transit":false,"time":4,"distance":2610,"is_transit":false},{"transit":false,"time":2,"station_id":"CW","i_long":106.856607,"is_transit":false,"line":2,"station_name":"Cawang","distance":1230,"i_lat":-6.242512},{"station_name":"Duren Kalibata","is_transit":false,"i_lat":-6.255332,"station_id":"DRN","distance":1546,"transit":false,"i_long":106.85449,"time":3,"line":2}],[{"i_lat":-6.1109480000000005,"station_id":"TPK","station_name":"Tanjung Priuk","transit":false,"distance":0,"time":0,"i_long":106.880089,"line":4,"is_transit":false},{"is_transit":false,"i_lat":-6.128023,"line":4,"distance":4566,"i_long":106.84464,"transit":false,"time":9,"station_id":"AC","station_name":"Ancol"},{"is_transit":true,"time":4,"station_name":"Kampung Bandan","line":4,"i_long":106.826365,"station_id":"KPB","transit":true,"i_lat":-6.132549,"distance":2185},{"line":11,"time":3,"station_id":"RJW","i_long":106.836569,"distance":1444,"is_transit":false,"transit":false,"station_name":"Rajawali","i_lat":-6.14505},{"transit":false,"station_name":"Kemayoran","i_long":106.839204,"station_id":"KMO","line":11,"time":5,"i_lat":-6.161728,"is_transit":false,"distance":1901},{"time":4,"distance":1436,"transit":false,"station_name":"Pasar Senen","line":11,"i_lat":-6.174784,"station_id":"PSE","is_transit":false,"i_long":106.84368},{"station_name":"Gang Sentiong","is_transit":false,"station_id":"GST","i_long":106.850107,"distance":1567,"line":11,"transit":false,"time":8,"i_lat":-6.185975},{"distance":973,"i_long":106.855437,"station_name":"Kramat","is_transit":false,"station_id":"KMT","time":1,"i_lat":-6.193792,"line":11,"transit":false},{"station_id":"POK","transit":false,"is_transit":false,"line":11,"i_long":106.861737,"distance":1829,"station_name":"Pondok Jati","i_lat":-6.209188,"time":2},{"transit":true,"line":1,"distance":1236,"station_name":"Jatinegara","i_lat":-6.215091,"i_long":106.86807400000001,"station_id":"JNG","is_transit":true,"time":9},{"station_name":"Matraman","station_id":"MTR","i_lat":-6.212485,"transit":false,"distance":1377,"time":2,"i_long":106.858896,"line":1,"is_transit":false},{"is_transit":true,"i_long":106.84912,"i_lat":-6.209883,"time":2,"distance":1275,"station_id":"MRI","transit":true,"line":2,"station_name":"Manggarai"},{"i_long":106.857948,"station_id":"TEB","time":4,"station_name":"Tebet","is_transit":false,"distance":2610,"transit":false,"i_lat":-6.226659,"line":2},{"station_id":"CW","line":2,"distance":1230,"station_name":"Cawang","transit":false,"i_lat":-6.242512,"i_long":106.856607,"time":2,"is_transit":false},{"transit":false,"i_lat":-6.255332,"line":2,"i_long":106.85449,"time":3,"station_id":"DRN","is_transit":false,"station_name":"Duren Kalibata","distance":1546}]]}