{"data":[[{"is_transit":false,"transit":false,"time":0,"line":4,"station_id":"TPK","distance":0,"i_long":106.880089,"station_name":"Tanjung Priuk","i_lat":-6.1109480000000005},{"time":9,"station_name":"Ancol","distance":4566,"transit":false,"line":0,"i_long":106.84464,"i_lat":-6.128023,"station_id":"AC","is_transit":false},{"distance":2185,"station_id":"KPB","station_name":"Kampung Bandan","i_long":106.826365,"transit":true,"time":4,"line":0,"is_transit":true,"i_lat":-6.132549},{"i_lat":-6.14505,"distance":1444,"station_id":"RJW","i_long":106.836569,"line":11,"station_name":"Rajawali","is_transit":false,"transit":false,"time":3},{"station_name":"Kemayoran","i_long":106.839204,"time":5,"transit":false,"is_transit":false,"i_lat":-6.161728,"distance":1901,"line":11,"station_id":"KMO"},{"i_lat":-6.174784,"is_transit":false,"time":4,"line":11,"distance":1436,"station_id":"PSE","transit":false,"i_long":106.84368,"station_name":"Pasar Senen"},{"station_name":"Gang Sentiong","time":8,"i_lat":-6.185975,"line":11,"is_transit":false,"i_long":106.850107,"station_id":"GST","transit":false,"distance":1567},{"time":1,"is_transit":false,"station_name":"Kramat","i_long":106.855437,"distance":973,"station_id":"KMT","transit":false,"line":11,"i_lat":-6.193792}],[{"station_id":"TPK","transit":false,"is_transit":false,"i_lat":-6.1109480000000005,"time":0,"i_long":106.880089,"line":4,"distance":0,"station_name":"Tanjung Priuk"},{"station_name":"Ancol","is_transit":false,"i_long":106.84464,"station_id":"AC","distance":4566,"i_lat":-6.128023,"time":9,"transit":false,"line":0},{"is_transit":true,"station_id":"KPB","time":4,"transit":false,"line":0,"i_lat":-6.132549,"i_long":106.826365,"distance":2185,"station_name":"Kampung Bandan"},{"station_name":"Angke","distance":4102,"transit":false,"i_lat":-6.144674,"is_transit":false,"station_id":"AK","time":9,"i_long":106.79867,"line":0},{"distance":1230,"transit":true,"line":1,"time":4,"i_lat":-6.155215,"i_long":106.800832,"station_id":"DU","station_name":"Duri","is_transit":true},{"transit":false,"distance":3632,"i_lat":-6.185545,"line":1,"is_transit":true,"station_id":"THB","time":8,"i_long":106.811091,"station_name":"Tanah Abang"},{"station_id":"KAT","is_transit":false,"time":5,"station_name":"Karet","i_long":106.816351,"line":1,"i_lat":-6.20132,"distance":2029,"transit":false},{"station_id":"SUDB","time":1,"station_name":"Sudirman Baru","distance":471,"i_lat":-6.201433,"i_long":106.819881,"line":1,"is_transit":false,"transit":false},{"distance":280,"station_name":"Sudirman","station_id":"SUD","transit":false,"time":1,"line":1,"is_transit":false,"i_lat":-6.202263,"i_long":106.822649},{"i_lat":-6.209883,"line":0,"station_id":"MRI","station_name":"Manggarai","i_long":106.84912,"transit":false,"distance":3186,"is_transit":true,"time":4},{"i_long":106.858896,"i_lat":-6.212485,"distance":1275,"transit":false,"is_transit":false,"station_name":"Matraman","station_id":"MTR","time":2,"line":1},{"is_transit":true,"i_long":106.86807400000001,"station_id":"JNG","time":8,"transit":true,"distance":1377,"i_lat":-6.215091,"station_name":"Jatinegara","line":0},{"station_id":"POK","i_lat":-6.209188,"line":11,"station_name":"Pondok Jati","transit":false,"distance":1236,"is_transit":false,"time":2,"i_long":106.861737},{"line":11,"distance":1829,"station_id":"KMT","i_long":106.855437,"station_name":"Kramat","transit":false,"i_lat":-6.193792,"is_transit":false,"time":2}],[{"station_name":"Tanjung Priuk","is_transit":false,"i_lat":-6.1109480000000005,"station_id":"TPK","i_long":106.880089,"time":0,"line":4,"transit":false,"distance":0},{"transit":false,"station_name":"Ancol","distance":4566,"station_id":"AC","i_long":106.84464,"time":9,"line":0,"is_transit":false,"i_lat":-6.128023},{"i_long":106.826365,"station_id":"KPB","i_lat":-6.132549,"line":0,"transit":false,"time":4,"distance":2185,"station_name":"Kampung Bandan","is_transit":true},{"i_lat":-6.137569,"is_transit":true,"station_name":"Jakarta Kota","time":3,"i_long":106.812439,"distance":1364,"line":0,"transit":true,"station_id":"JAKK"},{"station_name":"Jayakarta","distance":1264,"i_long":106.820901,"transit":false,"station_id":"JAY","line":7,"time":4,"is_transit":false,"i_lat":-6.141205},{"distance":1080,"station_id":"MGB","time":2,"line":2,"i_lat":-6.149769,"i_long":106.82482,"is_transit":false,"station_name":"Manggabesar","transit":false},{"is_transit":false,"transit":false,"time":2,"distance":906,"station_id":"SW","i_lat":-6.160725,"station_name":"Sawah Besar","i_long":106.827103,"line":2},{"i_lat":-6.166716,"distance":1149,"station_id":"JUA","i_long":106.828284,"is_transit":false,"station_name":"Juanda","transit":false,"time":2,"line":2},{"station_name":"Gondangdia","line":2,"station_id":"GDD","transit":false,"is_transit":false,"time":4,"i_lat":-6.186295,"distance":2015,"i_long":106.832183},{"station_id":"CKI","distance":1750,"i_lat":-6.198556,"station_name":"Cikini","line":0,"transit":false,"time":3,"i_long":106.840169,"is_transit":false},{"line":0,"distance":1590,"time":4,"i_lat":-6.209883,"is_transit":true,"station_name":"Manggarai","transit":true,"i_long":106.84912,"station_id":"MRI"},{"i_long":106.858896,"distance":1275,"is_transit":false,"station_name":"Matraman","transit":false,"i_lat":-6.212485,"time":2,"line":1,"station_id":"MTR"},{"is_transit":true,"line":0,"station_name":"Jatinegara","time":8,"i_long":106.86807400000001,"station_id":"JNG","distance":1377,"i_lat":-6.215091,"transit":true},{"is_transit":false,"station_id":"POK","transit":false,"i_lat":-6.209188,"distance":1236,"station_name":"Pondok Jati","time":2,"i_long":106.861737,"line":11},{"is_transit":false,"line":11,"station_name":"Kramat","time":2,"transit":false,"i_long":106.855437,"station_id":"KMT","distance":1829,"i_lat":-6.193792}]]}