{"data":[[{"distance":0,"station_id":"TPK","time":0,"i_long":106.880089,"station_name":"Tanjung Priuk","is_transit":false,"transit":false,"i_lat":-6.1109480000000005,"line":4},{"distance":4566,"station_name":"Ancol","i_long":106.84464,"station_id":"AC","is_transit":false,"line":4,"time":9,"i_lat":-6.128023,"transit":false},{"distance":2185,"is_transit":true,"transit":true,"station_name":"Kampung Bandan","i_lat":-6.132549,"i_long":106.826365,"station_id":"KPB","line":4,"time":4},{"station_name":"Angke","i_lat":-6.144674,"line":1,"time":9,"transit":false,"distance":4102,"station_id":"AK","i_long":106.79867,"is_transit":false},{"i_long":106.800832,"line":1,"distance":1230,"time":4,"station_id":"DU","i_lat":-6.155215,"transit":false,"is_transit":false,"station_name":"Duri"},{"time":8,"station_id":"THB","i_lat":-6.185545,"line":1,"i_long":106.811091,"station_name":"Tanah Abang","is_transit":true,"transit":true,"distance":3632},{"i_long":106.79689,"distance":3191,"i_lat":-6.207404,"time":6,"station_id":"PLM","is_transit":false,"transit":false,"station_name":"Palmerah","line":6},{"line":6,"i_long":106.780334,"time":7,"i_lat":-6.237242,"is_transit":false,"station_id":"KBY","distance":3737,"transit":false,"station_name":"Kebayoran"}],[{"distance":0,"i_lat":-6.1109480000000005,"time":0,"i_long":106.880089,"is_transit":false,"transit":false,"station_name":"Tanjung Priuk","station_id":"TPK","line":4},{"line":4,"station_name":"Ancol","i_lat":-6.128023,"station_id":"AC","time":9,"distance":4566,"transit":false,"i_long":106.84464,"is_transit":false},{"station_id":"KPB","is_transit":true,"station_name":"Kampung Bandan","i_long":106.826365,"line":4,"i_lat":-6.132549,"transit":true,"time":4,"distance":2185},{"i_long":106.812439,"station_name":"Jakarta Kota","distance":1364,"transit":true,"line":2,"i_lat":-6.137569,"station_id":"JAKK","is_transit":true,"time":3},{"is_transit":false,"i_long":106.820901,"transit":false,"station_id":"JAY","i_lat":-6.141205,"line":2,"distance":1264,"time":4,"station_name":"Jayakarta"},{"line":2,"station_name":"Manggabesar","is_transit":false,"transit":false,"i_long":106.82482,"station_id":"MGB","i_lat":-6.149769,"time":2,"distance":1080},{"station_name":"Sawah Besar","i_lat":-6.160725,"i_long":106.827103,"time":2,"transit":false,"distance":906,"station_id":"SW","is_transit":false,"line":2},{"station_name":"Juanda","i_lat":-6.166716,"distance":1149,"i_long":106.828284,"transit":false,"is_transit":false,"time":2,"line":2,"station_id":"JUA"},{"is_transit":false,"station_name":"Gondangdia","line":2,"transit":false,"i_long":106.832183,"i_lat":-6.186295,"distance":2015,"time":4,"station_id":"GDD"},{"i_lat":-6.198556,"transit":false,"time":3,"i_long":106.840169,"is_transit":false,"line":2,"station_id":"CKI","distance":1750,"station_name":"Cikini"},{"distance":1590,"is_transit":true,"transit":true,"station_id":"MRI","line":2,"time":4,"station_name":"Manggarai","i_lat":-6.209883,"i_long":106.84912},{"station_name":"Sudirman","i_long":106.822649,"distance":3186,"time":4,"station_id":"SUD","is_transit":false,"transit":false,"line":1,"i_lat":-6.202263},{"transit":false,"station_name":"Sudirman Baru","is_transit":false,"line":1,"distance":280,"i_lat":-6.201433,"time":1,"station_id":"SUDB","i_long":106.819881},{"distance":471,"station_name":"Karet","is_transit":false,"line":1,"station_id":"KAT","i_lat":-6.20132,"i_long":106.816351,"transit":false,"time":1},{"distance":2029,"transit":true,"line":1,"station_name":"Tanah Abang","is_transit":true,"i_lat":-6.185545,"i_long":106.811091,"station_id":"THB","time":5},{"time":6,"line":6,"distance":3191,"is_transit":false,"transit":false,"i_long":106.79689,"station_name":"Palmerah","i_lat":-6.207404,"station_id":"PLM"},{"i_lat":-6.237242,"time":7,"station_name":"Kebayoran","i_long":106.780334,"is_transit":false,"transit":false,"line":6,"station_id":"KBY","distance":3737}],[{"i_lat":-6.1109480000000005,"time":0,"distance":0,"station_id":"TPK","line":4,"station_name":"Tanjung Priuk","i_long":106.880089,"transit":false,"is_transit":false},{"station_id":"AC","transit":false,"line":4,"i_long":106.84464,"time":9,"station_name":"Ancol","is_transit":false,"i_lat":-6.128023,"distance":4566},{"transit":true,"station_id":"KPB","i_lat":-6.132549,"i_long":106.826365,"distance":2185,"time":4,"is_transit":true,"line":4,"station_name":"Kampung Bandan"},{"time":3,"station_id":"RJW","is_transit":false,"i_long":106.836569,"i_lat":-6.14505,"distance":1444,"station_name":"Rajawali","line":11,"transit":false},{"is_transit":false,"line":11,"transit":false,"distance":1901,"i_lat":-6.161728,"time":5,"station_id":"KMO","i_long":106.839204,"station_name":"Kemayoran"},{"i_lat":-6.174784,"distance":1436,"time":4,"station_id":"PSE","is_transit":false,"i_long":106.84368,"station_name":"Pasar Senen","line":11,"transit":false},{"station_id":"GST","i_lat":-6.185975,"station_name":"Gang Sentiong","transit":false,"time":8,"is_transit":false,"line":11,"i_long":106.850107,"distance":1567},{"i_long":106.855437,"station_id":"KMT","transit":false,"line":11,"is_transit":false,"station_name":"Kramat","time":1,"distance":973,"i_lat":-6.193792},{"i_lat":-6.209188,"transit":false,"is_transit":false,"distance":1829,"station_name":"Pondok Jati","station_id":"POK","i_long":106.861737,"line":11,"time":2},{"distance":1236,"line":1,"i_lat":-6.215091,"is_transit":true,"i_long":106.86807400000001,"time":9,"station_id":"JNG","station_name":"Jatinegara","transit":true},{"distance":1377,"line":1,"station_name":"Matraman","is_transit":false,"i_long":106.858896,"i_lat":-6.212485,"station_id":"MTR","time":2,"transit":false},{"i_lat":-6.209883,"station_id":"MRI","distance":1275,"time":2,"line":2,"station_name":"Manggarai","transit":false,"is_transit":false,"i_long":106.84912},{"distance":3186,"station_name":"Sudirman","station_id":"SUD","transit":false,"time":4,"i_lat":-6.202263,"i_long":106.822649,"line":1,"is_transit":false},{"i_long":106.819881,"station_id":"SUDB","time":1,"is_transit":false,"transit":false,"distance":280,"i_lat":-6.201433,"station_name":"Sudirman Baru","line":1},{"time":1,"station_name":"Karet","i_long":106.816351,"transit":false,"line":1,"distance":471,"i_lat":-6.20132,"station_id":"KAT","is_transit":false},{"station_name":"Tanah Abang","distance":2029,"time":5,"i_lat":-6.185545,"transit":true,"station_id":"THB","is_transit":true,"i_long":106.811091,"line":1},{"distance":3191,"station_name":"Palmerah","station_id":"PLM","is_transit":false,"i_long":106.79689,"i_lat":-6.207404,"line":6,"transit":false,"time":6},{"is_transit":false,"transit":false,"line":6,"i_lat":-6.237242,"time":7,"station_id":"KBY","i_long":106.780334,"distance":3737,"station_name":"Kebayoran"}]]}