{"data":[[{"i_lat":-6.1109480000000005,"station_id":"TPK","time":0,"is_transit":false,"i_long":106.880089,"line":4,"station_name":"Tanjung Priuk","transit":false,"distance":0},{"is_transit":false,"transit":false,"i_long":106.84464,"line":4,"station_id":"AC","i_lat":-6.128023,"time":9,"distance":4566,"station_name":"Ancol"},{"station_name":"Kampung Bandan","station_id":"KPB","line":4,"is_transit":true,"i_long":106.826365,"distance":2185,"transit":true,"i_lat":-6.132549,"time":4},{"transit":false,"i_long":106.836569,"line":11,"time":3,"i_lat":-6.14505,"is_transit":false,"station_name":"Rajawali","station_id":"RJW","distance":1444},{"time":5,"line":11,"is_transit":false,"distance":1901,"station_id":"KMO","transit":false,"i_lat":-6.161728,"station_name":"Kemayoran","i_long":106.839204},{"station_id":"PSE","transit":false,"station_name":"Pasar Senen","i_long":106.84368,"is_transit":false,"line":11,"time":4,"i_lat":-6.174784,"distance":1436},{"is_transit":false,"station_id":"GST","i_lat":-6.185975,"station_name":"Gang Sentiong","time":8,"distance":1567,"i_long":106.850107,"line":11,"transit":false},{"line":11,"time":1,"station_name":"Kramat","distance":973,"station_id":"KMT","i_long":106.855437,"transit":false,"is_transit":false,"i_lat":-6.193792}],[{"is_transit":false,"i_long":106.880089,"station_id":"TPK","distance":0,"i_lat":-6.1109480000000005,"time":0,"station_name":"Tanjung Priuk","line":4,"transit":false},{"line":4,"station_id":"AC","time":9,"transit":false,"is_transit":false,"i_lat":-6.128023,"distance":4566,"i_long":106.84464,"station_name":"Ancol"},{"line":4,"i_long":106.826365,"distance":2185,"i_lat":-6.132549,"station_name":"Kampung Bandan","station_id":"KPB","is_transit":true,"transit":true,"time":4},{"line":1,"station_id":"AK","time":9,"distance":4102,"is_transit":false,"i_lat":-6.144674,"station_name":"Angke","transit":false,"i_long":106.79867},{"i_lat":-6.155215,"line":1,"i_long":106.800832,"time":4,"station_id":"DU","is_transit":false,"distance":1230,"station_name":"Duri","transit":false},{"station_name":"Tanah Abang","transit":false,"i_lat":-6.185545,"line":1,"station_id":"THB","is_transit":false,"distance":3632,"time":8,"i_long":106.811091},{"distance":2029,"is_transit":false,"station_id":"KAT","transit":false,"time":5,"line":1,"station_name":"Karet","i_lat":-6.20132,"i_long":106.816351},{"i_lat":-6.201433,"line":1,"station_name":"Sudirman Baru","time":1,"station_id":"SUDB","transit":false,"is_transit":false,"i_long":106.819881,"distance":471},{"i_long":106.822649,"line":1,"transit":false,"station_id":"SUD","i_lat":-6.202263,"distance":280,"time":1,"is_transit":false,"station_name":"Sudirman"},{"i_long":106.84912,"station_name":"Manggarai","is_transit":false,"transit":false,"station_id":"MRI","i_lat":-6.209883,"line":2,"time":4,"distance":3186},{"line":1,"i_long":106.858896,"distance":1275,"time":2,"station_name":"Matraman","transit":false,"station_id":"MTR","is_transit":false,"i_lat":-6.212485},{"i_lat":-6.215091,"time":8,"station_id":"JNG","station_name":"Jatinegara","distance":1377,"transit":true,"is_transit":true,"i_long":106.86807400000001,"line":1},{"is_transit":false,"i_long":106.861737,"station_id":"POK","time":2,"transit":false,"station_name":"Pondok Jati","i_lat":-6.209188,"distance":1236,"line":11},{"i_lat":-6.193792,"i_long":106.855437,"distance":1829,"time":2,"transit":false,"station_name":"Kramat","is_transit":false,"station_id":"KMT","line":11}],[{"time":0,"station_id":"TPK","i_long":106.880089,"i_lat":-6.1109480000000005,"distance":0,"station_name":"Tanjung Priuk","transit":false,"is_transit":false,"line":4},{"distance":4566,"transit":false,"station_id":"AC","line":4,"time":9,"is_transit":false,"station_name":"Ancol","i_long":106.84464,"i_lat":-6.128023},{"line":4,"station_name":"Kampung Bandan","transit":true,"distance":2185,"i_long":106.826365,"time":4,"is_transit":true,"i_lat":-6.132549,"station_id":"KPB"},{"transit":true,"distance":1364,"station_name":"Jakarta Kota","i_long":106.812439,"is_transit":true,"i_lat":-6.137569,"time":3,"line":2,"station_id":"JAKK"},{"station_id":"JAY","i_lat":-6.141205,"time":4,"distance":1264,"is_transit":false,"transit":false,"i_long":106.820901,"line":2,"station_name":"Jayakarta"},{"station_id":"MGB","line":2,"i_lat":-6.149769,"transit":false,"time":2,"is_transit":false,"station_name":"Manggabesar","i_long":106.82482,"distance":1080},{"distance":906,"is_transit":false,"time":2,"transit":false,"station_name":"Sawah Besar","i_long":106.827103,"line":2,"i_lat":-6.160725,"station_id":"SW"},{"i_long":106.828284,"line":2,"time":2,"distance":1149,"i_lat":-6.166716,"station_name":"Juanda","transit":false,"station_id":"JUA","is_transit":false},{"line":2,"distance":2015,"is_transit":false,"i_lat":-6.186295,"time":4,"station_name":"Gondangdia","station_id":"GDD","transit":false,"i_long":106.832183},{"is_transit":false,"i_lat":-6.198556,"station_id":"CKI","i_long":106.840169,"transit":false,"line":2,"time":3,"station_name":"Cikini","distance":1750},{"is_transit":true,"time":4,"line":2,"i_long":106.84912,"i_lat":-6.209883,"station_name":"Manggarai","station_id":"MRI","transit":true,"distance":1590},{"time":2,"station_name":"Matraman","station_id":"MTR","i_long":106.858896,"line":1,"i_lat":-6.212485,"is_transit":false,"distance":1275,"transit":false},{"time":8,"i_lat":-6.215091,"is_transit":true,"station_id":"JNG","distance":1377,"station_name":"Jatinegara","transit":true,"i_long":106.86807400000001,"line":1},{"transit":false,"station_name":"Pondok Jati","time":2,"station_id":"POK","line":11,"is_transit":false,"i_lat":-6.209188,"distance":1236,"i_long":106.861737},{"distance":1829,"transit":false,"station_name":"Kramat","i_long":106.855437,"i_lat":-6.193792,"station_id":"KMT","time":2,"is_transit":false,"line":11}]]}