{"data":[[{"distance":0,"time":0,"station_name":"Tanjung Priuk","line":4,"station_id":"TPK","i_lat":-6.1109480000000005,"i_long":106.880089,"is_transit":false,"transit":false},{"i_long":106.84464,"transit":false,"distance":4566,"station_id":"AC","is_transit":false,"line":4,"station_name":"Ancol","time":9,"i_lat":-6.128023},{"i_lat":-6.132549,"time":4,"station_id":"KPB","transit":true,"line":4,"i_long":106.826365,"station_name":"Kampung Bandan","distance":2185,"is_transit":true},{"is_transit":false,"i_long":106.79867,"transit":false,"line":1,"station_name":"Angke","time":9,"i_lat":-6.144674,"distance":4102,"station_id":"AK"},{"transit":false,"station_name":"Duri","distance":1230,"is_transit":false,"i_long":106.800832,"time":4,"i_lat":-6.155215,"line":1,"station_id":"DU"},{"i_lat":-6.185545,"i_long":106.811091,"time":8,"station_id":"THB","is_transit":false,"station_name":"Tanah Abang","line":1,"distance":3632,"transit":false},{"time":5,"transit":false,"station_id":"KAT","line":1,"i_lat":-6.20132,"distance":2029,"station_name":"Karet","is_transit":false,"i_long":106.816351},{"i_long":106.819881,"is_transit":false,"station_name":"Sudirman Baru","i_lat":-6.201433,"time":1,"transit":false,"station_id":"SUDB","line":1,"distance":471},{"time":1,"distance":280,"i_long":106.822649,"station_id":"SUD","i_lat":-6.202263,"transit":false,"station_name":"Sudirman","is_transit":false,"line":1},{"station_id":"MRI","station_name":"Manggarai","distance":3186,"i_lat":-6.209883,"transit":true,"i_long":106.84912,"is_transit":true,"line":2,"time":4},{"i_lat":-6.226659,"i_long":106.857948,"station_name":"Tebet","station_id":"TEB","is_transit":false,"line":2,"time":4,"distance":2610,"transit":false},{"station_id":"CW","distance":1230,"i_long":106.856607,"is_transit":false,"time":2,"i_lat":-6.242512,"line":2,"station_name":"Cawang","transit":false},{"station_name":"Duren Kalibata","station_id":"DRN","i_lat":-6.255332,"i_long":106.85449,"distance":1546,"time":3,"is_transit":false,"transit":false,"line":2},{"station_name":"Pasar Minggu Baru","is_transit":false,"station_id":"PSMB","time":2,"line":2,"distance":824,"i_long":106.851577,"transit":false,"i_lat":-6.263214},{"station_id":"PSM","i_long":106.843999,"transit":false,"distance":2380,"time":2,"is_transit":false,"i_lat":-6.2842400000000005,"station_name":"Pasar Minggu","line":2},{"i_lat":-6.3080680000000005,"time":4,"station_id":"TNT","line":2,"i_long":106.838896,"station_name":"Tanjung Barat","transit":false,"is_transit":false,"distance":2820},{"time":3,"transit":false,"distance":2671,"station_id":"LNA","i_long":106.832616,"is_transit":false,"line":2,"i_lat":-6.330363,"station_name":"Lenteng Agung"},{"distance":1029,"time":2,"is_transit":false,"i_long":106.834175,"line":2,"station_id":"UP","i_lat":-6.339291,"station_name":"Univ. Pancasila","transit":false},{"station_id":"UI","station_name":"Univ. Indonesia","i_long":106.831474,"time":3,"distance":2264,"transit":false,"is_transit":false,"i_lat":-6.360749,"line":2},{"distance":1109,"line":2,"station_id":"POC","i_lat":-6.369073,"time":2,"i_long":106.831114,"transit":false,"is_transit":false,"station_name":"Pondok Cina"},{"transit":false,"i_lat":-6.391065,"distance":2727,"i_long":106.819451,"time":4,"is_transit":false,"station_id":"DPB","line":2,"station_name":"Depokbaru"},{"i_lat":-6.405256,"time":3,"is_transit":false,"station_id":"DP","transit":false,"distance":1584,"i_long":106.816926,"line":2,"station_name":"Depok"},{"time":6,"distance":5084,"line":2,"transit":true,"station_name":"Citayam","i_lat":-6.448811,"is_transit":true,"i_long":106.800298,"station_id":"CTA"},{"line":21,"station_id":"PDRG","time":0,"transit":false,"distance":0,"station_name":"Pondok Rajeg","i_long":106.824374,"is_transit":false,"i_lat":-6.460735}],[{"station_id":"TPK","line":4,"time":0,"is_transit":false,"i_long":106.880089,"transit":false,"distance":0,"station_name":"Tanjung Priuk","i_lat":-6.1109480000000005},{"i_lat":-6.128023,"transit":false,"distance":4566,"is_transit":false,"time":9,"station_id":"AC","station_name":"Ancol","i_long":106.84464,"line":4},{"transit":true,"station_name":"Kampung Bandan","line":4,"station_id":"KPB","time":4,"is_transit":true,"distance":2185,"i_lat":-6.132549,"i_long":106.826365},{"line":2,"is_transit":true,"station_id":"JAKK","i_long":106.812439,"station_name":"Jakarta Kota","i_lat":-6.137569,"time":3,"distance":1364,"transit":true},{"station_name":"Jayakarta","i_long":106.820901,"time":4,"distance":1264,"transit":false,"station_id":"JAY","is_transit":false,"i_lat":-6.141205,"line":2},{"time":2,"station_name":"Manggabesar","i_long":106.82482,"is_transit":false,"station_id":"MGB","transit":false,"distance":1080,"line":2,"i_lat":-6.149769},{"line":2,"distance":906,"station_id":"SW","i_long":106.827103,"transit":false,"is_transit":false,"station_name":"Sawah Besar","i_lat":-6.160725,"time":2},{"is_transit":false,"station_name":"Juanda","time":2,"transit":false,"i_lat":-6.166716,"i_long":106.828284,"distance":1149,"line":2,"station_id":"JUA"},{"station_name":"Gondangdia","line":2,"transit":false,"distance":2015,"time":4,"is_transit":false,"i_lat":-6.186295,"station_id":"GDD","i_long":106.832183},{"distance":1750,"line":2,"station_name":"Cikini","is_transit":false,"transit":false,"i_lat":-6.198556,"time":3,"station_id":"CKI","i_long":106.840169},{"is_transit":false,"i_lat":-6.209883,"time":4,"distance":1590,"i_long":106.84912,"station_id":"MRI","transit":false,"station_name":"Manggarai","line":2},{"transit":false,"i_long":106.857948,"distance":2610,"time":4,"is_transit":false,"station_name":"Tebet","i_lat":-6.226659,"line":2,"station_id":"TEB"},{"distance":1230,"line":2,"transit":false,"i_long":106.856607,"time":2,"station_id":"CW","i_lat":-6.242512,"is_transit":false,"station_name":"Cawang"},{"station_id":"DRN","transit":false,"station_name":"Duren Kalibata","line":2,"i_long":106.85449,"time":3,"distance":1546,"i_lat":-6.255332,"is_transit":false},{"station_id":"PSMB","i_lat":-6.263214,"line":2,"station_name":"Pasar Minggu Baru","time":2,"i_long":106.851577,"is_transit":false,"transit":false,"distance":824},{"is_transit":false,"transit":false,"line":2,"distance":2380,"time":2,"station_id":"PSM","station_name":"Pasar Minggu","i_long":106.843999,"i_lat":-6.2842400000000005},{"i_long":106.838896,"line":2,"station_id":"TNT","is_transit":false,"distance":2820,"time":4,"station_name":"Tanjung Barat","transit":false,"i_lat":-6.3080680000000005},{"line":2,"station_name":"Lenteng Agung","i_long":106.832616,"is_transit":false,"distance":2671,"i_lat":-6.330363,"station_id":"LNA","time":3,"transit":false},{"is_transit":false,"line":2,"i_lat":-6.339291,"distance":1029,"station_name":"Univ. Pancasila","time":2,"i_long":106.834175,"station_id":"UP","transit":false},{"line":2,"station_id":"UI","distance":2264,"is_transit":false,"time":3,"station_name":"Univ. Indonesia","i_long":106.831474,"transit":false,"i_lat":-6.360749},{"station_id":"POC","is_transit":false,"station_name":"Pondok Cina","i_lat":-6.369073,"i_long":106.831114,"distance":1109,"line":2,"transit":false,"time":2},{"distance":2727,"time":4,"i_lat":-6.391065,"i_long":106.819451,"transit":false,"line":2,"is_transit":false,"station_name":"Depokbaru","station_id":"DPB"},{"distance":1584,"station_name":"Depok","is_transit":false,"i_lat":-6.405256,"station_id":"DP","transit":false,"i_long":106.816926,"time":3,"line":2},{"station_id":"CTA","transit":true,"time":6,"distance":5084,"station_name":"Citayam","is_transit":true,"i_lat":-6.448811,"i_long":106.800298,"line":2},{"transit":false,"line":21,"distance":0,"i_long":106.824374,"i_lat":-6.460735,"time":0,"station_name":"Pondok Rajeg","is_transit":false,"station_id":"PDRG"}],[{"station_name":"Tanjung Priuk","time":0,"i_long":106.880089,"station_id":"TPK","distance":0,"line":4,"i_lat":-6.1109480000000005,"transit":false,"is_transit":false},{"time":9,"transit":false,"station_id":"AC","distance":4566,"line":4,"i_lat":-6.128023,"station_name":"Ancol","is_transit":false,"i_long":106.84464},{"time":4,"i_long":106.826365,"station_id":"KPB","transit":true,"distance":2185,"station_name":"Kampung Bandan","line":4,"is_transit":true,"i_lat":-6.132549},{"distance":1444,"station_name":"Rajawali","i_long":106.836569,"i_lat":-6.14505,"line":11,"transit":false,"time":3,"is_transit":false,"station_id":"RJW"},{"line":11,"station_name":"Kemayoran","distance":1901,"time":5,"i_long":106.839204,"station_id":"KMO","transit":false,"is_transit":false,"i_lat":-6.161728},{"station_name":"Pasar Senen","i_lat":-6.174784,"line":11,"distance":1436,"transit":false,"i_long":106.84368,"station_id":"PSE","time":4,"is_transit":false},{"transit":false,"line":11,"i_long":106.850107,"is_transit":false,"station_id":"GST","station_name":"Gang Sentiong","time":8,"distance":1567,"i_lat":-6.185975},{"is_transit":false,"station_name":"Kramat","distance":973,"i_long":106.855437,"time":1,"i_lat":-6.193792,"line":11,"transit":false,"station_id":"KMT"},{"is_transit":false,"i_lat":-6.209188,"line":11,"distance":1829,"time":2,"station_id":"POK","transit":false,"station_name":"Pondok Jati","i_long":106.861737},{"i_long":106.86807400000001,"station_id":"JNG","transit":true,"i_lat":-6.215091,"is_transit":true,"station_name":"Jatinegara","distance":1236,"time":9,"line":1},{"station_name":"Matraman","transit":false,"is_transit":false,"i_lat":-6.212485,"time":2,"line":1,"distance":1377,"station_id":"MTR","i_long":106.858896},{"station_id":"MRI","i_long":106.84912,"line":2,"distance":1275,"station_name":"Manggarai","i_lat":-6.209883,"is_transit":true,"time":2,"transit":true},{"i_long":106.857948,"transit":false,"distance":2610,"i_lat":-6.226659,"station_id":"TEB","is_transit":false,"line":2,"time":4,"station_name":"Tebet"},{"transit":false,"distance":1230,"time":2,"is_transit":false,"i_lat":-6.242512,"i_long":106.856607,"line":2,"station_name":"Cawang","station_id":"CW"},{"is_transit":false,"distance":1546,"i_lat":-6.255332,"line":2,"station_id":"DRN","time":3,"i_long":106.85449,"station_name":"Duren Kalibata","transit":false},{"i_long":106.851577,"is_transit":false,"time":2,"station_id":"PSMB","i_lat":-6.263214,"line":2,"station_name":"Pasar Minggu Baru","distance":824,"transit":false},{"is_transit":false,"time":2,"station_id":"PSM","station_name":"Pasar Minggu","line":2,"distance":2380,"i_long":106.843999,"transit":false,"i_lat":-6.2842400000000005},{"line":2,"i_lat":-6.3080680000000005,"station_name":"Tanjung Barat","station_id":"TNT","time":4,"i_long":106.838896,"is_transit":false,"transit":false,"distance":2820},{"i_long":106.832616,"station_id":"LNA","transit":false,"station_name":"Lenteng Agung","time":3,"distance":2671,"line":2,"is_transit":false,"i_lat":-6.330363},{"i_lat":-6.339291,"i_long":106.834175,"is_transit":false,"line":2,"station_id":"UP","time":2,"transit":false,"distance":1029,"station_name":"Univ. Pancasila"},{"i_lat":-6.360749,"station_name":"Univ. Indonesia","station_id":"UI","line":2,"is_transit":false,"i_long":106.831474,"transit":false,"time":3,"distance":2264},{"is_transit":false,"i_long":106.831114,"line":2,"distance":1109,"station_id":"POC","time":2,"station_name":"Pondok Cina","i_lat":-6.369073,"transit":false},{"station_id":"DPB","station_name":"Depokbaru","transit":false,"time":4,"i_lat":-6.391065,"i_long":106.819451,"distance":2727,"is_transit":false,"line":2},{"i_long":106.816926,"station_id":"DP","i_lat":-6.405256,"is_transit":false,"line":2,"distance":1584,"time":3,"transit":false,"station_name":"Depok"},{"is_transit":true,"transit":true,"distance":5084,"station_name":"Citayam","i_lat":-6.448811,"station_id":"CTA","i_long":106.800298,"line":2,"time":6},{"transit":false,"time":0,"i_long":106.824374,"i_lat":-6.460735,"station_id":"PDRG","is_transit":false,"line":21,"station_name":"Pondok Rajeg","distance":0}]]}