{"data":[[{"distance":0,"station_id":"TPK","is_transit":false,"line":4,"i_lat":-6.1109480000000005,"i_long":106.880089,"station_name":"Tanjung Priuk","transit":false,"time":0},{"is_transit":false,"distance":4566,"station_name":"Ancol","i_long":106.84464,"time":9,"line":4,"transit":false,"i_lat":-6.128023,"station_id":"AC"},{"i_lat":-6.132549,"time":4,"is_transit":true,"station_name":"Kampung Bandan","distance":2185,"i_long":106.826365,"line":4,"transit":true,"station_id":"KPB"},{"i_lat":-6.144674,"time":9,"station_id":"AK","is_transit":false,"distance":4102,"station_name":"Angke","i_long":106.79867,"transit":false,"line":1},{"time":4,"station_name":"Duri","line":1,"distance":1230,"is_transit":false,"i_lat":-6.155215,"i_long":106.800832,"station_id":"DU","transit":false},{"station_id":"THB","is_transit":false,"i_lat":-6.185545,"i_long":106.811091,"transit":false,"distance":3632,"line":1,"station_name":"Tanah Abang","time":8},{"transit":false,"i_long":106.816351,"i_lat":-6.20132,"line":1,"station_name":"Karet","distance":2029,"time":5,"is_transit":false,"station_id":"KAT"},{"station_id":"SUDB","distance":471,"i_long":106.819881,"is_transit":false,"time":1,"line":1,"transit":false,"station_name":"Sudirman Baru","i_lat":-6.201433},{"time":1,"i_long":106.822649,"i_lat":-6.202263,"station_id":"SUD","distance":280,"is_transit":false,"transit":false,"station_name":"Sudirman","line":1}],[{"distance":0,"is_transit":false,"station_name":"Tanjung Priuk","i_long":106.880089,"transit":false,"i_lat":-6.1109480000000005,"line":4,"station_id":"TPK","time":0},{"is_transit":false,"transit":false,"i_lat":-6.128023,"distance":4566,"time":9,"station_name":"Ancol","station_id":"AC","line":4,"i_long":106.84464},{"i_long":106.826365,"station_name":"Kampung Bandan","distance":2185,"time":4,"is_transit":true,"i_lat":-6.132549,"line":4,"station_id":"KPB","transit":true},{"time":3,"transit":true,"station_name":"Jakarta Kota","i_lat":-6.137569,"line":2,"station_id":"JAKK","distance":1364,"is_transit":true,"i_long":106.812439},{"distance":1264,"is_transit":false,"i_lat":-6.141205,"station_id":"JAY","line":2,"time":4,"station_name":"Jayakarta","i_long":106.820901,"transit":false},{"time":2,"i_lat":-6.149769,"station_id":"MGB","i_long":106.82482,"line":2,"distance":1080,"transit":false,"is_transit":false,"station_name":"Manggabesar"},{"transit":false,"time":2,"is_transit":false,"i_lat":-6.160725,"station_id":"SW","line":2,"station_name":"Sawah Besar","i_long":106.827103,"distance":906},{"distance":1149,"i_long":106.828284,"is_transit":false,"time":2,"line":2,"station_id":"JUA","transit":false,"station_name":"Juanda","i_lat":-6.166716},{"time":4,"i_long":106.832183,"transit":false,"station_id":"GDD","station_name":"Gondangdia","distance":2015,"is_transit":false,"i_lat":-6.186295,"line":2},{"is_transit":false,"i_lat":-6.198556,"station_name":"Cikini","transit":false,"time":3,"distance":1750,"line":2,"station_id":"CKI","i_long":106.840169},{"transit":true,"station_id":"MRI","is_transit":true,"station_name":"Manggarai","i_long":106.84912,"distance":1590,"time":4,"line":2,"i_lat":-6.209883},{"time":4,"station_id":"SUD","station_name":"Sudirman","line":1,"is_transit":false,"distance":3186,"i_lat":-6.202263,"i_long":106.822649,"transit":false}],[{"is_transit":false,"time":0,"i_lat":-6.1109480000000005,"line":4,"i_long":106.880089,"distance":0,"transit":false,"station_id":"TPK","station_name":"Tanjung Priuk"},{"station_name":"Ancol","distance":4566,"i_lat":-6.128023,"i_long":106.84464,"station_id":"AC","transit":false,"time":9,"is_transit":false,"line":4},{"transit":true,"line":4,"distance":2185,"i_long":106.826365,"station_id":"KPB","is_transit":true,"time":4,"station_name":"Kampung Bandan","i_lat":-6.132549},{"i_long":106.836569,"line":11,"station_id":"RJW","is_transit":false,"distance":1444,"transit":false,"time":3,"i_lat":-6.14505,"station_name":"Rajawali"},{"i_lat":-6.161728,"time":5,"is_transit":false,"i_long":106.839204,"station_id":"KMO","line":11,"station_name":"Kemayoran","distance":1901,"transit":false},{"time":4,"transit":false,"station_name":"Pasar Senen","is_transit":false,"i_long":106.84368,"i_lat":-6.174784,"line":11,"distance":1436,"station_id":"PSE"},{"line":11,"transit":false,"distance":1567,"is_transit":false,"station_id":"GST","station_name":"Gang Sentiong","i_lat":-6.185975,"time":8,"i_long":106.850107},{"line":11,"distance":973,"is_transit":false,"time":1,"station_id":"KMT","station_name":"Kramat","i_long":106.855437,"transit":false,"i_lat":-6.193792},{"time":2,"distance":1829,"i_long":106.861737,"line":11,"station_name":"Pondok Jati","is_transit":false,"station_id":"POK","i_lat":-6.209188,"transit":false},{"line":1,"is_transit":true,"i_long":106.86807400000001,"time":9,"transit":true,"station_name":"Jatinegara","station_id":"JNG","distance":1236,"i_lat":-6.215091},{"station_id":"MTR","i_long":106.858896,"transit":false,"time":2,"is_transit":false,"line":1,"station_name":"Matraman","i_lat":-6.212485,"distance":1377},{"station_id":"MRI","line":2,"is_transit":false,"time":2,"i_lat":-6.209883,"station_name":"Manggarai","transit":false,"i_long":106.84912,"distance":1275},{"is_transit":false,"distance":3186,"transit":false,"i_lat":-6.202263,"i_long":106.822649,"station_id":"SUD","line":1,"station_name":"Sudirman","time":4}]]}