{"data":[[{"transit":false,"line":4,"time":0,"distance":0,"is_transit":false,"station_name":"Tanjung Priuk","i_lat":-6.1109480000000005,"i_long":106.880089,"station_id":"TPK"},{"station_id":"AC","distance":4566,"transit":false,"time":9,"i_long":106.84464,"line":4,"station_name":"Ancol","is_transit":false,"i_lat":-6.128023},{"station_id":"KPB","i_lat":-6.132549,"station_name":"Kampung Bandan","line":4,"i_long":106.826365,"time":4,"distance":2185,"transit":true,"is_transit":true},{"i_long":106.836569,"transit":false,"station_id":"RJW","line":11,"is_transit":false,"time":3,"station_name":"Rajawali","distance":1444,"i_lat":-6.14505},{"distance":1901,"station_id":"KMO","transit":false,"station_name":"Kemayoran","i_long":106.839204,"line":11,"is_transit":false,"time":5,"i_lat":-6.161728},{"is_transit":false,"i_long":106.84368,"line":11,"i_lat":-6.174784,"station_name":"Pasar Senen","station_id":"PSE","transit":false,"time":4,"distance":1436},{"i_lat":-6.185975,"transit":false,"is_transit":false,"distance":1567,"i_long":106.850107,"station_id":"GST","station_name":"Gang Sentiong","line":11,"time":8},{"i_long":106.855437,"station_id":"KMT","distance":973,"line":11,"i_lat":-6.193792,"transit":false,"is_transit":false,"station_name":"Kramat","time":1},{"station_id":"POK","i_lat":-6.209188,"i_long":106.861737,"time":2,"line":11,"transit":false,"distance":1829,"station_name":"Pondok Jati","is_transit":false},{"distance":1236,"i_long":106.86807400000001,"line":1,"is_transit":true,"transit":true,"i_lat":-6.215091,"station_id":"JNG","station_name":"Jatinegara","time":9},{"time":3,"i_lat":-6.2135,"line":1,"distance":3395,"i_long":106.899548,"is_transit":false,"station_name":"Klender","transit":false,"station_id":"KLD"},{"station_name":"Buaran","time":2,"distance":3100,"is_transit":false,"i_long":106.922662,"line":1,"i_lat":-6.215568,"station_id":"BUA","transit":false},{"station_name":"Klenderbaru","time":1,"is_transit":false,"line":1,"i_lat":-6.217455,"distance":1305,"i_long":106.939679,"transit":false,"station_id":"KLDB"},{"line":1,"station_id":"CUK","time":8,"i_lat":-6.219053,"transit":false,"station_name":"Cakung","distance":1385,"is_transit":false,"i_long":106.951283},{"transit":false,"station_name":"Kranji","is_transit":false,"line":1,"station_id":"KRI","distance":3097,"i_long":106.977657,"time":3,"i_lat":-6.224515}],[{"is_transit":false,"transit":false,"i_lat":-6.1109480000000005,"station_id":"TPK","distance":0,"i_long":106.880089,"time":0,"station_name":"Tanjung Priuk","line":4},{"transit":false,"distance":4566,"time":9,"station_id":"AC","i_long":106.84464,"line":4,"i_lat":-6.128023,"station_name":"Ancol","is_transit":false},{"line":4,"station_id":"KPB","station_name":"Kampung Bandan","is_transit":true,"transit":true,"i_lat":-6.132549,"time":4,"i_long":106.826365,"distance":2185},{"distance":4102,"i_lat":-6.144674,"station_id":"AK","i_long":106.79867,"station_name":"Angke","is_transit":false,"line":1,"time":9,"transit":false},{"station_id":"DU","i_lat":-6.155215,"station_name":"Duri","i_long":106.800832,"time":4,"line":1,"transit":false,"is_transit":false,"distance":1230},{"station_id":"THB","is_transit":false,"distance":3632,"line":1,"transit":false,"station_name":"Tanah Abang","time":8,"i_lat":-6.185545,"i_long":106.811091},{"station_id":"KAT","time":5,"distance":2029,"i_lat":-6.20132,"station_name":"Karet","line":1,"is_transit":false,"i_long":106.816351,"transit":false},{"i_lat":-6.201433,"is_transit":false,"station_id":"SUDB","i_long":106.819881,"line":1,"transit":false,"time":1,"distance":471,"station_name":"Sudirman Baru"},{"station_name":"Sudirman","transit":false,"station_id":"SUD","i_lat":-6.202263,"i_long":106.822649,"is_transit":false,"distance":280,"line":1,"time":1},{"time":4,"i_lat":-6.209883,"line":2,"is_transit":false,"distance":3186,"station_id":"MRI","i_long":106.84912,"transit":false,"station_name":"Manggarai"},{"is_transit":false,"distance":1275,"i_long":106.858896,"station_id":"MTR","station_name":"Matraman","i_lat":-6.212485,"time":2,"line":1,"transit":false},{"is_transit":false,"distance":1377,"i_long":106.86807400000001,"i_lat":-6.215091,"station_id":"JNG","line":1,"transit":false,"time":8,"station_name":"Jatinegara"},{"station_id":"KLD","i_long":106.899548,"is_transit":false,"transit":false,"station_name":"Klender","time":3,"distance":3395,"line":1,"i_lat":-6.2135},{"i_lat":-6.215568,"station_name":"Buaran","line":1,"station_id":"BUA","transit":false,"is_transit":false,"time":2,"distance":3100,"i_long":106.922662},{"is_transit":false,"time":1,"station_name":"Klenderbaru","transit":false,"station_id":"KLDB","line":1,"i_long":106.939679,"distance":1305,"i_lat":-6.217455},{"is_transit":false,"i_lat":-6.219053,"time":8,"station_name":"Cakung","i_long":106.951283,"line":1,"station_id":"CUK","transit":false,"distance":1385},{"transit":false,"distance":3097,"i_lat":-6.224515,"line":1,"i_long":106.977657,"time":3,"station_name":"Kranji","station_id":"KRI","is_transit":false}],[{"transit":false,"station_id":"TPK","i_long":106.880089,"line":4,"is_transit":false,"i_lat":-6.1109480000000005,"distance":0,"station_name":"Tanjung Priuk","time":0},{"time":9,"distance":4566,"station_id":"AC","is_transit":false,"i_lat":-6.128023,"i_long":106.84464,"transit":false,"station_name":"Ancol","line":4},{"station_name":"Kampung Bandan","distance":2185,"is_transit":true,"time":4,"transit":true,"station_id":"KPB","i_long":106.826365,"i_lat":-6.132549,"line":4},{"distance":1364,"transit":true,"station_id":"JAKK","i_lat":-6.137569,"is_transit":true,"i_long":106.812439,"line":2,"station_name":"Jakarta Kota","time":3},{"distance":1264,"transit":false,"station_id":"JAY","is_transit":false,"time":4,"i_lat":-6.141205,"i_long":106.820901,"station_name":"Jayakarta","line":2},{"i_long":106.82482,"is_transit":false,"distance":1080,"station_name":"Manggabesar","i_lat":-6.149769,"time":2,"line":2,"station_id":"MGB","transit":false},{"line":2,"distance":906,"i_lat":-6.160725,"time":2,"transit":false,"i_long":106.827103,"station_id":"SW","is_transit":false,"station_name":"Sawah Besar"},{"time":2,"transit":false,"station_name":"Juanda","i_long":106.828284,"distance":1149,"line":2,"i_lat":-6.166716,"station_id":"JUA","is_transit":false},{"station_name":"Gondangdia","transit":false,"is_transit":false,"i_long":106.832183,"station_id":"GDD","i_lat":-6.186295,"line":2,"distance":2015,"time":4},{"line":2,"station_name":"Cikini","station_id":"CKI","transit":false,"i_lat":-6.198556,"is_transit":false,"distance":1750,"i_long":106.840169,"time":3},{"distance":1590,"i_lat":-6.209883,"line":2,"station_id":"MRI","station_name":"Manggarai","transit":true,"i_long":106.84912,"is_transit":true,"time":4},{"i_long":106.858896,"station_id":"MTR","distance":1275,"line":1,"transit":false,"station_name":"Matraman","i_lat":-6.212485,"is_transit":false,"time":2},{"time":8,"line":1,"station_name":"Jatinegara","station_id":"JNG","is_transit":false,"i_long":106.86807400000001,"transit":false,"distance":1377,"i_lat":-6.215091},{"time":3,"station_id":"KLD","i_lat":-6.2135,"i_long":106.899548,"line":1,"station_name":"Klender","is_transit":false,"distance":3395,"transit":false},{"station_id":"BUA","i_lat":-6.215568,"time":2,"distance":3100,"station_name":"Buaran","transit":false,"is_transit":false,"i_long":106.922662,"line":1},{"is_transit":false,"time":1,"station_id":"KLDB","station_name":"Klenderbaru","i_lat":-6.217455,"distance":1305,"line":1,"i_long":106.939679,"transit":false},{"is_transit":false,"station_id":"CUK","time":8,"transit":false,"station_name":"Cakung","distance":1385,"i_lat":-6.219053,"i_long":106.951283,"line":1},{"time":3,"i_lat":-6.224515,"distance":3097,"station_id":"KRI","line":1,"station_name":"Kranji","transit":false,"i_long":106.977657,"is_transit":false}]]}