{"data":[[{"distance":0,"station_id":"TPK","station_name":"Tanjung Priuk","i_long":106.880089,"is_transit":false,"time":0,"i_lat":-6.1109480000000005,"transit":false,"line":4},{"line":4,"distance":4566,"station_id":"AC","i_lat":-6.128023,"i_long":106.84464,"station_name":"Ancol","is_transit":false,"time":9,"transit":false},{"is_transit":true,"distance":2185,"station_id":"KPB","i_lat":-6.132549,"station_name":"Kampung Bandan","line":4,"transit":true,"time":4,"i_long":106.826365},{"distance":4102,"time":9,"station_id":"AK","station_name":"Angke","transit":false,"i_lat":-6.144674,"is_transit":false,"i_long":106.79867,"line":1},{"i_long":106.800832,"distance":1230,"station_id":"DU","transit":false,"time":4,"station_name":"Duri","i_lat":-6.155215,"line":1,"is_transit":false},{"station_id":"THB","line":1,"station_name":"Tanah Abang","is_transit":false,"distance":3632,"i_lat":-6.185545,"time":8,"i_long":106.811091,"transit":false},{"i_lat":-6.20132,"transit":false,"station_name":"Karet","station_id":"KAT","i_long":106.816351,"time":5,"distance":2029,"is_transit":false,"line":1},{"is_transit":false,"station_name":"Sudirman Baru","station_id":"SUDB","i_lat":-6.201433,"time":1,"i_long":106.819881,"line":1,"distance":471,"transit":false},{"distance":280,"time":1,"line":1,"station_name":"Sudirman","station_id":"SUD","transit":false,"is_transit":false,"i_lat":-6.202263,"i_long":106.822649},{"station_id":"MRI","station_name":"Manggarai","i_lat":-6.209883,"is_transit":true,"distance":3186,"transit":true,"i_long":106.84912,"line":2,"time":4},{"distance":2610,"time":4,"i_lat":-6.226659,"station_id":"TEB","station_name":"Tebet","is_transit":false,"transit":false,"i_long":106.857948,"line":2},{"i_long":106.856607,"i_lat":-6.242512,"station_id":"CW","transit":false,"distance":1230,"is_transit":false,"time":2,"station_name":"Cawang","line":2},{"time":3,"i_lat":-6.255332,"station_name":"Duren Kalibata","is_transit":false,"station_id":"DRN","distance":1546,"transit":false,"i_long":106.85449,"line":2},{"station_name":"Pasar Minggu Baru","distance":824,"i_long":106.851577,"transit":false,"station_id":"PSMB","is_transit":false,"i_lat":-6.263214,"line":2,"time":2},{"line":2,"i_long":106.843999,"is_transit":false,"station_name":"Pasar Minggu","time":2,"station_id":"PSM","distance":2380,"i_lat":-6.2842400000000005,"transit":false},{"time":4,"distance":2820,"line":2,"i_long":106.838896,"transit":false,"is_transit":false,"i_lat":-6.3080680000000005,"station_id":"TNT","station_name":"Tanjung Barat"},{"station_id":"LNA","is_transit":false,"i_lat":-6.330363,"line":2,"i_long":106.832616,"station_name":"Lenteng Agung","distance":2671,"transit":false,"time":3},{"line":2,"i_lat":-6.339291,"transit":false,"i_long":106.834175,"distance":1029,"station_id":"UP","time":2,"is_transit":false,"station_name":"Univ. Pancasila"},{"station_name":"Univ. Indonesia","is_transit":false,"distance":2264,"station_id":"UI","time":3,"transit":false,"i_long":106.831474,"line":2,"i_lat":-6.360749},{"station_id":"POC","is_transit":false,"distance":1109,"station_name":"Pondok Cina","transit":false,"i_lat":-6.369073,"line":2,"time":2,"i_long":106.831114}],[{"station_id":"TPK","station_name":"Tanjung Priuk","distance":0,"time":0,"is_transit":false,"i_lat":-6.1109480000000005,"i_long":106.880089,"line":4,"transit":false},{"distance":4566,"transit":false,"i_lat":-6.128023,"station_id":"AC","station_name":"Ancol","line":4,"time":9,"i_long":106.84464,"is_transit":false},{"transit":true,"line":4,"distance":2185,"station_id":"KPB","is_transit":true,"time":4,"i_lat":-6.132549,"station_name":"Kampung Bandan","i_long":106.826365},{"i_long":106.812439,"is_transit":true,"station_name":"Jakarta Kota","station_id":"JAKK","time":3,"line":2,"distance":1364,"transit":true,"i_lat":-6.137569},{"station_name":"Jayakarta","i_lat":-6.141205,"distance":1264,"station_id":"JAY","time":4,"line":2,"transit":false,"is_transit":false,"i_long":106.820901},{"station_name":"Manggabesar","transit":false,"i_lat":-6.149769,"i_long":106.82482,"line":2,"is_transit":false,"distance":1080,"station_id":"MGB","time":2},{"station_id":"SW","i_long":106.827103,"transit":false,"is_transit":false,"i_lat":-6.160725,"line":2,"distance":906,"time":2,"station_name":"Sawah Besar"},{"distance":1149,"transit":false,"i_lat":-6.166716,"station_name":"Juanda","i_long":106.828284,"time":2,"is_transit":false,"station_id":"JUA","line":2},{"transit":false,"i_long":106.832183,"distance":2015,"i_lat":-6.186295,"is_transit":false,"line":2,"station_name":"Gondangdia","time":4,"station_id":"GDD"},{"distance":1750,"transit":false,"station_name":"Cikini","station_id":"CKI","time":3,"is_transit":false,"line":2,"i_long":106.840169,"i_lat":-6.198556},{"line":2,"i_lat":-6.209883,"station_id":"MRI","transit":false,"is_transit":false,"station_name":"Manggarai","distance":1590,"time":4,"i_long":106.84912},{"station_id":"TEB","time":4,"distance":2610,"i_lat":-6.226659,"i_long":106.857948,"transit":false,"line":2,"is_transit":false,"station_name":"Tebet"},{"is_transit":false,"time":2,"distance":1230,"station_name":"Cawang","i_lat":-6.242512,"transit":false,"i_long":106.856607,"line":2,"station_id":"CW"},{"transit":false,"is_transit":false,"i_long":106.85449,"distance":1546,"station_id":"DRN","station_name":"Duren Kalibata","time":3,"i_lat":-6.255332,"line":2},{"is_transit":false,"i_lat":-6.263214,"station_id":"PSMB","distance":824,"transit":false,"station_name":"Pasar Minggu Baru","i_long":106.851577,"line":2,"time":2},{"station_id":"PSM","station_name":"Pasar Minggu","time":2,"i_lat":-6.2842400000000005,"i_long":106.843999,"is_transit":false,"distance":2380,"line":2,"transit":false},{"station_id":"TNT","is_transit":false,"time":4,"transit":false,"line":2,"distance":2820,"station_name":"Tanjung Barat","i_lat":-6.3080680000000005,"i_long":106.838896},{"transit":false,"is_transit":false,"distance":2671,"i_long":106.832616,"line":2,"time":3,"i_lat":-6.330363,"station_id":"LNA","station_name":"Lenteng Agung"},{"distance":1029,"is_transit":false,"i_lat":-6.339291,"i_long":106.834175,"station_name":"Univ. Pancasila","line":2,"time":2,"station_id":"UP","transit":false},{"i_lat":-6.360749,"is_transit":false,"distance":2264,"station_name":"Univ. Indonesia","i_long":106.831474,"line":2,"time":3,"transit":false,"station_id":"UI"},{"transit":false,"time":2,"station_id":"POC","distance":1109,"i_lat":-6.369073,"line":2,"station_name":"Pondok Cina","is_transit":false,"i_long":106.831114}],[{"i_long":106.880089,"station_id":"TPK","i_lat":-6.1109480000000005,"is_transit":false,"station_name":"Tanjung Priuk","transit":false,"line":4,"distance":0,"time":0},{"i_lat":-6.128023,"station_id":"AC","i_long":106.84464,"station_name":"Ancol","line":4,"transit":false,"distance":4566,"is_transit":false,"time":9},{"station_id":"KPB","is_transit":true,"line":4,"time":4,"transit":true,"i_lat":-6.132549,"distance":2185,"i_long":106.826365,"station_name":"Kampung Bandan"},{"transit":false,"is_transit":false,"line":11,"i_lat":-6.14505,"distance":1444,"station_name":"Rajawali","i_long":106.836569,"time":3,"station_id":"RJW"},{"transit":false,"distance":1901,"station_id":"KMO","station_name":"Kemayoran","is_transit":false,"i_long":106.839204,"time":5,"i_lat":-6.161728,"line":11},{"transit":false,"is_transit":false,"i_long":106.84368,"station_id":"PSE","i_lat":-6.174784,"distance":1436,"station_name":"Pasar Senen","line":11,"time":4},{"time":8,"station_id":"GST","transit":false,"is_transit":false,"station_name":"Gang Sentiong","distance":1567,"i_long":106.850107,"i_lat":-6.185975,"line":11},{"is_transit":false,"i_lat":-6.193792,"transit":false,"i_long":106.855437,"line":11,"time":1,"station_id":"KMT","distance":973,"station_name":"Kramat"},{"transit":false,"station_name":"Pondok Jati","is_transit":false,"time":2,"i_lat":-6.209188,"station_id":"POK","line":11,"distance":1829,"i_long":106.861737},{"time":9,"transit":true,"is_transit":true,"distance":1236,"line":1,"station_name":"Jatinegara","i_lat":-6.215091,"station_id":"JNG","i_long":106.86807400000001},{"transit":false,"time":2,"i_long":106.858896,"line":1,"distance":1377,"is_transit":false,"station_name":"Matraman","station_id":"MTR","i_lat":-6.212485},{"distance":1275,"transit":true,"i_long":106.84912,"is_transit":true,"i_lat":-6.209883,"station_id":"MRI","station_name":"Manggarai","time":2,"line":2},{"i_lat":-6.226659,"distance":2610,"station_name":"Tebet","transit":false,"line":2,"time":4,"is_transit":false,"i_long":106.857948,"station_id":"TEB"},{"i_long":106.856607,"time":2,"line":2,"station_id":"CW","i_lat":-6.242512,"station_name":"Cawang","is_transit":false,"distance":1230,"transit":false},{"time":3,"station_id":"DRN","is_transit":false,"i_lat":-6.255332,"transit":false,"distance":1546,"i_long":106.85449,"line":2,"station_name":"Duren Kalibata"},{"transit":false,"distance":824,"is_transit":false,"station_id":"PSMB","time":2,"i_lat":-6.263214,"i_long":106.851577,"station_name":"Pasar Minggu Baru","line":2},{"time":2,"i_long":106.843999,"station_id":"PSM","is_transit":false,"transit":false,"line":2,"i_lat":-6.2842400000000005,"station_name":"Pasar Minggu","distance":2380},{"station_name":"Tanjung Barat","is_transit":false,"line":2,"transit":false,"i_lat":-6.3080680000000005,"i_long":106.838896,"time":4,"distance":2820,"station_id":"TNT"},{"time":3,"is_transit":false,"station_id":"LNA","i_lat":-6.330363,"transit":false,"station_name":"Lenteng Agung","i_long":106.832616,"line":2,"distance":2671},{"is_transit":false,"distance":1029,"line":2,"i_long":106.834175,"time":2,"i_lat":-6.339291,"transit":false,"station_id":"UP","station_name":"Univ. Pancasila"},{"line":2,"station_id":"UI","transit":false,"is_transit":false,"station_name":"Univ. Indonesia","i_long":106.831474,"distance":2264,"i_lat":-6.360749,"time":3},{"transit":false,"distance":1109,"is_transit":false,"i_lat":-6.369073,"line":2,"station_id":"POC","time":2,"i_long":106.831114,"station_name":"Pondok Cina"}]]}