{"data":[[{"distance":0,"station_id":"TPK","time":0,"is_transit":false,"station_name":"Tanjung Priuk","line":4,"transit":false,"i_long":106.880089,"i_lat":-6.1109480000000005},{"is_transit":false,"distance":4566,"i_lat":-6.128023,"time":9,"station_id":"AC","station_name":"Ancol","i_long":106.84464,"line":0,"transit":false},{"i_lat":-6.132549,"distance":2185,"is_transit":true,"transit":false,"line":0,"time":4,"i_long":106.826365,"station_name":"Kampung Bandan","station_id":"KPB"},{"distance":1364,"is_transit":true,"transit":true,"time":3,"i_lat":-6.137569,"station_id":"JAKK","line":0,"station_name":"Jakarta Kota","i_long":106.812439},{"transit":false,"distance":1264,"is_transit":false,"i_lat":-6.141205,"time":4,"line":7,"station_name":"Jayakarta","i_long":106.820901,"station_id":"JAY"},{"i_lat":-6.149769,"distance":1080,"station_name":"Manggabesar","i_long":106.82482,"time":2,"is_transit":false,"transit":false,"line":2,"station_id":"MGB"},{"line":2,"is_transit":false,"station_name":"Sawah Besar","time":2,"i_lat":-6.160725,"i_long":106.827103,"distance":906,"station_id":"SW","transit":false},{"line":2,"station_name":"Juanda","time":2,"i_lat":-6.166716,"is_transit":false,"distance":1149,"station_id":"JUA","transit":false,"i_long":106.828284},{"i_long":106.832183,"station_id":"GDD","i_lat":-6.186295,"transit":false,"is_transit":false,"distance":2015,"time":4,"station_name":"Gondangdia","line":2}],[{"distance":0,"is_transit":false,"time":0,"station_name":"Tanjung Priuk","i_lat":-6.1109480000000005,"transit":false,"line":4,"station_id":"TPK","i_long":106.880089},{"line":0,"time":9,"transit":false,"station_name":"Ancol","distance":4566,"is_transit":false,"station_id":"AC","i_long":106.84464,"i_lat":-6.128023},{"is_transit":true,"station_name":"Kampung Bandan","transit":false,"i_lat":-6.132549,"distance":2185,"line":0,"i_long":106.826365,"station_id":"KPB","time":4},{"distance":4102,"station_id":"AK","station_name":"Angke","i_lat":-6.144674,"is_transit":false,"i_long":106.79867,"time":9,"transit":false,"line":0},{"station_name":"Duri","transit":true,"line":1,"is_transit":true,"distance":1230,"station_id":"DU","time":4,"i_lat":-6.155215,"i_long":106.800832},{"is_transit":true,"line":1,"station_id":"THB","i_long":106.811091,"distance":3632,"station_name":"Tanah Abang","i_lat":-6.185545,"transit":false,"time":8},{"station_name":"Karet","i_long":106.816351,"distance":2029,"station_id":"KAT","time":5,"transit":false,"i_lat":-6.20132,"line":1,"is_transit":false},{"distance":471,"line":1,"i_lat":-6.201433,"i_long":106.819881,"station_id":"SUDB","transit":false,"station_name":"Sudirman Baru","is_transit":false,"time":1},{"station_name":"Sudirman","transit":false,"i_lat":-6.202263,"is_transit":false,"station_id":"SUD","i_long":106.822649,"time":1,"line":1,"distance":280},{"transit":true,"i_long":106.84912,"is_transit":true,"i_lat":-6.209883,"time":4,"line":0,"station_id":"MRI","distance":3186,"station_name":"Manggarai"},{"station_name":"Cikini","transit":false,"is_transit":false,"i_long":106.840169,"station_id":"CKI","time":4,"distance":1590,"i_lat":-6.198556,"line":0},{"station_name":"Gondangdia","i_long":106.832183,"is_transit":false,"time":3,"i_lat":-6.186295,"station_id":"GDD","distance":1750,"transit":false,"line":2}],[{"i_long":106.880089,"time":0,"station_id":"TPK","distance":0,"is_transit":false,"station_name":"Tanjung Priuk","transit":false,"i_lat":-6.1109480000000005,"line":4},{"line":0,"is_transit":false,"distance":4566,"station_id":"AC","station_name":"Ancol","transit":false,"i_long":106.84464,"i_lat":-6.128023,"time":9},{"time":4,"i_long":106.826365,"line":0,"station_name":"Kampung Bandan","station_id":"KPB","transit":true,"i_lat":-6.132549,"distance":2185,"is_transit":true},{"station_name":"Rajawali","distance":1444,"i_lat":-6.14505,"station_id":"RJW","is_transit":false,"line":11,"transit":false,"time":3,"i_long":106.836569},{"distance":1901,"station_id":"KMO","is_transit":false,"station_name":"Kemayoran","i_lat":-6.161728,"i_long":106.839204,"line":11,"transit":false,"time":5},{"station_id":"PSE","i_lat":-6.174784,"i_long":106.84368,"station_name":"Pasar Senen","time":4,"is_transit":false,"transit":false,"distance":1436,"line":11},{"station_name":"Gang Sentiong","station_id":"GST","time":8,"i_lat":-6.185975,"line":11,"i_long":106.850107,"distance":1567,"transit":false,"is_transit":false},{"distance":973,"station_id":"KMT","time":1,"transit":false,"i_long":106.855437,"station_name":"Kramat","i_lat":-6.193792,"line":11,"is_transit":false},{"transit":false,"i_lat":-6.209188,"is_transit":false,"station_id":"POK","time":2,"line":11,"distance":1829,"station_name":"Pondok Jati","i_long":106.861737},{"line":0,"station_id":"JNG","i_lat":-6.215091,"i_long":106.86807400000001,"is_transit":true,"time":9,"distance":1236,"station_name":"Jatinegara","transit":true},{"distance":1377,"transit":false,"is_transit":false,"station_id":"MTR","time":2,"i_lat":-6.212485,"line":1,"i_long":106.858896,"station_name":"Matraman"},{"station_name":"Manggarai","line":0,"time":2,"transit":true,"i_long":106.84912,"i_lat":-6.209883,"is_transit":true,"station_id":"MRI","distance":1275},{"transit":false,"distance":1590,"line":0,"station_name":"Cikini","is_transit":false,"i_lat":-6.198556,"station_id":"CKI","i_long":106.840169,"time":4},{"line":2,"i_lat":-6.186295,"station_id":"GDD","is_transit":false,"station_name":"Gondangdia","i_long":106.832183,"distance":1750,"transit":false,"time":3}]]}