{"data":[[{"distance":0,"i_long":106.880089,"station_id":"TPK","time":0,"line":4,"transit":false,"i_lat":-6.1109480000000005,"is_transit":false,"station_name":"Tanjung Priuk"},{"station_name":"Ancol","line":4,"is_transit":false,"transit":false,"time":9,"i_lat":-6.128023,"distance":4566,"station_id":"AC","i_long":106.84464},{"is_transit":true,"distance":2185,"transit":true,"i_lat":-6.132549,"i_long":106.826365,"line":4,"station_id":"KPB","time":4,"station_name":"Kampung Bandan"},{"distance":4102,"station_name":"Angke","line":1,"i_long":106.79867,"i_lat":-6.144674,"time":9,"station_id":"AK","transit":false,"is_transit":false},{"station_id":"DU","is_transit":false,"i_lat":-6.155215,"i_long":106.800832,"line":1,"transit":false,"time":4,"distance":1230,"station_name":"Duri"},{"i_long":106.811091,"station_name":"Tanah Abang","i_lat":-6.185545,"transit":false,"station_id":"THB","is_transit":false,"distance":3632,"time":8,"line":1},{"is_transit":false,"line":1,"station_id":"KAT","i_long":106.816351,"time":5,"i_lat":-6.20132,"distance":2029,"station_name":"Karet","transit":false},{"transit":false,"is_transit":false,"i_long":106.819881,"i_lat":-6.201433,"line":1,"station_id":"SUDB","time":1,"distance":471,"station_name":"Sudirman Baru"},{"is_transit":false,"i_lat":-6.202263,"line":1,"station_id":"SUD","time":1,"distance":280,"station_name":"Sudirman","i_long":106.822649,"transit":false},{"transit":true,"is_transit":true,"i_long":106.84912,"station_name":"Manggarai","station_id":"MRI","time":4,"distance":3186,"i_lat":-6.209883,"line":2},{"transit":false,"station_name":"Tebet","is_transit":false,"i_long":106.857948,"station_id":"TEB","time":4,"i_lat":-6.226659,"distance":2610,"line":2},{"i_lat":-6.242512,"line":2,"station_id":"CW","station_name":"Cawang","distance":1230,"i_long":106.856607,"transit":false,"is_transit":false,"time":2},{"transit":false,"station_name":"Duren Kalibata","i_long":106.85449,"is_transit":false,"line":2,"distance":1546,"time":3,"station_id":"DRN","i_lat":-6.255332},{"transit":false,"is_transit":false,"station_id":"PSMB","station_name":"Pasar Minggu Baru","line":2,"time":2,"i_lat":-6.263214,"i_long":106.851577,"distance":824}],[{"distance":0,"time":0,"i_long":106.880089,"transit":false,"station_name":"Tanjung Priuk","line":4,"is_transit":false,"i_lat":-6.1109480000000005,"station_id":"TPK"},{"distance":4566,"transit":false,"is_transit":false,"i_long":106.84464,"station_name":"Ancol","time":9,"line":4,"i_lat":-6.128023,"station_id":"AC"},{"line":4,"transit":true,"i_lat":-6.132549,"distance":2185,"i_long":106.826365,"station_id":"KPB","is_transit":true,"time":4,"station_name":"Kampung Bandan"},{"distance":1364,"transit":true,"station_name":"Jakarta Kota","time":3,"i_long":106.812439,"i_lat":-6.137569,"line":2,"station_id":"JAKK","is_transit":true},{"station_id":"JAY","distance":1264,"i_lat":-6.141205,"i_long":106.820901,"transit":false,"is_transit":false,"station_name":"Jayakarta","time":4,"line":2},{"line":2,"is_transit":false,"station_id":"MGB","station_name":"Manggabesar","time":2,"transit":false,"distance":1080,"i_lat":-6.149769,"i_long":106.82482},{"is_transit":false,"distance":906,"transit":false,"station_name":"Sawah Besar","line":2,"time":2,"i_long":106.827103,"station_id":"SW","i_lat":-6.160725},{"i_lat":-6.166716,"i_long":106.828284,"line":2,"station_id":"JUA","time":2,"distance":1149,"transit":false,"is_transit":false,"station_name":"Juanda"},{"line":2,"station_name":"Gondangdia","is_transit":false,"time":4,"distance":2015,"i_lat":-6.186295,"transit":false,"i_long":106.832183,"station_id":"GDD"},{"i_long":106.840169,"is_transit":false,"station_id":"CKI","station_name":"Cikini","transit":false,"distance":1750,"time":3,"i_lat":-6.198556,"line":2},{"line":2,"distance":1590,"i_long":106.84912,"is_transit":false,"time":4,"station_id":"MRI","i_lat":-6.209883,"transit":false,"station_name":"Manggarai"},{"time":4,"line":2,"transit":false,"station_id":"TEB","station_name":"Tebet","i_lat":-6.226659,"is_transit":false,"distance":2610,"i_long":106.857948},{"station_name":"Cawang","transit":false,"line":2,"distance":1230,"is_transit":false,"time":2,"i_lat":-6.242512,"i_long":106.856607,"station_id":"CW"},{"i_lat":-6.255332,"time":3,"line":2,"is_transit":false,"transit":false,"station_name":"Duren Kalibata","station_id":"DRN","distance":1546,"i_long":106.85449},{"line":2,"i_lat":-6.263214,"i_long":106.851577,"station_name":"Pasar Minggu Baru","transit":false,"time":2,"is_transit":false,"distance":824,"station_id":"PSMB"}],[{"transit":false,"station_name":"Tanjung Priuk","station_id":"TPK","is_transit":false,"i_lat":-6.1109480000000005,"i_long":106.880089,"line":4,"time":0,"distance":0},{"i_long":106.84464,"station_name":"Ancol","transit":false,"time":9,"i_lat":-6.128023,"line":4,"distance":4566,"station_id":"AC","is_transit":false},{"i_long":106.826365,"i_lat":-6.132549,"line":4,"station_name":"Kampung Bandan","station_id":"KPB","transit":true,"is_transit":true,"time":4,"distance":2185},{"i_lat":-6.14505,"station_name":"Rajawali","station_id":"RJW","distance":1444,"i_long":106.836569,"transit":false,"line":11,"is_transit":false,"time":3},{"station_name":"Kemayoran","is_transit":false,"i_long":106.839204,"line":11,"distance":1901,"i_lat":-6.161728,"transit":false,"time":5,"station_id":"KMO"},{"station_name":"Pasar Senen","is_transit":false,"station_id":"PSE","i_lat":-6.174784,"transit":false,"time":4,"i_long":106.84368,"distance":1436,"line":11},{"transit":false,"station_name":"Gang Sentiong","distance":1567,"station_id":"GST","is_transit":false,"i_lat":-6.185975,"i_long":106.850107,"time":8,"line":11},{"is_transit":false,"i_lat":-6.193792,"time":1,"distance":973,"station_name":"Kramat","line":11,"i_long":106.855437,"transit":false,"station_id":"KMT"},{"line":11,"time":2,"i_lat":-6.209188,"distance":1829,"station_id":"POK","is_transit":false,"i_long":106.861737,"transit":false,"station_name":"Pondok Jati"},{"i_lat":-6.215091,"distance":1236,"line":1,"i_long":106.86807400000001,"station_id":"JNG","is_transit":true,"station_name":"Jatinegara","transit":true,"time":9},{"transit":false,"line":1,"station_id":"MTR","distance":1377,"i_long":106.858896,"station_name":"Matraman","i_lat":-6.212485,"is_transit":false,"time":2},{"is_transit":true,"time":2,"line":2,"distance":1275,"i_long":106.84912,"station_name":"Manggarai","i_lat":-6.209883,"station_id":"MRI","transit":true},{"i_long":106.857948,"is_transit":false,"transit":false,"time":4,"distance":2610,"i_lat":-6.226659,"station_id":"TEB","line":2,"station_name":"Tebet"},{"transit":false,"is_transit":false,"distance":1230,"i_lat":-6.242512,"i_long":106.856607,"station_name":"Cawang","time":2,"line":2,"station_id":"CW"},{"transit":false,"station_name":"Duren Kalibata","is_transit":false,"i_lat":-6.255332,"station_id":"DRN","time":3,"line":2,"i_long":106.85449,"distance":1546},{"is_transit":false,"line":2,"i_long":106.851577,"station_name":"Pasar Minggu Baru","station_id":"PSMB","transit":false,"time":2,"i_lat":-6.263214,"distance":824}]]}