{"data":[[{"i_long":106.880089,"transit":false,"station_id":"TPK","distance":0,"i_lat":-6.1109480000000005,"station_name":"Tanjung Priuk","line":4,"is_transit":false,"time":0},{"i_lat":-6.128023,"i_long":106.84464,"transit":false,"line":0,"station_name":"Ancol","distance":4566,"is_transit":false,"station_id":"AC","time":9},{"i_lat":-6.132549,"station_name":"Kampung Bandan","is_transit":true,"distance":2185,"line":0,"time":4,"station_id":"KPB","i_long":106.826365,"transit":false},{"time":9,"station_id":"AK","i_lat":-6.144674,"transit":false,"station_name":"Angke","distance":4102,"is_transit":false,"i_long":106.79867,"line":0},{"is_transit":true,"station_id":"DU","time":4,"distance":1230,"line":1,"transit":true,"i_lat":-6.155215,"i_long":106.800832,"station_name":"Duri"},{"distance":1700,"i_lat":-6.162021,"line":5,"is_transit":false,"i_long":106.788277,"station_id":"GGL","time":3,"transit":false,"station_name":"Grogol"},{"transit":false,"station_name":"Pesing","i_long":106.771379,"line":5,"time":2,"station_id":"PSG","is_transit":false,"i_lat":-6.161433,"distance":2036},{"is_transit":false,"station_id":"TKO","transit":false,"station_name":"Taman Kota","time":2,"i_long":106.756522,"i_lat":-6.1587309999999995,"distance":1614,"line":5},{"i_lat":-6.159876,"i_long":106.737035,"transit":false,"line":0,"is_transit":false,"station_id":"BOI","station_name":"Bojongindah","time":2,"distance":2334},{"station_name":"Rawa Buaya","distance":1152,"is_transit":false,"station_id":"RW","i_lat":-6.162758,"i_long":106.723064,"time":4,"transit":false,"line":5}],[{"distance":0,"i_lat":-6.1109480000000005,"line":4,"time":0,"station_name":"Tanjung Priuk","i_long":106.880089,"transit":false,"is_transit":false,"station_id":"TPK"},{"is_transit":false,"station_name":"Ancol","time":9,"distance":4566,"i_long":106.84464,"station_id":"AC","line":0,"transit":false,"i_lat":-6.128023},{"time":4,"distance":2185,"transit":false,"station_id":"KPB","is_transit":true,"line":0,"i_long":106.826365,"station_name":"Kampung Bandan","i_lat":-6.132549},{"station_id":"JAKK","i_lat":-6.137569,"line":0,"station_name":"Jakarta Kota","is_transit":true,"distance":1364,"transit":true,"time":3,"i_long":106.812439},{"time":4,"station_id":"JAY","station_name":"Jayakarta","i_long":106.820901,"line":7,"distance":1264,"transit":false,"i_lat":-6.141205,"is_transit":false},{"line":2,"i_lat":-6.149769,"station_id":"MGB","station_name":"Manggabesar","distance":1080,"i_long":106.82482,"is_transit":false,"time":2,"transit":false},{"is_transit":false,"transit":false,"distance":906,"line":2,"i_lat":-6.160725,"station_id":"SW","station_name":"Sawah Besar","time":2,"i_long":106.827103},{"line":2,"is_transit":false,"transit":false,"station_id":"JUA","time":2,"station_name":"Juanda","i_lat":-6.166716,"i_long":106.828284,"distance":1149},{"line":2,"transit":false,"time":4,"i_lat":-6.186295,"station_name":"Gondangdia","is_transit":false,"i_long":106.832183,"distance":2015,"station_id":"GDD"},{"transit":false,"distance":1750,"time":3,"i_lat":-6.198556,"line":0,"station_id":"CKI","i_long":106.840169,"station_name":"Cikini","is_transit":false},{"is_transit":true,"station_id":"MRI","i_lat":-6.209883,"distance":1590,"station_name":"Manggarai","line":0,"transit":true,"time":4,"i_long":106.84912},{"i_lat":-6.202263,"time":4,"transit":false,"distance":3186,"station_id":"SUD","is_transit":false,"station_name":"Sudirman","line":1,"i_long":106.822649},{"time":1,"station_id":"SUDB","distance":280,"line":1,"transit":false,"i_lat":-6.201433,"i_long":106.819881,"is_transit":false,"station_name":"Sudirman Baru"},{"transit":false,"i_long":106.816351,"station_id":"KAT","is_transit":false,"time":1,"line":1,"i_lat":-6.20132,"station_name":"Karet","distance":471},{"is_transit":true,"station_id":"THB","station_name":"Tanah Abang","line":1,"distance":2029,"i_long":106.811091,"i_lat":-6.185545,"time":5,"transit":false},{"transit":true,"i_lat":-6.155215,"line":1,"is_transit":true,"distance":3632,"station_id":"DU","station_name":"Duri","time":8,"i_long":106.800832},{"station_id":"GGL","i_long":106.788277,"is_transit":false,"transit":false,"time":3,"line":5,"station_name":"Grogol","distance":1700,"i_lat":-6.162021},{"transit":false,"is_transit":false,"distance":2036,"line":5,"station_id":"PSG","station_name":"Pesing","i_long":106.771379,"time":2,"i_lat":-6.161433},{"time":2,"station_id":"TKO","transit":false,"station_name":"Taman Kota","line":5,"i_lat":-6.1587309999999995,"is_transit":false,"distance":1614,"i_long":106.756522},{"transit":false,"line":0,"is_transit":false,"time":2,"station_id":"BOI","i_lat":-6.159876,"station_name":"Bojongindah","distance":2334,"i_long":106.737035},{"i_long":106.723064,"line":5,"distance":1152,"i_lat":-6.162758,"time":4,"is_transit":false,"transit":false,"station_id":"RW","station_name":"Rawa Buaya"}],[{"station_id":"TPK","station_name":"Tanjung Priuk","time":0,"i_long":106.880089,"distance":0,"i_lat":-6.1109480000000005,"line":4,"is_transit":false,"transit":false},{"station_id":"AC","distance":4566,"transit":false,"station_name":"Ancol","i_long":106.84464,"line":0,"i_lat":-6.128023,"is_transit":false,"time":9},{"i_long":106.826365,"line":0,"transit":true,"station_name":"Kampung Bandan","time":4,"is_transit":true,"i_lat":-6.132549,"distance":2185,"station_id":"KPB"},{"distance":1444,"is_transit":false,"line":11,"i_long":106.836569,"i_lat":-6.14505,"transit":false,"time":3,"station_name":"Rajawali","station_id":"RJW"},{"i_lat":-6.161728,"station_name":"Kemayoran","time":5,"distance":1901,"i_long":106.839204,"station_id":"KMO","is_transit":false,"line":11,"transit":false},{"i_long":106.84368,"line":11,"transit":false,"i_lat":-6.174784,"station_id":"PSE","distance":1436,"is_transit":false,"time":4,"station_name":"Pasar Senen"},{"station_id":"GST","line":11,"distance":1567,"i_long":106.850107,"transit":false,"station_name":"Gang Sentiong","i_lat":-6.185975,"is_transit":false,"time":8},{"i_lat":-6.193792,"station_id":"KMT","distance":973,"station_name":"Kramat","is_transit":false,"time":1,"i_long":106.855437,"line":11,"transit":false},{"line":11,"distance":1829,"i_lat":-6.209188,"transit":false,"station_name":"Pondok Jati","station_id":"POK","time":2,"i_long":106.861737,"is_transit":false},{"station_name":"Jatinegara","i_long":106.86807400000001,"transit":true,"time":9,"line":0,"station_id":"JNG","distance":1236,"is_transit":true,"i_lat":-6.215091},{"is_transit":false,"station_name":"Matraman","station_id":"MTR","line":1,"time":2,"distance":1377,"i_long":106.858896,"transit":false,"i_lat":-6.212485},{"is_transit":true,"distance":1275,"line":0,"station_name":"Manggarai","transit":false,"station_id":"MRI","i_long":106.84912,"time":2,"i_lat":-6.209883},{"station_name":"Sudirman","is_transit":false,"transit":false,"i_lat":-6.202263,"station_id":"SUD","line":1,"distance":3186,"time":4,"i_long":106.822649},{"transit":false,"station_id":"SUDB","station_name":"Sudirman Baru","distance":280,"i_long":106.819881,"line":1,"time":1,"i_lat":-6.201433,"is_transit":false},{"station_name":"Karet","distance":471,"is_transit":false,"line":1,"transit":false,"station_id":"KAT","time":1,"i_lat":-6.20132,"i_long":106.816351},{"line":1,"station_id":"THB","is_transit":true,"i_long":106.811091,"distance":2029,"transit":false,"time":5,"station_name":"Tanah Abang","i_lat":-6.185545},{"is_transit":true,"transit":true,"i_lat":-6.155215,"time":8,"station_name":"Duri","station_id":"DU","distance":3632,"i_long":106.800832,"line":1},{"line":5,"is_transit":false,"transit":false,"station_id":"GGL","i_lat":-6.162021,"station_name":"Grogol","time":3,"i_long":106.788277,"distance":1700},{"time":2,"i_lat":-6.161433,"i_long":106.771379,"line":5,"is_transit":false,"station_id":"PSG","station_name":"Pesing","transit":false,"distance":2036},{"transit":false,"i_long":106.756522,"is_transit":false,"time":2,"distance":1614,"station_id":"TKO","line":5,"station_name":"Taman Kota","i_lat":-6.1587309999999995},{"distance":2334,"line":0,"station_id":"BOI","i_lat":-6.159876,"station_name":"Bojongindah","is_transit":false,"time":2,"i_long":106.737035,"transit":false},{"transit":false,"station_id":"RW","time":4,"distance":1152,"line":5,"is_transit":false,"i_long":106.723064,"station_name":"Rawa Buaya","i_lat":-6.162758}]]}