{"data":[[{"time":0,"i_long":106.880089,"is_transit":false,"line":4,"i_lat":-6.1109480000000005,"transit":false,"distance":0,"station_id":"TPK","station_name":"Tanjung Priuk"},{"distance":4566,"station_id":"AC","transit":false,"i_long":106.84464,"is_transit":false,"time":9,"i_lat":-6.128023,"line":4,"station_name":"Ancol"},{"i_long":106.826365,"i_lat":-6.132549,"line":4,"station_id":"KPB","transit":true,"time":4,"distance":2185,"station_name":"Kampung Bandan","is_transit":true},{"i_long":106.79867,"distance":4102,"i_lat":-6.144674,"transit":false,"time":9,"is_transit":false,"station_name":"Angke","line":1,"station_id":"AK"},{"transit":true,"is_transit":true,"line":1,"i_long":106.800832,"time":4,"i_lat":-6.155215,"station_name":"Duri","station_id":"DU","distance":1230},{"time":3,"distance":1700,"is_transit":false,"transit":false,"station_id":"GGL","station_name":"Grogol","i_lat":-6.162021,"i_long":106.788277,"line":5},{"time":2,"i_long":106.771379,"distance":2036,"transit":false,"station_name":"Pesing","station_id":"PSG","line":5,"is_transit":false,"i_lat":-6.161433}],[{"time":0,"is_transit":false,"transit":false,"i_long":106.880089,"line":4,"station_name":"Tanjung Priuk","i_lat":-6.1109480000000005,"distance":0,"station_id":"TPK"},{"is_transit":false,"station_id":"AC","line":4,"time":9,"transit":false,"station_name":"Ancol","i_long":106.84464,"i_lat":-6.128023,"distance":4566},{"i_lat":-6.132549,"is_transit":true,"line":4,"transit":true,"distance":2185,"time":4,"station_id":"KPB","i_long":106.826365,"station_name":"Kampung Bandan"},{"line":2,"station_name":"Jakarta Kota","i_long":106.812439,"station_id":"JAKK","time":3,"distance":1364,"is_transit":true,"transit":true,"i_lat":-6.137569},{"station_name":"Jayakarta","transit":false,"line":2,"time":4,"distance":1264,"i_long":106.820901,"station_id":"JAY","is_transit":false,"i_lat":-6.141205},{"distance":1080,"station_id":"MGB","i_long":106.82482,"station_name":"Manggabesar","i_lat":-6.149769,"transit":false,"line":2,"time":2,"is_transit":false},{"distance":906,"station_id":"SW","is_transit":false,"time":2,"i_lat":-6.160725,"line":2,"i_long":106.827103,"station_name":"Sawah Besar","transit":false},{"i_lat":-6.166716,"i_long":106.828284,"line":2,"transit":false,"distance":1149,"station_name":"Juanda","time":2,"is_transit":false,"station_id":"JUA"},{"distance":2015,"station_name":"Gondangdia","time":4,"transit":false,"line":2,"i_lat":-6.186295,"station_id":"GDD","is_transit":false,"i_long":106.832183},{"station_id":"CKI","station_name":"Cikini","line":2,"transit":false,"i_long":106.840169,"is_transit":false,"time":3,"distance":1750,"i_lat":-6.198556},{"time":4,"is_transit":true,"station_id":"MRI","i_lat":-6.209883,"station_name":"Manggarai","transit":true,"i_long":106.84912,"line":2,"distance":1590},{"i_lat":-6.202263,"time":4,"distance":3186,"station_id":"SUD","transit":false,"is_transit":false,"station_name":"Sudirman","i_long":106.822649,"line":1},{"distance":280,"is_transit":false,"i_lat":-6.201433,"station_id":"SUDB","station_name":"Sudirman Baru","transit":false,"i_long":106.819881,"line":1,"time":1},{"time":1,"distance":471,"i_lat":-6.20132,"station_id":"KAT","line":1,"i_long":106.816351,"station_name":"Karet","transit":false,"is_transit":false},{"transit":false,"station_name":"Tanah Abang","is_transit":false,"line":1,"distance":2029,"i_long":106.811091,"i_lat":-6.185545,"station_id":"THB","time":5},{"transit":true,"station_id":"DU","is_transit":true,"distance":3632,"station_name":"Duri","line":1,"time":8,"i_long":106.800832,"i_lat":-6.155215},{"line":5,"station_id":"GGL","is_transit":false,"i_lat":-6.162021,"time":3,"transit":false,"i_long":106.788277,"distance":1700,"station_name":"Grogol"},{"i_lat":-6.161433,"time":2,"is_transit":false,"transit":false,"line":5,"station_id":"PSG","station_name":"Pesing","i_long":106.771379,"distance":2036}],[{"transit":false,"station_id":"TPK","station_name":"Tanjung Priuk","line":4,"i_lat":-6.1109480000000005,"distance":0,"is_transit":false,"time":0,"i_long":106.880089},{"transit":false,"line":4,"is_transit":false,"distance":4566,"i_long":106.84464,"time":9,"i_lat":-6.128023,"station_name":"Ancol","station_id":"AC"},{"station_id":"KPB","time":4,"distance":2185,"transit":true,"line":4,"station_name":"Kampung Bandan","is_transit":true,"i_lat":-6.132549,"i_long":106.826365},{"is_transit":false,"station_id":"RJW","transit":false,"line":11,"i_long":106.836569,"station_name":"Rajawali","time":3,"i_lat":-6.14505,"distance":1444},{"is_transit":false,"i_long":106.839204,"i_lat":-6.161728,"distance":1901,"transit":false,"time":5,"station_name":"Kemayoran","line":11,"station_id":"KMO"},{"i_lat":-6.174784,"station_name":"Pasar Senen","is_transit":false,"time":4,"i_long":106.84368,"distance":1436,"line":11,"station_id":"PSE","transit":false},{"is_transit":false,"station_id":"GST","i_lat":-6.185975,"line":11,"transit":false,"distance":1567,"time":8,"i_long":106.850107,"station_name":"Gang Sentiong"},{"station_name":"Kramat","station_id":"KMT","i_lat":-6.193792,"line":11,"is_transit":false,"time":1,"distance":973,"i_long":106.855437,"transit":false},{"i_long":106.861737,"line":11,"station_name":"Pondok Jati","transit":false,"time":2,"distance":1829,"is_transit":false,"station_id":"POK","i_lat":-6.209188},{"i_lat":-6.215091,"time":9,"distance":1236,"i_long":106.86807400000001,"line":1,"station_name":"Jatinegara","is_transit":true,"station_id":"JNG","transit":true},{"i_lat":-6.212485,"i_long":106.858896,"time":2,"station_id":"MTR","station_name":"Matraman","distance":1377,"is_transit":false,"transit":false,"line":1},{"transit":false,"time":2,"distance":1275,"station_id":"MRI","station_name":"Manggarai","is_transit":false,"i_lat":-6.209883,"i_long":106.84912,"line":2},{"station_name":"Sudirman","i_lat":-6.202263,"i_long":106.822649,"distance":3186,"line":1,"station_id":"SUD","time":4,"is_transit":false,"transit":false},{"time":1,"transit":false,"station_name":"Sudirman Baru","station_id":"SUDB","line":1,"i_lat":-6.201433,"distance":280,"is_transit":false,"i_long":106.819881},{"i_lat":-6.20132,"distance":471,"i_long":106.816351,"time":1,"line":1,"transit":false,"station_name":"Karet","station_id":"KAT","is_transit":false},{"transit":false,"station_name":"Tanah Abang","station_id":"THB","distance":2029,"i_lat":-6.185545,"i_long":106.811091,"time":5,"is_transit":false,"line":1},{"transit":true,"i_long":106.800832,"station_name":"Duri","time":8,"line":1,"station_id":"DU","i_lat":-6.155215,"distance":3632,"is_transit":true},{"is_transit":false,"i_long":106.788277,"line":5,"i_lat":-6.162021,"transit":false,"station_id":"GGL","station_name":"Grogol","time":3,"distance":1700},{"is_transit":false,"distance":2036,"line":5,"i_long":106.771379,"station_name":"Pesing","station_id":"PSG","transit":false,"time":2,"i_lat":-6.161433}]]}