{"data":[[{"line":4,"station_id":"TPK","distance":0,"time":0,"is_transit":false,"i_lat":-6.1109480000000005,"transit":false,"station_name":"Tanjung Priuk","i_long":106.880089},{"transit":false,"time":9,"station_id":"AC","i_lat":-6.128023,"line":4,"is_transit":false,"distance":4566,"station_name":"Ancol","i_long":106.84464},{"i_lat":-6.132549,"station_id":"KPB","distance":2185,"station_name":"Kampung Bandan","is_transit":true,"transit":true,"i_long":106.826365,"line":4,"time":4},{"line":1,"i_long":106.79867,"station_id":"AK","i_lat":-6.144674,"is_transit":false,"distance":4102,"station_name":"Angke","transit":false,"time":9},{"time":4,"distance":1230,"i_long":106.800832,"station_id":"DU","transit":true,"i_lat":-6.155215,"line":1,"station_name":"Duri","is_transit":true},{"i_lat":-6.162021,"distance":1700,"line":5,"i_long":106.788277,"is_transit":false,"time":3,"station_id":"GGL","transit":false,"station_name":"Grogol"},{"station_name":"Pesing","i_long":106.771379,"transit":false,"time":2,"i_lat":-6.161433,"line":5,"is_transit":false,"distance":2036,"station_id":"PSG"}],[{"time":0,"station_name":"Tanjung Priuk","i_long":106.880089,"i_lat":-6.1109480000000005,"is_transit":false,"line":4,"station_id":"TPK","distance":0,"transit":false},{"station_id":"AC","time":9,"is_transit":false,"transit":false,"station_name":"Ancol","i_long":106.84464,"i_lat":-6.128023,"distance":4566,"line":4},{"transit":true,"time":4,"is_transit":true,"line":4,"station_id":"KPB","distance":2185,"i_long":106.826365,"station_name":"Kampung Bandan","i_lat":-6.132549},{"station_id":"JAKK","time":3,"i_lat":-6.137569,"transit":true,"line":2,"is_transit":true,"i_long":106.812439,"station_name":"Jakarta Kota","distance":1364},{"station_name":"Jayakarta","i_lat":-6.141205,"time":4,"i_long":106.820901,"line":2,"transit":false,"station_id":"JAY","is_transit":false,"distance":1264},{"i_long":106.82482,"station_name":"Manggabesar","distance":1080,"i_lat":-6.149769,"is_transit":false,"line":2,"transit":false,"time":2,"station_id":"MGB"},{"line":2,"is_transit":false,"station_name":"Sawah Besar","i_lat":-6.160725,"station_id":"SW","transit":false,"distance":906,"i_long":106.827103,"time":2},{"line":2,"station_id":"JUA","is_transit":false,"time":2,"station_name":"Juanda","i_lat":-6.166716,"distance":1149,"transit":false,"i_long":106.828284},{"i_long":106.832183,"line":2,"station_name":"Gondangdia","station_id":"GDD","is_transit":false,"time":4,"distance":2015,"i_lat":-6.186295,"transit":false},{"station_id":"CKI","is_transit":false,"i_lat":-6.198556,"distance":1750,"time":3,"i_long":106.840169,"line":2,"transit":false,"station_name":"Cikini"},{"line":2,"time":4,"is_transit":true,"i_lat":-6.209883,"distance":1590,"transit":true,"station_name":"Manggarai","station_id":"MRI","i_long":106.84912},{"i_long":106.822649,"transit":false,"station_name":"Sudirman","station_id":"SUD","i_lat":-6.202263,"is_transit":false,"time":4,"line":1,"distance":3186},{"line":1,"time":1,"station_id":"SUDB","transit":false,"i_lat":-6.201433,"distance":280,"i_long":106.819881,"station_name":"Sudirman Baru","is_transit":false},{"station_name":"Karet","i_long":106.816351,"distance":471,"station_id":"KAT","line":1,"is_transit":false,"time":1,"transit":false,"i_lat":-6.20132},{"transit":false,"time":5,"station_id":"THB","is_transit":false,"distance":2029,"station_name":"Tanah Abang","i_long":106.811091,"line":1,"i_lat":-6.185545},{"distance":3632,"station_id":"DU","is_transit":true,"transit":true,"i_long":106.800832,"station_name":"Duri","i_lat":-6.155215,"line":1,"time":8},{"distance":1700,"is_transit":false,"station_id":"GGL","time":3,"transit":false,"i_lat":-6.162021,"line":5,"station_name":"Grogol","i_long":106.788277},{"i_lat":-6.161433,"station_name":"Pesing","distance":2036,"time":2,"line":5,"transit":false,"i_long":106.771379,"is_transit":false,"station_id":"PSG"}],[{"i_lat":-6.1109480000000005,"station_name":"Tanjung Priuk","time":0,"i_long":106.880089,"station_id":"TPK","transit":false,"is_transit":false,"distance":0,"line":4},{"station_name":"Ancol","time":9,"transit":false,"distance":4566,"i_long":106.84464,"line":4,"is_transit":false,"i_lat":-6.128023,"station_id":"AC"},{"time":4,"transit":true,"i_long":106.826365,"i_lat":-6.132549,"station_id":"KPB","distance":2185,"line":4,"is_transit":true,"station_name":"Kampung Bandan"},{"is_transit":false,"time":3,"i_long":106.836569,"line":11,"i_lat":-6.14505,"distance":1444,"transit":false,"station_id":"RJW","station_name":"Rajawali"},{"transit":false,"distance":1901,"time":5,"station_name":"Kemayoran","line":11,"is_transit":false,"station_id":"KMO","i_lat":-6.161728,"i_long":106.839204},{"is_transit":false,"i_lat":-6.174784,"station_name":"Pasar Senen","time":4,"transit":false,"distance":1436,"station_id":"PSE","line":11,"i_long":106.84368},{"station_id":"GST","station_name":"Gang Sentiong","i_lat":-6.185975,"transit":false,"is_transit":false,"line":11,"distance":1567,"i_long":106.850107,"time":8},{"is_transit":false,"station_name":"Kramat","i_long":106.855437,"i_lat":-6.193792,"line":11,"time":1,"transit":false,"distance":973,"station_id":"KMT"},{"transit":false,"time":2,"i_lat":-6.209188,"line":11,"is_transit":false,"station_name":"Pondok Jati","distance":1829,"station_id":"POK","i_long":106.861737},{"i_lat":-6.215091,"distance":1236,"station_name":"Jatinegara","transit":true,"line":1,"station_id":"JNG","is_transit":true,"time":9,"i_long":106.86807400000001},{"station_id":"MTR","transit":false,"i_long":106.858896,"i_lat":-6.212485,"is_transit":false,"distance":1377,"station_name":"Matraman","time":2,"line":1},{"is_transit":false,"distance":1275,"station_name":"Manggarai","time":2,"transit":false,"station_id":"MRI","i_long":106.84912,"line":2,"i_lat":-6.209883},{"station_name":"Sudirman","i_long":106.822649,"line":1,"distance":3186,"is_transit":false,"station_id":"SUD","time":4,"i_lat":-6.202263,"transit":false},{"i_long":106.819881,"transit":false,"line":1,"is_transit":false,"station_id":"SUDB","station_name":"Sudirman Baru","i_lat":-6.201433,"distance":280,"time":1},{"is_transit":false,"transit":false,"station_id":"KAT","i_long":106.816351,"line":1,"time":1,"distance":471,"station_name":"Karet","i_lat":-6.20132},{"station_id":"THB","is_transit":false,"station_name":"Tanah Abang","transit":false,"i_long":106.811091,"time":5,"i_lat":-6.185545,"line":1,"distance":2029},{"station_id":"DU","is_transit":true,"distance":3632,"i_long":106.800832,"line":1,"transit":true,"station_name":"Duri","time":8,"i_lat":-6.155215},{"line":5,"i_long":106.788277,"is_transit":false,"station_name":"Grogol","transit":false,"station_id":"GGL","i_lat":-6.162021,"distance":1700,"time":3},{"i_lat":-6.161433,"station_id":"PSG","time":2,"i_long":106.771379,"is_transit":false,"distance":2036,"transit":false,"line":5,"station_name":"Pesing"}]]}