{"data":[[{"transit":false,"station_id":"TPK","is_transit":false,"time":0,"distance":0,"i_lat":-6.1109480000000005,"i_long":106.880089,"line":4,"station_name":"Tanjung Priuk"},{"distance":4566,"station_id":"AC","station_name":"Ancol","is_transit":false,"time":9,"transit":false,"i_long":106.84464,"i_lat":-6.128023,"line":0},{"distance":2185,"time":4,"station_id":"KPB","station_name":"Kampung Bandan","i_lat":-6.132549,"i_long":106.826365,"transit":false,"line":0,"is_transit":true},{"line":0,"i_lat":-6.144674,"station_name":"Angke","time":9,"distance":4102,"station_id":"AK","i_long":106.79867,"is_transit":false,"transit":false},{"transit":true,"i_long":106.800832,"is_transit":true,"station_id":"DU","line":1,"station_name":"Duri","distance":1230,"time":4,"i_lat":-6.155215},{"i_long":106.788277,"is_transit":false,"station_id":"GGL","distance":1700,"i_lat":-6.162021,"time":3,"station_name":"Grogol","transit":false,"line":5},{"is_transit":false,"time":2,"i_long":106.771379,"distance":2036,"transit":false,"line":5,"station_id":"PSG","i_lat":-6.161433,"station_name":"Pesing"}],[{"station_id":"TPK","time":0,"is_transit":false,"line":4,"transit":false,"distance":0,"i_lat":-6.1109480000000005,"station_name":"Tanjung Priuk","i_long":106.880089},{"i_long":106.84464,"i_lat":-6.128023,"station_id":"AC","line":0,"is_transit":false,"distance":4566,"transit":false,"station_name":"Ancol","time":9},{"i_long":106.826365,"transit":false,"station_name":"Kampung Bandan","is_transit":true,"line":0,"station_id":"KPB","i_lat":-6.132549,"time":4,"distance":2185},{"line":0,"i_lat":-6.137569,"is_transit":true,"transit":true,"station_id":"JAKK","time":3,"station_name":"Jakarta Kota","distance":1364,"i_long":106.812439},{"is_transit":false,"station_name":"Jayakarta","distance":1264,"i_lat":-6.141205,"station_id":"JAY","line":7,"time":4,"transit":false,"i_long":106.820901},{"i_lat":-6.149769,"line":2,"transit":false,"is_transit":false,"distance":1080,"station_id":"MGB","time":2,"station_name":"Manggabesar","i_long":106.82482},{"is_transit":false,"station_name":"Sawah Besar","time":2,"i_long":106.827103,"transit":false,"station_id":"SW","line":2,"i_lat":-6.160725,"distance":906},{"line":2,"time":2,"i_lat":-6.166716,"station_name":"Juanda","transit":false,"is_transit":false,"station_id":"JUA","i_long":106.828284,"distance":1149},{"transit":false,"distance":2015,"station_name":"Gondangdia","line":2,"is_transit":false,"station_id":"GDD","i_lat":-6.186295,"i_long":106.832183,"time":4},{"line":0,"distance":1750,"i_lat":-6.198556,"station_name":"Cikini","transit":false,"is_transit":false,"station_id":"CKI","time":3,"i_long":106.840169},{"i_lat":-6.209883,"is_transit":true,"i_long":106.84912,"distance":1590,"station_name":"Manggarai","time":4,"transit":true,"line":0,"station_id":"MRI"},{"time":4,"i_lat":-6.202263,"station_name":"Sudirman","distance":3186,"station_id":"SUD","is_transit":false,"transit":false,"i_long":106.822649,"line":1},{"time":1,"line":1,"transit":false,"is_transit":false,"i_long":106.819881,"station_name":"Sudirman Baru","distance":280,"i_lat":-6.201433,"station_id":"SUDB"},{"time":1,"distance":471,"line":1,"is_transit":false,"station_id":"KAT","transit":false,"station_name":"Karet","i_lat":-6.20132,"i_long":106.816351},{"distance":2029,"is_transit":true,"station_name":"Tanah Abang","i_lat":-6.185545,"i_long":106.811091,"transit":false,"time":5,"line":1,"station_id":"THB"},{"distance":3632,"station_name":"Duri","transit":true,"i_long":106.800832,"time":8,"station_id":"DU","is_transit":true,"line":1,"i_lat":-6.155215},{"line":5,"distance":1700,"is_transit":false,"station_name":"Grogol","station_id":"GGL","i_lat":-6.162021,"i_long":106.788277,"transit":false,"time":3},{"line":5,"transit":false,"station_name":"Pesing","i_long":106.771379,"distance":2036,"is_transit":false,"time":2,"station_id":"PSG","i_lat":-6.161433}],[{"transit":false,"distance":0,"station_id":"TPK","time":0,"line":4,"i_lat":-6.1109480000000005,"is_transit":false,"station_name":"Tanjung Priuk","i_long":106.880089},{"time":9,"i_long":106.84464,"line":0,"transit":false,"i_lat":-6.128023,"distance":4566,"is_transit":false,"station_name":"Ancol","station_id":"AC"},{"distance":2185,"time":4,"is_transit":true,"i_lat":-6.132549,"i_long":106.826365,"station_id":"KPB","transit":true,"station_name":"Kampung Bandan","line":0},{"is_transit":false,"time":3,"i_long":106.836569,"distance":1444,"station_name":"Rajawali","line":11,"station_id":"RJW","transit":false,"i_lat":-6.14505},{"is_transit":false,"distance":1901,"i_long":106.839204,"station_name":"Kemayoran","transit":false,"time":5,"station_id":"KMO","i_lat":-6.161728,"line":11},{"i_long":106.84368,"is_transit":false,"time":4,"distance":1436,"station_id":"PSE","station_name":"Pasar Senen","i_lat":-6.174784,"line":11,"transit":false},{"distance":1567,"i_long":106.850107,"station_name":"Gang Sentiong","transit":false,"line":11,"is_transit":false,"station_id":"GST","time":8,"i_lat":-6.185975},{"is_transit":false,"time":1,"i_lat":-6.193792,"transit":false,"i_long":106.855437,"distance":973,"station_name":"Kramat","line":11,"station_id":"KMT"},{"station_id":"POK","i_long":106.861737,"station_name":"Pondok Jati","time":2,"distance":1829,"transit":false,"is_transit":false,"i_lat":-6.209188,"line":11},{"is_transit":true,"line":0,"station_id":"JNG","distance":1236,"i_lat":-6.215091,"time":9,"transit":true,"station_name":"Jatinegara","i_long":106.86807400000001},{"is_transit":false,"time":2,"distance":1377,"station_name":"Matraman","transit":false,"i_lat":-6.212485,"i_long":106.858896,"line":1,"station_id":"MTR"},{"transit":false,"time":2,"i_long":106.84912,"i_lat":-6.209883,"line":0,"distance":1275,"station_name":"Manggarai","station_id":"MRI","is_transit":true},{"is_transit":false,"i_long":106.822649,"line":1,"station_id":"SUD","station_name":"Sudirman","i_lat":-6.202263,"distance":3186,"time":4,"transit":false},{"transit":false,"line":1,"i_lat":-6.201433,"distance":280,"i_long":106.819881,"station_name":"Sudirman Baru","time":1,"is_transit":false,"station_id":"SUDB"},{"line":1,"transit":false,"time":1,"i_long":106.816351,"station_name":"Karet","station_id":"KAT","distance":471,"is_transit":false,"i_lat":-6.20132},{"distance":2029,"station_id":"THB","transit":false,"i_long":106.811091,"i_lat":-6.185545,"line":1,"station_name":"Tanah Abang","is_transit":true,"time":5},{"time":8,"line":1,"distance":3632,"station_name":"Duri","i_lat":-6.155215,"i_long":106.800832,"transit":true,"is_transit":true,"station_id":"DU"},{"i_lat":-6.162021,"is_transit":false,"time":3,"line":5,"station_name":"Grogol","station_id":"GGL","i_long":106.788277,"transit":false,"distance":1700},{"i_long":106.771379,"transit":false,"is_transit":false,"distance":2036,"station_id":"PSG","i_lat":-6.161433,"line":5,"station_name":"Pesing","time":2}]]}