{"data":[[{"station_name":"Tanah Tinggi","is_transit":false,"distance":0,"time":0,"i_lat":-6.17331,"i_long":106.64657,"transit":false,"station_id":"TTI","line":5},{"distance":2028,"line":5,"time":3,"transit":false,"is_transit":false,"station_name":"Batuceper","station_id":"BPR","i_long":106.665036,"i_lat":-6.171811},{"time":3,"distance":1834,"i_long":106.679458,"i_lat":-6.169933,"station_name":"Poris","is_transit":false,"transit":false,"station_id":"PI","line":5},{"station_id":"KDS","i_long":106.701612,"is_transit":false,"distance":2548,"time":3,"i_lat":-6.166068,"line":5,"station_name":"Kalideres","transit":false},{"line":5,"transit":false,"station_name":"Rawa Buaya","time":3,"is_transit":false,"i_long":106.723064,"i_lat":-6.162758,"station_id":"RW","distance":2504},{"station_id":"BOI","station_name":"Bojongindah","is_transit":false,"i_long":106.737035,"i_lat":-6.159876,"line":5,"distance":1152,"time":4,"transit":false},{"is_transit":false,"i_long":106.756522,"distance":2334,"i_lat":-6.1587309999999995,"station_name":"Taman Kota","time":2,"transit":false,"station_id":"TKO","line":5},{"station_name":"Pesing","distance":1614,"line":5,"station_id":"PSG","time":2,"is_transit":false,"i_lat":-6.161433,"i_long":106.771379,"transit":false},{"station_id":"GGL","i_long":106.788277,"time":2,"distance":2036,"transit":false,"station_name":"Grogol","is_transit":false,"i_lat":-6.162021,"line":5},{"is_transit":true,"distance":1700,"station_name":"Duri","i_lat":-6.155215,"line":1,"station_id":"DU","transit":true,"time":3,"i_long":106.800832},{"distance":3632,"line":1,"transit":true,"station_name":"Tanah Abang","i_lat":-6.185545,"is_transit":true,"i_long":106.811091,"time":8,"station_id":"THB"},{"line":6,"is_transit":false,"station_name":"Palmerah","distance":3191,"time":6,"i_long":106.79689,"i_lat":-6.207404,"transit":false,"station_id":"PLM"},{"time":7,"transit":false,"is_transit":false,"station_name":"Kebayoran","distance":3737,"i_lat":-6.237242,"i_long":106.780334,"station_id":"KBY","line":6},{"time":8,"i_lat":-6.276362,"station_id":"PDJ","transit":false,"is_transit":false,"distance":6218,"i_long":106.74273,"line":6,"station_name":"Pondokranji"},{"i_long":106.728916,"line":6,"distance":2179,"is_transit":false,"station_name":"Jurangmangu","transit":false,"station_id":"JMU","time":3,"i_lat":-6.288927},{"i_long":106.712277,"line":6,"i_lat":-6.296963,"time":4,"station_id":"SDM","is_transit":false,"distance":1994,"transit":false,"station_name":"Sudimara"},{"station_id":"RU","i_lat":-6.314823,"is_transit":false,"distance":4566,"time":6,"line":6,"transit":false,"station_name":"Rawa Buntu","i_long":106.675475},{"station_name":"Serpong","distance":2413,"transit":false,"station_id":"SRP","is_transit":false,"i_long":106.66566,"i_lat":-6.319871,"line":6,"time":4},{"station_id":"CSK","i_long":106.640411,"i_lat":-6.32484,"is_transit":false,"distance":1784,"transit":false,"time":4,"line":3,"station_name":"Cisauk"},{"line":3,"station_name":"Cicayur","transit":false,"i_long":106.617853,"time":4,"station_id":"CC","is_transit":false,"i_lat":-6.329547,"distance":2519},{"station_name":"Parung Panjang","station_id":"PRP","time":8,"transit":false,"is_transit":false,"i_lat":-6.3441410000000005,"i_long":106.568863,"line":6,"distance":5968},{"distance":7025,"time":9,"is_transit":false,"station_name":"Cilejit","station_id":"CJT","line":3,"i_lat":-6.354349,"i_long":106.508482,"transit":false},{"station_name":"Daru","i_lat":-6.338021,"is_transit":false,"transit":false,"distance":2675,"i_long":106.491338,"line":0,"station_id":"DAR","time":6},{"distance":3902,"i_lat":-6.327251,"transit":false,"i_long":106.460812,"line":6,"is_transit":false,"time":5,"station_name":"Tenjo","station_id":"TEJ"},{"i_lat":-6.328533,"distance":2974,"is_transit":false,"i_long":106.425991,"station_id":"TGS","time":5,"station_name":"Tigaraksa","transit":false,"line":6}],[{"i_long":106.64657,"time":0,"i_lat":-6.17331,"line":5,"station_name":"Tanah Tinggi","station_id":"TTI","distance":0,"transit":false,"is_transit":false},{"line":5,"station_id":"BPR","station_name":"Batuceper","is_transit":false,"i_long":106.665036,"distance":2028,"i_lat":-6.171811,"transit":false,"time":3},{"time":3,"i_lat":-6.169933,"transit":false,"i_long":106.679458,"line":5,"distance":1834,"is_transit":false,"station_id":"PI","station_name":"Poris"},{"i_lat":-6.166068,"station_name":"Kalideres","distance":2548,"transit":false,"line":5,"station_id":"KDS","time":3,"is_transit":false,"i_long":106.701612},{"distance":2504,"i_long":106.723064,"station_name":"Rawa Buaya","is_transit":false,"transit":false,"time":3,"i_lat":-6.162758,"line":5,"station_id":"RW"},{"transit":false,"is_transit":false,"station_name":"Bojongindah","line":5,"time":4,"distance":1152,"i_lat":-6.159876,"station_id":"BOI","i_long":106.737035},{"i_long":106.756522,"time":2,"distance":2334,"line":5,"is_transit":false,"transit":false,"station_name":"Taman Kota","station_id":"TKO","i_lat":-6.1587309999999995},{"time":2,"station_name":"Pesing","distance":1614,"i_long":106.771379,"line":5,"i_lat":-6.161433,"transit":false,"station_id":"PSG","is_transit":false},{"i_lat":-6.162021,"line":5,"station_id":"GGL","is_transit":false,"i_long":106.788277,"time":2,"station_name":"Grogol","distance":2036,"transit":false},{"station_name":"Duri","time":3,"station_id":"DU","distance":1700,"is_transit":true,"i_lat":-6.155215,"transit":true,"i_long":106.800832,"line":1},{"station_name":"Angke","i_lat":-6.144674,"line":1,"distance":1230,"is_transit":false,"station_id":"AK","i_long":106.79867,"transit":false,"time":4},{"i_lat":-6.132549,"is_transit":true,"i_long":106.826365,"line":4,"transit":true,"distance":4102,"station_name":"Kampung Bandan","time":9,"station_id":"KPB"},{"i_lat":-6.137569,"line":2,"transit":true,"station_id":"JAKK","station_name":"Jakarta Kota","is_transit":true,"time":3,"distance":1364,"i_long":106.812439},{"station_name":"Jayakarta","distance":1264,"i_lat":-6.141205,"is_transit":false,"time":4,"line":2,"station_id":"JAY","i_long":106.820901,"transit":false},{"station_id":"MGB","distance":1080,"i_long":106.82482,"line":2,"time":2,"i_lat":-6.149769,"transit":false,"station_name":"Manggabesar","is_transit":false},{"transit":false,"is_transit":false,"i_lat":-6.160725,"line":2,"station_name":"Sawah Besar","i_long":106.827103,"time":2,"station_id":"SW","distance":906},{"transit":false,"station_name":"Juanda","is_transit":false,"distance":1149,"station_id":"JUA","i_lat":-6.166716,"line":2,"time":2,"i_long":106.828284},{"distance":2015,"station_name":"Gondangdia","is_transit":false,"station_id":"GDD","i_long":106.832183,"transit":false,"line":2,"i_lat":-6.186295,"time":4},{"station_id":"CKI","station_name":"Cikini","transit":false,"is_transit":false,"time":3,"i_long":106.840169,"line":2,"distance":1750,"i_lat":-6.198556},{"time":4,"transit":true,"i_lat":-6.209883,"distance":1590,"station_id":"MRI","is_transit":true,"i_long":106.84912,"line":2,"station_name":"Manggarai"},{"i_long":106.822649,"is_transit":false,"i_lat":-6.202263,"transit":false,"station_name":"Sudirman","distance":3186,"line":1,"station_id":"SUD","time":4},{"i_long":106.819881,"distance":280,"line":1,"time":1,"station_name":"Sudirman Baru","station_id":"SUDB","is_transit":false,"i_lat":-6.201433,"transit":false},{"time":1,"station_name":"Karet","i_lat":-6.20132,"i_long":106.816351,"line":1,"distance":471,"transit":false,"station_id":"KAT","is_transit":false},{"station_id":"THB","station_name":"Tanah Abang","i_lat":-6.185545,"distance":2029,"i_long":106.811091,"line":1,"time":5,"transit":true,"is_transit":true},{"i_lat":-6.207404,"line":6,"station_name":"Palmerah","time":6,"distance":3191,"station_id":"PLM","transit":false,"is_transit":false,"i_long":106.79689},{"station_name":"Kebayoran","transit":false,"i_lat":-6.237242,"i_long":106.780334,"station_id":"KBY","distance":3737,"line":6,"is_transit":false,"time":7},{"i_long":106.74273,"station_id":"PDJ","is_transit":false,"i_lat":-6.276362,"line":6,"time":8,"distance":6218,"station_name":"Pondokranji","transit":false},{"i_lat":-6.288927,"distance":2179,"transit":false,"station_name":"Jurangmangu","i_long":106.728916,"station_id":"JMU","time":3,"is_transit":false,"line":6},{"time":4,"line":6,"station_name":"Sudimara","is_transit":false,"i_long":106.712277,"station_id":"SDM","i_lat":-6.296963,"transit":false,"distance":1994},{"is_transit":false,"station_name":"Rawa Buntu","station_id":"RU","distance":4566,"i_long":106.675475,"time":6,"i_lat":-6.314823,"line":6,"transit":false},{"i_long":106.66566,"line":6,"distance":2413,"transit":false,"station_id":"SRP","i_lat":-6.319871,"is_transit":false,"station_name":"Serpong","time":4},{"line":3,"station_id":"CSK","transit":false,"station_name":"Cisauk","i_lat":-6.32484,"time":4,"is_transit":false,"i_long":106.640411,"distance":1784},{"line":3,"i_long":106.617853,"station_id":"CC","transit":false,"i_lat":-6.329547,"time":4,"is_transit":false,"station_name":"Cicayur","distance":2519},{"i_lat":-6.3441410000000005,"transit":false,"station_id":"PRP","time":8,"distance":5968,"line":6,"station_name":"Parung Panjang","i_long":106.568863,"is_transit":false},{"time":9,"i_lat":-6.354349,"i_long":106.508482,"distance":7025,"transit":false,"line":3,"is_transit":false,"station_name":"Cilejit","station_id":"CJT"},{"distance":2675,"i_lat":-6.338021,"is_transit":false,"i_long":106.491338,"time":6,"line":0,"station_name":"Daru","station_id":"DAR","transit":false},{"station_id":"TEJ","station_name":"Tenjo","is_transit":false,"time":5,"distance":3902,"i_lat":-6.327251,"line":6,"i_long":106.460812,"transit":false},{"i_lat":-6.328533,"station_name":"Tigaraksa","transit":false,"line":6,"i_long":106.425991,"station_id":"TGS","time":5,"distance":2974,"is_transit":false}],[{"i_lat":-6.17331,"distance":0,"station_id":"TTI","station_name":"Tanah Tinggi","time":0,"transit":false,"i_long":106.64657,"line":5,"is_transit":false},{"is_transit":false,"station_id":"BPR","time":3,"station_name":"Batuceper","line":5,"distance":2028,"i_long":106.665036,"i_lat":-6.171811,"transit":false},{"i_lat":-6.169933,"is_transit":false,"station_id":"PI","transit":false,"station_name":"Poris","distance":1834,"i_long":106.679458,"time":3,"line":5},{"i_long":106.701612,"station_id":"KDS","station_name":"Kalideres","time":3,"i_lat":-6.166068,"transit":false,"distance":2548,"is_transit":false,"line":5},{"i_lat":-6.162758,"line":5,"transit":false,"station_name":"Rawa Buaya","is_transit":false,"i_long":106.723064,"station_id":"RW","distance":2504,"time":3},{"transit":false,"line":5,"station_id":"BOI","time":4,"is_transit":false,"distance":1152,"station_name":"Bojongindah","i_long":106.737035,"i_lat":-6.159876},{"station_id":"TKO","transit":false,"is_transit":false,"i_long":106.756522,"time":2,"distance":2334,"i_lat":-6.1587309999999995,"station_name":"Taman Kota","line":5},{"time":2,"station_name":"Pesing","is_transit":false,"i_lat":-6.161433,"transit":false,"i_long":106.771379,"line":5,"distance":1614,"station_id":"PSG"},{"transit":false,"is_transit":false,"line":5,"distance":2036,"station_name":"Grogol","time":2,"i_lat":-6.162021,"i_long":106.788277,"station_id":"GGL"},{"line":1,"station_name":"Duri","station_id":"DU","time":3,"i_lat":-6.155215,"distance":1700,"transit":true,"is_transit":true,"i_long":106.800832},{"i_long":106.79867,"station_id":"AK","distance":1230,"i_lat":-6.144674,"station_name":"Angke","line":1,"transit":false,"is_transit":false,"time":4},{"i_lat":-6.132549,"distance":4102,"station_id":"KPB","time":9,"transit":true,"is_transit":true,"line":4,"station_name":"Kampung Bandan","i_long":106.826365},{"station_name":"Rajawali","i_long":106.836569,"line":11,"transit":false,"i_lat":-6.14505,"is_transit":false,"time":3,"distance":1444,"station_id":"RJW"},{"time":5,"is_transit":false,"line":11,"transit":false,"station_name":"Kemayoran","station_id":"KMO","i_long":106.839204,"distance":1901,"i_lat":-6.161728},{"time":4,"is_transit":false,"i_long":106.84368,"station_name":"Pasar Senen","line":11,"distance":1436,"i_lat":-6.174784,"station_id":"PSE","transit":false},{"i_lat":-6.185975,"i_long":106.850107,"station_name":"Gang Sentiong","station_id":"GST","distance":1567,"transit":false,"line":11,"is_transit":false,"time":8},{"line":11,"station_name":"Kramat","time":1,"i_lat":-6.193792,"station_id":"KMT","transit":false,"is_transit":false,"distance":973,"i_long":106.855437},{"station_id":"POK","i_lat":-6.209188,"transit":false,"line":11,"is_transit":false,"time":2,"station_name":"Pondok Jati","distance":1829,"i_long":106.861737},{"i_lat":-6.215091,"line":1,"is_transit":true,"station_id":"JNG","transit":true,"station_name":"Jatinegara","time":9,"distance":1236,"i_long":106.86807400000001},{"station_name":"Matraman","is_transit":false,"distance":1377,"i_long":106.858896,"i_lat":-6.212485,"time":2,"station_id":"MTR","transit":false,"line":1},{"station_name":"Manggarai","station_id":"MRI","transit":false,"time":2,"is_transit":false,"distance":1275,"i_lat":-6.209883,"line":2,"i_long":106.84912},{"transit":false,"time":4,"distance":3186,"is_transit":false,"station_name":"Sudirman","station_id":"SUD","i_lat":-6.202263,"line":1,"i_long":106.822649},{"transit":false,"i_long":106.819881,"i_lat":-6.201433,"is_transit":false,"distance":280,"time":1,"line":1,"station_id":"SUDB","station_name":"Sudirman Baru"},{"i_lat":-6.20132,"i_long":106.816351,"line":1,"station_id":"KAT","time":1,"transit":false,"is_transit":false,"station_name":"Karet","distance":471},{"station_name":"Tanah Abang","station_id":"THB","line":1,"time":5,"is_transit":true,"transit":true,"i_lat":-6.185545,"i_long":106.811091,"distance":2029},{"distance":3191,"time":6,"station_name":"Palmerah","i_long":106.79689,"transit":false,"i_lat":-6.207404,"line":6,"is_transit":false,"station_id":"PLM"},{"is_transit":false,"transit":false,"distance":3737,"station_id":"KBY","time":7,"i_lat":-6.237242,"i_long":106.780334,"station_name":"Kebayoran","line":6},{"station_name":"Pondokranji","distance":6218,"is_transit":false,"i_long":106.74273,"line":6,"transit":false,"station_id":"PDJ","time":8,"i_lat":-6.276362},{"i_lat":-6.288927,"transit":false,"time":3,"is_transit":false,"station_name":"Jurangmangu","station_id":"JMU","distance":2179,"i_long":106.728916,"line":6},{"is_transit":false,"station_name":"Sudimara","distance":1994,"station_id":"SDM","transit":false,"i_long":106.712277,"line":6,"time":4,"i_lat":-6.296963},{"is_transit":false,"distance":4566,"time":6,"station_name":"Rawa Buntu","station_id":"RU","i_lat":-6.314823,"line":6,"transit":false,"i_long":106.675475},{"is_transit":false,"line":6,"distance":2413,"i_lat":-6.319871,"station_id":"SRP","i_long":106.66566,"transit":false,"station_name":"Serpong","time":4},{"station_name":"Cisauk","distance":1784,"i_lat":-6.32484,"transit":false,"station_id":"CSK","line":3,"i_long":106.640411,"is_transit":false,"time":4},{"transit":false,"distance":2519,"i_long":106.617853,"station_id":"CC","time":4,"i_lat":-6.329547,"is_transit":false,"line":3,"station_name":"Cicayur"},{"i_lat":-6.3441410000000005,"i_long":106.568863,"line":6,"is_transit":false,"station_id":"PRP","transit":false,"time":8,"distance":5968,"station_name":"Parung Panjang"},{"i_long":106.508482,"transit":false,"line":3,"time":9,"station_id":"CJT","i_lat":-6.354349,"station_name":"Cilejit","is_transit":false,"distance":7025},{"is_transit":false,"station_id":"DAR","distance":2675,"i_long":106.491338,"station_name":"Daru","i_lat":-6.338021,"line":0,"time":6,"transit":false},{"is_transit":false,"station_name":"Tenjo","i_lat":-6.327251,"distance":3902,"station_id":"TEJ","line":6,"i_long":106.460812,"transit":false,"time":5},{"station_name":"Tigaraksa","distance":2974,"i_lat":-6.328533,"station_id":"TGS","i_long":106.425991,"transit":false,"time":5,"is_transit":false,"line":6}]]}