{"data":[[{"line":5,"distance":0,"i_long":106.64657,"transit":false,"station_id":"TTI","is_transit":false,"time":0,"i_lat":-6.17331,"station_name":"Tanah Tinggi"},{"station_name":"Batuceper","line":5,"station_id":"BPR","i_lat":-6.171811,"time":3,"distance":2028,"transit":false,"i_long":106.665036,"is_transit":false},{"station_id":"PI","i_long":106.679458,"distance":1834,"time":3,"transit":false,"is_transit":false,"i_lat":-6.169933,"line":5,"station_name":"Poris"},{"station_name":"Kalideres","i_long":106.701612,"distance":2548,"transit":false,"station_id":"KDS","time":3,"i_lat":-6.166068,"line":5,"is_transit":false},{"station_name":"Rawa Buaya","i_lat":-6.162758,"is_transit":false,"line":5,"time":3,"station_id":"RW","i_long":106.723064,"distance":2504,"transit":false},{"time":4,"line":5,"i_lat":-6.159876,"transit":false,"i_long":106.737035,"station_id":"BOI","distance":1152,"is_transit":false,"station_name":"Bojongindah"},{"time":2,"station_id":"TKO","distance":2334,"i_lat":-6.1587309999999995,"station_name":"Taman Kota","is_transit":false,"i_long":106.756522,"transit":false,"line":5},{"transit":false,"time":2,"station_name":"Pesing","station_id":"PSG","is_transit":false,"distance":1614,"line":5,"i_long":106.771379,"i_lat":-6.161433},{"station_id":"GGL","station_name":"Grogol","is_transit":false,"transit":false,"time":2,"i_long":106.788277,"i_lat":-6.162021,"line":5,"distance":2036},{"transit":true,"time":3,"i_lat":-6.155215,"station_name":"Duri","i_long":106.800832,"station_id":"DU","distance":1700,"line":1,"is_transit":true},{"transit":true,"station_name":"Tanah Abang","is_transit":true,"i_long":106.811091,"station_id":"THB","line":1,"distance":3632,"time":8,"i_lat":-6.185545},{"transit":false,"station_id":"PLM","i_lat":-6.207404,"is_transit":false,"time":6,"distance":3191,"station_name":"Palmerah","i_long":106.79689,"line":6},{"transit":false,"station_name":"Kebayoran","station_id":"KBY","line":6,"i_long":106.780334,"distance":3737,"time":7,"is_transit":false,"i_lat":-6.237242},{"time":8,"line":6,"station_id":"PDJ","is_transit":false,"station_name":"Pondokranji","transit":false,"i_lat":-6.276362,"i_long":106.74273,"distance":6218},{"distance":2179,"i_long":106.728916,"time":3,"transit":false,"station_id":"JMU","station_name":"Jurangmangu","i_lat":-6.288927,"line":6,"is_transit":false},{"station_id":"SDM","is_transit":false,"distance":1994,"i_long":106.712277,"i_lat":-6.296963,"transit":false,"station_name":"Sudimara","time":4,"line":6},{"line":6,"station_name":"Rawa Buntu","distance":4566,"station_id":"RU","time":6,"i_long":106.675475,"transit":false,"is_transit":false,"i_lat":-6.314823},{"station_id":"SRP","transit":false,"i_long":106.66566,"distance":2413,"line":6,"is_transit":false,"time":4,"station_name":"Serpong","i_lat":-6.319871},{"i_lat":-6.32484,"transit":false,"station_id":"CSK","line":3,"time":4,"station_name":"Cisauk","is_transit":false,"i_long":106.640411,"distance":1784},{"distance":2519,"i_long":106.617853,"is_transit":false,"line":3,"transit":false,"i_lat":-6.329547,"station_name":"Cicayur","station_id":"CC","time":4},{"station_id":"PRP","i_lat":-6.3441410000000005,"transit":false,"line":6,"time":8,"distance":5968,"is_transit":false,"station_name":"Parung Panjang","i_long":106.568863},{"i_lat":-6.354349,"station_name":"Cilejit","distance":7025,"line":3,"i_long":106.508482,"station_id":"CJT","time":9,"transit":false,"is_transit":false}],[{"i_lat":-6.17331,"transit":false,"is_transit":false,"station_id":"TTI","i_long":106.64657,"station_name":"Tanah Tinggi","distance":0,"line":5,"time":0},{"line":5,"is_transit":false,"time":3,"station_id":"BPR","transit":false,"station_name":"Batuceper","i_long":106.665036,"distance":2028,"i_lat":-6.171811},{"is_transit":false,"i_lat":-6.169933,"i_long":106.679458,"distance":1834,"station_id":"PI","station_name":"Poris","line":5,"time":3,"transit":false},{"i_long":106.701612,"station_name":"Kalideres","is_transit":false,"transit":false,"distance":2548,"time":3,"station_id":"KDS","i_lat":-6.166068,"line":5},{"transit":false,"distance":2504,"is_transit":false,"time":3,"station_id":"RW","line":5,"station_name":"Rawa Buaya","i_long":106.723064,"i_lat":-6.162758},{"i_lat":-6.159876,"is_transit":false,"station_name":"Bojongindah","transit":false,"station_id":"BOI","time":4,"distance":1152,"i_long":106.737035,"line":5},{"transit":false,"i_lat":-6.1587309999999995,"time":2,"is_transit":false,"station_id":"TKO","i_long":106.756522,"distance":2334,"station_name":"Taman Kota","line":5},{"line":5,"distance":1614,"transit":false,"time":2,"station_name":"Pesing","station_id":"PSG","i_lat":-6.161433,"i_long":106.771379,"is_transit":false},{"is_transit":false,"time":2,"distance":2036,"transit":false,"station_name":"Grogol","station_id":"GGL","i_long":106.788277,"line":5,"i_lat":-6.162021},{"time":3,"transit":true,"i_long":106.800832,"line":1,"station_id":"DU","distance":1700,"i_lat":-6.155215,"station_name":"Duri","is_transit":true},{"line":1,"time":4,"is_transit":false,"transit":false,"station_id":"AK","distance":1230,"station_name":"Angke","i_lat":-6.144674,"i_long":106.79867},{"station_name":"Kampung Bandan","transit":true,"i_lat":-6.132549,"time":9,"is_transit":true,"distance":4102,"i_long":106.826365,"station_id":"KPB","line":4},{"i_lat":-6.137569,"line":2,"time":3,"is_transit":true,"i_long":106.812439,"distance":1364,"transit":true,"station_id":"JAKK","station_name":"Jakarta Kota"},{"distance":1264,"station_name":"Jayakarta","transit":false,"is_transit":false,"time":4,"i_lat":-6.141205,"i_long":106.820901,"line":2,"station_id":"JAY"},{"i_lat":-6.149769,"station_name":"Manggabesar","time":2,"is_transit":false,"transit":false,"line":2,"station_id":"MGB","i_long":106.82482,"distance":1080},{"station_id":"SW","is_transit":false,"station_name":"Sawah Besar","i_long":106.827103,"distance":906,"line":2,"i_lat":-6.160725,"transit":false,"time":2},{"distance":1149,"line":2,"is_transit":false,"time":2,"station_id":"JUA","station_name":"Juanda","transit":false,"i_long":106.828284,"i_lat":-6.166716},{"line":2,"time":4,"i_long":106.832183,"station_id":"GDD","station_name":"Gondangdia","is_transit":false,"distance":2015,"i_lat":-6.186295,"transit":false},{"distance":1750,"i_long":106.840169,"is_transit":false,"i_lat":-6.198556,"transit":false,"line":2,"time":3,"station_name":"Cikini","station_id":"CKI"},{"station_id":"MRI","i_long":106.84912,"line":2,"time":4,"transit":true,"distance":1590,"station_name":"Manggarai","i_lat":-6.209883,"is_transit":true},{"time":4,"station_name":"Sudirman","transit":false,"station_id":"SUD","i_long":106.822649,"line":1,"i_lat":-6.202263,"distance":3186,"is_transit":false},{"line":1,"i_long":106.819881,"station_name":"Sudirman Baru","station_id":"SUDB","time":1,"is_transit":false,"i_lat":-6.201433,"transit":false,"distance":280},{"transit":false,"station_name":"Karet","line":1,"distance":471,"time":1,"i_lat":-6.20132,"i_long":106.816351,"is_transit":false,"station_id":"KAT"},{"i_lat":-6.185545,"station_id":"THB","is_transit":true,"transit":true,"i_long":106.811091,"station_name":"Tanah Abang","distance":2029,"line":1,"time":5},{"station_id":"PLM","i_lat":-6.207404,"line":6,"is_transit":false,"time":6,"transit":false,"station_name":"Palmerah","distance":3191,"i_long":106.79689},{"time":7,"is_transit":false,"station_id":"KBY","i_lat":-6.237242,"distance":3737,"station_name":"Kebayoran","line":6,"transit":false,"i_long":106.780334},{"transit":false,"distance":6218,"time":8,"i_long":106.74273,"is_transit":false,"line":6,"station_name":"Pondokranji","station_id":"PDJ","i_lat":-6.276362},{"distance":2179,"time":3,"line":6,"transit":false,"i_lat":-6.288927,"is_transit":false,"station_name":"Jurangmangu","i_long":106.728916,"station_id":"JMU"},{"line":6,"is_transit":false,"station_id":"SDM","distance":1994,"transit":false,"time":4,"station_name":"Sudimara","i_lat":-6.296963,"i_long":106.712277},{"i_lat":-6.314823,"station_name":"Rawa Buntu","is_transit":false,"transit":false,"station_id":"RU","time":6,"i_long":106.675475,"line":6,"distance":4566},{"line":6,"is_transit":false,"distance":2413,"station_id":"SRP","transit":false,"i_lat":-6.319871,"time":4,"station_name":"Serpong","i_long":106.66566},{"line":3,"time":4,"station_name":"Cisauk","is_transit":false,"i_long":106.640411,"station_id":"CSK","transit":false,"distance":1784,"i_lat":-6.32484},{"transit":false,"distance":2519,"station_name":"Cicayur","i_long":106.617853,"station_id":"CC","i_lat":-6.329547,"is_transit":false,"time":4,"line":3},{"is_transit":false,"time":8,"i_long":106.568863,"line":6,"station_id":"PRP","station_name":"Parung Panjang","distance":5968,"i_lat":-6.3441410000000005,"transit":false},{"time":9,"station_id":"CJT","transit":false,"station_name":"Cilejit","i_long":106.508482,"i_lat":-6.354349,"is_transit":false,"line":3,"distance":7025}],[{"i_lat":-6.17331,"line":5,"is_transit":false,"i_long":106.64657,"station_id":"TTI","transit":false,"station_name":"Tanah Tinggi","time":0,"distance":0},{"station_name":"Batuceper","transit":false,"is_transit":false,"i_lat":-6.171811,"time":3,"distance":2028,"i_long":106.665036,"station_id":"BPR","line":5},{"is_transit":false,"station_id":"PI","time":3,"transit":false,"i_long":106.679458,"distance":1834,"i_lat":-6.169933,"line":5,"station_name":"Poris"},{"station_id":"KDS","line":5,"distance":2548,"i_long":106.701612,"is_transit":false,"time":3,"station_name":"Kalideres","i_lat":-6.166068,"transit":false},{"transit":false,"station_id":"RW","i_long":106.723064,"station_name":"Rawa Buaya","time":3,"distance":2504,"line":5,"is_transit":false,"i_lat":-6.162758},{"time":4,"line":5,"transit":false,"is_transit":false,"i_long":106.737035,"i_lat":-6.159876,"station_id":"BOI","distance":1152,"station_name":"Bojongindah"},{"is_transit":false,"transit":false,"i_long":106.756522,"line":5,"distance":2334,"i_lat":-6.1587309999999995,"time":2,"station_id":"TKO","station_name":"Taman Kota"},{"transit":false,"is_transit":false,"station_id":"PSG","i_long":106.771379,"distance":1614,"time":2,"station_name":"Pesing","i_lat":-6.161433,"line":5},{"station_id":"GGL","i_long":106.788277,"time":2,"line":5,"distance":2036,"is_transit":false,"transit":false,"station_name":"Grogol","i_lat":-6.162021},{"station_id":"DU","i_lat":-6.155215,"line":1,"i_long":106.800832,"station_name":"Duri","is_transit":true,"time":3,"distance":1700,"transit":true},{"line":1,"time":4,"station_name":"Angke","i_long":106.79867,"station_id":"AK","is_transit":false,"distance":1230,"i_lat":-6.144674,"transit":false},{"time":9,"station_name":"Kampung Bandan","transit":true,"distance":4102,"line":4,"i_lat":-6.132549,"i_long":106.826365,"is_transit":true,"station_id":"KPB"},{"station_id":"RJW","transit":false,"station_name":"Rajawali","line":11,"distance":1444,"time":3,"i_lat":-6.14505,"i_long":106.836569,"is_transit":false},{"station_id":"KMO","distance":1901,"i_lat":-6.161728,"i_long":106.839204,"time":5,"line":11,"station_name":"Kemayoran","is_transit":false,"transit":false},{"i_long":106.84368,"station_name":"Pasar Senen","distance":1436,"station_id":"PSE","line":11,"i_lat":-6.174784,"transit":false,"time":4,"is_transit":false},{"transit":false,"i_lat":-6.185975,"station_name":"Gang Sentiong","is_transit":false,"time":8,"distance":1567,"i_long":106.850107,"line":11,"station_id":"GST"},{"i_long":106.855437,"time":1,"transit":false,"station_id":"KMT","line":11,"i_lat":-6.193792,"station_name":"Kramat","is_transit":false,"distance":973},{"time":2,"station_id":"POK","line":11,"is_transit":false,"transit":false,"station_name":"Pondok Jati","distance":1829,"i_lat":-6.209188,"i_long":106.861737},{"time":9,"distance":1236,"transit":true,"i_lat":-6.215091,"station_id":"JNG","is_transit":true,"station_name":"Jatinegara","i_long":106.86807400000001,"line":1},{"distance":1377,"i_lat":-6.212485,"transit":false,"i_long":106.858896,"line":1,"time":2,"station_name":"Matraman","is_transit":false,"station_id":"MTR"},{"i_long":106.84912,"i_lat":-6.209883,"transit":false,"distance":1275,"line":2,"station_name":"Manggarai","is_transit":false,"time":2,"station_id":"MRI"},{"station_name":"Sudirman","distance":3186,"is_transit":false,"transit":false,"i_lat":-6.202263,"line":1,"station_id":"SUD","i_long":106.822649,"time":4},{"distance":280,"station_name":"Sudirman Baru","i_lat":-6.201433,"is_transit":false,"i_long":106.819881,"line":1,"station_id":"SUDB","time":1,"transit":false},{"station_id":"KAT","station_name":"Karet","is_transit":false,"distance":471,"i_lat":-6.20132,"time":1,"i_long":106.816351,"line":1,"transit":false},{"i_long":106.811091,"line":1,"is_transit":true,"station_id":"THB","distance":2029,"time":5,"station_name":"Tanah Abang","transit":true,"i_lat":-6.185545},{"i_long":106.79689,"distance":3191,"i_lat":-6.207404,"line":6,"time":6,"station_name":"Palmerah","is_transit":false,"transit":false,"station_id":"PLM"},{"line":6,"i_lat":-6.237242,"i_long":106.780334,"time":7,"station_name":"Kebayoran","transit":false,"distance":3737,"is_transit":false,"station_id":"KBY"},{"distance":6218,"i_lat":-6.276362,"station_name":"Pondokranji","line":6,"transit":false,"is_transit":false,"station_id":"PDJ","time":8,"i_long":106.74273},{"distance":2179,"station_name":"Jurangmangu","i_lat":-6.288927,"station_id":"JMU","is_transit":false,"time":3,"i_long":106.728916,"transit":false,"line":6},{"line":6,"is_transit":false,"distance":1994,"i_lat":-6.296963,"station_id":"SDM","time":4,"i_long":106.712277,"station_name":"Sudimara","transit":false},{"is_transit":false,"station_id":"RU","line":6,"station_name":"Rawa Buntu","transit":false,"time":6,"distance":4566,"i_long":106.675475,"i_lat":-6.314823},{"i_long":106.66566,"is_transit":false,"station_name":"Serpong","station_id":"SRP","i_lat":-6.319871,"line":6,"transit":false,"time":4,"distance":2413},{"time":4,"line":3,"transit":false,"station_id":"CSK","station_name":"Cisauk","is_transit":false,"distance":1784,"i_long":106.640411,"i_lat":-6.32484},{"time":4,"station_id":"CC","distance":2519,"i_long":106.617853,"line":3,"is_transit":false,"station_name":"Cicayur","transit":false,"i_lat":-6.329547},{"i_long":106.568863,"time":8,"i_lat":-6.3441410000000005,"station_id":"PRP","distance":5968,"transit":false,"is_transit":false,"line":6,"station_name":"Parung Panjang"},{"transit":false,"is_transit":false,"line":3,"time":9,"station_name":"Cilejit","i_long":106.508482,"station_id":"CJT","distance":7025,"i_lat":-6.354349}]]}