{"data":[[{"i_long":106.64657,"station_name":"Tanah Tinggi","i_lat":-6.17331,"station_id":"TTI","transit":false,"line":5,"is_transit":false,"time":0,"distance":0},{"is_transit":false,"station_id":"BPR","i_long":106.665036,"distance":2028,"transit":false,"station_name":"Batuceper","time":3,"i_lat":-6.171811,"line":5},{"is_transit":false,"line":5,"transit":false,"distance":1834,"i_long":106.679458,"station_id":"PI","station_name":"Poris","i_lat":-6.169933,"time":3},{"i_lat":-6.166068,"station_id":"KDS","line":5,"station_name":"Kalideres","transit":false,"time":3,"distance":2548,"is_transit":false,"i_long":106.701612},{"station_id":"RW","transit":false,"is_transit":false,"i_long":106.723064,"distance":2504,"time":3,"line":5,"i_lat":-6.162758,"station_name":"Rawa Buaya"},{"is_transit":false,"station_name":"Bojongindah","distance":1152,"station_id":"BOI","i_lat":-6.159876,"time":4,"i_long":106.737035,"transit":false,"line":5},{"line":5,"is_transit":false,"station_name":"Taman Kota","time":2,"station_id":"TKO","i_lat":-6.1587309999999995,"i_long":106.756522,"distance":2334,"transit":false},{"is_transit":false,"station_name":"Pesing","transit":false,"distance":1614,"i_lat":-6.161433,"i_long":106.771379,"station_id":"PSG","time":2,"line":5},{"i_lat":-6.162021,"line":5,"station_name":"Grogol","station_id":"GGL","transit":false,"time":2,"distance":2036,"i_long":106.788277,"is_transit":false},{"i_lat":-6.155215,"is_transit":true,"transit":true,"station_name":"Duri","line":1,"station_id":"DU","i_long":106.800832,"distance":1700,"time":3},{"station_name":"Angke","is_transit":false,"station_id":"AK","i_long":106.79867,"line":1,"time":4,"distance":1230,"transit":false,"i_lat":-6.144674},{"is_transit":true,"station_id":"KPB","transit":true,"time":9,"station_name":"Kampung Bandan","i_long":106.826365,"distance":4102,"i_lat":-6.132549,"line":4},{"station_id":"AC","line":4,"station_name":"Ancol","is_transit":false,"distance":2185,"transit":false,"i_lat":-6.128023,"i_long":106.84464,"time":4}],[{"i_long":106.64657,"transit":false,"station_name":"Tanah Tinggi","i_lat":-6.17331,"time":0,"line":5,"is_transit":false,"station_id":"TTI","distance":0},{"line":5,"distance":2028,"station_name":"Batuceper","i_long":106.665036,"i_lat":-6.171811,"transit":false,"time":3,"station_id":"BPR","is_transit":false},{"line":5,"time":3,"transit":false,"distance":1834,"i_long":106.679458,"station_name":"Poris","i_lat":-6.169933,"is_transit":false,"station_id":"PI"},{"i_long":106.701612,"station_id":"KDS","is_transit":false,"station_name":"Kalideres","i_lat":-6.166068,"line":5,"distance":2548,"time":3,"transit":false},{"i_long":106.723064,"station_id":"RW","time":3,"is_transit":false,"line":5,"station_name":"Rawa Buaya","transit":false,"distance":2504,"i_lat":-6.162758},{"line":5,"distance":1152,"i_long":106.737035,"station_name":"Bojongindah","station_id":"BOI","is_transit":false,"i_lat":-6.159876,"transit":false,"time":4},{"i_lat":-6.1587309999999995,"transit":false,"i_long":106.756522,"is_transit":false,"station_id":"TKO","time":2,"distance":2334,"line":5,"station_name":"Taman Kota"},{"time":2,"station_id":"PSG","i_lat":-6.161433,"is_transit":false,"transit":false,"line":5,"distance":1614,"station_name":"Pesing","i_long":106.771379},{"time":2,"station_name":"Grogol","transit":false,"is_transit":false,"station_id":"GGL","i_lat":-6.162021,"i_long":106.788277,"distance":2036,"line":5},{"is_transit":true,"transit":true,"station_name":"Duri","station_id":"DU","time":3,"distance":1700,"line":1,"i_long":106.800832,"i_lat":-6.155215},{"i_lat":-6.185545,"i_long":106.811091,"station_id":"THB","is_transit":false,"transit":false,"station_name":"Tanah Abang","time":8,"distance":3632,"line":1},{"is_transit":false,"distance":2029,"station_name":"Karet","station_id":"KAT","i_lat":-6.20132,"transit":false,"time":5,"line":1,"i_long":106.816351},{"line":1,"transit":false,"distance":471,"station_name":"Sudirman Baru","i_lat":-6.201433,"time":1,"station_id":"SUDB","is_transit":false,"i_long":106.819881},{"i_lat":-6.202263,"is_transit":false,"station_name":"Sudirman","transit":false,"i_long":106.822649,"time":1,"line":1,"distance":280,"station_id":"SUD"},{"is_transit":true,"i_long":106.84912,"station_name":"Manggarai","distance":3186,"transit":true,"line":2,"time":4,"i_lat":-6.209883,"station_id":"MRI"},{"i_lat":-6.198556,"station_name":"Cikini","is_transit":false,"time":4,"station_id":"CKI","i_long":106.840169,"line":2,"transit":false,"distance":1590},{"time":3,"line":2,"i_lat":-6.186295,"is_transit":false,"distance":1750,"i_long":106.832183,"station_name":"Gondangdia","station_id":"GDD","transit":false},{"transit":false,"time":4,"is_transit":false,"i_long":106.828284,"line":2,"distance":2015,"station_id":"JUA","station_name":"Juanda","i_lat":-6.166716},{"i_long":106.827103,"transit":false,"is_transit":false,"time":2,"station_id":"SW","line":2,"distance":1149,"i_lat":-6.160725,"station_name":"Sawah Besar"},{"i_long":106.82482,"line":2,"station_name":"Manggabesar","is_transit":false,"time":2,"distance":906,"i_lat":-6.149769,"transit":false,"station_id":"MGB"},{"i_lat":-6.141205,"station_id":"JAY","line":2,"i_long":106.820901,"transit":false,"station_name":"Jayakarta","is_transit":false,"distance":1080,"time":2},{"time":4,"distance":1264,"i_long":106.812439,"line":2,"is_transit":true,"station_name":"Jakarta Kota","station_id":"JAKK","i_lat":-6.137569,"transit":true},{"station_name":"Kampung Bandan","distance":1364,"time":3,"i_lat":-6.132549,"i_long":106.826365,"is_transit":true,"line":4,"station_id":"KPB","transit":true},{"station_id":"AC","i_long":106.84464,"is_transit":false,"line":4,"transit":false,"distance":2185,"i_lat":-6.128023,"time":4,"station_name":"Ancol"}],[{"i_long":106.64657,"station_id":"TTI","i_lat":-6.17331,"station_name":"Tanah Tinggi","distance":0,"line":5,"time":0,"transit":false,"is_transit":false},{"i_long":106.665036,"transit":false,"station_id":"BPR","time":3,"line":5,"i_lat":-6.171811,"distance":2028,"station_name":"Batuceper","is_transit":false},{"i_lat":-6.169933,"line":5,"station_name":"Poris","distance":1834,"time":3,"station_id":"PI","is_transit":false,"i_long":106.679458,"transit":false},{"time":3,"distance":2548,"i_lat":-6.166068,"i_long":106.701612,"transit":false,"station_id":"KDS","is_transit":false,"line":5,"station_name":"Kalideres"},{"transit":false,"station_id":"RW","i_lat":-6.162758,"time":3,"line":5,"station_name":"Rawa Buaya","i_long":106.723064,"distance":2504,"is_transit":false},{"i_lat":-6.159876,"is_transit":false,"station_name":"Bojongindah","station_id":"BOI","time":4,"distance":1152,"line":5,"transit":false,"i_long":106.737035},{"is_transit":false,"time":2,"i_lat":-6.1587309999999995,"transit":false,"line":5,"distance":2334,"i_long":106.756522,"station_name":"Taman Kota","station_id":"TKO"},{"line":5,"station_name":"Pesing","station_id":"PSG","transit":false,"i_long":106.771379,"is_transit":false,"distance":1614,"time":2,"i_lat":-6.161433},{"line":5,"station_id":"GGL","distance":2036,"i_long":106.788277,"is_transit":false,"time":2,"transit":false,"station_name":"Grogol","i_lat":-6.162021},{"station_name":"Duri","transit":true,"line":1,"is_transit":true,"station_id":"DU","time":3,"distance":1700,"i_lat":-6.155215,"i_long":106.800832},{"is_transit":false,"station_id":"THB","i_lat":-6.185545,"distance":3632,"line":1,"transit":false,"time":8,"i_long":106.811091,"station_name":"Tanah Abang"},{"distance":2029,"station_name":"Karet","i_lat":-6.20132,"is_transit":false,"i_long":106.816351,"line":1,"time":5,"station_id":"KAT","transit":false},{"transit":false,"i_lat":-6.201433,"time":1,"station_name":"Sudirman Baru","station_id":"SUDB","i_long":106.819881,"is_transit":false,"line":1,"distance":471},{"station_name":"Sudirman","i_lat":-6.202263,"transit":false,"time":1,"line":1,"station_id":"SUD","i_long":106.822649,"distance":280,"is_transit":false},{"station_name":"Manggarai","time":4,"line":2,"transit":false,"i_long":106.84912,"i_lat":-6.209883,"station_id":"MRI","is_transit":false,"distance":3186},{"time":2,"line":1,"is_transit":false,"station_id":"MTR","distance":1275,"i_lat":-6.212485,"station_name":"Matraman","transit":false,"i_long":106.858896},{"line":1,"is_transit":true,"station_id":"JNG","transit":true,"i_long":106.86807400000001,"distance":1377,"station_name":"Jatinegara","i_lat":-6.215091,"time":8},{"distance":1236,"is_transit":false,"transit":false,"i_lat":-6.209188,"station_name":"Pondok Jati","time":2,"station_id":"POK","i_long":106.861737,"line":11},{"line":11,"i_lat":-6.193792,"station_name":"Kramat","i_long":106.855437,"transit":false,"station_id":"KMT","time":2,"distance":1829,"is_transit":false},{"i_long":106.850107,"distance":973,"transit":false,"line":11,"is_transit":false,"station_name":"Gang Sentiong","time":1,"station_id":"GST","i_lat":-6.185975},{"is_transit":false,"station_id":"PSE","station_name":"Pasar Senen","transit":false,"i_long":106.84368,"line":11,"distance":1567,"i_lat":-6.174784,"time":8},{"station_id":"KMO","is_transit":false,"transit":false,"line":11,"time":4,"i_long":106.839204,"station_name":"Kemayoran","distance":1436,"i_lat":-6.161728},{"transit":false,"station_id":"RJW","is_transit":false,"distance":1901,"station_name":"Rajawali","line":11,"i_long":106.836569,"time":5,"i_lat":-6.14505},{"transit":true,"time":3,"station_id":"KPB","distance":1444,"station_name":"Kampung Bandan","is_transit":true,"line":4,"i_long":106.826365,"i_lat":-6.132549},{"transit":false,"station_name":"Ancol","time":4,"i_lat":-6.128023,"station_id":"AC","distance":2185,"i_long":106.84464,"is_transit":false,"line":4}]]}