{"data":[[{"time":0,"distance":0,"station_id":"TTI","is_transit":false,"station_name":"Tanah Tinggi","i_long":106.64657,"transit":false,"i_lat":-6.17331,"line":5},{"time":3,"distance":2028,"station_id":"BPR","is_transit":false,"station_name":"Batuceper","line":5,"i_lat":-6.171811,"transit":false,"i_long":106.665036},{"line":5,"i_lat":-6.169933,"is_transit":false,"distance":1834,"station_name":"Poris","transit":false,"i_long":106.679458,"time":3,"station_id":"PI"},{"line":5,"distance":2548,"i_long":106.701612,"station_name":"Kalideres","is_transit":false,"time":3,"i_lat":-6.166068,"transit":false,"station_id":"KDS"},{"i_long":106.723064,"transit":false,"i_lat":-6.162758,"distance":2504,"is_transit":false,"line":5,"station_name":"Rawa Buaya","time":3,"station_id":"RW"},{"time":4,"distance":1152,"station_id":"BOI","transit":false,"i_lat":-6.159876,"i_long":106.737035,"line":5,"is_transit":false,"station_name":"Bojongindah"},{"i_lat":-6.1587309999999995,"i_long":106.756522,"line":5,"transit":false,"distance":2334,"time":2,"is_transit":false,"station_id":"TKO","station_name":"Taman Kota"},{"i_long":106.771379,"distance":1614,"time":2,"station_name":"Pesing","is_transit":false,"transit":false,"i_lat":-6.161433,"line":5,"station_id":"PSG"},{"station_id":"GGL","distance":2036,"line":5,"i_long":106.788277,"station_name":"Grogol","time":2,"transit":false,"i_lat":-6.162021,"is_transit":false},{"distance":1700,"i_long":106.800832,"line":1,"i_lat":-6.155215,"time":3,"is_transit":true,"station_name":"Duri","transit":true,"station_id":"DU"},{"i_long":106.811091,"distance":3632,"station_id":"THB","station_name":"Tanah Abang","line":1,"transit":true,"is_transit":true,"i_lat":-6.185545,"time":8},{"station_name":"Palmerah","time":6,"line":6,"is_transit":false,"i_long":106.79689,"i_lat":-6.207404,"distance":3191,"transit":false,"station_id":"PLM"},{"is_transit":false,"i_lat":-6.237242,"time":7,"transit":false,"line":6,"i_long":106.780334,"station_id":"KBY","station_name":"Kebayoran","distance":3737},{"distance":6218,"is_transit":false,"i_long":106.74273,"transit":false,"station_name":"Pondokranji","time":8,"i_lat":-6.276362,"station_id":"PDJ","line":6},{"station_id":"JMU","is_transit":false,"i_long":106.728916,"line":6,"station_name":"Jurangmangu","time":3,"distance":2179,"transit":false,"i_lat":-6.288927},{"station_id":"SDM","transit":false,"distance":1994,"is_transit":false,"i_long":106.712277,"time":4,"i_lat":-6.296963,"station_name":"Sudimara","line":6},{"station_id":"RU","station_name":"Rawa Buntu","is_transit":false,"distance":4566,"time":6,"i_lat":-6.314823,"transit":false,"line":6,"i_long":106.675475},{"i_long":106.66566,"is_transit":false,"station_name":"Serpong","i_lat":-6.319871,"time":4,"distance":2413,"station_id":"SRP","transit":false,"line":6},{"i_lat":-6.32484,"station_id":"CSK","station_name":"Cisauk","i_long":106.640411,"time":4,"transit":false,"line":3,"distance":1784,"is_transit":false},{"station_name":"Cicayur","line":3,"i_long":106.617853,"time":4,"is_transit":false,"i_lat":-6.329547,"station_id":"CC","distance":2519,"transit":false},{"station_id":"PRP","i_long":106.568863,"time":8,"distance":5968,"line":6,"is_transit":false,"station_name":"Parung Panjang","transit":false,"i_lat":-6.3441410000000005},{"line":3,"distance":7025,"transit":false,"is_transit":false,"station_name":"Cilejit","station_id":"CJT","i_lat":-6.354349,"i_long":106.508482,"time":9}],[{"station_name":"Tanah Tinggi","i_long":106.64657,"is_transit":false,"distance":0,"transit":false,"station_id":"TTI","i_lat":-6.17331,"line":5,"time":0},{"station_name":"Batuceper","line":5,"is_transit":false,"transit":false,"time":3,"i_long":106.665036,"distance":2028,"i_lat":-6.171811,"station_id":"BPR"},{"i_long":106.679458,"i_lat":-6.169933,"is_transit":false,"time":3,"distance":1834,"transit":false,"station_name":"Poris","station_id":"PI","line":5},{"time":3,"i_long":106.701612,"station_id":"KDS","transit":false,"distance":2548,"i_lat":-6.166068,"line":5,"station_name":"Kalideres","is_transit":false},{"time":3,"is_transit":false,"distance":2504,"transit":false,"station_id":"RW","station_name":"Rawa Buaya","i_lat":-6.162758,"i_long":106.723064,"line":5},{"transit":false,"i_long":106.737035,"distance":1152,"station_name":"Bojongindah","i_lat":-6.159876,"line":5,"time":4,"station_id":"BOI","is_transit":false},{"distance":2334,"time":2,"station_id":"TKO","station_name":"Taman Kota","line":5,"is_transit":false,"transit":false,"i_lat":-6.1587309999999995,"i_long":106.756522},{"transit":false,"is_transit":false,"station_name":"Pesing","time":2,"i_lat":-6.161433,"station_id":"PSG","i_long":106.771379,"line":5,"distance":1614},{"distance":2036,"is_transit":false,"i_lat":-6.162021,"transit":false,"station_name":"Grogol","i_long":106.788277,"time":2,"line":5,"station_id":"GGL"},{"i_lat":-6.155215,"station_id":"DU","i_long":106.800832,"line":1,"transit":true,"station_name":"Duri","distance":1700,"is_transit":true,"time":3},{"station_name":"Angke","is_transit":false,"station_id":"AK","line":1,"distance":1230,"transit":false,"i_long":106.79867,"time":4,"i_lat":-6.144674},{"i_long":106.826365,"distance":4102,"is_transit":true,"transit":true,"station_id":"KPB","i_lat":-6.132549,"station_name":"Kampung Bandan","line":4,"time":9},{"distance":1364,"is_transit":true,"line":2,"time":3,"transit":true,"i_long":106.812439,"station_name":"Jakarta Kota","station_id":"JAKK","i_lat":-6.137569},{"station_name":"Jayakarta","station_id":"JAY","i_long":106.820901,"line":2,"distance":1264,"i_lat":-6.141205,"time":4,"transit":false,"is_transit":false},{"i_lat":-6.149769,"station_id":"MGB","time":2,"line":2,"is_transit":false,"transit":false,"i_long":106.82482,"station_name":"Manggabesar","distance":1080},{"i_long":106.827103,"time":2,"transit":false,"line":2,"distance":906,"is_transit":false,"station_name":"Sawah Besar","station_id":"SW","i_lat":-6.160725},{"is_transit":false,"distance":1149,"i_lat":-6.166716,"time":2,"station_id":"JUA","i_long":106.828284,"transit":false,"line":2,"station_name":"Juanda"},{"is_transit":false,"distance":2015,"station_name":"Gondangdia","line":2,"i_lat":-6.186295,"station_id":"GDD","transit":false,"time":4,"i_long":106.832183},{"is_transit":false,"transit":false,"time":3,"distance":1750,"station_name":"Cikini","station_id":"CKI","i_lat":-6.198556,"line":2,"i_long":106.840169},{"is_transit":true,"transit":true,"line":2,"station_name":"Manggarai","distance":1590,"i_lat":-6.209883,"time":4,"i_long":106.84912,"station_id":"MRI"},{"station_id":"SUD","transit":false,"station_name":"Sudirman","is_transit":false,"time":4,"line":1,"distance":3186,"i_lat":-6.202263,"i_long":106.822649},{"distance":280,"line":1,"i_long":106.819881,"i_lat":-6.201433,"time":1,"transit":false,"station_name":"Sudirman Baru","is_transit":false,"station_id":"SUDB"},{"time":1,"station_name":"Karet","transit":false,"is_transit":false,"distance":471,"i_lat":-6.20132,"station_id":"KAT","i_long":106.816351,"line":1},{"i_lat":-6.185545,"distance":2029,"station_name":"Tanah Abang","station_id":"THB","i_long":106.811091,"time":5,"line":1,"transit":true,"is_transit":true},{"distance":3191,"station_id":"PLM","line":6,"i_lat":-6.207404,"time":6,"transit":false,"i_long":106.79689,"station_name":"Palmerah","is_transit":false},{"i_lat":-6.237242,"line":6,"transit":false,"station_name":"Kebayoran","is_transit":false,"distance":3737,"i_long":106.780334,"station_id":"KBY","time":7},{"time":8,"station_name":"Pondokranji","i_long":106.74273,"transit":false,"is_transit":false,"distance":6218,"station_id":"PDJ","i_lat":-6.276362,"line":6},{"i_lat":-6.288927,"i_long":106.728916,"station_id":"JMU","line":6,"time":3,"station_name":"Jurangmangu","is_transit":false,"transit":false,"distance":2179},{"distance":1994,"i_long":106.712277,"transit":false,"line":6,"station_id":"SDM","i_lat":-6.296963,"time":4,"is_transit":false,"station_name":"Sudimara"},{"station_name":"Rawa Buntu","time":6,"station_id":"RU","is_transit":false,"distance":4566,"i_long":106.675475,"line":6,"transit":false,"i_lat":-6.314823},{"is_transit":false,"distance":2413,"station_name":"Serpong","station_id":"SRP","time":4,"i_lat":-6.319871,"i_long":106.66566,"line":6,"transit":false},{"time":4,"station_id":"CSK","station_name":"Cisauk","i_lat":-6.32484,"i_long":106.640411,"transit":false,"distance":1784,"is_transit":false,"line":3},{"time":4,"transit":false,"station_name":"Cicayur","station_id":"CC","line":3,"distance":2519,"i_long":106.617853,"i_lat":-6.329547,"is_transit":false},{"time":8,"station_id":"PRP","line":6,"station_name":"Parung Panjang","distance":5968,"i_lat":-6.3441410000000005,"transit":false,"i_long":106.568863,"is_transit":false},{"time":9,"i_long":106.508482,"transit":false,"is_transit":false,"distance":7025,"line":3,"station_id":"CJT","station_name":"Cilejit","i_lat":-6.354349}],[{"i_long":106.64657,"time":0,"distance":0,"station_id":"TTI","transit":false,"station_name":"Tanah Tinggi","line":5,"i_lat":-6.17331,"is_transit":false},{"station_id":"BPR","station_name":"Batuceper","is_transit":false,"i_lat":-6.171811,"i_long":106.665036,"transit":false,"time":3,"distance":2028,"line":5},{"transit":false,"time":3,"is_transit":false,"i_long":106.679458,"line":5,"distance":1834,"station_id":"PI","station_name":"Poris","i_lat":-6.169933},{"station_id":"KDS","is_transit":false,"time":3,"i_long":106.701612,"distance":2548,"line":5,"i_lat":-6.166068,"transit":false,"station_name":"Kalideres"},{"station_name":"Rawa Buaya","is_transit":false,"i_long":106.723064,"distance":2504,"time":3,"transit":false,"station_id":"RW","line":5,"i_lat":-6.162758},{"time":4,"i_lat":-6.159876,"line":5,"transit":false,"distance":1152,"station_id":"BOI","i_long":106.737035,"station_name":"Bojongindah","is_transit":false},{"is_transit":false,"distance":2334,"i_lat":-6.1587309999999995,"line":5,"i_long":106.756522,"station_id":"TKO","time":2,"transit":false,"station_name":"Taman Kota"},{"station_id":"PSG","time":2,"i_long":106.771379,"i_lat":-6.161433,"line":5,"distance":1614,"station_name":"Pesing","transit":false,"is_transit":false},{"time":2,"is_transit":false,"station_id":"GGL","line":5,"distance":2036,"transit":false,"i_lat":-6.162021,"station_name":"Grogol","i_long":106.788277},{"line":1,"is_transit":true,"station_name":"Duri","distance":1700,"time":3,"transit":true,"i_lat":-6.155215,"i_long":106.800832,"station_id":"DU"},{"transit":false,"i_lat":-6.144674,"line":1,"i_long":106.79867,"is_transit":false,"station_id":"AK","station_name":"Angke","time":4,"distance":1230},{"i_long":106.826365,"time":9,"transit":true,"distance":4102,"i_lat":-6.132549,"is_transit":true,"station_id":"KPB","station_name":"Kampung Bandan","line":4},{"i_lat":-6.14505,"station_id":"RJW","i_long":106.836569,"line":11,"transit":false,"distance":1444,"time":3,"is_transit":false,"station_name":"Rajawali"},{"station_id":"KMO","i_long":106.839204,"station_name":"Kemayoran","line":11,"transit":false,"distance":1901,"i_lat":-6.161728,"time":5,"is_transit":false},{"station_name":"Pasar Senen","time":4,"distance":1436,"station_id":"PSE","i_lat":-6.174784,"line":11,"i_long":106.84368,"transit":false,"is_transit":false},{"time":8,"transit":false,"station_id":"GST","i_long":106.850107,"station_name":"Gang Sentiong","distance":1567,"i_lat":-6.185975,"is_transit":false,"line":11},{"is_transit":false,"station_name":"Kramat","station_id":"KMT","distance":973,"i_lat":-6.193792,"line":11,"i_long":106.855437,"transit":false,"time":1},{"i_lat":-6.209188,"time":2,"i_long":106.861737,"distance":1829,"line":11,"transit":false,"is_transit":false,"station_id":"POK","station_name":"Pondok Jati"},{"i_lat":-6.215091,"distance":1236,"is_transit":true,"time":9,"station_id":"JNG","i_long":106.86807400000001,"line":1,"transit":true,"station_name":"Jatinegara"},{"i_lat":-6.212485,"i_long":106.858896,"transit":false,"station_id":"MTR","line":1,"distance":1377,"time":2,"station_name":"Matraman","is_transit":false},{"station_id":"MRI","i_long":106.84912,"distance":1275,"station_name":"Manggarai","is_transit":false,"line":2,"transit":false,"time":2,"i_lat":-6.209883},{"station_id":"SUD","i_lat":-6.202263,"transit":false,"time":4,"i_long":106.822649,"line":1,"is_transit":false,"station_name":"Sudirman","distance":3186},{"i_long":106.819881,"transit":false,"line":1,"station_name":"Sudirman Baru","distance":280,"station_id":"SUDB","i_lat":-6.201433,"time":1,"is_transit":false},{"distance":471,"line":1,"time":1,"is_transit":false,"i_long":106.816351,"station_id":"KAT","transit":false,"station_name":"Karet","i_lat":-6.20132},{"transit":true,"station_name":"Tanah Abang","distance":2029,"i_lat":-6.185545,"station_id":"THB","i_long":106.811091,"line":1,"time":5,"is_transit":true},{"line":6,"i_lat":-6.207404,"time":6,"transit":false,"is_transit":false,"distance":3191,"station_name":"Palmerah","station_id":"PLM","i_long":106.79689},{"transit":false,"time":7,"station_name":"Kebayoran","station_id":"KBY","i_long":106.780334,"line":6,"distance":3737,"is_transit":false,"i_lat":-6.237242},{"transit":false,"line":6,"time":8,"is_transit":false,"station_id":"PDJ","station_name":"Pondokranji","distance":6218,"i_long":106.74273,"i_lat":-6.276362},{"time":3,"line":6,"i_lat":-6.288927,"transit":false,"station_name":"Jurangmangu","is_transit":false,"distance":2179,"i_long":106.728916,"station_id":"JMU"},{"i_lat":-6.296963,"station_name":"Sudimara","is_transit":false,"distance":1994,"station_id":"SDM","transit":false,"i_long":106.712277,"time":4,"line":6},{"transit":false,"distance":4566,"station_id":"RU","time":6,"i_lat":-6.314823,"station_name":"Rawa Buntu","is_transit":false,"i_long":106.675475,"line":6},{"station_id":"SRP","time":4,"transit":false,"i_lat":-6.319871,"i_long":106.66566,"line":6,"station_name":"Serpong","is_transit":false,"distance":2413},{"i_long":106.640411,"time":4,"line":3,"distance":1784,"station_name":"Cisauk","transit":false,"is_transit":false,"station_id":"CSK","i_lat":-6.32484},{"distance":2519,"station_name":"Cicayur","transit":false,"i_long":106.617853,"time":4,"line":3,"is_transit":false,"station_id":"CC","i_lat":-6.329547},{"is_transit":false,"station_name":"Parung Panjang","i_lat":-6.3441410000000005,"distance":5968,"i_long":106.568863,"time":8,"line":6,"station_id":"PRP","transit":false},{"distance":7025,"station_id":"CJT","i_long":106.508482,"i_lat":-6.354349,"line":3,"is_transit":false,"time":9,"station_name":"Cilejit","transit":false}]]}