{"data":[[{"station_name":"Tanah Tinggi","line":5,"is_transit":false,"distance":0,"station_id":"TTI","transit":false,"time":0,"i_lat":-6.17331,"i_long":106.64657},{"i_lat":-6.171811,"is_transit":false,"transit":false,"station_id":"BPR","time":3,"i_long":106.665036,"line":0,"distance":2028,"station_name":"Batuceper"},{"is_transit":false,"distance":1834,"station_id":"PI","time":3,"i_long":106.679458,"transit":false,"line":5,"i_lat":-6.169933,"station_name":"Poris"},{"is_transit":false,"time":3,"line":5,"i_lat":-6.166068,"distance":2548,"station_name":"Kalideres","station_id":"KDS","i_long":106.701612,"transit":false},{"time":3,"i_lat":-6.162758,"i_long":106.723064,"transit":false,"distance":2504,"line":5,"station_id":"RW","station_name":"Rawa Buaya","is_transit":false},{"transit":false,"is_transit":false,"i_long":106.737035,"station_name":"Bojongindah","i_lat":-6.159876,"distance":1152,"station_id":"BOI","time":4,"line":0},{"transit":false,"time":2,"distance":2334,"i_lat":-6.1587309999999995,"is_transit":false,"line":5,"i_long":106.756522,"station_id":"TKO","station_name":"Taman Kota"},{"station_id":"PSG","line":5,"distance":1614,"is_transit":false,"transit":false,"i_long":106.771379,"time":2,"i_lat":-6.161433,"station_name":"Pesing"},{"station_id":"GGL","i_long":106.788277,"line":5,"is_transit":false,"station_name":"Grogol","time":2,"distance":2036,"transit":false,"i_lat":-6.162021},{"transit":true,"station_name":"Duri","is_transit":true,"station_id":"DU","i_long":106.800832,"line":1,"time":3,"i_lat":-6.155215,"distance":1700},{"line":1,"is_transit":true,"station_id":"THB","i_lat":-6.185545,"i_long":106.811091,"distance":3632,"time":8,"transit":true,"station_name":"Tanah Abang"},{"station_id":"PLM","i_long":106.79689,"line":6,"distance":3191,"time":6,"i_lat":-6.207404,"transit":false,"station_name":"Palmerah","is_transit":false},{"i_long":106.780334,"line":6,"station_id":"KBY","is_transit":false,"distance":3737,"i_lat":-6.237242,"time":7,"station_name":"Kebayoran","transit":false},{"is_transit":false,"i_lat":-6.276362,"station_name":"Pondokranji","time":8,"line":6,"distance":6218,"station_id":"PDJ","transit":false,"i_long":106.74273},{"time":3,"i_long":106.728916,"line":6,"distance":2179,"i_lat":-6.288927,"is_transit":false,"station_id":"JMU","station_name":"Jurangmangu","transit":false},{"station_name":"Sudimara","time":4,"distance":1994,"line":6,"station_id":"SDM","i_lat":-6.296963,"i_long":106.712277,"is_transit":false,"transit":false},{"is_transit":false,"station_id":"RU","transit":false,"time":6,"distance":4566,"i_lat":-6.314823,"i_long":106.675475,"station_name":"Rawa Buntu","line":6},{"distance":2413,"station_name":"Serpong","station_id":"SRP","transit":false,"is_transit":false,"i_lat":-6.319871,"time":4,"i_long":106.66566,"line":6},{"is_transit":false,"station_name":"Cisauk","station_id":"CSK","transit":false,"distance":1784,"time":4,"i_lat":-6.32484,"i_long":106.640411,"line":0},{"distance":2519,"station_id":"CC","time":4,"line":0,"is_transit":false,"station_name":"Cicayur","transit":false,"i_lat":-6.329547,"i_long":106.617853},{"distance":5968,"transit":false,"i_long":106.568863,"station_id":"PRP","station_name":"Parung Panjang","time":8,"is_transit":false,"i_lat":-6.3441410000000005,"line":6},{"line":0,"station_name":"Cilejit","station_id":"CJT","i_lat":-6.354349,"time":9,"is_transit":false,"i_long":106.508482,"distance":7025,"transit":false}],[{"distance":0,"transit":false,"i_lat":-6.17331,"station_name":"Tanah Tinggi","station_id":"TTI","i_long":106.64657,"is_transit":false,"time":0,"line":5},{"station_name":"Batuceper","transit":false,"station_id":"BPR","is_transit":false,"i_long":106.665036,"distance":2028,"time":3,"i_lat":-6.171811,"line":0},{"station_id":"PI","distance":1834,"time":3,"i_long":106.679458,"is_transit":false,"line":5,"i_lat":-6.169933,"station_name":"Poris","transit":false},{"i_long":106.701612,"line":5,"distance":2548,"station_id":"KDS","time":3,"station_name":"Kalideres","i_lat":-6.166068,"transit":false,"is_transit":false},{"transit":false,"is_transit":false,"distance":2504,"station_id":"RW","station_name":"Rawa Buaya","time":3,"i_long":106.723064,"line":5,"i_lat":-6.162758},{"station_id":"BOI","station_name":"Bojongindah","i_lat":-6.159876,"i_long":106.737035,"line":0,"time":4,"distance":1152,"is_transit":false,"transit":false},{"is_transit":false,"time":2,"transit":false,"line":5,"station_id":"TKO","station_name":"Taman Kota","i_lat":-6.1587309999999995,"distance":2334,"i_long":106.756522},{"distance":1614,"is_transit":false,"transit":false,"station_name":"Pesing","time":2,"i_long":106.771379,"station_id":"PSG","i_lat":-6.161433,"line":5},{"time":2,"distance":2036,"i_long":106.788277,"line":5,"is_transit":false,"i_lat":-6.162021,"station_name":"Grogol","transit":false,"station_id":"GGL"},{"station_name":"Duri","is_transit":true,"line":1,"station_id":"DU","time":3,"i_long":106.800832,"distance":1700,"transit":true,"i_lat":-6.155215},{"is_transit":false,"station_id":"AK","transit":false,"distance":1230,"line":0,"i_lat":-6.144674,"station_name":"Angke","time":4,"i_long":106.79867},{"station_name":"Kampung Bandan","station_id":"KPB","i_long":106.826365,"i_lat":-6.132549,"is_transit":true,"transit":false,"distance":4102,"time":9,"line":0},{"distance":1364,"i_lat":-6.137569,"transit":true,"is_transit":true,"line":0,"i_long":106.812439,"station_name":"Jakarta Kota","time":3,"station_id":"JAKK"},{"station_name":"Jayakarta","distance":1264,"is_transit":false,"station_id":"JAY","time":4,"i_long":106.820901,"i_lat":-6.141205,"line":7,"transit":false},{"i_long":106.82482,"i_lat":-6.149769,"line":2,"distance":1080,"is_transit":false,"station_name":"Manggabesar","station_id":"MGB","transit":false,"time":2},{"i_long":106.827103,"distance":906,"station_name":"Sawah Besar","transit":false,"is_transit":false,"line":2,"time":2,"station_id":"SW","i_lat":-6.160725},{"line":2,"time":2,"i_long":106.828284,"i_lat":-6.166716,"station_id":"JUA","station_name":"Juanda","is_transit":false,"distance":1149,"transit":false},{"station_id":"GDD","is_transit":false,"i_long":106.832183,"station_name":"Gondangdia","distance":2015,"transit":false,"time":4,"line":2,"i_lat":-6.186295},{"i_lat":-6.198556,"transit":false,"i_long":106.840169,"station_id":"CKI","line":0,"time":3,"is_transit":false,"distance":1750,"station_name":"Cikini"},{"distance":1590,"station_name":"Manggarai","time":4,"station_id":"MRI","i_lat":-6.209883,"i_long":106.84912,"line":0,"transit":true,"is_transit":true},{"time":4,"i_lat":-6.202263,"is_transit":false,"transit":false,"i_long":106.822649,"line":1,"station_name":"Sudirman","distance":3186,"station_id":"SUD"},{"i_lat":-6.201433,"is_transit":false,"transit":false,"distance":280,"station_id":"SUDB","i_long":106.819881,"line":1,"station_name":"Sudirman Baru","time":1},{"is_transit":false,"i_lat":-6.20132,"station_id":"KAT","i_long":106.816351,"line":1,"transit":false,"distance":471,"station_name":"Karet","time":1},{"is_transit":true,"station_id":"THB","i_long":106.811091,"line":1,"time":5,"i_lat":-6.185545,"distance":2029,"station_name":"Tanah Abang","transit":true},{"transit":false,"line":6,"distance":3191,"station_name":"Palmerah","i_lat":-6.207404,"time":6,"is_transit":false,"i_long":106.79689,"station_id":"PLM"},{"transit":false,"time":7,"i_long":106.780334,"station_name":"Kebayoran","line":6,"is_transit":false,"i_lat":-6.237242,"distance":3737,"station_id":"KBY"},{"station_id":"PDJ","is_transit":false,"distance":6218,"station_name":"Pondokranji","transit":false,"i_lat":-6.276362,"time":8,"line":6,"i_long":106.74273},{"station_id":"JMU","transit":false,"line":6,"i_lat":-6.288927,"i_long":106.728916,"station_name":"Jurangmangu","distance":2179,"time":3,"is_transit":false},{"station_name":"Sudimara","station_id":"SDM","i_lat":-6.296963,"i_long":106.712277,"line":6,"is_transit":false,"transit":false,"distance":1994,"time":4},{"station_name":"Rawa Buntu","i_lat":-6.314823,"transit":false,"station_id":"RU","time":6,"i_long":106.675475,"is_transit":false,"line":6,"distance":4566},{"i_lat":-6.319871,"line":6,"i_long":106.66566,"station_name":"Serpong","transit":false,"is_transit":false,"distance":2413,"time":4,"station_id":"SRP"},{"i_long":106.640411,"station_name":"Cisauk","i_lat":-6.32484,"transit":false,"line":0,"time":4,"is_transit":false,"station_id":"CSK","distance":1784},{"transit":false,"distance":2519,"is_transit":false,"line":0,"station_id":"CC","i_lat":-6.329547,"station_name":"Cicayur","time":4,"i_long":106.617853},{"distance":5968,"i_long":106.568863,"station_name":"Parung Panjang","is_transit":false,"line":6,"station_id":"PRP","transit":false,"time":8,"i_lat":-6.3441410000000005},{"station_id":"CJT","time":9,"station_name":"Cilejit","is_transit":false,"distance":7025,"transit":false,"i_lat":-6.354349,"i_long":106.508482,"line":0}],[{"distance":0,"station_id":"TTI","time":0,"is_transit":false,"i_lat":-6.17331,"station_name":"Tanah Tinggi","transit":false,"i_long":106.64657,"line":5},{"distance":2028,"station_name":"Batuceper","line":0,"time":3,"is_transit":false,"i_long":106.665036,"transit":false,"i_lat":-6.171811,"station_id":"BPR"},{"line":5,"i_long":106.679458,"distance":1834,"station_name":"Poris","is_transit":false,"station_id":"PI","transit":false,"time":3,"i_lat":-6.169933},{"transit":false,"time":3,"line":5,"distance":2548,"is_transit":false,"station_id":"KDS","station_name":"Kalideres","i_lat":-6.166068,"i_long":106.701612},{"station_name":"Rawa Buaya","i_lat":-6.162758,"transit":false,"time":3,"i_long":106.723064,"line":5,"distance":2504,"is_transit":false,"station_id":"RW"},{"distance":1152,"transit":false,"time":4,"i_long":106.737035,"i_lat":-6.159876,"line":0,"station_id":"BOI","is_transit":false,"station_name":"Bojongindah"},{"i_lat":-6.1587309999999995,"line":5,"station_name":"Taman Kota","station_id":"TKO","transit":false,"i_long":106.756522,"distance":2334,"is_transit":false,"time":2},{"distance":1614,"i_long":106.771379,"is_transit":false,"time":2,"i_lat":-6.161433,"line":5,"station_name":"Pesing","station_id":"PSG","transit":false},{"is_transit":false,"distance":2036,"station_id":"GGL","i_long":106.788277,"line":5,"station_name":"Grogol","transit":false,"i_lat":-6.162021,"time":2},{"transit":true,"station_id":"DU","i_long":106.800832,"time":3,"line":1,"distance":1700,"i_lat":-6.155215,"is_transit":true,"station_name":"Duri"},{"station_name":"Angke","station_id":"AK","transit":false,"time":4,"i_long":106.79867,"is_transit":false,"i_lat":-6.144674,"line":0,"distance":1230},{"station_id":"KPB","i_long":106.826365,"line":0,"distance":4102,"station_name":"Kampung Bandan","is_transit":true,"transit":true,"time":9,"i_lat":-6.132549},{"is_transit":false,"station_id":"RJW","time":3,"transit":false,"distance":1444,"station_name":"Rajawali","i_lat":-6.14505,"line":11,"i_long":106.836569},{"i_lat":-6.161728,"transit":false,"time":5,"i_long":106.839204,"station_id":"KMO","station_name":"Kemayoran","line":11,"distance":1901,"is_transit":false},{"i_lat":-6.174784,"distance":1436,"is_transit":false,"station_id":"PSE","line":11,"time":4,"transit":false,"i_long":106.84368,"station_name":"Pasar Senen"},{"i_long":106.850107,"distance":1567,"station_id":"GST","station_name":"Gang Sentiong","line":11,"transit":false,"is_transit":false,"time":8,"i_lat":-6.185975},{"distance":973,"time":1,"is_transit":false,"station_name":"Kramat","station_id":"KMT","i_lat":-6.193792,"transit":false,"i_long":106.855437,"line":11},{"station_name":"Pondok Jati","i_lat":-6.209188,"line":11,"transit":false,"i_long":106.861737,"distance":1829,"time":2,"station_id":"POK","is_transit":false},{"i_long":106.86807400000001,"station_name":"Jatinegara","station_id":"JNG","i_lat":-6.215091,"transit":true,"line":0,"distance":1236,"time":9,"is_transit":true},{"time":2,"station_name":"Matraman","is_transit":false,"transit":false,"i_lat":-6.212485,"i_long":106.858896,"distance":1377,"line":1,"station_id":"MTR"},{"station_id":"MRI","line":0,"time":2,"i_lat":-6.209883,"i_long":106.84912,"distance":1275,"is_transit":true,"transit":false,"station_name":"Manggarai"},{"transit":false,"i_long":106.822649,"station_id":"SUD","distance":3186,"i_lat":-6.202263,"station_name":"Sudirman","line":1,"is_transit":false,"time":4},{"station_id":"SUDB","station_name":"Sudirman Baru","i_lat":-6.201433,"i_long":106.819881,"line":1,"distance":280,"transit":false,"time":1,"is_transit":false},{"is_transit":false,"station_id":"KAT","distance":471,"time":1,"line":1,"transit":false,"i_long":106.816351,"station_name":"Karet","i_lat":-6.20132},{"i_lat":-6.185545,"station_name":"Tanah Abang","distance":2029,"is_transit":true,"line":1,"transit":true,"i_long":106.811091,"station_id":"THB","time":5},{"station_id":"PLM","time":6,"i_long":106.79689,"station_name":"Palmerah","line":6,"i_lat":-6.207404,"distance":3191,"transit":false,"is_transit":false},{"distance":3737,"line":6,"station_id":"KBY","i_long":106.780334,"time":7,"transit":false,"i_lat":-6.237242,"station_name":"Kebayoran","is_transit":false},{"time":8,"distance":6218,"station_id":"PDJ","transit":false,"i_long":106.74273,"i_lat":-6.276362,"station_name":"Pondokranji","line":6,"is_transit":false},{"is_transit":false,"distance":2179,"station_name":"Jurangmangu","station_id":"JMU","time":3,"i_long":106.728916,"i_lat":-6.288927,"transit":false,"line":6},{"station_name":"Sudimara","station_id":"SDM","line":6,"i_lat":-6.296963,"distance":1994,"transit":false,"i_long":106.712277,"is_transit":false,"time":4},{"transit":false,"distance":4566,"station_name":"Rawa Buntu","is_transit":false,"time":6,"station_id":"RU","i_long":106.675475,"i_lat":-6.314823,"line":6},{"time":4,"i_lat":-6.319871,"is_transit":false,"station_name":"Serpong","line":6,"station_id":"SRP","distance":2413,"i_long":106.66566,"transit":false},{"is_transit":false,"station_id":"CSK","distance":1784,"i_lat":-6.32484,"i_long":106.640411,"station_name":"Cisauk","transit":false,"line":0,"time":4},{"station_id":"CC","i_lat":-6.329547,"line":0,"station_name":"Cicayur","i_long":106.617853,"time":4,"transit":false,"distance":2519,"is_transit":false},{"time":8,"i_lat":-6.3441410000000005,"distance":5968,"line":6,"station_id":"PRP","is_transit":false,"station_name":"Parung Panjang","i_long":106.568863,"transit":false},{"i_lat":-6.354349,"station_id":"CJT","i_long":106.508482,"distance":7025,"transit":false,"line":0,"time":9,"station_name":"Cilejit","is_transit":false}]]}