{"data":[[{"station_name":"Tanah Tinggi","i_long":106.64657,"station_id":"TTI","distance":0,"line":5,"i_lat":-6.17331,"time":0,"is_transit":false,"transit":false},{"is_transit":false,"station_name":"Batuceper","time":3,"transit":false,"i_lat":-6.171811,"line":0,"station_id":"BPR","i_long":106.665036,"distance":2028},{"i_long":106.679458,"distance":1834,"line":5,"is_transit":false,"transit":false,"time":3,"i_lat":-6.169933,"station_name":"Poris","station_id":"PI"},{"transit":false,"time":3,"station_name":"Kalideres","i_lat":-6.166068,"station_id":"KDS","distance":2548,"line":5,"is_transit":false,"i_long":106.701612},{"station_name":"Rawa Buaya","time":3,"transit":false,"i_long":106.723064,"line":5,"is_transit":false,"distance":2504,"station_id":"RW","i_lat":-6.162758},{"i_lat":-6.159876,"station_id":"BOI","line":0,"time":4,"is_transit":false,"transit":false,"i_long":106.737035,"distance":1152,"station_name":"Bojongindah"},{"is_transit":false,"station_name":"Taman Kota","transit":false,"i_lat":-6.1587309999999995,"line":5,"time":2,"i_long":106.756522,"distance":2334,"station_id":"TKO"},{"i_long":106.771379,"is_transit":false,"station_id":"PSG","distance":1614,"line":5,"i_lat":-6.161433,"station_name":"Pesing","time":2,"transit":false},{"station_name":"Grogol","time":2,"distance":2036,"transit":false,"i_long":106.788277,"line":5,"is_transit":false,"i_lat":-6.162021,"station_id":"GGL"},{"transit":true,"distance":1700,"is_transit":true,"station_id":"DU","i_long":106.800832,"i_lat":-6.155215,"time":3,"line":1,"station_name":"Duri"},{"is_transit":true,"station_name":"Tanah Abang","line":1,"distance":3632,"transit":true,"time":8,"i_lat":-6.185545,"station_id":"THB","i_long":106.811091},{"i_lat":-6.207404,"line":6,"transit":false,"i_long":106.79689,"time":6,"is_transit":false,"distance":3191,"station_id":"PLM","station_name":"Palmerah"},{"is_transit":false,"station_id":"KBY","i_lat":-6.237242,"i_long":106.780334,"time":7,"line":6,"transit":false,"distance":3737,"station_name":"Kebayoran"},{"i_lat":-6.276362,"line":6,"distance":6218,"station_id":"PDJ","is_transit":false,"transit":false,"time":8,"i_long":106.74273,"station_name":"Pondokranji"},{"station_id":"JMU","i_lat":-6.288927,"line":6,"distance":2179,"is_transit":false,"station_name":"Jurangmangu","time":3,"transit":false,"i_long":106.728916}],[{"station_id":"TTI","is_transit":false,"time":0,"station_name":"Tanah Tinggi","distance":0,"i_lat":-6.17331,"transit":false,"i_long":106.64657,"line":5},{"distance":2028,"transit":false,"is_transit":false,"station_id":"BPR","i_lat":-6.171811,"i_long":106.665036,"station_name":"Batuceper","time":3,"line":0},{"i_lat":-6.169933,"station_name":"Poris","distance":1834,"i_long":106.679458,"station_id":"PI","line":5,"time":3,"transit":false,"is_transit":false},{"distance":2548,"time":3,"station_name":"Kalideres","i_long":106.701612,"line":5,"is_transit":false,"transit":false,"i_lat":-6.166068,"station_id":"KDS"},{"distance":2504,"i_lat":-6.162758,"i_long":106.723064,"station_name":"Rawa Buaya","time":3,"line":5,"transit":false,"station_id":"RW","is_transit":false},{"is_transit":false,"station_id":"BOI","line":0,"station_name":"Bojongindah","i_long":106.737035,"i_lat":-6.159876,"transit":false,"time":4,"distance":1152},{"line":5,"time":2,"station_id":"TKO","distance":2334,"station_name":"Taman Kota","transit":false,"i_lat":-6.1587309999999995,"is_transit":false,"i_long":106.756522},{"transit":false,"is_transit":false,"distance":1614,"station_name":"Pesing","time":2,"station_id":"PSG","i_lat":-6.161433,"i_long":106.771379,"line":5},{"station_name":"Grogol","distance":2036,"time":2,"line":5,"is_transit":false,"i_long":106.788277,"station_id":"GGL","transit":false,"i_lat":-6.162021},{"i_lat":-6.155215,"i_long":106.800832,"distance":1700,"is_transit":true,"time":3,"station_name":"Duri","transit":true,"station_id":"DU","line":1},{"is_transit":false,"station_id":"AK","i_long":106.79867,"distance":1230,"time":4,"line":0,"station_name":"Angke","i_lat":-6.144674,"transit":false},{"i_lat":-6.132549,"line":0,"is_transit":true,"transit":false,"station_name":"Kampung Bandan","i_long":106.826365,"distance":4102,"station_id":"KPB","time":9},{"station_id":"JAKK","i_lat":-6.137569,"i_long":106.812439,"time":3,"distance":1364,"line":0,"is_transit":true,"station_name":"Jakarta Kota","transit":true},{"line":7,"transit":false,"station_id":"JAY","time":4,"distance":1264,"is_transit":false,"station_name":"Jayakarta","i_lat":-6.141205,"i_long":106.820901},{"station_id":"MGB","station_name":"Manggabesar","i_long":106.82482,"distance":1080,"time":2,"transit":false,"line":2,"is_transit":false,"i_lat":-6.149769},{"distance":906,"is_transit":false,"transit":false,"line":2,"i_lat":-6.160725,"i_long":106.827103,"station_name":"Sawah Besar","time":2,"station_id":"SW"},{"line":2,"transit":false,"is_transit":false,"distance":1149,"i_long":106.828284,"station_name":"Juanda","station_id":"JUA","i_lat":-6.166716,"time":2},{"distance":2015,"transit":false,"is_transit":false,"station_id":"GDD","station_name":"Gondangdia","time":4,"i_lat":-6.186295,"line":2,"i_long":106.832183},{"station_id":"CKI","station_name":"Cikini","line":0,"transit":false,"distance":1750,"is_transit":false,"time":3,"i_lat":-6.198556,"i_long":106.840169},{"station_name":"Manggarai","distance":1590,"station_id":"MRI","i_lat":-6.209883,"i_long":106.84912,"transit":true,"is_transit":true,"time":4,"line":0},{"station_id":"SUD","time":4,"line":1,"station_name":"Sudirman","i_long":106.822649,"i_lat":-6.202263,"distance":3186,"is_transit":false,"transit":false},{"i_long":106.819881,"station_id":"SUDB","line":1,"is_transit":false,"distance":280,"time":1,"i_lat":-6.201433,"station_name":"Sudirman Baru","transit":false},{"distance":471,"station_name":"Karet","transit":false,"time":1,"i_long":106.816351,"line":1,"is_transit":false,"i_lat":-6.20132,"station_id":"KAT"},{"station_id":"THB","distance":2029,"station_name":"Tanah Abang","i_long":106.811091,"transit":true,"i_lat":-6.185545,"line":1,"time":5,"is_transit":true},{"i_lat":-6.207404,"is_transit":false,"distance":3191,"i_long":106.79689,"station_name":"Palmerah","station_id":"PLM","line":6,"time":6,"transit":false},{"time":7,"station_id":"KBY","is_transit":false,"transit":false,"station_name":"Kebayoran","i_lat":-6.237242,"line":6,"i_long":106.780334,"distance":3737},{"station_id":"PDJ","is_transit":false,"line":6,"station_name":"Pondokranji","i_long":106.74273,"transit":false,"time":8,"distance":6218,"i_lat":-6.276362},{"i_lat":-6.288927,"is_transit":false,"distance":2179,"i_long":106.728916,"transit":false,"line":6,"time":3,"station_name":"Jurangmangu","station_id":"JMU"}],[{"time":0,"station_name":"Tanah Tinggi","station_id":"TTI","transit":false,"is_transit":false,"i_lat":-6.17331,"line":5,"i_long":106.64657,"distance":0},{"distance":2028,"station_id":"BPR","transit":false,"station_name":"Batuceper","time":3,"i_lat":-6.171811,"is_transit":false,"i_long":106.665036,"line":0},{"is_transit":false,"line":5,"station_id":"PI","distance":1834,"time":3,"i_long":106.679458,"station_name":"Poris","transit":false,"i_lat":-6.169933},{"i_lat":-6.166068,"station_name":"Kalideres","station_id":"KDS","transit":false,"i_long":106.701612,"line":5,"distance":2548,"is_transit":false,"time":3},{"station_name":"Rawa Buaya","transit":false,"is_transit":false,"station_id":"RW","line":5,"i_long":106.723064,"time":3,"distance":2504,"i_lat":-6.162758},{"line":0,"station_id":"BOI","i_long":106.737035,"transit":false,"time":4,"station_name":"Bojongindah","i_lat":-6.159876,"is_transit":false,"distance":1152},{"is_transit":false,"station_id":"TKO","transit":false,"i_lat":-6.1587309999999995,"i_long":106.756522,"distance":2334,"station_name":"Taman Kota","time":2,"line":5},{"station_name":"Pesing","line":5,"distance":1614,"station_id":"PSG","time":2,"is_transit":false,"i_long":106.771379,"transit":false,"i_lat":-6.161433},{"station_name":"Grogol","line":5,"distance":2036,"transit":false,"i_lat":-6.162021,"time":2,"i_long":106.788277,"station_id":"GGL","is_transit":false},{"i_lat":-6.155215,"station_name":"Duri","line":1,"time":3,"transit":true,"is_transit":true,"station_id":"DU","distance":1700,"i_long":106.800832},{"station_name":"Angke","station_id":"AK","i_long":106.79867,"time":4,"is_transit":false,"transit":false,"line":0,"i_lat":-6.144674,"distance":1230},{"is_transit":true,"i_long":106.826365,"station_id":"KPB","station_name":"Kampung Bandan","distance":4102,"transit":true,"time":9,"i_lat":-6.132549,"line":0},{"is_transit":false,"station_id":"RJW","distance":1444,"station_name":"Rajawali","transit":false,"time":3,"i_lat":-6.14505,"i_long":106.836569,"line":11},{"station_name":"Kemayoran","i_long":106.839204,"is_transit":false,"i_lat":-6.161728,"line":11,"station_id":"KMO","time":5,"transit":false,"distance":1901},{"line":11,"station_id":"PSE","distance":1436,"station_name":"Pasar Senen","i_lat":-6.174784,"is_transit":false,"i_long":106.84368,"time":4,"transit":false},{"distance":1567,"station_id":"GST","station_name":"Gang Sentiong","i_lat":-6.185975,"i_long":106.850107,"line":11,"transit":false,"time":8,"is_transit":false},{"transit":false,"distance":973,"i_long":106.855437,"time":1,"is_transit":false,"line":11,"i_lat":-6.193792,"station_id":"KMT","station_name":"Kramat"},{"line":11,"i_long":106.861737,"station_name":"Pondok Jati","station_id":"POK","transit":false,"time":2,"i_lat":-6.209188,"distance":1829,"is_transit":false},{"is_transit":true,"i_long":106.86807400000001,"distance":1236,"transit":true,"time":9,"i_lat":-6.215091,"station_id":"JNG","station_name":"Jatinegara","line":0},{"transit":false,"i_long":106.858896,"i_lat":-6.212485,"station_name":"Matraman","station_id":"MTR","distance":1377,"is_transit":false,"time":2,"line":1},{"station_id":"MRI","i_long":106.84912,"distance":1275,"i_lat":-6.209883,"station_name":"Manggarai","time":2,"is_transit":true,"line":0,"transit":false},{"distance":3186,"station_name":"Sudirman","is_transit":false,"station_id":"SUD","time":4,"i_lat":-6.202263,"transit":false,"line":1,"i_long":106.822649},{"i_lat":-6.201433,"i_long":106.819881,"time":1,"transit":false,"line":1,"is_transit":false,"station_id":"SUDB","distance":280,"station_name":"Sudirman Baru"},{"i_long":106.816351,"i_lat":-6.20132,"distance":471,"is_transit":false,"time":1,"station_name":"Karet","station_id":"KAT","transit":false,"line":1},{"transit":true,"station_name":"Tanah Abang","distance":2029,"is_transit":true,"time":5,"line":1,"station_id":"THB","i_lat":-6.185545,"i_long":106.811091},{"distance":3191,"station_id":"PLM","is_transit":false,"station_name":"Palmerah","transit":false,"line":6,"i_lat":-6.207404,"time":6,"i_long":106.79689},{"distance":3737,"station_id":"KBY","is_transit":false,"station_name":"Kebayoran","transit":false,"i_lat":-6.237242,"line":6,"time":7,"i_long":106.780334},{"transit":false,"i_lat":-6.276362,"station_id":"PDJ","distance":6218,"i_long":106.74273,"time":8,"line":6,"is_transit":false,"station_name":"Pondokranji"},{"station_id":"JMU","line":6,"distance":2179,"time":3,"i_long":106.728916,"is_transit":false,"i_lat":-6.288927,"transit":false,"station_name":"Jurangmangu"}]]}