{"data":[[{"i_long":106.64657,"transit":false,"station_id":"TTI","station_name":"Tanah Tinggi","i_lat":-6.17331,"time":0,"line":5,"is_transit":false,"distance":0},{"station_id":"BPR","station_name":"Batuceper","i_lat":-6.171811,"i_long":106.665036,"line":5,"time":3,"is_transit":false,"distance":2028,"transit":false},{"i_long":106.679458,"transit":false,"is_transit":false,"station_name":"Poris","station_id":"PI","distance":1834,"line":5,"i_lat":-6.169933,"time":3},{"station_name":"Kalideres","distance":2548,"time":3,"station_id":"KDS","line":5,"i_long":106.701612,"i_lat":-6.166068,"is_transit":false,"transit":false},{"transit":false,"time":3,"i_long":106.723064,"line":5,"station_id":"RW","distance":2504,"is_transit":false,"station_name":"Rawa Buaya","i_lat":-6.162758},{"i_long":106.737035,"transit":false,"distance":1152,"station_id":"BOI","is_transit":false,"station_name":"Bojongindah","i_lat":-6.159876,"time":4,"line":5},{"station_name":"Taman Kota","i_long":106.756522,"is_transit":false,"time":2,"i_lat":-6.1587309999999995,"station_id":"TKO","transit":false,"distance":2334,"line":5},{"is_transit":false,"station_name":"Pesing","transit":false,"i_long":106.771379,"distance":1614,"station_id":"PSG","time":2,"line":5,"i_lat":-6.161433},{"i_long":106.788277,"distance":2036,"transit":false,"time":2,"station_name":"Grogol","is_transit":false,"i_lat":-6.162021,"line":5,"station_id":"GGL"},{"time":3,"transit":true,"i_lat":-6.155215,"distance":1700,"i_long":106.800832,"is_transit":true,"station_name":"Duri","line":1,"station_id":"DU"},{"distance":3632,"line":1,"is_transit":true,"station_id":"THB","transit":true,"time":8,"i_long":106.811091,"i_lat":-6.185545,"station_name":"Tanah Abang"},{"station_name":"Palmerah","i_long":106.79689,"time":6,"transit":false,"i_lat":-6.207404,"distance":3191,"station_id":"PLM","is_transit":false,"line":6},{"line":6,"distance":3737,"is_transit":false,"station_id":"KBY","transit":false,"time":7,"station_name":"Kebayoran","i_lat":-6.237242,"i_long":106.780334},{"transit":false,"time":8,"i_long":106.74273,"line":6,"station_id":"PDJ","distance":6218,"station_name":"Pondokranji","i_lat":-6.276362,"is_transit":false},{"time":3,"station_id":"JMU","transit":false,"station_name":"Jurangmangu","i_long":106.728916,"i_lat":-6.288927,"is_transit":false,"line":6,"distance":2179},{"i_lat":-6.296963,"line":6,"is_transit":false,"i_long":106.712277,"station_id":"SDM","transit":false,"station_name":"Sudimara","time":4,"distance":1994},{"station_name":"Rawa Buntu","is_transit":false,"transit":false,"i_lat":-6.314823,"distance":4566,"time":6,"i_long":106.675475,"station_id":"RU","line":6},{"station_name":"Serpong","time":4,"i_lat":-6.319871,"distance":2413,"station_id":"SRP","transit":false,"is_transit":false,"line":6,"i_long":106.66566},{"station_name":"Cisauk","transit":false,"line":3,"i_lat":-6.32484,"i_long":106.640411,"is_transit":false,"time":4,"station_id":"CSK","distance":1784},{"is_transit":false,"i_lat":-6.329547,"i_long":106.617853,"station_id":"CC","distance":2519,"station_name":"Cicayur","time":4,"transit":false,"line":3},{"i_long":106.568863,"line":6,"is_transit":false,"distance":5968,"i_lat":-6.3441410000000005,"station_id":"PRP","time":8,"transit":false,"station_name":"Parung Panjang"},{"station_id":"CJT","transit":false,"i_long":106.508482,"line":3,"distance":7025,"is_transit":false,"station_name":"Cilejit","time":9,"i_lat":-6.354349},{"station_name":"Daru","distance":2675,"i_long":106.491338,"time":6,"i_lat":-6.338021,"line":0,"station_id":"DAR","is_transit":false,"transit":false},{"station_name":"Tenjo","is_transit":false,"station_id":"TEJ","i_lat":-6.327251,"distance":3902,"transit":false,"time":5,"i_long":106.460812,"line":6},{"time":5,"distance":2974,"transit":false,"station_name":"Tigaraksa","i_lat":-6.328533,"line":6,"i_long":106.425991,"is_transit":false,"station_id":"TGS"}],[{"station_name":"Tanah Tinggi","is_transit":false,"time":0,"i_lat":-6.17331,"station_id":"TTI","distance":0,"transit":false,"i_long":106.64657,"line":5},{"station_id":"BPR","distance":2028,"i_lat":-6.171811,"i_long":106.665036,"is_transit":false,"time":3,"transit":false,"line":5,"station_name":"Batuceper"},{"i_long":106.679458,"is_transit":false,"station_id":"PI","line":5,"time":3,"i_lat":-6.169933,"transit":false,"station_name":"Poris","distance":1834},{"station_name":"Kalideres","i_lat":-6.166068,"is_transit":false,"station_id":"KDS","distance":2548,"time":3,"transit":false,"i_long":106.701612,"line":5},{"station_name":"Rawa Buaya","line":5,"station_id":"RW","time":3,"is_transit":false,"transit":false,"i_lat":-6.162758,"distance":2504,"i_long":106.723064},{"station_name":"Bojongindah","line":5,"station_id":"BOI","is_transit":false,"transit":false,"distance":1152,"i_lat":-6.159876,"time":4,"i_long":106.737035},{"i_long":106.756522,"time":2,"is_transit":false,"i_lat":-6.1587309999999995,"station_name":"Taman Kota","line":5,"station_id":"TKO","transit":false,"distance":2334},{"transit":false,"i_lat":-6.161433,"station_id":"PSG","is_transit":false,"time":2,"i_long":106.771379,"distance":1614,"line":5,"station_name":"Pesing"},{"is_transit":false,"station_id":"GGL","time":2,"station_name":"Grogol","i_lat":-6.162021,"transit":false,"distance":2036,"i_long":106.788277,"line":5},{"distance":1700,"station_id":"DU","i_long":106.800832,"line":1,"is_transit":true,"time":3,"station_name":"Duri","transit":true,"i_lat":-6.155215},{"transit":false,"distance":1230,"is_transit":false,"time":4,"i_long":106.79867,"i_lat":-6.144674,"station_id":"AK","line":1,"station_name":"Angke"},{"station_id":"KPB","station_name":"Kampung Bandan","time":9,"is_transit":true,"transit":true,"i_long":106.826365,"line":4,"i_lat":-6.132549,"distance":4102},{"transit":true,"distance":1364,"i_long":106.812439,"is_transit":true,"station_name":"Jakarta Kota","i_lat":-6.137569,"station_id":"JAKK","line":2,"time":3},{"transit":false,"distance":1264,"i_long":106.820901,"time":4,"is_transit":false,"station_id":"JAY","line":2,"station_name":"Jayakarta","i_lat":-6.141205},{"transit":false,"time":2,"line":2,"i_lat":-6.149769,"station_id":"MGB","station_name":"Manggabesar","distance":1080,"i_long":106.82482,"is_transit":false},{"is_transit":false,"transit":false,"line":2,"i_lat":-6.160725,"i_long":106.827103,"distance":906,"station_name":"Sawah Besar","time":2,"station_id":"SW"},{"station_name":"Juanda","is_transit":false,"distance":1149,"station_id":"JUA","time":2,"i_long":106.828284,"transit":false,"line":2,"i_lat":-6.166716},{"station_id":"GDD","i_long":106.832183,"is_transit":false,"time":4,"i_lat":-6.186295,"distance":2015,"station_name":"Gondangdia","transit":false,"line":2},{"line":2,"i_long":106.840169,"distance":1750,"station_id":"CKI","is_transit":false,"time":3,"station_name":"Cikini","i_lat":-6.198556,"transit":false},{"i_long":106.84912,"station_id":"MRI","time":4,"station_name":"Manggarai","transit":true,"i_lat":-6.209883,"is_transit":true,"distance":1590,"line":2},{"is_transit":false,"i_long":106.822649,"station_name":"Sudirman","line":1,"transit":false,"station_id":"SUD","time":4,"i_lat":-6.202263,"distance":3186},{"transit":false,"is_transit":false,"station_name":"Sudirman Baru","line":1,"station_id":"SUDB","i_lat":-6.201433,"i_long":106.819881,"time":1,"distance":280},{"station_id":"KAT","station_name":"Karet","distance":471,"i_lat":-6.20132,"time":1,"line":1,"is_transit":false,"transit":false,"i_long":106.816351},{"time":5,"is_transit":true,"station_id":"THB","i_lat":-6.185545,"i_long":106.811091,"transit":true,"distance":2029,"station_name":"Tanah Abang","line":1},{"station_id":"PLM","transit":false,"distance":3191,"station_name":"Palmerah","line":6,"is_transit":false,"i_long":106.79689,"time":6,"i_lat":-6.207404},{"is_transit":false,"distance":3737,"time":7,"i_lat":-6.237242,"line":6,"station_id":"KBY","station_name":"Kebayoran","transit":false,"i_long":106.780334},{"station_id":"PDJ","distance":6218,"i_lat":-6.276362,"i_long":106.74273,"time":8,"line":6,"station_name":"Pondokranji","transit":false,"is_transit":false},{"station_name":"Jurangmangu","station_id":"JMU","line":6,"time":3,"i_long":106.728916,"is_transit":false,"i_lat":-6.288927,"distance":2179,"transit":false},{"station_name":"Sudimara","i_lat":-6.296963,"i_long":106.712277,"is_transit":false,"transit":false,"line":6,"station_id":"SDM","distance":1994,"time":4},{"time":6,"i_lat":-6.314823,"line":6,"i_long":106.675475,"distance":4566,"is_transit":false,"station_id":"RU","transit":false,"station_name":"Rawa Buntu"},{"is_transit":false,"line":6,"i_long":106.66566,"distance":2413,"transit":false,"time":4,"station_id":"SRP","station_name":"Serpong","i_lat":-6.319871},{"transit":false,"station_id":"CSK","is_transit":false,"station_name":"Cisauk","i_lat":-6.32484,"line":3,"time":4,"i_long":106.640411,"distance":1784},{"is_transit":false,"distance":2519,"i_lat":-6.329547,"transit":false,"station_id":"CC","i_long":106.617853,"station_name":"Cicayur","line":3,"time":4},{"transit":false,"station_id":"PRP","station_name":"Parung Panjang","i_lat":-6.3441410000000005,"i_long":106.568863,"line":6,"time":8,"is_transit":false,"distance":5968},{"i_long":106.508482,"transit":false,"time":9,"is_transit":false,"distance":7025,"i_lat":-6.354349,"line":3,"station_id":"CJT","station_name":"Cilejit"},{"line":0,"is_transit":false,"distance":2675,"time":6,"i_lat":-6.338021,"station_name":"Daru","station_id":"DAR","transit":false,"i_long":106.491338},{"distance":3902,"is_transit":false,"station_name":"Tenjo","station_id":"TEJ","transit":false,"i_lat":-6.327251,"i_long":106.460812,"line":6,"time":5},{"time":5,"distance":2974,"i_lat":-6.328533,"station_name":"Tigaraksa","station_id":"TGS","transit":false,"i_long":106.425991,"line":6,"is_transit":false}],[{"i_long":106.64657,"is_transit":false,"time":0,"station_name":"Tanah Tinggi","transit":false,"i_lat":-6.17331,"distance":0,"line":5,"station_id":"TTI"},{"i_lat":-6.171811,"is_transit":false,"station_id":"BPR","station_name":"Batuceper","distance":2028,"transit":false,"i_long":106.665036,"time":3,"line":5},{"i_lat":-6.169933,"is_transit":false,"station_id":"PI","transit":false,"station_name":"Poris","i_long":106.679458,"time":3,"line":5,"distance":1834},{"is_transit":false,"station_id":"KDS","distance":2548,"transit":false,"station_name":"Kalideres","i_long":106.701612,"line":5,"time":3,"i_lat":-6.166068},{"line":5,"transit":false,"i_lat":-6.162758,"distance":2504,"i_long":106.723064,"is_transit":false,"time":3,"station_id":"RW","station_name":"Rawa Buaya"},{"time":4,"i_long":106.737035,"transit":false,"is_transit":false,"i_lat":-6.159876,"station_name":"Bojongindah","station_id":"BOI","line":5,"distance":1152},{"time":2,"station_id":"TKO","distance":2334,"transit":false,"i_lat":-6.1587309999999995,"i_long":106.756522,"line":5,"station_name":"Taman Kota","is_transit":false},{"station_id":"PSG","distance":1614,"i_lat":-6.161433,"line":5,"transit":false,"time":2,"is_transit":false,"station_name":"Pesing","i_long":106.771379},{"station_name":"Grogol","line":5,"i_lat":-6.162021,"time":2,"distance":2036,"station_id":"GGL","transit":false,"i_long":106.788277,"is_transit":false},{"time":3,"station_name":"Duri","i_long":106.800832,"is_transit":true,"transit":true,"distance":1700,"station_id":"DU","i_lat":-6.155215,"line":1},{"station_name":"Angke","transit":false,"line":1,"time":4,"i_lat":-6.144674,"i_long":106.79867,"is_transit":false,"station_id":"AK","distance":1230},{"time":9,"transit":true,"i_long":106.826365,"station_name":"Kampung Bandan","is_transit":true,"station_id":"KPB","distance":4102,"i_lat":-6.132549,"line":4},{"station_id":"RJW","i_lat":-6.14505,"station_name":"Rajawali","i_long":106.836569,"is_transit":false,"transit":false,"line":11,"distance":1444,"time":3},{"is_transit":false,"line":11,"transit":false,"station_id":"KMO","distance":1901,"station_name":"Kemayoran","i_lat":-6.161728,"i_long":106.839204,"time":5},{"i_lat":-6.174784,"line":11,"station_id":"PSE","distance":1436,"transit":false,"i_long":106.84368,"time":4,"station_name":"Pasar Senen","is_transit":false},{"i_lat":-6.185975,"is_transit":false,"transit":false,"i_long":106.850107,"time":8,"distance":1567,"station_name":"Gang Sentiong","line":11,"station_id":"GST"},{"transit":false,"is_transit":false,"time":1,"i_lat":-6.193792,"i_long":106.855437,"station_name":"Kramat","line":11,"station_id":"KMT","distance":973},{"transit":false,"i_lat":-6.209188,"station_id":"POK","time":2,"i_long":106.861737,"is_transit":false,"distance":1829,"station_name":"Pondok Jati","line":11},{"transit":true,"i_lat":-6.215091,"distance":1236,"i_long":106.86807400000001,"is_transit":true,"station_name":"Jatinegara","line":1,"station_id":"JNG","time":9},{"line":1,"is_transit":false,"time":2,"distance":1377,"transit":false,"i_lat":-6.212485,"station_name":"Matraman","station_id":"MTR","i_long":106.858896},{"time":2,"distance":1275,"transit":false,"i_lat":-6.209883,"station_id":"MRI","station_name":"Manggarai","i_long":106.84912,"is_transit":false,"line":2},{"is_transit":false,"station_id":"SUD","time":4,"transit":false,"i_lat":-6.202263,"line":1,"distance":3186,"i_long":106.822649,"station_name":"Sudirman"},{"is_transit":false,"station_id":"SUDB","line":1,"time":1,"distance":280,"i_lat":-6.201433,"transit":false,"station_name":"Sudirman Baru","i_long":106.819881},{"station_id":"KAT","distance":471,"is_transit":false,"time":1,"transit":false,"station_name":"Karet","line":1,"i_lat":-6.20132,"i_long":106.816351},{"i_long":106.811091,"i_lat":-6.185545,"time":5,"is_transit":true,"station_id":"THB","line":1,"transit":true,"distance":2029,"station_name":"Tanah Abang"},{"station_id":"PLM","transit":false,"station_name":"Palmerah","i_lat":-6.207404,"distance":3191,"is_transit":false,"line":6,"i_long":106.79689,"time":6},{"transit":false,"station_name":"Kebayoran","line":6,"i_lat":-6.237242,"station_id":"KBY","is_transit":false,"time":7,"distance":3737,"i_long":106.780334},{"distance":6218,"is_transit":false,"transit":false,"i_long":106.74273,"line":6,"station_id":"PDJ","station_name":"Pondokranji","time":8,"i_lat":-6.276362},{"station_id":"JMU","station_name":"Jurangmangu","is_transit":false,"time":3,"i_lat":-6.288927,"distance":2179,"i_long":106.728916,"line":6,"transit":false},{"i_long":106.712277,"distance":1994,"transit":false,"line":6,"is_transit":false,"station_id":"SDM","i_lat":-6.296963,"station_name":"Sudimara","time":4},{"i_long":106.675475,"transit":false,"line":6,"time":6,"station_id":"RU","is_transit":false,"distance":4566,"i_lat":-6.314823,"station_name":"Rawa Buntu"},{"line":6,"station_id":"SRP","is_transit":false,"transit":false,"i_long":106.66566,"time":4,"i_lat":-6.319871,"station_name":"Serpong","distance":2413},{"is_transit":false,"distance":1784,"station_id":"CSK","time":4,"transit":false,"i_lat":-6.32484,"i_long":106.640411,"line":3,"station_name":"Cisauk"},{"i_long":106.617853,"is_transit":false,"time":4,"distance":2519,"transit":false,"i_lat":-6.329547,"station_name":"Cicayur","line":3,"station_id":"CC"},{"time":8,"i_lat":-6.3441410000000005,"station_name":"Parung Panjang","distance":5968,"is_transit":false,"station_id":"PRP","transit":false,"line":6,"i_long":106.568863},{"station_name":"Cilejit","i_long":106.508482,"station_id":"CJT","transit":false,"is_transit":false,"line":3,"i_lat":-6.354349,"time":9,"distance":7025},{"line":0,"station_id":"DAR","time":6,"station_name":"Daru","i_long":106.491338,"is_transit":false,"i_lat":-6.338021,"distance":2675,"transit":false},{"is_transit":false,"station_id":"TEJ","transit":false,"line":6,"station_name":"Tenjo","time":5,"distance":3902,"i_long":106.460812,"i_lat":-6.327251},{"i_lat":-6.328533,"is_transit":false,"station_id":"TGS","time":5,"transit":false,"line":6,"station_name":"Tigaraksa","distance":2974,"i_long":106.425991}]]}