{"data":[[{"is_transit":false,"station_id":"TTI","distance":0,"transit":false,"i_lat":-6.17331,"line":5,"time":0,"station_name":"Tanah Tinggi","i_long":106.64657},{"time":3,"is_transit":false,"station_name":"Batuceper","line":5,"distance":2028,"i_lat":-6.171811,"station_id":"BPR","i_long":106.665036,"transit":false},{"time":3,"station_name":"Poris","is_transit":false,"i_lat":-6.169933,"transit":false,"i_long":106.679458,"line":5,"station_id":"PI","distance":1834},{"distance":2548,"i_lat":-6.166068,"time":3,"station_id":"KDS","is_transit":false,"transit":false,"station_name":"Kalideres","i_long":106.701612,"line":5},{"line":5,"is_transit":false,"time":3,"station_id":"RW","distance":2504,"i_lat":-6.162758,"transit":false,"i_long":106.723064,"station_name":"Rawa Buaya"},{"distance":1152,"time":4,"i_lat":-6.159876,"station_name":"Bojongindah","station_id":"BOI","transit":false,"i_long":106.737035,"is_transit":false,"line":5},{"distance":2334,"transit":false,"line":5,"time":2,"station_id":"TKO","i_long":106.756522,"station_name":"Taman Kota","i_lat":-6.1587309999999995,"is_transit":false},{"i_lat":-6.161433,"is_transit":false,"distance":1614,"i_long":106.771379,"time":2,"station_id":"PSG","transit":false,"line":5,"station_name":"Pesing"},{"is_transit":false,"distance":2036,"i_lat":-6.162021,"transit":false,"i_long":106.788277,"line":5,"station_name":"Grogol","time":2,"station_id":"GRG"},{"i_long":106.800832,"line":1,"distance":1700,"is_transit":true,"station_name":"Duri","i_lat":-6.155215,"time":3,"transit":true,"station_id":"DU"},{"i_long":106.79867,"line":1,"distance":1230,"station_id":"AK","is_transit":false,"i_lat":-6.144674,"station_name":"Angke","time":4,"transit":false},{"time":9,"i_lat":-6.132549,"i_long":106.826365,"is_transit":true,"line":4,"transit":true,"station_id":"KPB","station_name":"Kampung Bandan","distance":4102},{"i_lat":-6.137569,"station_name":"Jakarta Kota","transit":true,"line":2,"is_transit":true,"i_long":106.812439,"time":3,"distance":1364,"station_id":"JAKK"},{"line":2,"station_id":"JAY","distance":1264,"station_name":"Jayakarta","is_transit":false,"time":4,"transit":false,"i_lat":-6.141205,"i_long":106.820901}],[{"station_id":"TTI","i_lat":-6.17331,"distance":0,"i_long":106.64657,"is_transit":false,"station_name":"Tanah Tinggi","transit":false,"time":0,"line":5},{"station_id":"BPR","is_transit":false,"i_long":106.665036,"i_lat":-6.171811,"transit":false,"line":5,"time":3,"station_name":"Batuceper","distance":2028},{"transit":false,"line":5,"time":3,"is_transit":false,"i_lat":-6.169933,"distance":1834,"station_name":"Poris","i_long":106.679458,"station_id":"PI"},{"i_long":106.701612,"station_id":"KDS","transit":false,"distance":2548,"time":3,"i_lat":-6.166068,"is_transit":false,"line":5,"station_name":"Kalideres"},{"distance":2504,"i_long":106.723064,"transit":false,"i_lat":-6.162758,"line":5,"time":3,"station_name":"Rawa Buaya","station_id":"RW","is_transit":false},{"time":4,"is_transit":false,"station_name":"Bojongindah","station_id":"BOI","line":5,"transit":false,"distance":1152,"i_long":106.737035,"i_lat":-6.159876},{"is_transit":false,"transit":false,"i_long":106.756522,"line":5,"station_name":"Taman Kota","distance":2334,"i_lat":-6.1587309999999995,"time":2,"station_id":"TKO"},{"station_id":"PSG","distance":1614,"is_transit":false,"time":2,"transit":false,"i_lat":-6.161433,"line":5,"station_name":"Pesing","i_long":106.771379},{"transit":false,"time":2,"station_id":"GRG","station_name":"Grogol","distance":2036,"i_lat":-6.162021,"line":5,"i_long":106.788277,"is_transit":false},{"i_lat":-6.155215,"distance":1700,"is_transit":true,"time":3,"transit":true,"i_long":106.800832,"station_id":"DU","station_name":"Duri","line":1},{"line":1,"i_lat":-6.185545,"is_transit":false,"distance":3632,"i_long":106.811091,"station_id":"THB","time":8,"transit":false,"station_name":"Tanah Abang"},{"station_id":"KAT","time":5,"distance":2029,"i_long":106.816351,"i_lat":-6.20132,"transit":false,"station_name":"Karet","is_transit":false,"line":1},{"i_long":106.819881,"is_transit":false,"distance":471,"station_id":"SUDB","line":1,"station_name":"Sudirman Baru","time":1,"transit":false,"i_lat":-6.201433},{"line":1,"i_lat":-6.202263,"station_name":"Sudirman","is_transit":false,"time":1,"station_id":"SUD","transit":false,"i_long":106.822649,"distance":280},{"transit":true,"is_transit":true,"i_long":106.84912,"station_id":"MRI","distance":3186,"station_name":"Manggarai","i_lat":-6.209883,"line":2,"time":4},{"transit":false,"line":2,"i_long":106.840169,"station_id":"CKI","is_transit":false,"i_lat":-6.198556,"distance":1590,"time":4,"station_name":"Cikini"},{"line":2,"station_id":"GDD","station_name":"Gondangdia","i_lat":-6.186295,"distance":1750,"transit":false,"i_long":106.832183,"time":3,"is_transit":false},{"i_lat":-6.166716,"is_transit":false,"time":4,"distance":2015,"transit":false,"station_name":"Juanda","station_id":"JUA","i_long":106.828284,"line":2},{"station_name":"Sawah Besar","station_id":"SW","line":2,"i_long":106.827103,"time":2,"is_transit":false,"distance":1149,"transit":false,"i_lat":-6.160725},{"is_transit":false,"line":2,"transit":false,"i_long":106.82482,"time":2,"distance":906,"station_id":"MGB","i_lat":-6.149769,"station_name":"Manggabesar"},{"transit":false,"line":2,"i_lat":-6.141205,"time":2,"is_transit":false,"station_name":"Jayakarta","station_id":"JAY","distance":1080,"i_long":106.820901}],[{"station_id":"TTI","transit":false,"line":5,"i_lat":-6.17331,"distance":0,"i_long":106.64657,"station_name":"Tanah Tinggi","time":0,"is_transit":false},{"time":3,"distance":2028,"transit":false,"station_id":"BPR","i_lat":-6.171811,"line":5,"i_long":106.665036,"is_transit":false,"station_name":"Batuceper"},{"distance":1834,"i_long":106.679458,"time":3,"station_name":"Poris","is_transit":false,"i_lat":-6.169933,"station_id":"PI","line":5,"transit":false},{"time":3,"line":5,"i_long":106.701612,"station_name":"Kalideres","i_lat":-6.166068,"distance":2548,"transit":false,"is_transit":false,"station_id":"KDS"},{"station_name":"Rawa Buaya","i_lat":-6.162758,"station_id":"RW","distance":2504,"line":5,"i_long":106.723064,"time":3,"is_transit":false,"transit":false},{"station_id":"BOI","time":4,"transit":false,"distance":1152,"station_name":"Bojongindah","is_transit":false,"i_lat":-6.159876,"i_long":106.737035,"line":5},{"station_name":"Taman Kota","station_id":"TKO","line":5,"distance":2334,"is_transit":false,"i_long":106.756522,"transit":false,"time":2,"i_lat":-6.1587309999999995},{"time":2,"is_transit":false,"line":5,"distance":1614,"station_name":"Pesing","station_id":"PSG","i_lat":-6.161433,"i_long":106.771379,"transit":false},{"station_name":"Grogol","is_transit":false,"distance":2036,"i_lat":-6.162021,"line":5,"station_id":"GRG","i_long":106.788277,"time":2,"transit":false},{"is_transit":true,"station_id":"DU","transit":true,"line":1,"time":3,"station_name":"Duri","i_lat":-6.155215,"distance":1700,"i_long":106.800832},{"time":8,"station_name":"Tanah Abang","line":1,"station_id":"THB","transit":false,"i_long":106.811091,"is_transit":false,"i_lat":-6.185545,"distance":3632},{"i_lat":-6.20132,"line":1,"distance":2029,"is_transit":false,"station_id":"KAT","transit":false,"i_long":106.816351,"time":5,"station_name":"Karet"},{"station_name":"Sudirman Baru","distance":471,"is_transit":false,"transit":false,"line":1,"i_lat":-6.201433,"i_long":106.819881,"station_id":"SUDB","time":1},{"distance":280,"time":1,"transit":false,"i_lat":-6.202263,"station_name":"Sudirman","station_id":"SUD","line":1,"is_transit":false,"i_long":106.822649},{"i_lat":-6.209883,"station_name":"Manggarai","i_long":106.84912,"time":4,"is_transit":false,"transit":false,"station_id":"MRI","line":2,"distance":3186},{"i_long":106.858896,"is_transit":false,"distance":1275,"transit":false,"line":1,"station_name":"Matraman","station_id":"MTR","time":2,"i_lat":-6.212485},{"line":1,"is_transit":true,"i_lat":-6.215091,"distance":1377,"station_id":"JNG","time":8,"i_long":106.86807400000001,"transit":true,"station_name":"Jatinegara"},{"i_long":106.861737,"station_name":"Pondok Jati","transit":false,"i_lat":-6.209188,"is_transit":false,"distance":1236,"line":11,"time":2,"station_id":"POK"},{"time":2,"transit":false,"station_name":"Kramat","distance":1829,"i_lat":-6.193792,"line":11,"is_transit":false,"i_long":106.855437,"station_id":"KMT"},{"distance":973,"i_long":106.850107,"transit":false,"is_transit":false,"station_name":"Gang Sentiong","time":1,"station_id":"GST","i_lat":-6.185975,"line":11},{"station_name":"Pasar Senen","is_transit":false,"time":8,"distance":1567,"transit":false,"station_id":"PSE","line":11,"i_long":106.84368,"i_lat":-6.174784},{"is_transit":false,"distance":1436,"station_name":"Kemayoran","transit":false,"i_lat":-6.161728,"time":4,"station_id":"KMO","i_long":106.839204,"line":11},{"time":5,"station_name":"Rajawali","station_id":"RJW","is_transit":false,"i_lat":-6.14505,"transit":false,"distance":1901,"line":11,"i_long":106.836569},{"station_id":"KPB","distance":1444,"time":3,"line":4,"i_long":106.826365,"station_name":"Kampung Bandan","is_transit":true,"transit":true,"i_lat":-6.132549},{"line":2,"station_name":"Jakarta Kota","i_long":106.812439,"distance":1364,"is_transit":true,"transit":true,"station_id":"JAKK","time":3,"i_lat":-6.137569},{"station_name":"Jayakarta","is_transit":false,"i_long":106.820901,"station_id":"JAY","line":2,"time":4,"transit":false,"distance":1264,"i_lat":-6.141205}],[{"distance":0,"station_name":"Tanah Tinggi","i_long":106.64657,"transit":false,"line":5,"time":0,"station_id":"TTI","i_lat":-6.17331,"is_transit":false},{"transit":false,"is_transit":false,"station_id":"BPR","time":3,"i_long":106.665036,"i_lat":-6.171811,"station_name":"Batuceper","line":5,"distance":2028},{"distance":1834,"station_id":"PI","time":3,"transit":false,"station_name":"Poris","i_long":106.679458,"line":5,"i_lat":-6.169933,"is_transit":false},{"station_name":"Kalideres","station_id":"KDS","i_lat":-6.166068,"is_transit":false,"distance":2548,"time":3,"transit":false,"line":5,"i_long":106.701612},{"station_id":"RW","is_transit":false,"i_lat":-6.162758,"i_long":106.723064,"line":5,"distance":2504,"time":3,"station_name":"Rawa Buaya","transit":false},{"is_transit":false,"transit":false,"station_name":"Bojongindah","i_lat":-6.159876,"line":5,"distance":1152,"time":4,"station_id":"BOI","i_long":106.737035},{"distance":2334,"line":5,"is_transit":false,"i_lat":-6.1587309999999995,"time":2,"station_name":"Taman Kota","station_id":"TKO","transit":false,"i_long":106.756522},{"distance":1614,"transit":false,"is_transit":false,"station_id":"PSG","line":5,"i_lat":-6.161433,"station_name":"Pesing","time":2,"i_long":106.771379},{"distance":2036,"is_transit":false,"time":2,"i_long":106.788277,"station_name":"Grogol","line":5,"station_id":"GRG","transit":false,"i_lat":-6.162021},{"distance":1700,"station_id":"DU","time":3,"transit":true,"station_name":"Duri","is_transit":true,"i_lat":-6.155215,"i_long":106.800832,"line":1},{"is_transit":false,"transit":false,"i_long":106.79867,"line":1,"time":4,"distance":1230,"station_name":"Angke","station_id":"AK","i_lat":-6.144674},{"station_id":"KPB","station_name":"Kampung Bandan","time":9,"i_long":106.826365,"i_lat":-6.132549,"is_transit":true,"line":4,"distance":4102,"transit":true},{"distance":1444,"line":11,"i_lat":-6.14505,"is_transit":false,"time":3,"station_id":"RJW","i_long":106.836569,"station_name":"Rajawali","transit":false},{"transit":false,"i_long":106.839204,"time":5,"station_id":"KMO","is_transit":false,"station_name":"Kemayoran","i_lat":-6.161728,"line":11,"distance":1901},{"distance":1436,"station_id":"PSE","i_lat":-6.174784,"time":4,"station_name":"Pasar Senen","is_transit":false,"transit":false,"i_long":106.84368,"line":11},{"line":11,"distance":1567,"time":8,"i_long":106.850107,"station_id":"GST","is_transit":false,"transit":false,"station_name":"Gang Sentiong","i_lat":-6.185975},{"is_transit":false,"station_id":"KMT","distance":973,"transit":false,"time":1,"i_lat":-6.193792,"line":11,"station_name":"Kramat","i_long":106.855437},{"transit":false,"time":2,"i_lat":-6.209188,"station_id":"POK","distance":1829,"station_name":"Pondok Jati","i_long":106.861737,"is_transit":false,"line":11},{"distance":1236,"is_transit":true,"station_name":"Jatinegara","time":9,"i_long":106.86807400000001,"station_id":"JNG","line":1,"transit":true,"i_lat":-6.215091},{"time":2,"i_long":106.858896,"distance":1377,"line":1,"is_transit":false,"station_id":"MTR","station_name":"Matraman","i_lat":-6.212485,"transit":false},{"transit":true,"distance":1275,"station_name":"Manggarai","time":2,"line":2,"station_id":"MRI","is_transit":true,"i_lat":-6.209883,"i_long":106.84912},{"station_name":"Cikini","distance":1590,"transit":false,"time":4,"station_id":"CKI","i_lat":-6.198556,"i_long":106.840169,"is_transit":false,"line":2},{"i_lat":-6.186295,"station_name":"Gondangdia","station_id":"GDD","time":3,"i_long":106.832183,"line":2,"is_transit":false,"distance":1750,"transit":false},{"station_id":"JUA","line":2,"i_lat":-6.166716,"is_transit":false,"i_long":106.828284,"station_name":"Juanda","time":4,"distance":2015,"transit":false},{"transit":false,"line":2,"time":2,"is_transit":false,"station_name":"Sawah Besar","i_lat":-6.160725,"distance":1149,"station_id":"SW","i_long":106.827103},{"station_name":"Manggabesar","line":2,"distance":906,"is_transit":false,"transit":false,"station_id":"MGB","time":2,"i_lat":-6.149769,"i_long":106.82482},{"station_name":"Jayakarta","time":2,"i_long":106.820901,"i_lat":-6.141205,"line":2,"distance":1080,"station_id":"JAY","transit":false,"is_transit":false}]]}