{"data":[[{"i_long":106.64657,"is_transit":false,"transit":false,"time":0,"i_lat":-6.17331,"line":5,"station_name":"Tanah Tinggi","distance":0,"station_id":"TTI"},{"line":0,"is_transit":false,"distance":2028,"transit":false,"station_id":"BPR","station_name":"Batuceper","i_long":106.665036,"time":3,"i_lat":-6.171811},{"transit":false,"station_name":"Poris","station_id":"PI","time":3,"i_long":106.679458,"i_lat":-6.169933,"line":5,"distance":1834,"is_transit":false},{"transit":false,"station_id":"KDS","station_name":"Kalideres","i_lat":-6.166068,"distance":2548,"is_transit":false,"i_long":106.701612,"line":5,"time":3},{"station_name":"Rawa Buaya","station_id":"RW","is_transit":false,"distance":2504,"time":3,"i_long":106.723064,"transit":false,"line":5,"i_lat":-6.162758},{"distance":1152,"station_id":"BOI","i_long":106.737035,"transit":false,"station_name":"Bojongindah","i_lat":-6.159876,"line":0,"time":4,"is_transit":false},{"is_transit":false,"station_id":"TKO","station_name":"Taman Kota","time":2,"transit":false,"i_lat":-6.1587309999999995,"i_long":106.756522,"line":5,"distance":2334},{"line":5,"i_long":106.771379,"station_name":"Pesing","station_id":"PSG","is_transit":false,"transit":false,"time":2,"distance":1614,"i_lat":-6.161433},{"i_lat":-6.162021,"i_long":106.788277,"line":5,"distance":2036,"time":2,"station_id":"GGL","is_transit":false,"station_name":"Grogol","transit":false},{"distance":1700,"transit":true,"station_name":"Duri","i_lat":-6.155215,"i_long":106.800832,"time":3,"station_id":"DU","is_transit":true,"line":1},{"station_name":"Tanah Abang","transit":false,"line":1,"station_id":"THB","is_transit":true,"distance":3632,"i_lat":-6.185545,"time":8,"i_long":106.811091},{"transit":false,"i_long":106.816351,"distance":2029,"station_name":"Karet","time":5,"line":1,"is_transit":false,"station_id":"KAT","i_lat":-6.20132},{"transit":false,"time":1,"line":1,"i_lat":-6.201433,"i_long":106.819881,"is_transit":false,"station_id":"SUDB","distance":471,"station_name":"Sudirman Baru"},{"station_id":"SUD","line":1,"is_transit":false,"transit":false,"time":1,"i_lat":-6.202263,"distance":280,"i_long":106.822649,"station_name":"Sudirman"},{"line":0,"i_long":106.84912,"is_transit":true,"distance":3186,"i_lat":-6.209883,"station_name":"Manggarai","transit":false,"time":4,"station_id":"MRI"},{"i_lat":-6.212485,"station_name":"Matraman","is_transit":false,"transit":false,"distance":1275,"time":2,"station_id":"MTR","line":1,"i_long":106.858896},{"i_long":106.86807400000001,"i_lat":-6.215091,"line":0,"is_transit":true,"transit":false,"time":8,"station_id":"JNG","distance":1377,"station_name":"Jatinegara"},{"station_name":"Klender","station_id":"KLD","transit":false,"time":3,"is_transit":false,"i_lat":-6.2135,"i_long":106.899548,"line":1,"distance":3395},{"is_transit":false,"line":0,"i_long":106.922662,"i_lat":-6.215568,"station_name":"Buaran","transit":false,"distance":3100,"time":2,"station_id":"BUA"},{"is_transit":false,"time":1,"i_long":106.939679,"transit":false,"line":1,"station_name":"Klenderbaru","distance":1305,"i_lat":-6.217455,"station_id":"KLDB"}],[{"i_lat":-6.17331,"distance":0,"transit":false,"is_transit":false,"station_id":"TTI","time":0,"line":5,"station_name":"Tanah Tinggi","i_long":106.64657},{"line":0,"station_id":"BPR","distance":2028,"i_lat":-6.171811,"station_name":"Batuceper","time":3,"is_transit":false,"transit":false,"i_long":106.665036},{"i_long":106.679458,"is_transit":false,"time":3,"line":5,"transit":false,"i_lat":-6.169933,"station_name":"Poris","station_id":"PI","distance":1834},{"i_long":106.701612,"i_lat":-6.166068,"line":5,"transit":false,"is_transit":false,"distance":2548,"station_name":"Kalideres","station_id":"KDS","time":3},{"i_long":106.723064,"is_transit":false,"time":3,"transit":false,"station_name":"Rawa Buaya","line":5,"distance":2504,"station_id":"RW","i_lat":-6.162758},{"time":4,"transit":false,"i_long":106.737035,"distance":1152,"station_id":"BOI","station_name":"Bojongindah","is_transit":false,"i_lat":-6.159876,"line":0},{"distance":2334,"i_lat":-6.1587309999999995,"i_long":106.756522,"is_transit":false,"station_id":"TKO","transit":false,"station_name":"Taman Kota","line":5,"time":2},{"station_name":"Pesing","i_long":106.771379,"is_transit":false,"transit":false,"time":2,"i_lat":-6.161433,"station_id":"PSG","line":5,"distance":1614},{"i_long":106.788277,"transit":false,"i_lat":-6.162021,"is_transit":false,"station_name":"Grogol","line":5,"station_id":"GGL","distance":2036,"time":2},{"is_transit":true,"station_id":"DU","i_lat":-6.155215,"line":1,"time":3,"station_name":"Duri","distance":1700,"transit":true,"i_long":106.800832},{"transit":false,"is_transit":false,"station_id":"AK","station_name":"Angke","time":4,"distance":1230,"i_lat":-6.144674,"i_long":106.79867,"line":0},{"line":0,"time":9,"station_id":"KPB","i_long":106.826365,"distance":4102,"station_name":"Kampung Bandan","i_lat":-6.132549,"transit":true,"is_transit":true},{"station_name":"Rajawali","transit":false,"is_transit":false,"distance":1444,"station_id":"RJW","i_lat":-6.14505,"time":3,"i_long":106.836569,"line":11},{"i_lat":-6.161728,"transit":false,"line":11,"time":5,"i_long":106.839204,"station_name":"Kemayoran","is_transit":false,"station_id":"KMO","distance":1901},{"i_lat":-6.174784,"station_name":"Pasar Senen","transit":false,"time":4,"i_long":106.84368,"distance":1436,"is_transit":false,"station_id":"PSE","line":11},{"station_id":"GST","distance":1567,"time":8,"station_name":"Gang Sentiong","i_lat":-6.185975,"transit":false,"i_long":106.850107,"is_transit":false,"line":11},{"station_name":"Kramat","i_lat":-6.193792,"transit":false,"line":11,"time":1,"is_transit":false,"distance":973,"station_id":"KMT","i_long":106.855437},{"station_name":"Pondok Jati","distance":1829,"time":2,"i_lat":-6.209188,"transit":false,"i_long":106.861737,"line":11,"is_transit":false,"station_id":"POK"},{"i_long":106.86807400000001,"station_name":"Jatinegara","time":9,"station_id":"JNG","is_transit":true,"distance":1236,"line":0,"transit":true,"i_lat":-6.215091},{"time":3,"distance":3395,"station_id":"KLD","station_name":"Klender","transit":false,"is_transit":false,"i_lat":-6.2135,"i_long":106.899548,"line":1},{"is_transit":false,"transit":false,"i_long":106.922662,"line":0,"station_name":"Buaran","time":2,"station_id":"BUA","i_lat":-6.215568,"distance":3100},{"station_id":"KLDB","i_long":106.939679,"i_lat":-6.217455,"line":1,"distance":1305,"time":1,"is_transit":false,"transit":false,"station_name":"Klenderbaru"}],[{"distance":0,"transit":false,"station_id":"TTI","time":0,"is_transit":false,"line":5,"i_long":106.64657,"i_lat":-6.17331,"station_name":"Tanah Tinggi"},{"station_id":"BPR","transit":false,"i_lat":-6.171811,"is_transit":false,"station_name":"Batuceper","distance":2028,"line":0,"time":3,"i_long":106.665036},{"i_long":106.679458,"station_id":"PI","is_transit":false,"time":3,"line":5,"distance":1834,"i_lat":-6.169933,"station_name":"Poris","transit":false},{"i_lat":-6.166068,"station_name":"Kalideres","line":5,"i_long":106.701612,"distance":2548,"transit":false,"time":3,"is_transit":false,"station_id":"KDS"},{"i_lat":-6.162758,"i_long":106.723064,"distance":2504,"time":3,"station_name":"Rawa Buaya","transit":false,"line":5,"station_id":"RW","is_transit":false},{"transit":false,"distance":1152,"time":4,"line":0,"station_id":"BOI","i_lat":-6.159876,"station_name":"Bojongindah","i_long":106.737035,"is_transit":false},{"i_long":106.756522,"station_id":"TKO","i_lat":-6.1587309999999995,"station_name":"Taman Kota","distance":2334,"transit":false,"time":2,"is_transit":false,"line":5},{"time":2,"i_long":106.771379,"station_name":"Pesing","line":5,"transit":false,"i_lat":-6.161433,"is_transit":false,"station_id":"PSG","distance":1614},{"station_id":"GGL","station_name":"Grogol","distance":2036,"time":2,"line":5,"i_long":106.788277,"is_transit":false,"transit":false,"i_lat":-6.162021},{"line":1,"is_transit":true,"time":3,"distance":1700,"i_long":106.800832,"station_name":"Duri","i_lat":-6.155215,"station_id":"DU","transit":true},{"distance":1230,"station_id":"AK","time":4,"i_long":106.79867,"station_name":"Angke","transit":false,"i_lat":-6.144674,"line":0,"is_transit":false},{"station_name":"Kampung Bandan","station_id":"KPB","distance":4102,"transit":false,"is_transit":true,"time":9,"i_lat":-6.132549,"i_long":106.826365,"line":0},{"is_transit":true,"distance":1364,"station_name":"Jakarta Kota","transit":true,"i_long":106.812439,"line":0,"time":3,"station_id":"JAKK","i_lat":-6.137569},{"distance":1264,"is_transit":false,"station_id":"JAY","i_lat":-6.141205,"i_long":106.820901,"time":4,"line":7,"transit":false,"station_name":"Jayakarta"},{"distance":1080,"time":2,"i_lat":-6.149769,"station_id":"MGB","is_transit":false,"i_long":106.82482,"transit":false,"line":2,"station_name":"Manggabesar"},{"line":2,"i_long":106.827103,"transit":false,"time":2,"is_transit":false,"distance":906,"i_lat":-6.160725,"station_name":"Sawah Besar","station_id":"SW"},{"station_name":"Juanda","transit":false,"time":2,"i_lat":-6.166716,"line":2,"i_long":106.828284,"distance":1149,"is_transit":false,"station_id":"JUA"},{"line":2,"is_transit":false,"station_name":"Gondangdia","distance":2015,"station_id":"GDD","i_lat":-6.186295,"i_long":106.832183,"transit":false,"time":4},{"station_id":"CKI","station_name":"Cikini","is_transit":false,"i_long":106.840169,"transit":false,"time":3,"i_lat":-6.198556,"line":0,"distance":1750},{"is_transit":true,"transit":true,"i_lat":-6.209883,"station_id":"MRI","distance":1590,"time":4,"i_long":106.84912,"line":0,"station_name":"Manggarai"},{"line":1,"station_id":"MTR","transit":false,"station_name":"Matraman","i_lat":-6.212485,"is_transit":false,"i_long":106.858896,"time":2,"distance":1275},{"time":8,"distance":1377,"station_name":"Jatinegara","i_long":106.86807400000001,"transit":false,"i_lat":-6.215091,"line":0,"is_transit":true,"station_id":"JNG"},{"transit":false,"station_name":"Klender","i_long":106.899548,"station_id":"KLD","time":3,"i_lat":-6.2135,"is_transit":false,"distance":3395,"line":1},{"i_lat":-6.215568,"line":0,"station_name":"Buaran","distance":3100,"is_transit":false,"station_id":"BUA","time":2,"i_long":106.922662,"transit":false},{"station_id":"KLDB","is_transit":false,"time":1,"i_lat":-6.217455,"i_long":106.939679,"line":1,"transit":false,"distance":1305,"station_name":"Klenderbaru"}],[{"transit":false,"station_id":"TTI","time":0,"distance":0,"is_transit":false,"i_lat":-6.17331,"i_long":106.64657,"station_name":"Tanah Tinggi","line":5},{"distance":2028,"is_transit":false,"i_lat":-6.171811,"station_id":"BPR","i_long":106.665036,"transit":false,"line":0,"station_name":"Batuceper","time":3},{"distance":1834,"line":5,"is_transit":false,"station_name":"Poris","time":3,"station_id":"PI","i_long":106.679458,"i_lat":-6.169933,"transit":false},{"transit":false,"distance":2548,"is_transit":false,"time":3,"i_long":106.701612,"station_id":"KDS","station_name":"Kalideres","line":5,"i_lat":-6.166068},{"i_long":106.723064,"distance":2504,"time":3,"station_name":"Rawa Buaya","i_lat":-6.162758,"transit":false,"line":5,"is_transit":false,"station_id":"RW"},{"station_name":"Bojongindah","time":4,"distance":1152,"station_id":"BOI","line":0,"transit":false,"i_lat":-6.159876,"i_long":106.737035,"is_transit":false},{"is_transit":false,"i_long":106.756522,"line":5,"station_id":"TKO","transit":false,"time":2,"station_name":"Taman Kota","i_lat":-6.1587309999999995,"distance":2334},{"is_transit":false,"station_name":"Pesing","transit":false,"i_lat":-6.161433,"line":5,"i_long":106.771379,"time":2,"station_id":"PSG","distance":1614},{"i_lat":-6.162021,"i_long":106.788277,"line":5,"transit":false,"is_transit":false,"station_id":"GGL","distance":2036,"station_name":"Grogol","time":2},{"station_name":"Duri","transit":true,"line":1,"i_long":106.800832,"station_id":"DU","time":3,"is_transit":true,"distance":1700,"i_lat":-6.155215},{"distance":3632,"is_transit":true,"station_id":"THB","station_name":"Tanah Abang","transit":false,"time":8,"i_lat":-6.185545,"i_long":106.811091,"line":1},{"transit":false,"distance":2029,"is_transit":false,"i_long":106.816351,"i_lat":-6.20132,"station_name":"Karet","line":1,"station_id":"KAT","time":5},{"station_id":"SUDB","station_name":"Sudirman Baru","is_transit":false,"distance":471,"time":1,"i_lat":-6.201433,"i_long":106.819881,"line":1,"transit":false},{"station_name":"Sudirman","time":1,"distance":280,"station_id":"SUD","i_lat":-6.202263,"transit":false,"line":1,"i_long":106.822649,"is_transit":false},{"station_name":"Manggarai","distance":3186,"time":4,"i_lat":-6.209883,"i_long":106.84912,"is_transit":true,"transit":true,"line":0,"station_id":"MRI"},{"is_transit":false,"distance":1590,"transit":false,"station_name":"Cikini","line":0,"station_id":"CKI","time":4,"i_long":106.840169,"i_lat":-6.198556},{"i_long":106.832183,"transit":false,"station_name":"Gondangdia","time":3,"i_lat":-6.186295,"distance":1750,"line":2,"is_transit":false,"station_id":"GDD"},{"distance":2015,"time":4,"transit":false,"i_lat":-6.166716,"line":2,"station_id":"JUA","station_name":"Juanda","i_long":106.828284,"is_transit":false},{"transit":false,"distance":1149,"i_long":106.827103,"time":2,"station_name":"Sawah Besar","line":2,"is_transit":false,"i_lat":-6.160725,"station_id":"SW"},{"i_lat":-6.149769,"line":2,"transit":false,"distance":906,"i_long":106.82482,"station_name":"Manggabesar","time":2,"is_transit":false,"station_id":"MGB"},{"is_transit":false,"time":2,"distance":1080,"station_name":"Jayakarta","station_id":"JAY","transit":false,"i_long":106.820901,"line":7,"i_lat":-6.141205},{"i_lat":-6.137569,"time":4,"line":0,"station_name":"Jakarta Kota","i_long":106.812439,"transit":true,"distance":1264,"station_id":"JAKK","is_transit":true},{"time":3,"is_transit":true,"station_id":"KPB","transit":true,"i_long":106.826365,"distance":1364,"i_lat":-6.132549,"line":0,"station_name":"Kampung Bandan"},{"time":3,"is_transit":false,"i_lat":-6.14505,"distance":1444,"station_id":"RJW","transit":false,"i_long":106.836569,"line":11,"station_name":"Rajawali"},{"i_lat":-6.161728,"i_long":106.839204,"station_name":"Kemayoran","line":11,"is_transit":false,"distance":1901,"station_id":"KMO","time":5,"transit":false},{"transit":false,"i_lat":-6.174784,"time":4,"line":11,"i_long":106.84368,"station_name":"Pasar Senen","is_transit":false,"distance":1436,"station_id":"PSE"},{"station_name":"Gang Sentiong","transit":false,"station_id":"GST","is_transit":false,"i_lat":-6.185975,"distance":1567,"i_long":106.850107,"line":11,"time":8},{"i_lat":-6.193792,"line":11,"station_id":"KMT","transit":false,"time":1,"i_long":106.855437,"distance":973,"station_name":"Kramat","is_transit":false},{"station_id":"POK","distance":1829,"i_lat":-6.209188,"transit":false,"i_long":106.861737,"line":11,"time":2,"station_name":"Pondok Jati","is_transit":false},{"time":9,"station_name":"Jatinegara","station_id":"JNG","i_lat":-6.215091,"distance":1236,"is_transit":true,"i_long":106.86807400000001,"transit":true,"line":0},{"i_lat":-6.2135,"i_long":106.899548,"station_id":"KLD","transit":false,"station_name":"Klender","is_transit":false,"time":3,"line":1,"distance":3395},{"line":0,"is_transit":false,"station_name":"Buaran","transit":false,"i_lat":-6.215568,"i_long":106.922662,"distance":3100,"station_id":"BUA","time":2},{"line":1,"i_lat":-6.217455,"station_id":"KLDB","is_transit":false,"station_name":"Klenderbaru","distance":1305,"transit":false,"time":1,"i_long":106.939679}]]}