{"data":[[{"is_transit":false,"transit":false,"i_lat":-6.17331,"i_long":106.64657,"line":5,"time":0,"station_id":"TTI","distance":0,"station_name":"Tanah Tinggi"},{"distance":2028,"station_name":"Batuceper","time":3,"station_id":"BPR","i_lat":-6.171811,"i_long":106.665036,"transit":false,"line":5,"is_transit":false},{"time":3,"line":5,"i_lat":-6.169933,"transit":false,"i_long":106.679458,"distance":1834,"station_name":"Poris","station_id":"PI","is_transit":false},{"i_lat":-6.166068,"time":3,"distance":2548,"transit":false,"station_id":"KDS","station_name":"Kalideres","line":5,"i_long":106.701612,"is_transit":false},{"is_transit":false,"time":3,"line":5,"distance":2504,"i_long":106.723064,"i_lat":-6.162758,"station_name":"Rawa Buaya","station_id":"RW","transit":false},{"transit":false,"distance":1152,"line":5,"station_id":"BOI","station_name":"Bojongindah","i_long":106.737035,"i_lat":-6.159876,"is_transit":false,"time":4},{"i_long":106.756522,"transit":false,"i_lat":-6.1587309999999995,"time":2,"distance":2334,"station_name":"Taman Kota","is_transit":false,"station_id":"TKO","line":5},{"i_lat":-6.161433,"time":2,"station_id":"PSG","station_name":"Pesing","is_transit":false,"i_long":106.771379,"distance":1614,"transit":false,"line":5},{"line":5,"is_transit":false,"station_id":"GRG","station_name":"Grogol","time":2,"transit":false,"i_lat":-6.162021,"i_long":106.788277,"distance":2036},{"transit":true,"station_id":"DU","i_lat":-6.155215,"line":1,"time":3,"is_transit":true,"i_long":106.800832,"station_name":"Duri","distance":1700},{"time":4,"station_name":"Angke","is_transit":false,"i_lat":-6.144674,"i_long":106.79867,"station_id":"AK","distance":1230,"transit":false,"line":1},{"i_long":106.826365,"distance":4102,"line":4,"transit":true,"is_transit":true,"i_lat":-6.132549,"station_id":"KPB","time":9,"station_name":"Kampung Bandan"},{"station_id":"JAKK","transit":true,"i_lat":-6.137569,"i_long":106.812439,"is_transit":true,"line":2,"time":3,"distance":1364,"station_name":"Jakarta Kota"},{"is_transit":false,"distance":1264,"time":4,"station_name":"Jayakarta","i_lat":-6.141205,"i_long":106.820901,"transit":false,"station_id":"JAY","line":2},{"distance":1080,"transit":false,"i_lat":-6.149769,"time":2,"is_transit":false,"i_long":106.82482,"line":2,"station_id":"MGB","station_name":"Manggabesar"},{"station_id":"SW","i_lat":-6.160725,"time":2,"line":2,"distance":906,"station_name":"Sawah Besar","transit":false,"is_transit":false,"i_long":106.827103},{"time":2,"line":2,"station_name":"Juanda","transit":false,"is_transit":false,"i_lat":-6.166716,"station_id":"JUA","distance":1149,"i_long":106.828284}],[{"i_long":106.64657,"distance":0,"line":5,"station_id":"TTI","transit":false,"time":0,"is_transit":false,"station_name":"Tanah Tinggi","i_lat":-6.17331},{"i_long":106.665036,"station_id":"BPR","is_transit":false,"transit":false,"line":5,"station_name":"Batuceper","distance":2028,"time":3,"i_lat":-6.171811},{"i_lat":-6.169933,"time":3,"transit":false,"line":5,"station_id":"PI","distance":1834,"i_long":106.679458,"is_transit":false,"station_name":"Poris"},{"is_transit":false,"station_name":"Kalideres","transit":false,"distance":2548,"station_id":"KDS","i_long":106.701612,"line":5,"i_lat":-6.166068,"time":3},{"station_name":"Rawa Buaya","station_id":"RW","time":3,"is_transit":false,"i_lat":-6.162758,"distance":2504,"transit":false,"i_long":106.723064,"line":5},{"transit":false,"station_name":"Bojongindah","station_id":"BOI","distance":1152,"time":4,"i_lat":-6.159876,"line":5,"i_long":106.737035,"is_transit":false},{"is_transit":false,"i_long":106.756522,"line":5,"station_id":"TKO","time":2,"distance":2334,"transit":false,"i_lat":-6.1587309999999995,"station_name":"Taman Kota"},{"station_name":"Pesing","distance":1614,"i_lat":-6.161433,"line":5,"i_long":106.771379,"time":2,"is_transit":false,"transit":false,"station_id":"PSG"},{"i_long":106.788277,"line":5,"distance":2036,"station_name":"Grogol","station_id":"GRG","transit":false,"i_lat":-6.162021,"time":2,"is_transit":false},{"i_lat":-6.155215,"i_long":106.800832,"station_name":"Duri","distance":1700,"transit":true,"is_transit":true,"line":1,"time":3,"station_id":"DU"},{"is_transit":false,"i_lat":-6.185545,"station_name":"Tanah Abang","station_id":"THB","i_long":106.811091,"transit":false,"distance":3632,"time":8,"line":1},{"station_name":"Karet","i_lat":-6.20132,"i_long":106.816351,"station_id":"KAT","time":5,"transit":false,"line":1,"distance":2029,"is_transit":false},{"distance":471,"is_transit":false,"transit":false,"station_name":"Sudirman Baru","station_id":"SUDB","i_lat":-6.201433,"line":1,"i_long":106.819881,"time":1},{"is_transit":false,"i_long":106.822649,"i_lat":-6.202263,"distance":280,"transit":false,"time":1,"station_id":"SUD","station_name":"Sudirman","line":1},{"distance":3186,"line":2,"time":4,"station_name":"Manggarai","station_id":"MRI","i_lat":-6.209883,"i_long":106.84912,"is_transit":true,"transit":true},{"line":2,"is_transit":false,"time":4,"distance":1590,"station_name":"Cikini","i_long":106.840169,"transit":false,"i_lat":-6.198556,"station_id":"CKI"},{"i_lat":-6.186295,"time":3,"distance":1750,"is_transit":false,"transit":false,"station_name":"Gondangdia","i_long":106.832183,"station_id":"GDD","line":2},{"station_id":"JUA","i_lat":-6.166716,"is_transit":false,"line":2,"i_long":106.828284,"time":4,"distance":2015,"transit":false,"station_name":"Juanda"}],[{"is_transit":false,"time":0,"station_id":"TTI","line":5,"distance":0,"station_name":"Tanah Tinggi","i_long":106.64657,"transit":false,"i_lat":-6.17331},{"i_lat":-6.171811,"is_transit":false,"line":5,"i_long":106.665036,"time":3,"distance":2028,"station_name":"Batuceper","station_id":"BPR","transit":false},{"time":3,"i_lat":-6.169933,"line":5,"station_id":"PI","station_name":"Poris","i_long":106.679458,"distance":1834,"is_transit":false,"transit":false},{"distance":2548,"station_id":"KDS","line":5,"transit":false,"i_long":106.701612,"time":3,"is_transit":false,"station_name":"Kalideres","i_lat":-6.166068},{"station_id":"RW","line":5,"i_long":106.723064,"is_transit":false,"station_name":"Rawa Buaya","time":3,"distance":2504,"transit":false,"i_lat":-6.162758},{"distance":1152,"time":4,"station_name":"Bojongindah","i_long":106.737035,"i_lat":-6.159876,"station_id":"BOI","is_transit":false,"line":5,"transit":false},{"station_id":"TKO","is_transit":false,"i_lat":-6.1587309999999995,"line":5,"i_long":106.756522,"transit":false,"distance":2334,"time":2,"station_name":"Taman Kota"},{"i_lat":-6.161433,"transit":false,"distance":1614,"station_name":"Pesing","i_long":106.771379,"is_transit":false,"station_id":"PSG","line":5,"time":2},{"time":2,"i_long":106.788277,"line":5,"i_lat":-6.162021,"transit":false,"station_name":"Grogol","station_id":"GRG","is_transit":false,"distance":2036},{"transit":true,"is_transit":true,"station_id":"DU","i_lat":-6.155215,"i_long":106.800832,"line":1,"time":3,"station_name":"Duri","distance":1700},{"transit":false,"is_transit":false,"i_lat":-6.144674,"line":1,"time":4,"station_id":"AK","distance":1230,"station_name":"Angke","i_long":106.79867},{"distance":4102,"time":9,"station_id":"KPB","is_transit":true,"i_long":106.826365,"station_name":"Kampung Bandan","transit":true,"i_lat":-6.132549,"line":4},{"i_lat":-6.14505,"distance":1444,"time":3,"transit":false,"station_name":"Rajawali","station_id":"RJW","is_transit":false,"line":11,"i_long":106.836569},{"is_transit":false,"line":11,"station_name":"Kemayoran","time":5,"i_long":106.839204,"distance":1901,"transit":false,"i_lat":-6.161728,"station_id":"KMO"},{"line":11,"distance":1436,"transit":false,"i_lat":-6.174784,"is_transit":false,"time":4,"station_name":"Pasar Senen","i_long":106.84368,"station_id":"PSE"},{"station_name":"Gang Sentiong","transit":false,"distance":1567,"i_long":106.850107,"is_transit":false,"station_id":"GST","i_lat":-6.185975,"time":8,"line":11},{"time":1,"i_lat":-6.193792,"distance":973,"line":11,"transit":false,"station_id":"KMT","i_long":106.855437,"station_name":"Kramat","is_transit":false},{"distance":1829,"time":2,"station_id":"POK","is_transit":false,"i_lat":-6.209188,"transit":false,"station_name":"Pondok Jati","i_long":106.861737,"line":11},{"i_long":106.86807400000001,"line":1,"time":9,"distance":1236,"station_name":"Jatinegara","station_id":"JNG","i_lat":-6.215091,"transit":true,"is_transit":true},{"distance":1377,"time":2,"is_transit":false,"station_id":"MTR","i_lat":-6.212485,"line":1,"station_name":"Matraman","i_long":106.858896,"transit":false},{"time":2,"distance":1275,"transit":true,"is_transit":true,"station_name":"Manggarai","station_id":"MRI","i_lat":-6.209883,"line":2,"i_long":106.84912},{"time":4,"transit":false,"i_lat":-6.198556,"line":2,"distance":1590,"is_transit":false,"station_name":"Cikini","i_long":106.840169,"station_id":"CKI"},{"is_transit":false,"station_id":"GDD","i_lat":-6.186295,"station_name":"Gondangdia","line":2,"transit":false,"distance":1750,"time":3,"i_long":106.832183},{"line":2,"i_lat":-6.166716,"is_transit":false,"station_name":"Juanda","station_id":"JUA","time":4,"i_long":106.828284,"distance":2015,"transit":false}],[{"is_transit":false,"i_long":106.64657,"line":5,"transit":false,"station_id":"TTI","station_name":"Tanah Tinggi","i_lat":-6.17331,"time":0,"distance":0},{"is_transit":false,"i_long":106.665036,"transit":false,"station_name":"Batuceper","line":5,"station_id":"BPR","time":3,"distance":2028,"i_lat":-6.171811},{"transit":false,"station_id":"PI","is_transit":false,"station_name":"Poris","time":3,"i_lat":-6.169933,"i_long":106.679458,"line":5,"distance":1834},{"station_name":"Kalideres","station_id":"KDS","i_lat":-6.166068,"is_transit":false,"time":3,"i_long":106.701612,"line":5,"transit":false,"distance":2548},{"station_name":"Rawa Buaya","i_lat":-6.162758,"distance":2504,"time":3,"line":5,"station_id":"RW","is_transit":false,"transit":false,"i_long":106.723064},{"i_long":106.737035,"station_name":"Bojongindah","line":5,"transit":false,"is_transit":false,"time":4,"distance":1152,"station_id":"BOI","i_lat":-6.159876},{"time":2,"is_transit":false,"distance":2334,"station_name":"Taman Kota","station_id":"TKO","i_lat":-6.1587309999999995,"line":5,"i_long":106.756522,"transit":false},{"station_name":"Pesing","i_long":106.771379,"line":5,"i_lat":-6.161433,"distance":1614,"is_transit":false,"transit":false,"time":2,"station_id":"PSG"},{"i_long":106.788277,"line":5,"station_name":"Grogol","distance":2036,"station_id":"GRG","transit":false,"time":2,"i_lat":-6.162021,"is_transit":false},{"i_long":106.800832,"distance":1700,"time":3,"transit":true,"line":1,"station_name":"Duri","is_transit":true,"station_id":"DU","i_lat":-6.155215},{"i_lat":-6.185545,"i_long":106.811091,"station_name":"Tanah Abang","line":1,"distance":3632,"time":8,"transit":false,"is_transit":false,"station_id":"THB"},{"distance":2029,"transit":false,"i_long":106.816351,"station_name":"Karet","i_lat":-6.20132,"time":5,"station_id":"KAT","line":1,"is_transit":false},{"i_long":106.819881,"is_transit":false,"time":1,"i_lat":-6.201433,"station_name":"Sudirman Baru","line":1,"distance":471,"transit":false,"station_id":"SUDB"},{"i_long":106.822649,"line":1,"distance":280,"is_transit":false,"station_id":"SUD","transit":false,"i_lat":-6.202263,"time":1,"station_name":"Sudirman"},{"is_transit":false,"station_id":"MRI","time":4,"i_lat":-6.209883,"station_name":"Manggarai","line":2,"transit":false,"i_long":106.84912,"distance":3186},{"time":2,"is_transit":false,"transit":false,"distance":1275,"station_name":"Matraman","line":1,"station_id":"MTR","i_lat":-6.212485,"i_long":106.858896},{"station_name":"Jatinegara","i_long":106.86807400000001,"line":1,"transit":true,"station_id":"JNG","distance":1377,"is_transit":true,"time":8,"i_lat":-6.215091},{"i_lat":-6.209188,"line":11,"distance":1236,"transit":false,"is_transit":false,"time":2,"i_long":106.861737,"station_name":"Pondok Jati","station_id":"POK"},{"time":2,"station_id":"KMT","line":11,"i_lat":-6.193792,"i_long":106.855437,"transit":false,"is_transit":false,"station_name":"Kramat","distance":1829},{"distance":973,"is_transit":false,"station_id":"GST","time":1,"i_lat":-6.185975,"i_long":106.850107,"station_name":"Gang Sentiong","line":11,"transit":false},{"line":11,"distance":1567,"i_long":106.84368,"is_transit":false,"station_id":"PSE","i_lat":-6.174784,"time":8,"transit":false,"station_name":"Pasar Senen"},{"line":11,"station_name":"Kemayoran","is_transit":false,"transit":false,"distance":1436,"time":4,"i_long":106.839204,"i_lat":-6.161728,"station_id":"KMO"},{"line":11,"transit":false,"station_name":"Rajawali","station_id":"RJW","i_lat":-6.14505,"time":5,"i_long":106.836569,"is_transit":false,"distance":1901},{"time":3,"is_transit":true,"transit":true,"station_id":"KPB","i_long":106.826365,"line":4,"distance":1444,"station_name":"Kampung Bandan","i_lat":-6.132549},{"distance":1364,"transit":true,"i_long":106.812439,"i_lat":-6.137569,"station_name":"Jakarta Kota","is_transit":true,"time":3,"station_id":"JAKK","line":2},{"is_transit":false,"transit":false,"station_id":"JAY","distance":1264,"time":4,"station_name":"Jayakarta","i_lat":-6.141205,"i_long":106.820901,"line":2},{"line":2,"distance":1080,"transit":false,"is_transit":false,"time":2,"i_long":106.82482,"i_lat":-6.149769,"station_name":"Manggabesar","station_id":"MGB"},{"station_id":"SW","station_name":"Sawah Besar","i_long":106.827103,"i_lat":-6.160725,"transit":false,"distance":906,"time":2,"line":2,"is_transit":false},{"station_id":"JUA","time":2,"is_transit":false,"transit":false,"i_lat":-6.166716,"line":2,"station_name":"Juanda","i_long":106.828284,"distance":1149}]]}