{"data":[[{"distance":0,"time":0,"station_name":"Tanah Tinggi","transit":false,"i_long":106.64657,"i_lat":-6.17331,"line":5,"station_id":"TTI","is_transit":false},{"i_lat":-6.171811,"line":5,"station_id":"BPR","time":3,"station_name":"Batuceper","i_long":106.665036,"is_transit":false,"distance":2028,"transit":false},{"distance":1834,"station_name":"Poris","is_transit":false,"transit":false,"i_lat":-6.169933,"i_long":106.679458,"line":5,"station_id":"PI","time":3},{"station_name":"Kalideres","is_transit":false,"line":5,"distance":2548,"station_id":"KDS","time":3,"transit":false,"i_long":106.701612,"i_lat":-6.166068},{"distance":2504,"line":5,"transit":false,"station_id":"RW","station_name":"Rawa Buaya","i_lat":-6.162758,"i_long":106.723064,"time":3,"is_transit":false},{"time":4,"distance":1152,"station_id":"BOI","station_name":"Bojongindah","i_lat":-6.159876,"i_long":106.737035,"line":5,"is_transit":false,"transit":false},{"is_transit":false,"station_id":"TKO","line":5,"time":2,"transit":false,"i_lat":-6.1587309999999995,"i_long":106.756522,"distance":2334,"station_name":"Taman Kota"},{"i_long":106.771379,"distance":1614,"transit":false,"i_lat":-6.161433,"time":2,"station_name":"Pesing","station_id":"PSG","is_transit":false,"line":5},{"is_transit":false,"transit":false,"i_lat":-6.162021,"time":2,"station_id":"GGL","station_name":"Grogol","i_long":106.788277,"line":5,"distance":2036},{"distance":1700,"is_transit":true,"station_name":"Duri","i_lat":-6.155215,"station_id":"DU","line":1,"time":3,"transit":true,"i_long":106.800832},{"i_lat":-6.185545,"i_long":106.811091,"station_id":"THB","is_transit":true,"distance":3632,"time":8,"station_name":"Tanah Abang","line":1,"transit":true},{"i_long":106.79689,"transit":false,"i_lat":-6.207404,"time":6,"station_name":"Palmerah","line":6,"distance":3191,"is_transit":false,"station_id":"PLM"},{"time":7,"transit":false,"distance":3737,"i_lat":-6.237242,"i_long":106.780334,"station_id":"KBY","station_name":"Kebayoran","is_transit":false,"line":6},{"transit":false,"line":6,"station_name":"Pondokranji","distance":6218,"i_lat":-6.276362,"station_id":"PDJ","is_transit":false,"i_long":106.74273,"time":8},{"station_id":"JMU","station_name":"Jurangmangu","time":3,"line":6,"distance":2179,"transit":false,"is_transit":false,"i_long":106.728916,"i_lat":-6.288927},{"is_transit":false,"i_long":106.712277,"station_id":"SDM","distance":1994,"transit":false,"time":4,"i_lat":-6.296963,"line":6,"station_name":"Sudimara"},{"station_id":"RU","time":6,"is_transit":false,"transit":false,"line":6,"i_lat":-6.314823,"i_long":106.675475,"distance":4566,"station_name":"Rawa Buntu"},{"station_name":"Serpong","is_transit":false,"time":4,"distance":2413,"i_long":106.66566,"station_id":"SRP","line":6,"i_lat":-6.319871,"transit":false},{"is_transit":false,"time":4,"distance":1784,"station_name":"Cisauk","station_id":"CSK","i_long":106.640411,"i_lat":-6.32484,"line":3,"transit":false},{"station_name":"Cicayur","transit":false,"time":4,"i_long":106.617853,"i_lat":-6.329547,"line":3,"distance":2519,"is_transit":false,"station_id":"CC"},{"distance":5968,"is_transit":false,"line":6,"station_id":"PRP","transit":false,"time":8,"station_name":"Parung Panjang","i_lat":-6.3441410000000005,"i_long":106.568863},{"is_transit":false,"station_name":"Cilejit","distance":7025,"i_long":106.508482,"time":9,"line":3,"transit":false,"station_id":"CJT","i_lat":-6.354349},{"time":6,"station_id":"DAR","i_lat":-6.338021,"transit":false,"is_transit":false,"line":0,"distance":2675,"station_name":"Daru","i_long":106.491338},{"line":6,"distance":3902,"is_transit":false,"time":5,"i_lat":-6.327251,"transit":false,"station_id":"TEJ","i_long":106.460812,"station_name":"Tenjo"},{"distance":2974,"is_transit":false,"station_id":"TGS","i_lat":-6.328533,"i_long":106.425991,"transit":false,"line":6,"time":5,"station_name":"Tigaraksa"}],[{"station_id":"TTI","line":5,"i_long":106.64657,"station_name":"Tanah Tinggi","i_lat":-6.17331,"time":0,"is_transit":false,"transit":false,"distance":0},{"distance":2028,"station_id":"BPR","transit":false,"i_long":106.665036,"station_name":"Batuceper","is_transit":false,"i_lat":-6.171811,"line":5,"time":3},{"i_lat":-6.169933,"line":5,"time":3,"is_transit":false,"transit":false,"distance":1834,"i_long":106.679458,"station_id":"PI","station_name":"Poris"},{"time":3,"distance":2548,"station_name":"Kalideres","transit":false,"is_transit":false,"station_id":"KDS","i_lat":-6.166068,"i_long":106.701612,"line":5},{"station_name":"Rawa Buaya","i_long":106.723064,"line":5,"i_lat":-6.162758,"time":3,"distance":2504,"transit":false,"station_id":"RW","is_transit":false},{"station_id":"BOI","line":5,"distance":1152,"i_long":106.737035,"i_lat":-6.159876,"station_name":"Bojongindah","time":4,"is_transit":false,"transit":false},{"line":5,"station_id":"TKO","is_transit":false,"distance":2334,"transit":false,"station_name":"Taman Kota","i_long":106.756522,"i_lat":-6.1587309999999995,"time":2},{"station_name":"Pesing","station_id":"PSG","i_long":106.771379,"time":2,"i_lat":-6.161433,"distance":1614,"transit":false,"is_transit":false,"line":5},{"distance":2036,"station_id":"GGL","i_long":106.788277,"time":2,"line":5,"is_transit":false,"transit":false,"station_name":"Grogol","i_lat":-6.162021},{"is_transit":true,"distance":1700,"station_name":"Duri","transit":true,"i_long":106.800832,"time":3,"station_id":"DU","i_lat":-6.155215,"line":1},{"i_long":106.79867,"distance":1230,"line":1,"station_name":"Angke","transit":false,"station_id":"AK","i_lat":-6.144674,"time":4,"is_transit":false},{"i_lat":-6.132549,"is_transit":true,"station_name":"Kampung Bandan","distance":4102,"time":9,"transit":true,"station_id":"KPB","line":4,"i_long":106.826365},{"station_name":"Jakarta Kota","i_lat":-6.137569,"i_long":106.812439,"is_transit":true,"line":2,"time":3,"station_id":"JAKK","distance":1364,"transit":true},{"station_id":"JAY","i_lat":-6.141205,"i_long":106.820901,"line":2,"time":4,"distance":1264,"is_transit":false,"transit":false,"station_name":"Jayakarta"},{"time":2,"transit":false,"i_long":106.82482,"distance":1080,"is_transit":false,"station_name":"Manggabesar","station_id":"MGB","i_lat":-6.149769,"line":2},{"time":2,"distance":906,"i_long":106.827103,"station_id":"SW","i_lat":-6.160725,"transit":false,"station_name":"Sawah Besar","line":2,"is_transit":false},{"time":2,"i_lat":-6.166716,"is_transit":false,"distance":1149,"station_id":"JUA","i_long":106.828284,"line":2,"station_name":"Juanda","transit":false},{"time":4,"line":2,"i_lat":-6.186295,"i_long":106.832183,"station_id":"GDD","transit":false,"distance":2015,"is_transit":false,"station_name":"Gondangdia"},{"transit":false,"distance":1750,"is_transit":false,"station_name":"Cikini","i_lat":-6.198556,"i_long":106.840169,"time":3,"station_id":"CKI","line":2},{"station_name":"Manggarai","transit":true,"time":4,"distance":1590,"line":2,"is_transit":true,"i_long":106.84912,"i_lat":-6.209883,"station_id":"MRI"},{"i_lat":-6.202263,"station_id":"SUD","station_name":"Sudirman","i_long":106.822649,"time":4,"transit":false,"line":1,"is_transit":false,"distance":3186},{"i_lat":-6.201433,"line":1,"station_name":"Sudirman Baru","time":1,"transit":false,"distance":280,"station_id":"SUDB","is_transit":false,"i_long":106.819881},{"is_transit":false,"station_name":"Karet","line":1,"transit":false,"i_lat":-6.20132,"station_id":"KAT","i_long":106.816351,"distance":471,"time":1},{"transit":true,"distance":2029,"is_transit":true,"station_id":"THB","line":1,"i_lat":-6.185545,"i_long":106.811091,"station_name":"Tanah Abang","time":5},{"line":6,"time":6,"distance":3191,"i_lat":-6.207404,"i_long":106.79689,"station_id":"PLM","transit":false,"is_transit":false,"station_name":"Palmerah"},{"station_name":"Kebayoran","i_long":106.780334,"station_id":"KBY","is_transit":false,"transit":false,"time":7,"i_lat":-6.237242,"line":6,"distance":3737},{"distance":6218,"line":6,"station_name":"Pondokranji","time":8,"is_transit":false,"transit":false,"station_id":"PDJ","i_long":106.74273,"i_lat":-6.276362},{"i_lat":-6.288927,"i_long":106.728916,"station_name":"Jurangmangu","is_transit":false,"transit":false,"line":6,"distance":2179,"time":3,"station_id":"JMU"},{"time":4,"station_id":"SDM","distance":1994,"transit":false,"i_lat":-6.296963,"i_long":106.712277,"line":6,"station_name":"Sudimara","is_transit":false},{"i_long":106.675475,"is_transit":false,"station_id":"RU","station_name":"Rawa Buntu","line":6,"transit":false,"distance":4566,"time":6,"i_lat":-6.314823},{"time":4,"distance":2413,"line":6,"station_name":"Serpong","station_id":"SRP","i_lat":-6.319871,"i_long":106.66566,"transit":false,"is_transit":false},{"i_long":106.640411,"i_lat":-6.32484,"station_id":"CSK","distance":1784,"station_name":"Cisauk","transit":false,"time":4,"is_transit":false,"line":3},{"i_long":106.617853,"time":4,"station_name":"Cicayur","transit":false,"i_lat":-6.329547,"is_transit":false,"station_id":"CC","line":3,"distance":2519},{"line":6,"i_long":106.568863,"time":8,"station_id":"PRP","station_name":"Parung Panjang","distance":5968,"is_transit":false,"transit":false,"i_lat":-6.3441410000000005},{"is_transit":false,"station_name":"Cilejit","i_lat":-6.354349,"time":9,"transit":false,"station_id":"CJT","line":3,"distance":7025,"i_long":106.508482},{"transit":false,"i_long":106.491338,"is_transit":false,"station_id":"DAR","distance":2675,"line":0,"station_name":"Daru","i_lat":-6.338021,"time":6},{"line":6,"station_id":"TEJ","is_transit":false,"i_lat":-6.327251,"transit":false,"time":5,"i_long":106.460812,"station_name":"Tenjo","distance":3902},{"transit":false,"station_name":"Tigaraksa","is_transit":false,"station_id":"TGS","time":5,"line":6,"i_long":106.425991,"i_lat":-6.328533,"distance":2974}],[{"distance":0,"station_name":"Tanah Tinggi","i_lat":-6.17331,"transit":false,"station_id":"TTI","line":5,"time":0,"i_long":106.64657,"is_transit":false},{"i_long":106.665036,"is_transit":false,"time":3,"station_name":"Batuceper","i_lat":-6.171811,"line":5,"transit":false,"station_id":"BPR","distance":2028},{"transit":false,"time":3,"i_lat":-6.169933,"station_name":"Poris","is_transit":false,"distance":1834,"line":5,"station_id":"PI","i_long":106.679458},{"distance":2548,"time":3,"line":5,"station_name":"Kalideres","is_transit":false,"transit":false,"i_lat":-6.166068,"station_id":"KDS","i_long":106.701612},{"distance":2504,"station_name":"Rawa Buaya","time":3,"is_transit":false,"transit":false,"i_long":106.723064,"line":5,"station_id":"RW","i_lat":-6.162758},{"time":4,"line":5,"is_transit":false,"transit":false,"distance":1152,"i_lat":-6.159876,"i_long":106.737035,"station_name":"Bojongindah","station_id":"BOI"},{"i_long":106.756522,"distance":2334,"line":5,"i_lat":-6.1587309999999995,"station_id":"TKO","is_transit":false,"time":2,"transit":false,"station_name":"Taman Kota"},{"station_id":"PSG","i_lat":-6.161433,"i_long":106.771379,"time":2,"is_transit":false,"transit":false,"station_name":"Pesing","line":5,"distance":1614},{"i_lat":-6.162021,"distance":2036,"transit":false,"i_long":106.788277,"time":2,"is_transit":false,"station_name":"Grogol","station_id":"GGL","line":5},{"transit":true,"i_lat":-6.155215,"time":3,"station_id":"DU","distance":1700,"station_name":"Duri","is_transit":true,"i_long":106.800832,"line":1},{"transit":false,"i_long":106.79867,"is_transit":false,"line":1,"station_name":"Angke","time":4,"i_lat":-6.144674,"station_id":"AK","distance":1230},{"i_long":106.826365,"line":4,"station_id":"KPB","time":9,"is_transit":true,"transit":true,"station_name":"Kampung Bandan","distance":4102,"i_lat":-6.132549},{"i_long":106.836569,"station_id":"RJW","time":3,"i_lat":-6.14505,"station_name":"Rajawali","is_transit":false,"line":11,"distance":1444,"transit":false},{"transit":false,"distance":1901,"time":5,"is_transit":false,"i_lat":-6.161728,"station_name":"Kemayoran","station_id":"KMO","i_long":106.839204,"line":11},{"i_lat":-6.174784,"i_long":106.84368,"is_transit":false,"station_id":"PSE","distance":1436,"station_name":"Pasar Senen","line":11,"time":4,"transit":false},{"i_lat":-6.185975,"line":11,"i_long":106.850107,"transit":false,"distance":1567,"station_name":"Gang Sentiong","is_transit":false,"time":8,"station_id":"GST"},{"station_name":"Kramat","station_id":"KMT","time":1,"distance":973,"i_long":106.855437,"transit":false,"i_lat":-6.193792,"line":11,"is_transit":false},{"i_lat":-6.209188,"line":11,"i_long":106.861737,"station_name":"Pondok Jati","transit":false,"is_transit":false,"station_id":"POK","distance":1829,"time":2},{"i_lat":-6.215091,"line":1,"is_transit":true,"station_id":"JNG","i_long":106.86807400000001,"transit":true,"station_name":"Jatinegara","distance":1236,"time":9},{"is_transit":false,"line":1,"time":2,"station_name":"Matraman","i_lat":-6.212485,"transit":false,"station_id":"MTR","distance":1377,"i_long":106.858896},{"time":2,"station_name":"Manggarai","distance":1275,"i_lat":-6.209883,"i_long":106.84912,"station_id":"MRI","transit":false,"is_transit":false,"line":2},{"is_transit":false,"station_name":"Sudirman","line":1,"station_id":"SUD","i_long":106.822649,"transit":false,"distance":3186,"time":4,"i_lat":-6.202263},{"is_transit":false,"transit":false,"station_name":"Sudirman Baru","line":1,"station_id":"SUDB","i_lat":-6.201433,"i_long":106.819881,"distance":280,"time":1},{"station_name":"Karet","time":1,"station_id":"KAT","distance":471,"is_transit":false,"i_long":106.816351,"i_lat":-6.20132,"transit":false,"line":1},{"transit":true,"is_transit":true,"i_lat":-6.185545,"station_name":"Tanah Abang","i_long":106.811091,"station_id":"THB","distance":2029,"line":1,"time":5},{"station_id":"PLM","station_name":"Palmerah","time":6,"distance":3191,"line":6,"i_lat":-6.207404,"transit":false,"i_long":106.79689,"is_transit":false},{"is_transit":false,"i_lat":-6.237242,"transit":false,"line":6,"station_id":"KBY","i_long":106.780334,"station_name":"Kebayoran","distance":3737,"time":7},{"distance":6218,"station_id":"PDJ","i_lat":-6.276362,"transit":false,"station_name":"Pondokranji","is_transit":false,"time":8,"i_long":106.74273,"line":6},{"distance":2179,"i_lat":-6.288927,"i_long":106.728916,"is_transit":false,"line":6,"transit":false,"time":3,"station_name":"Jurangmangu","station_id":"JMU"},{"transit":false,"station_id":"SDM","distance":1994,"i_long":106.712277,"line":6,"station_name":"Sudimara","i_lat":-6.296963,"is_transit":false,"time":4},{"time":6,"is_transit":false,"i_lat":-6.314823,"station_name":"Rawa Buntu","distance":4566,"station_id":"RU","line":6,"i_long":106.675475,"transit":false},{"time":4,"i_long":106.66566,"i_lat":-6.319871,"distance":2413,"station_id":"SRP","station_name":"Serpong","transit":false,"is_transit":false,"line":6},{"line":3,"transit":false,"station_name":"Cisauk","i_lat":-6.32484,"i_long":106.640411,"time":4,"station_id":"CSK","is_transit":false,"distance":1784},{"transit":false,"distance":2519,"station_name":"Cicayur","station_id":"CC","is_transit":false,"time":4,"line":3,"i_lat":-6.329547,"i_long":106.617853},{"time":8,"station_name":"Parung Panjang","is_transit":false,"transit":false,"distance":5968,"i_lat":-6.3441410000000005,"line":6,"i_long":106.568863,"station_id":"PRP"},{"station_id":"CJT","transit":false,"is_transit":false,"distance":7025,"i_long":106.508482,"station_name":"Cilejit","line":3,"time":9,"i_lat":-6.354349},{"i_long":106.491338,"station_name":"Daru","time":6,"station_id":"DAR","transit":false,"distance":2675,"line":0,"is_transit":false,"i_lat":-6.338021},{"station_id":"TEJ","i_lat":-6.327251,"distance":3902,"i_long":106.460812,"time":5,"is_transit":false,"transit":false,"line":6,"station_name":"Tenjo"},{"line":6,"i_long":106.425991,"station_id":"TGS","distance":2974,"i_lat":-6.328533,"station_name":"Tigaraksa","transit":false,"is_transit":false,"time":5}]]}