{"data":[[{"is_transit":false,"station_name":"Tanah Tinggi","line":5,"time":0,"i_long":106.64657,"i_lat":-6.17331,"transit":false,"distance":0,"station_id":"TTI"},{"transit":false,"distance":2028,"i_long":106.665036,"time":3,"station_name":"Batuceper","i_lat":-6.171811,"station_id":"BPR","is_transit":false,"line":5},{"transit":false,"i_long":106.679458,"station_name":"Poris","time":3,"i_lat":-6.169933,"distance":1834,"line":5,"station_id":"PI","is_transit":false},{"station_id":"KDS","i_long":106.701612,"station_name":"Kalideres","time":3,"transit":false,"is_transit":false,"distance":2548,"line":5,"i_lat":-6.166068},{"transit":false,"i_long":106.723064,"line":5,"is_transit":false,"distance":2504,"station_id":"RW","station_name":"Rawa Buaya","i_lat":-6.162758,"time":3},{"line":5,"time":4,"transit":false,"i_lat":-6.159876,"is_transit":false,"distance":1152,"station_id":"BOI","station_name":"Bojongindah","i_long":106.737035},{"station_id":"TKO","is_transit":false,"transit":false,"time":2,"station_name":"Taman Kota","i_lat":-6.1587309999999995,"i_long":106.756522,"distance":2334,"line":5},{"is_transit":false,"i_lat":-6.161433,"i_long":106.771379,"line":5,"distance":1614,"station_name":"Pesing","transit":false,"station_id":"PSG","time":2},{"station_name":"Grogol","is_transit":false,"time":2,"line":5,"i_lat":-6.162021,"transit":false,"distance":2036,"i_long":106.788277,"station_id":"GGL"},{"line":1,"time":3,"is_transit":true,"i_lat":-6.155215,"i_long":106.800832,"station_name":"Duri","transit":true,"distance":1700,"station_id":"DU"},{"is_transit":false,"i_long":106.79867,"station_id":"AK","distance":1230,"time":4,"i_lat":-6.144674,"transit":false,"station_name":"Angke","line":1},{"transit":true,"i_lat":-6.132549,"station_id":"KPB","distance":4102,"is_transit":true,"station_name":"Kampung Bandan","time":9,"line":4,"i_long":106.826365},{"station_name":"Jakarta Kota","time":3,"distance":1364,"transit":true,"station_id":"JAKK","i_lat":-6.137569,"line":2,"is_transit":true,"i_long":106.812439},{"distance":1264,"station_id":"JAY","line":2,"i_long":106.820901,"is_transit":false,"station_name":"Jayakarta","time":4,"i_lat":-6.141205,"transit":false},{"time":2,"line":2,"transit":false,"is_transit":false,"i_lat":-6.149769,"station_name":"Manggabesar","i_long":106.82482,"distance":1080,"station_id":"MGB"},{"station_name":"Sawah Besar","transit":false,"distance":906,"station_id":"SW","i_lat":-6.160725,"time":2,"line":2,"i_long":106.827103,"is_transit":false},{"i_lat":-6.166716,"is_transit":false,"station_name":"Juanda","line":2,"distance":1149,"i_long":106.828284,"transit":false,"station_id":"JUA","time":2}],[{"line":5,"transit":false,"station_id":"TTI","is_transit":false,"time":0,"i_long":106.64657,"station_name":"Tanah Tinggi","distance":0,"i_lat":-6.17331},{"station_name":"Batuceper","distance":2028,"time":3,"i_lat":-6.171811,"transit":false,"station_id":"BPR","i_long":106.665036,"line":5,"is_transit":false},{"i_lat":-6.169933,"station_name":"Poris","is_transit":false,"i_long":106.679458,"distance":1834,"line":5,"station_id":"PI","transit":false,"time":3},{"distance":2548,"station_id":"KDS","is_transit":false,"i_long":106.701612,"time":3,"station_name":"Kalideres","transit":false,"i_lat":-6.166068,"line":5},{"i_long":106.723064,"transit":false,"distance":2504,"i_lat":-6.162758,"line":5,"station_id":"RW","is_transit":false,"time":3,"station_name":"Rawa Buaya"},{"line":5,"i_long":106.737035,"transit":false,"distance":1152,"i_lat":-6.159876,"time":4,"station_id":"BOI","is_transit":false,"station_name":"Bojongindah"},{"line":5,"time":2,"station_id":"TKO","i_long":106.756522,"distance":2334,"transit":false,"is_transit":false,"station_name":"Taman Kota","i_lat":-6.1587309999999995},{"line":5,"distance":1614,"i_lat":-6.161433,"station_name":"Pesing","transit":false,"i_long":106.771379,"station_id":"PSG","time":2,"is_transit":false},{"distance":2036,"transit":false,"is_transit":false,"station_name":"Grogol","time":2,"i_lat":-6.162021,"station_id":"GGL","i_long":106.788277,"line":5},{"i_lat":-6.155215,"is_transit":true,"station_name":"Duri","line":1,"transit":true,"time":3,"i_long":106.800832,"station_id":"DU","distance":1700},{"station_id":"THB","i_lat":-6.185545,"time":8,"is_transit":false,"station_name":"Tanah Abang","distance":3632,"i_long":106.811091,"line":1,"transit":false},{"transit":false,"is_transit":false,"line":1,"time":5,"station_name":"Karet","station_id":"KAT","i_long":106.816351,"distance":2029,"i_lat":-6.20132},{"i_lat":-6.201433,"transit":false,"station_name":"Sudirman Baru","distance":471,"station_id":"SUDB","i_long":106.819881,"line":1,"time":1,"is_transit":false},{"transit":false,"distance":280,"is_transit":false,"station_id":"SUD","station_name":"Sudirman","time":1,"i_lat":-6.202263,"line":1,"i_long":106.822649},{"i_long":106.84912,"time":4,"i_lat":-6.209883,"line":2,"is_transit":true,"station_id":"MRI","transit":true,"station_name":"Manggarai","distance":3186},{"station_name":"Cikini","time":4,"transit":false,"i_long":106.840169,"distance":1590,"line":2,"station_id":"CKI","i_lat":-6.198556,"is_transit":false},{"i_lat":-6.186295,"transit":false,"line":2,"distance":1750,"time":3,"is_transit":false,"i_long":106.832183,"station_id":"GDD","station_name":"Gondangdia"},{"time":4,"transit":false,"is_transit":false,"line":2,"distance":2015,"station_id":"JUA","i_lat":-6.166716,"station_name":"Juanda","i_long":106.828284}],[{"line":5,"station_name":"Tanah Tinggi","i_lat":-6.17331,"is_transit":false,"transit":false,"distance":0,"i_long":106.64657,"station_id":"TTI","time":0},{"transit":false,"station_name":"Batuceper","distance":2028,"station_id":"BPR","line":5,"i_lat":-6.171811,"time":3,"is_transit":false,"i_long":106.665036},{"station_name":"Poris","station_id":"PI","i_long":106.679458,"i_lat":-6.169933,"line":5,"distance":1834,"transit":false,"time":3,"is_transit":false},{"i_long":106.701612,"distance":2548,"i_lat":-6.166068,"transit":false,"station_id":"KDS","is_transit":false,"station_name":"Kalideres","time":3,"line":5},{"distance":2504,"transit":false,"is_transit":false,"time":3,"station_name":"Rawa Buaya","station_id":"RW","line":5,"i_lat":-6.162758,"i_long":106.723064},{"line":5,"time":4,"station_name":"Bojongindah","i_long":106.737035,"station_id":"BOI","is_transit":false,"distance":1152,"i_lat":-6.159876,"transit":false},{"is_transit":false,"station_name":"Taman Kota","time":2,"distance":2334,"i_lat":-6.1587309999999995,"transit":false,"station_id":"TKO","i_long":106.756522,"line":5},{"time":2,"is_transit":false,"i_lat":-6.161433,"station_id":"PSG","i_long":106.771379,"station_name":"Pesing","line":5,"transit":false,"distance":1614},{"transit":false,"station_name":"Grogol","distance":2036,"line":5,"station_id":"GGL","time":2,"i_lat":-6.162021,"i_long":106.788277,"is_transit":false},{"station_name":"Duri","i_long":106.800832,"station_id":"DU","i_lat":-6.155215,"is_transit":true,"line":1,"distance":1700,"transit":true,"time":3},{"is_transit":false,"time":4,"i_lat":-6.144674,"transit":false,"station_name":"Angke","distance":1230,"station_id":"AK","i_long":106.79867,"line":1},{"transit":true,"station_id":"KPB","station_name":"Kampung Bandan","i_lat":-6.132549,"distance":4102,"time":9,"line":4,"is_transit":true,"i_long":106.826365},{"line":11,"transit":false,"distance":1444,"station_id":"RJW","is_transit":false,"time":3,"i_lat":-6.14505,"station_name":"Rajawali","i_long":106.836569},{"line":11,"i_lat":-6.161728,"station_id":"KMO","i_long":106.839204,"transit":false,"distance":1901,"is_transit":false,"station_name":"Kemayoran","time":5},{"line":11,"distance":1436,"i_long":106.84368,"transit":false,"station_name":"Pasar Senen","i_lat":-6.174784,"is_transit":false,"time":4,"station_id":"PSE"},{"is_transit":false,"i_lat":-6.185975,"station_id":"GST","distance":1567,"line":11,"i_long":106.850107,"station_name":"Gang Sentiong","time":8,"transit":false},{"distance":973,"is_transit":false,"line":11,"station_id":"KMT","i_lat":-6.193792,"i_long":106.855437,"time":1,"station_name":"Kramat","transit":false},{"is_transit":false,"time":2,"distance":1829,"transit":false,"line":11,"station_name":"Pondok Jati","i_long":106.861737,"i_lat":-6.209188,"station_id":"POK"},{"line":1,"is_transit":true,"i_long":106.86807400000001,"distance":1236,"i_lat":-6.215091,"transit":true,"time":9,"station_id":"JNG","station_name":"Jatinegara"},{"station_id":"MTR","station_name":"Matraman","transit":false,"i_long":106.858896,"is_transit":false,"time":2,"line":1,"distance":1377,"i_lat":-6.212485},{"transit":true,"station_id":"MRI","distance":1275,"station_name":"Manggarai","i_lat":-6.209883,"is_transit":true,"line":2,"i_long":106.84912,"time":2},{"i_lat":-6.198556,"is_transit":false,"transit":false,"i_long":106.840169,"time":4,"station_id":"CKI","line":2,"distance":1590,"station_name":"Cikini"},{"transit":false,"is_transit":false,"line":2,"station_name":"Gondangdia","i_long":106.832183,"i_lat":-6.186295,"station_id":"GDD","time":3,"distance":1750},{"station_id":"JUA","station_name":"Juanda","transit":false,"i_lat":-6.166716,"time":4,"distance":2015,"line":2,"is_transit":false,"i_long":106.828284}],[{"i_long":106.64657,"i_lat":-6.17331,"station_id":"TTI","distance":0,"station_name":"Tanah Tinggi","line":5,"transit":false,"is_transit":false,"time":0},{"time":3,"i_long":106.665036,"line":5,"i_lat":-6.171811,"station_name":"Batuceper","transit":false,"distance":2028,"station_id":"BPR","is_transit":false},{"i_long":106.679458,"station_name":"Poris","time":3,"distance":1834,"i_lat":-6.169933,"transit":false,"station_id":"PI","is_transit":false,"line":5},{"transit":false,"line":5,"station_id":"KDS","station_name":"Kalideres","time":3,"is_transit":false,"i_lat":-6.166068,"distance":2548,"i_long":106.701612},{"i_lat":-6.162758,"transit":false,"time":3,"is_transit":false,"i_long":106.723064,"line":5,"distance":2504,"station_id":"RW","station_name":"Rawa Buaya"},{"i_lat":-6.159876,"line":5,"distance":1152,"station_id":"BOI","is_transit":false,"transit":false,"time":4,"station_name":"Bojongindah","i_long":106.737035},{"line":5,"station_id":"TKO","distance":2334,"station_name":"Taman Kota","i_lat":-6.1587309999999995,"time":2,"transit":false,"is_transit":false,"i_long":106.756522},{"transit":false,"is_transit":false,"station_id":"PSG","time":2,"station_name":"Pesing","i_lat":-6.161433,"line":5,"distance":1614,"i_long":106.771379},{"is_transit":false,"distance":2036,"transit":false,"station_name":"Grogol","time":2,"i_lat":-6.162021,"line":5,"i_long":106.788277,"station_id":"GGL"},{"distance":1700,"i_long":106.800832,"i_lat":-6.155215,"line":1,"time":3,"transit":true,"is_transit":true,"station_name":"Duri","station_id":"DU"},{"line":1,"i_long":106.811091,"i_lat":-6.185545,"station_name":"Tanah Abang","time":8,"station_id":"THB","transit":false,"distance":3632,"is_transit":false},{"station_id":"KAT","is_transit":false,"distance":2029,"i_long":106.816351,"transit":false,"i_lat":-6.20132,"line":1,"station_name":"Karet","time":5},{"distance":471,"i_lat":-6.201433,"station_id":"SUDB","station_name":"Sudirman Baru","line":1,"i_long":106.819881,"time":1,"transit":false,"is_transit":false},{"station_id":"SUD","station_name":"Sudirman","line":1,"transit":false,"distance":280,"is_transit":false,"time":1,"i_lat":-6.202263,"i_long":106.822649},{"station_name":"Manggarai","distance":3186,"i_long":106.84912,"time":4,"transit":false,"is_transit":false,"line":2,"i_lat":-6.209883,"station_id":"MRI"},{"transit":false,"distance":1275,"time":2,"line":1,"i_lat":-6.212485,"is_transit":false,"station_name":"Matraman","station_id":"MTR","i_long":106.858896},{"line":1,"is_transit":true,"station_name":"Jatinegara","time":8,"distance":1377,"transit":true,"station_id":"JNG","i_lat":-6.215091,"i_long":106.86807400000001},{"i_long":106.861737,"i_lat":-6.209188,"time":2,"station_id":"POK","line":11,"distance":1236,"station_name":"Pondok Jati","is_transit":false,"transit":false},{"line":11,"i_lat":-6.193792,"distance":1829,"i_long":106.855437,"transit":false,"time":2,"station_id":"KMT","is_transit":false,"station_name":"Kramat"},{"is_transit":false,"i_lat":-6.185975,"distance":973,"i_long":106.850107,"line":11,"station_id":"GST","time":1,"station_name":"Gang Sentiong","transit":false},{"distance":1567,"station_id":"PSE","line":11,"i_long":106.84368,"time":8,"i_lat":-6.174784,"transit":false,"is_transit":false,"station_name":"Pasar Senen"},{"time":4,"station_id":"KMO","distance":1436,"station_name":"Kemayoran","i_lat":-6.161728,"i_long":106.839204,"is_transit":false,"line":11,"transit":false},{"transit":false,"station_name":"Rajawali","line":11,"distance":1901,"is_transit":false,"i_lat":-6.14505,"station_id":"RJW","time":5,"i_long":106.836569},{"i_lat":-6.132549,"station_id":"KPB","time":3,"is_transit":true,"transit":true,"distance":1444,"station_name":"Kampung Bandan","line":4,"i_long":106.826365},{"distance":1364,"line":2,"is_transit":true,"station_id":"JAKK","transit":true,"station_name":"Jakarta Kota","i_lat":-6.137569,"time":3,"i_long":106.812439},{"is_transit":false,"line":2,"station_name":"Jayakarta","station_id":"JAY","i_long":106.820901,"transit":false,"distance":1264,"time":4,"i_lat":-6.141205},{"i_long":106.82482,"time":2,"i_lat":-6.149769,"line":2,"is_transit":false,"station_id":"MGB","transit":false,"distance":1080,"station_name":"Manggabesar"},{"transit":false,"distance":906,"station_id":"SW","time":2,"station_name":"Sawah Besar","line":2,"is_transit":false,"i_lat":-6.160725,"i_long":106.827103},{"distance":1149,"line":2,"station_id":"JUA","is_transit":false,"station_name":"Juanda","i_long":106.828284,"time":2,"transit":false,"i_lat":-6.166716}]]}