{"data":[[{"station_id":"TTI","station_name":"Tanah Tinggi","time":0,"transit":false,"distance":0,"i_lat":-6.17331,"is_transit":false,"i_long":106.64657,"line":5},{"distance":2028,"is_transit":false,"time":3,"station_id":"BPR","i_long":106.665036,"line":5,"station_name":"Batuceper","i_lat":-6.171811,"transit":false},{"transit":false,"distance":1834,"time":3,"is_transit":false,"i_lat":-6.169933,"station_name":"Poris","i_long":106.679458,"line":5,"station_id":"PI"},{"distance":2548,"transit":false,"time":3,"station_id":"KDS","station_name":"Kalideres","is_transit":false,"i_lat":-6.166068,"i_long":106.701612,"line":5},{"i_long":106.723064,"i_lat":-6.162758,"line":5,"distance":2504,"is_transit":false,"transit":false,"time":3,"station_id":"RW","station_name":"Rawa Buaya"},{"time":4,"i_lat":-6.159876,"station_name":"Bojongindah","station_id":"BOI","transit":false,"is_transit":false,"i_long":106.737035,"line":5,"distance":1152},{"station_name":"Taman Kota","transit":false,"line":5,"time":2,"station_id":"TKO","distance":2334,"i_long":106.756522,"i_lat":-6.1587309999999995,"is_transit":false},{"time":2,"station_name":"Pesing","transit":false,"distance":1614,"station_id":"PSG","is_transit":false,"i_lat":-6.161433,"line":5,"i_long":106.771379},{"station_name":"Grogol","is_transit":false,"distance":2036,"time":2,"transit":false,"i_lat":-6.162021,"line":5,"i_long":106.788277,"station_id":"GRG"},{"line":1,"i_lat":-6.155215,"time":3,"distance":1700,"i_long":106.800832,"transit":true,"station_name":"Duri","is_transit":true,"station_id":"DU"},{"is_transit":false,"station_name":"Angke","line":1,"transit":false,"distance":1230,"i_lat":-6.144674,"i_long":106.79867,"time":4,"station_id":"AK"},{"i_long":106.826365,"distance":4102,"time":9,"is_transit":true,"transit":true,"station_name":"Kampung Bandan","i_lat":-6.132549,"station_id":"KPB","line":4},{"station_id":"AC","time":4,"station_name":"Ancol","is_transit":false,"transit":false,"line":4,"i_lat":-6.128023,"i_long":106.84464,"distance":2185}],[{"transit":false,"line":5,"distance":0,"time":0,"station_name":"Tanah Tinggi","is_transit":false,"i_lat":-6.17331,"i_long":106.64657,"station_id":"TTI"},{"transit":false,"is_transit":false,"i_long":106.665036,"distance":2028,"line":5,"time":3,"station_name":"Batuceper","i_lat":-6.171811,"station_id":"BPR"},{"is_transit":false,"i_lat":-6.169933,"distance":1834,"station_id":"PI","station_name":"Poris","i_long":106.679458,"line":5,"time":3,"transit":false},{"line":5,"i_long":106.701612,"distance":2548,"time":3,"station_id":"KDS","station_name":"Kalideres","is_transit":false,"transit":false,"i_lat":-6.166068},{"is_transit":false,"i_lat":-6.162758,"time":3,"i_long":106.723064,"distance":2504,"transit":false,"station_name":"Rawa Buaya","line":5,"station_id":"RW"},{"distance":1152,"transit":false,"station_id":"BOI","is_transit":false,"time":4,"i_lat":-6.159876,"line":5,"station_name":"Bojongindah","i_long":106.737035},{"i_long":106.756522,"transit":false,"distance":2334,"station_id":"TKO","time":2,"station_name":"Taman Kota","i_lat":-6.1587309999999995,"line":5,"is_transit":false},{"time":2,"station_id":"PSG","i_lat":-6.161433,"i_long":106.771379,"transit":false,"distance":1614,"station_name":"Pesing","line":5,"is_transit":false},{"i_long":106.788277,"line":5,"station_id":"GRG","distance":2036,"transit":false,"is_transit":false,"i_lat":-6.162021,"station_name":"Grogol","time":2},{"distance":1700,"station_id":"DU","time":3,"station_name":"Duri","i_lat":-6.155215,"line":1,"i_long":106.800832,"is_transit":true,"transit":true},{"transit":false,"distance":3632,"i_lat":-6.185545,"station_id":"THB","station_name":"Tanah Abang","i_long":106.811091,"line":1,"time":8,"is_transit":false},{"station_name":"Karet","i_lat":-6.20132,"i_long":106.816351,"distance":2029,"is_transit":false,"line":1,"transit":false,"time":5,"station_id":"KAT"},{"station_id":"SUDB","line":1,"transit":false,"station_name":"Sudirman Baru","is_transit":false,"distance":471,"i_lat":-6.201433,"time":1,"i_long":106.819881},{"station_id":"SUD","line":1,"station_name":"Sudirman","time":1,"distance":280,"transit":false,"i_long":106.822649,"i_lat":-6.202263,"is_transit":false},{"distance":3186,"is_transit":true,"i_long":106.84912,"i_lat":-6.209883,"time":4,"station_name":"Manggarai","line":2,"transit":true,"station_id":"MRI"},{"i_lat":-6.198556,"i_long":106.840169,"line":2,"station_name":"Cikini","transit":false,"station_id":"CKI","time":4,"distance":1590,"is_transit":false},{"is_transit":false,"i_long":106.832183,"distance":1750,"time":3,"i_lat":-6.186295,"line":2,"station_id":"GDD","station_name":"Gondangdia","transit":false},{"i_long":106.828284,"time":4,"transit":false,"station_name":"Juanda","distance":2015,"station_id":"JUA","i_lat":-6.166716,"line":2,"is_transit":false},{"station_name":"Sawah Besar","i_lat":-6.160725,"i_long":106.827103,"time":2,"distance":1149,"is_transit":false,"station_id":"SW","line":2,"transit":false},{"time":2,"is_transit":false,"station_id":"MGB","station_name":"Manggabesar","i_long":106.82482,"transit":false,"i_lat":-6.149769,"distance":906,"line":2},{"time":2,"is_transit":false,"station_name":"Jayakarta","i_long":106.820901,"i_lat":-6.141205,"distance":1080,"transit":false,"line":2,"station_id":"JAY"},{"i_lat":-6.137569,"distance":1264,"transit":true,"time":4,"i_long":106.812439,"station_id":"JAKK","is_transit":true,"line":2,"station_name":"Jakarta Kota"},{"transit":true,"line":4,"i_lat":-6.132549,"is_transit":true,"distance":1364,"station_name":"Kampung Bandan","time":3,"i_long":106.826365,"station_id":"KPB"},{"distance":2185,"i_lat":-6.128023,"i_long":106.84464,"line":4,"is_transit":false,"station_name":"Ancol","transit":false,"station_id":"AC","time":4}],[{"i_lat":-6.17331,"line":5,"transit":false,"distance":0,"station_id":"TTI","time":0,"is_transit":false,"station_name":"Tanah Tinggi","i_long":106.64657},{"is_transit":false,"transit":false,"time":3,"station_id":"BPR","station_name":"Batuceper","distance":2028,"i_lat":-6.171811,"i_long":106.665036,"line":5},{"time":3,"line":5,"distance":1834,"i_lat":-6.169933,"station_name":"Poris","station_id":"PI","i_long":106.679458,"is_transit":false,"transit":false},{"i_long":106.701612,"transit":false,"time":3,"is_transit":false,"station_id":"KDS","station_name":"Kalideres","distance":2548,"i_lat":-6.166068,"line":5},{"time":3,"transit":false,"distance":2504,"station_id":"RW","is_transit":false,"station_name":"Rawa Buaya","i_lat":-6.162758,"line":5,"i_long":106.723064},{"line":5,"i_long":106.737035,"transit":false,"distance":1152,"station_name":"Bojongindah","time":4,"is_transit":false,"station_id":"BOI","i_lat":-6.159876},{"line":5,"time":2,"distance":2334,"station_id":"TKO","station_name":"Taman Kota","i_lat":-6.1587309999999995,"is_transit":false,"i_long":106.756522,"transit":false},{"time":2,"i_lat":-6.161433,"line":5,"transit":false,"station_name":"Pesing","station_id":"PSG","i_long":106.771379,"is_transit":false,"distance":1614},{"line":5,"time":2,"i_long":106.788277,"is_transit":false,"transit":false,"i_lat":-6.162021,"distance":2036,"station_name":"Grogol","station_id":"GRG"},{"station_id":"DU","line":1,"transit":true,"distance":1700,"station_name":"Duri","i_lat":-6.155215,"is_transit":true,"time":3,"i_long":106.800832},{"time":8,"transit":false,"line":1,"i_long":106.811091,"distance":3632,"is_transit":false,"station_name":"Tanah Abang","station_id":"THB","i_lat":-6.185545},{"is_transit":false,"time":5,"transit":false,"station_name":"Karet","station_id":"KAT","i_long":106.816351,"line":1,"distance":2029,"i_lat":-6.20132},{"line":1,"transit":false,"time":1,"i_lat":-6.201433,"is_transit":false,"distance":471,"i_long":106.819881,"station_id":"SUDB","station_name":"Sudirman Baru"},{"i_lat":-6.202263,"i_long":106.822649,"station_id":"SUD","station_name":"Sudirman","distance":280,"transit":false,"time":1,"line":1,"is_transit":false},{"station_name":"Manggarai","line":2,"transit":false,"i_long":106.84912,"station_id":"MRI","time":4,"is_transit":false,"distance":3186,"i_lat":-6.209883},{"i_lat":-6.212485,"distance":1275,"is_transit":false,"transit":false,"i_long":106.858896,"station_name":"Matraman","time":2,"line":1,"station_id":"MTR"},{"is_transit":true,"station_id":"JNG","station_name":"Jatinegara","transit":true,"i_lat":-6.215091,"i_long":106.86807400000001,"line":1,"distance":1377,"time":8},{"i_lat":-6.209188,"distance":1236,"station_name":"Pondok Jati","station_id":"POK","line":11,"i_long":106.861737,"transit":false,"time":2,"is_transit":false},{"station_name":"Kramat","distance":1829,"is_transit":false,"i_long":106.855437,"line":11,"time":2,"transit":false,"i_lat":-6.193792,"station_id":"KMT"},{"i_lat":-6.185975,"time":1,"distance":973,"is_transit":false,"i_long":106.850107,"line":11,"station_name":"Gang Sentiong","station_id":"GST","transit":false},{"i_lat":-6.174784,"i_long":106.84368,"time":8,"transit":false,"line":11,"station_name":"Pasar Senen","is_transit":false,"station_id":"PSE","distance":1567},{"station_id":"KMO","i_lat":-6.161728,"station_name":"Kemayoran","i_long":106.839204,"distance":1436,"time":4,"is_transit":false,"transit":false,"line":11},{"line":11,"time":5,"is_transit":false,"i_long":106.836569,"i_lat":-6.14505,"distance":1901,"transit":false,"station_name":"Rajawali","station_id":"RJW"},{"transit":true,"i_long":106.826365,"distance":1444,"is_transit":true,"station_id":"KPB","line":4,"time":3,"i_lat":-6.132549,"station_name":"Kampung Bandan"},{"distance":2185,"is_transit":false,"i_long":106.84464,"time":4,"station_id":"AC","station_name":"Ancol","transit":false,"line":4,"i_lat":-6.128023}]]}