{"data":[[{"station_id":"TTI","station_name":"Tanah Tinggi","time":0,"distance":0,"i_long":106.64657,"line":5,"i_lat":-6.17331,"is_transit":false,"transit":false},{"is_transit":false,"i_lat":-6.171811,"station_id":"BPR","transit":false,"line":5,"i_long":106.665036,"distance":2028,"time":3,"station_name":"Batuceper"},{"distance":1834,"transit":false,"is_transit":false,"time":3,"i_long":106.679458,"station_name":"Poris","i_lat":-6.169933,"station_id":"PI","line":5},{"distance":2548,"transit":false,"station_id":"KDS","is_transit":false,"time":3,"i_lat":-6.166068,"i_long":106.701612,"line":5,"station_name":"Kalideres"},{"i_lat":-6.162758,"time":3,"distance":2504,"station_id":"RW","station_name":"Rawa Buaya","transit":false,"line":5,"is_transit":false,"i_long":106.723064},{"i_long":106.737035,"station_id":"BOI","station_name":"Bojongindah","transit":false,"distance":1152,"is_transit":false,"line":5,"i_lat":-6.159876,"time":4},{"station_name":"Taman Kota","time":2,"line":5,"transit":false,"distance":2334,"i_lat":-6.1587309999999995,"is_transit":false,"station_id":"TKO","i_long":106.756522},{"i_long":106.771379,"station_name":"Pesing","station_id":"PSG","is_transit":false,"distance":1614,"time":2,"transit":false,"i_lat":-6.161433,"line":5},{"distance":2036,"station_id":"GGL","is_transit":false,"time":2,"transit":false,"line":5,"station_name":"Grogol","i_long":106.788277,"i_lat":-6.162021},{"distance":1700,"time":3,"is_transit":true,"i_lat":-6.155215,"transit":true,"line":1,"station_id":"DU","i_long":106.800832,"station_name":"Duri"},{"line":1,"transit":false,"distance":1230,"station_id":"AK","is_transit":false,"i_long":106.79867,"station_name":"Angke","i_lat":-6.144674,"time":4},{"station_id":"KPB","time":9,"is_transit":true,"distance":4102,"i_lat":-6.132549,"station_name":"Kampung Bandan","line":4,"i_long":106.826365,"transit":true},{"distance":1364,"transit":true,"station_id":"JAKK","i_long":106.812439,"is_transit":true,"line":2,"time":3,"station_name":"Jakarta Kota","i_lat":-6.137569},{"station_id":"JAY","distance":1264,"i_lat":-6.141205,"station_name":"Jayakarta","transit":false,"time":4,"line":2,"is_transit":false,"i_long":106.820901},{"time":2,"distance":1080,"station_name":"Manggabesar","i_lat":-6.149769,"line":2,"i_long":106.82482,"is_transit":false,"station_id":"MGB","transit":false},{"is_transit":false,"transit":false,"time":2,"i_lat":-6.160725,"i_long":106.827103,"station_id":"SW","distance":906,"line":2,"station_name":"Sawah Besar"},{"station_id":"JUA","line":2,"is_transit":false,"i_long":106.828284,"station_name":"Juanda","distance":1149,"i_lat":-6.166716,"time":2,"transit":false}],[{"i_lat":-6.17331,"line":5,"station_name":"Tanah Tinggi","is_transit":false,"time":0,"transit":false,"i_long":106.64657,"distance":0,"station_id":"TTI"},{"is_transit":false,"station_name":"Batuceper","time":3,"i_lat":-6.171811,"i_long":106.665036,"distance":2028,"station_id":"BPR","line":5,"transit":false},{"station_name":"Poris","station_id":"PI","distance":1834,"transit":false,"time":3,"line":5,"is_transit":false,"i_long":106.679458,"i_lat":-6.169933},{"station_name":"Kalideres","station_id":"KDS","distance":2548,"i_lat":-6.166068,"is_transit":false,"i_long":106.701612,"time":3,"transit":false,"line":5},{"transit":false,"is_transit":false,"i_lat":-6.162758,"station_name":"Rawa Buaya","time":3,"distance":2504,"station_id":"RW","i_long":106.723064,"line":5},{"time":4,"line":5,"station_name":"Bojongindah","distance":1152,"station_id":"BOI","transit":false,"is_transit":false,"i_lat":-6.159876,"i_long":106.737035},{"time":2,"transit":false,"distance":2334,"i_long":106.756522,"i_lat":-6.1587309999999995,"is_transit":false,"station_id":"TKO","station_name":"Taman Kota","line":5},{"is_transit":false,"station_id":"PSG","i_lat":-6.161433,"time":2,"i_long":106.771379,"line":5,"transit":false,"station_name":"Pesing","distance":1614},{"distance":2036,"line":5,"i_long":106.788277,"time":2,"transit":false,"station_id":"GGL","i_lat":-6.162021,"is_transit":false,"station_name":"Grogol"},{"station_name":"Duri","is_transit":true,"line":1,"station_id":"DU","i_long":106.800832,"time":3,"i_lat":-6.155215,"transit":true,"distance":1700},{"transit":false,"time":8,"station_id":"THB","i_lat":-6.185545,"line":1,"station_name":"Tanah Abang","distance":3632,"is_transit":false,"i_long":106.811091},{"i_lat":-6.20132,"station_name":"Karet","transit":false,"station_id":"KAT","is_transit":false,"time":5,"distance":2029,"line":1,"i_long":106.816351},{"i_long":106.819881,"transit":false,"station_id":"SUDB","station_name":"Sudirman Baru","i_lat":-6.201433,"time":1,"line":1,"is_transit":false,"distance":471},{"station_id":"SUD","station_name":"Sudirman","i_lat":-6.202263,"i_long":106.822649,"line":1,"time":1,"is_transit":false,"distance":280,"transit":false},{"i_long":106.84912,"transit":true,"is_transit":true,"station_name":"Manggarai","station_id":"MRI","distance":3186,"line":2,"i_lat":-6.209883,"time":4},{"station_name":"Cikini","station_id":"CKI","time":4,"distance":1590,"line":2,"i_long":106.840169,"i_lat":-6.198556,"is_transit":false,"transit":false},{"transit":false,"time":3,"i_long":106.832183,"line":2,"station_id":"GDD","station_name":"Gondangdia","distance":1750,"is_transit":false,"i_lat":-6.186295},{"i_lat":-6.166716,"station_name":"Juanda","time":4,"line":2,"station_id":"JUA","distance":2015,"is_transit":false,"i_long":106.828284,"transit":false}],[{"distance":0,"is_transit":false,"i_lat":-6.17331,"time":0,"i_long":106.64657,"station_id":"TTI","station_name":"Tanah Tinggi","transit":false,"line":5},{"time":3,"transit":false,"station_name":"Batuceper","i_lat":-6.171811,"i_long":106.665036,"distance":2028,"is_transit":false,"station_id":"BPR","line":5},{"i_lat":-6.169933,"station_id":"PI","time":3,"distance":1834,"is_transit":false,"station_name":"Poris","transit":false,"i_long":106.679458,"line":5},{"station_name":"Kalideres","time":3,"i_long":106.701612,"transit":false,"distance":2548,"i_lat":-6.166068,"station_id":"KDS","is_transit":false,"line":5},{"transit":false,"i_lat":-6.162758,"line":5,"station_id":"RW","i_long":106.723064,"station_name":"Rawa Buaya","is_transit":false,"time":3,"distance":2504},{"line":5,"time":4,"distance":1152,"is_transit":false,"station_id":"BOI","i_lat":-6.159876,"station_name":"Bojongindah","transit":false,"i_long":106.737035},{"distance":2334,"is_transit":false,"i_long":106.756522,"station_id":"TKO","station_name":"Taman Kota","line":5,"transit":false,"i_lat":-6.1587309999999995,"time":2},{"is_transit":false,"station_id":"PSG","time":2,"transit":false,"i_long":106.771379,"i_lat":-6.161433,"distance":1614,"line":5,"station_name":"Pesing"},{"i_long":106.788277,"transit":false,"station_name":"Grogol","is_transit":false,"station_id":"GGL","i_lat":-6.162021,"line":5,"time":2,"distance":2036},{"station_id":"DU","is_transit":true,"station_name":"Duri","line":1,"time":3,"i_long":106.800832,"distance":1700,"transit":true,"i_lat":-6.155215},{"time":4,"i_long":106.79867,"station_id":"AK","distance":1230,"station_name":"Angke","transit":false,"is_transit":false,"i_lat":-6.144674,"line":1},{"distance":4102,"line":4,"time":9,"transit":true,"station_name":"Kampung Bandan","is_transit":true,"i_lat":-6.132549,"station_id":"KPB","i_long":106.826365},{"is_transit":false,"station_name":"Rajawali","i_lat":-6.14505,"i_long":106.836569,"time":3,"transit":false,"line":11,"station_id":"RJW","distance":1444},{"is_transit":false,"time":5,"distance":1901,"line":11,"station_id":"KMO","i_lat":-6.161728,"i_long":106.839204,"station_name":"Kemayoran","transit":false},{"distance":1436,"transit":false,"is_transit":false,"i_lat":-6.174784,"i_long":106.84368,"station_name":"Pasar Senen","station_id":"PSE","line":11,"time":4},{"distance":1567,"is_transit":false,"time":8,"station_name":"Gang Sentiong","transit":false,"i_long":106.850107,"i_lat":-6.185975,"line":11,"station_id":"GST"},{"station_id":"KMT","distance":973,"time":1,"transit":false,"i_lat":-6.193792,"i_long":106.855437,"line":11,"is_transit":false,"station_name":"Kramat"},{"transit":false,"station_name":"Pondok Jati","is_transit":false,"line":11,"station_id":"POK","time":2,"i_lat":-6.209188,"i_long":106.861737,"distance":1829},{"is_transit":true,"station_name":"Jatinegara","station_id":"JNG","distance":1236,"i_long":106.86807400000001,"time":9,"transit":true,"i_lat":-6.215091,"line":1},{"line":1,"station_name":"Matraman","time":2,"is_transit":false,"i_long":106.858896,"transit":false,"i_lat":-6.212485,"distance":1377,"station_id":"MTR"},{"line":2,"i_lat":-6.209883,"station_name":"Manggarai","i_long":106.84912,"transit":true,"time":2,"distance":1275,"station_id":"MRI","is_transit":true},{"station_name":"Cikini","is_transit":false,"distance":1590,"i_lat":-6.198556,"station_id":"CKI","i_long":106.840169,"line":2,"transit":false,"time":4},{"i_long":106.832183,"station_id":"GDD","station_name":"Gondangdia","time":3,"transit":false,"distance":1750,"is_transit":false,"line":2,"i_lat":-6.186295},{"line":2,"i_lat":-6.166716,"station_name":"Juanda","distance":2015,"is_transit":false,"i_long":106.828284,"station_id":"JUA","transit":false,"time":4}],[{"station_id":"TTI","time":0,"station_name":"Tanah Tinggi","distance":0,"transit":false,"i_lat":-6.17331,"line":5,"i_long":106.64657,"is_transit":false},{"distance":2028,"station_name":"Batuceper","i_lat":-6.171811,"time":3,"is_transit":false,"transit":false,"i_long":106.665036,"line":5,"station_id":"BPR"},{"station_name":"Poris","is_transit":false,"line":5,"i_lat":-6.169933,"i_long":106.679458,"distance":1834,"time":3,"transit":false,"station_id":"PI"},{"station_id":"KDS","time":3,"transit":false,"distance":2548,"station_name":"Kalideres","is_transit":false,"line":5,"i_lat":-6.166068,"i_long":106.701612},{"station_id":"RW","i_long":106.723064,"time":3,"transit":false,"i_lat":-6.162758,"line":5,"station_name":"Rawa Buaya","distance":2504,"is_transit":false},{"is_transit":false,"i_long":106.737035,"station_name":"Bojongindah","time":4,"i_lat":-6.159876,"distance":1152,"line":5,"station_id":"BOI","transit":false},{"line":5,"station_id":"TKO","i_long":106.756522,"distance":2334,"is_transit":false,"station_name":"Taman Kota","transit":false,"i_lat":-6.1587309999999995,"time":2},{"i_long":106.771379,"line":5,"distance":1614,"station_id":"PSG","time":2,"is_transit":false,"i_lat":-6.161433,"station_name":"Pesing","transit":false},{"is_transit":false,"transit":false,"i_lat":-6.162021,"distance":2036,"i_long":106.788277,"line":5,"station_id":"GGL","station_name":"Grogol","time":2},{"i_lat":-6.155215,"is_transit":true,"time":3,"i_long":106.800832,"station_name":"Duri","transit":true,"station_id":"DU","distance":1700,"line":1},{"line":1,"transit":false,"time":8,"distance":3632,"station_id":"THB","i_lat":-6.185545,"station_name":"Tanah Abang","i_long":106.811091,"is_transit":false},{"transit":false,"station_id":"KAT","distance":2029,"is_transit":false,"station_name":"Karet","time":5,"i_long":106.816351,"line":1,"i_lat":-6.20132},{"i_long":106.819881,"line":1,"time":1,"station_id":"SUDB","transit":false,"i_lat":-6.201433,"station_name":"Sudirman Baru","is_transit":false,"distance":471},{"i_lat":-6.202263,"i_long":106.822649,"is_transit":false,"distance":280,"station_name":"Sudirman","station_id":"SUD","line":1,"time":1,"transit":false},{"station_id":"MRI","distance":3186,"line":2,"time":4,"i_long":106.84912,"is_transit":false,"transit":false,"i_lat":-6.209883,"station_name":"Manggarai"},{"station_id":"MTR","transit":false,"is_transit":false,"line":1,"time":2,"station_name":"Matraman","i_lat":-6.212485,"distance":1275,"i_long":106.858896},{"line":1,"station_id":"JNG","distance":1377,"is_transit":true,"station_name":"Jatinegara","transit":true,"i_lat":-6.215091,"i_long":106.86807400000001,"time":8},{"time":2,"transit":false,"station_id":"POK","station_name":"Pondok Jati","line":11,"distance":1236,"i_long":106.861737,"is_transit":false,"i_lat":-6.209188},{"transit":false,"time":2,"distance":1829,"i_long":106.855437,"is_transit":false,"i_lat":-6.193792,"line":11,"station_id":"KMT","station_name":"Kramat"},{"transit":false,"station_name":"Gang Sentiong","i_lat":-6.185975,"distance":973,"is_transit":false,"station_id":"GST","time":1,"i_long":106.850107,"line":11},{"station_name":"Pasar Senen","station_id":"PSE","i_lat":-6.174784,"i_long":106.84368,"line":11,"time":8,"transit":false,"is_transit":false,"distance":1567},{"transit":false,"time":4,"i_lat":-6.161728,"station_name":"Kemayoran","is_transit":false,"line":11,"station_id":"KMO","i_long":106.839204,"distance":1436},{"i_lat":-6.14505,"station_id":"RJW","transit":false,"is_transit":false,"station_name":"Rajawali","time":5,"distance":1901,"i_long":106.836569,"line":11},{"station_name":"Kampung Bandan","distance":1444,"time":3,"transit":true,"i_lat":-6.132549,"i_long":106.826365,"is_transit":true,"station_id":"KPB","line":4},{"is_transit":true,"time":3,"i_lat":-6.137569,"transit":true,"line":2,"station_id":"JAKK","station_name":"Jakarta Kota","i_long":106.812439,"distance":1364},{"transit":false,"line":2,"i_long":106.820901,"station_id":"JAY","station_name":"Jayakarta","time":4,"is_transit":false,"i_lat":-6.141205,"distance":1264},{"i_lat":-6.149769,"transit":false,"i_long":106.82482,"is_transit":false,"time":2,"station_name":"Manggabesar","distance":1080,"line":2,"station_id":"MGB"},{"station_name":"Sawah Besar","distance":906,"transit":false,"is_transit":false,"i_lat":-6.160725,"station_id":"SW","time":2,"i_long":106.827103,"line":2},{"distance":1149,"is_transit":false,"station_id":"JUA","station_name":"Juanda","i_lat":-6.166716,"time":2,"i_long":106.828284,"line":2,"transit":false}]]}