{"data":[[{"transit":false,"i_long":106.64657,"line":5,"is_transit":false,"i_lat":-6.17331,"station_name":"Tanah Tinggi","distance":0,"time":0,"station_id":"TTI"},{"is_transit":false,"station_id":"BPR","transit":false,"station_name":"Batuceper","time":3,"line":5,"i_lat":-6.171811,"i_long":106.665036,"distance":2028},{"transit":false,"time":3,"station_name":"Poris","distance":1834,"is_transit":false,"i_lat":-6.169933,"line":5,"station_id":"PI","i_long":106.679458},{"i_long":106.701612,"line":5,"transit":false,"station_id":"KDS","i_lat":-6.166068,"time":3,"distance":2548,"station_name":"Kalideres","is_transit":false},{"i_long":106.723064,"station_id":"RW","transit":false,"line":5,"station_name":"Rawa Buaya","i_lat":-6.162758,"time":3,"distance":2504,"is_transit":false},{"station_id":"BOI","i_lat":-6.159876,"time":4,"is_transit":false,"i_long":106.737035,"transit":false,"station_name":"Bojongindah","distance":1152,"line":5},{"line":5,"time":2,"i_lat":-6.1587309999999995,"station_name":"Taman Kota","is_transit":false,"station_id":"TKO","transit":false,"distance":2334,"i_long":106.756522},{"time":2,"i_long":106.771379,"line":5,"is_transit":false,"transit":false,"station_name":"Pesing","i_lat":-6.161433,"station_id":"PSG","distance":1614},{"time":2,"station_name":"Grogol","i_long":106.788277,"transit":false,"i_lat":-6.162021,"line":5,"distance":2036,"station_id":"GGL","is_transit":false},{"station_name":"Duri","i_lat":-6.155215,"time":3,"transit":true,"distance":1700,"line":1,"is_transit":true,"i_long":106.800832,"station_id":"DU"},{"i_lat":-6.185545,"i_long":106.811091,"station_name":"Tanah Abang","station_id":"THB","line":1,"distance":3632,"is_transit":false,"transit":false,"time":8},{"station_name":"Karet","is_transit":false,"line":1,"i_lat":-6.20132,"distance":2029,"transit":false,"station_id":"KAT","time":5,"i_long":106.816351},{"time":1,"is_transit":false,"station_name":"Sudirman Baru","distance":471,"station_id":"SUDB","line":1,"i_lat":-6.201433,"transit":false,"i_long":106.819881},{"transit":false,"i_long":106.822649,"time":1,"is_transit":false,"i_lat":-6.202263,"line":1,"distance":280,"station_name":"Sudirman","station_id":"SUD"},{"i_long":106.84912,"distance":3186,"time":4,"line":2,"is_transit":false,"transit":false,"station_id":"MRI","station_name":"Manggarai","i_lat":-6.209883},{"transit":false,"distance":1275,"i_long":106.858896,"i_lat":-6.212485,"is_transit":false,"line":1,"station_name":"Matraman","station_id":"MTR","time":2},{"line":1,"station_name":"Jatinegara","distance":1377,"i_lat":-6.215091,"time":8,"i_long":106.86807400000001,"transit":false,"station_id":"JNG","is_transit":false},{"station_id":"KLD","i_long":106.899548,"distance":3395,"transit":false,"is_transit":false,"i_lat":-6.2135,"station_name":"Klender","line":1,"time":3},{"line":1,"is_transit":false,"transit":false,"station_name":"Buaran","time":2,"distance":3100,"station_id":"BUA","i_lat":-6.215568,"i_long":106.922662},{"station_name":"Klenderbaru","station_id":"KLDB","is_transit":false,"transit":false,"i_lat":-6.217455,"i_long":106.939679,"time":1,"line":1,"distance":1305}],[{"transit":false,"line":5,"time":0,"station_id":"TTI","i_lat":-6.17331,"i_long":106.64657,"is_transit":false,"station_name":"Tanah Tinggi","distance":0},{"station_name":"Batuceper","distance":2028,"station_id":"BPR","i_long":106.665036,"is_transit":false,"transit":false,"time":3,"i_lat":-6.171811,"line":5},{"station_id":"PI","station_name":"Poris","is_transit":false,"time":3,"i_lat":-6.169933,"distance":1834,"i_long":106.679458,"transit":false,"line":5},{"distance":2548,"i_long":106.701612,"i_lat":-6.166068,"line":5,"transit":false,"is_transit":false,"time":3,"station_name":"Kalideres","station_id":"KDS"},{"station_id":"RW","is_transit":false,"line":5,"transit":false,"i_long":106.723064,"i_lat":-6.162758,"time":3,"distance":2504,"station_name":"Rawa Buaya"},{"station_id":"BOI","station_name":"Bojongindah","distance":1152,"transit":false,"is_transit":false,"time":4,"i_lat":-6.159876,"i_long":106.737035,"line":5},{"distance":2334,"transit":false,"i_lat":-6.1587309999999995,"is_transit":false,"i_long":106.756522,"time":2,"station_id":"TKO","line":5,"station_name":"Taman Kota"},{"i_lat":-6.161433,"i_long":106.771379,"station_name":"Pesing","station_id":"PSG","time":2,"line":5,"transit":false,"is_transit":false,"distance":1614},{"i_long":106.788277,"station_id":"GGL","time":2,"distance":2036,"i_lat":-6.162021,"is_transit":false,"station_name":"Grogol","transit":false,"line":5},{"i_long":106.800832,"line":1,"station_name":"Duri","station_id":"DU","transit":true,"time":3,"i_lat":-6.155215,"is_transit":true,"distance":1700},{"transit":false,"station_name":"Angke","distance":1230,"station_id":"AK","is_transit":false,"line":1,"i_long":106.79867,"i_lat":-6.144674,"time":4},{"station_id":"KPB","distance":4102,"i_lat":-6.132549,"line":4,"transit":true,"is_transit":true,"i_long":106.826365,"time":9,"station_name":"Kampung Bandan"},{"distance":1444,"i_long":106.836569,"i_lat":-6.14505,"line":11,"time":3,"station_name":"Rajawali","transit":false,"is_transit":false,"station_id":"RJW"},{"line":11,"station_name":"Kemayoran","transit":false,"is_transit":false,"i_lat":-6.161728,"time":5,"station_id":"KMO","distance":1901,"i_long":106.839204},{"line":11,"station_id":"PSE","time":4,"is_transit":false,"i_long":106.84368,"transit":false,"station_name":"Pasar Senen","distance":1436,"i_lat":-6.174784},{"station_id":"GST","is_transit":false,"time":8,"distance":1567,"transit":false,"i_long":106.850107,"i_lat":-6.185975,"station_name":"Gang Sentiong","line":11},{"transit":false,"time":1,"distance":973,"i_lat":-6.193792,"i_long":106.855437,"station_name":"Kramat","is_transit":false,"line":11,"station_id":"KMT"},{"line":11,"is_transit":false,"station_name":"Pondok Jati","i_lat":-6.209188,"time":2,"transit":false,"distance":1829,"station_id":"POK","i_long":106.861737},{"is_transit":true,"distance":1236,"transit":true,"i_lat":-6.215091,"station_id":"JNG","time":9,"station_name":"Jatinegara","line":1,"i_long":106.86807400000001},{"distance":3395,"transit":false,"is_transit":false,"time":3,"i_long":106.899548,"line":1,"station_id":"KLD","i_lat":-6.2135,"station_name":"Klender"},{"station_name":"Buaran","time":2,"distance":3100,"i_long":106.922662,"line":1,"transit":false,"station_id":"BUA","i_lat":-6.215568,"is_transit":false},{"station_name":"Klenderbaru","transit":false,"i_lat":-6.217455,"time":1,"is_transit":false,"distance":1305,"line":1,"station_id":"KLDB","i_long":106.939679}],[{"transit":false,"station_id":"TTI","i_lat":-6.17331,"line":5,"i_long":106.64657,"is_transit":false,"station_name":"Tanah Tinggi","time":0,"distance":0},{"transit":false,"time":3,"distance":2028,"i_long":106.665036,"line":5,"i_lat":-6.171811,"is_transit":false,"station_name":"Batuceper","station_id":"BPR"},{"transit":false,"i_lat":-6.169933,"i_long":106.679458,"distance":1834,"is_transit":false,"line":5,"station_id":"PI","station_name":"Poris","time":3},{"time":3,"line":5,"station_name":"Kalideres","station_id":"KDS","i_lat":-6.166068,"distance":2548,"i_long":106.701612,"transit":false,"is_transit":false},{"station_id":"RW","i_lat":-6.162758,"i_long":106.723064,"station_name":"Rawa Buaya","line":5,"distance":2504,"is_transit":false,"transit":false,"time":3},{"i_lat":-6.159876,"distance":1152,"time":4,"i_long":106.737035,"line":5,"transit":false,"station_id":"BOI","station_name":"Bojongindah","is_transit":false},{"transit":false,"i_lat":-6.1587309999999995,"i_long":106.756522,"is_transit":false,"station_name":"Taman Kota","line":5,"station_id":"TKO","distance":2334,"time":2},{"distance":1614,"station_name":"Pesing","is_transit":false,"i_long":106.771379,"station_id":"PSG","transit":false,"time":2,"i_lat":-6.161433,"line":5},{"i_long":106.788277,"station_name":"Grogol","station_id":"GGL","transit":false,"is_transit":false,"time":2,"i_lat":-6.162021,"line":5,"distance":2036},{"station_name":"Duri","i_lat":-6.155215,"line":1,"transit":true,"station_id":"DU","is_transit":true,"time":3,"i_long":106.800832,"distance":1700},{"i_lat":-6.144674,"station_name":"Angke","station_id":"AK","time":4,"distance":1230,"i_long":106.79867,"transit":false,"is_transit":false,"line":1},{"i_lat":-6.132549,"distance":4102,"is_transit":true,"line":4,"station_id":"KPB","time":9,"station_name":"Kampung Bandan","i_long":106.826365,"transit":true},{"time":3,"transit":true,"distance":1364,"station_name":"Jakarta Kota","i_long":106.812439,"station_id":"JAKK","is_transit":true,"i_lat":-6.137569,"line":2},{"station_name":"Jayakarta","distance":1264,"line":2,"station_id":"JAY","transit":false,"i_lat":-6.141205,"time":4,"i_long":106.820901,"is_transit":false},{"distance":1080,"line":2,"time":2,"is_transit":false,"station_id":"MGB","i_lat":-6.149769,"transit":false,"station_name":"Manggabesar","i_long":106.82482},{"i_long":106.827103,"station_name":"Sawah Besar","is_transit":false,"transit":false,"time":2,"distance":906,"station_id":"SW","line":2,"i_lat":-6.160725},{"line":2,"is_transit":false,"i_long":106.828284,"time":2,"transit":false,"station_id":"JUA","distance":1149,"i_lat":-6.166716,"station_name":"Juanda"},{"line":2,"station_name":"Gondangdia","station_id":"GDD","is_transit":false,"time":4,"i_long":106.832183,"distance":2015,"transit":false,"i_lat":-6.186295},{"station_id":"CKI","station_name":"Cikini","i_long":106.840169,"transit":false,"is_transit":false,"line":2,"i_lat":-6.198556,"time":3,"distance":1750},{"i_lat":-6.209883,"i_long":106.84912,"distance":1590,"station_id":"MRI","line":2,"transit":true,"station_name":"Manggarai","time":4,"is_transit":true},{"transit":false,"station_id":"MTR","i_long":106.858896,"i_lat":-6.212485,"distance":1275,"line":1,"station_name":"Matraman","is_transit":false,"time":2},{"distance":1377,"transit":false,"i_long":106.86807400000001,"line":1,"station_name":"Jatinegara","is_transit":false,"station_id":"JNG","time":8,"i_lat":-6.215091},{"distance":3395,"transit":false,"line":1,"is_transit":false,"time":3,"i_lat":-6.2135,"station_name":"Klender","station_id":"KLD","i_long":106.899548},{"station_name":"Buaran","is_transit":false,"time":2,"distance":3100,"line":1,"i_long":106.922662,"i_lat":-6.215568,"station_id":"BUA","transit":false},{"station_id":"KLDB","distance":1305,"is_transit":false,"time":1,"i_lat":-6.217455,"i_long":106.939679,"line":1,"station_name":"Klenderbaru","transit":false}],[{"distance":0,"is_transit":false,"transit":false,"i_long":106.64657,"line":5,"i_lat":-6.17331,"station_name":"Tanah Tinggi","station_id":"TTI","time":0},{"is_transit":false,"i_lat":-6.171811,"transit":false,"i_long":106.665036,"time":3,"station_id":"BPR","line":5,"distance":2028,"station_name":"Batuceper"},{"time":3,"station_id":"PI","distance":1834,"i_lat":-6.169933,"station_name":"Poris","transit":false,"i_long":106.679458,"is_transit":false,"line":5},{"station_id":"KDS","distance":2548,"time":3,"is_transit":false,"i_lat":-6.166068,"transit":false,"line":5,"station_name":"Kalideres","i_long":106.701612},{"station_id":"RW","station_name":"Rawa Buaya","distance":2504,"i_lat":-6.162758,"transit":false,"i_long":106.723064,"line":5,"time":3,"is_transit":false},{"station_name":"Bojongindah","is_transit":false,"time":4,"i_lat":-6.159876,"i_long":106.737035,"line":5,"station_id":"BOI","distance":1152,"transit":false},{"transit":false,"is_transit":false,"i_long":106.756522,"station_name":"Taman Kota","distance":2334,"time":2,"i_lat":-6.1587309999999995,"station_id":"TKO","line":5},{"distance":1614,"time":2,"is_transit":false,"station_id":"PSG","i_long":106.771379,"i_lat":-6.161433,"transit":false,"line":5,"station_name":"Pesing"},{"i_lat":-6.162021,"transit":false,"station_id":"GGL","is_transit":false,"distance":2036,"time":2,"i_long":106.788277,"station_name":"Grogol","line":5},{"station_id":"DU","i_long":106.800832,"transit":true,"i_lat":-6.155215,"time":3,"station_name":"Duri","is_transit":true,"distance":1700,"line":1},{"station_name":"Tanah Abang","station_id":"THB","is_transit":false,"distance":3632,"i_lat":-6.185545,"time":8,"line":1,"transit":false,"i_long":106.811091},{"time":5,"distance":2029,"transit":false,"i_lat":-6.20132,"line":1,"station_id":"KAT","is_transit":false,"i_long":106.816351,"station_name":"Karet"},{"i_lat":-6.201433,"transit":false,"station_id":"SUDB","station_name":"Sudirman Baru","time":1,"is_transit":false,"i_long":106.819881,"distance":471,"line":1},{"time":1,"is_transit":false,"i_long":106.822649,"station_id":"SUD","station_name":"Sudirman","line":1,"i_lat":-6.202263,"transit":false,"distance":280},{"i_lat":-6.209883,"i_long":106.84912,"station_name":"Manggarai","line":2,"transit":true,"is_transit":true,"distance":3186,"station_id":"MRI","time":4},{"station_id":"CKI","distance":1590,"i_long":106.840169,"station_name":"Cikini","is_transit":false,"transit":false,"time":4,"line":2,"i_lat":-6.198556},{"i_long":106.832183,"i_lat":-6.186295,"station_name":"Gondangdia","station_id":"GDD","time":3,"distance":1750,"is_transit":false,"line":2,"transit":false},{"station_id":"JUA","time":4,"transit":false,"is_transit":false,"distance":2015,"i_lat":-6.166716,"i_long":106.828284,"line":2,"station_name":"Juanda"},{"distance":1149,"station_id":"SW","is_transit":false,"i_long":106.827103,"line":2,"station_name":"Sawah Besar","i_lat":-6.160725,"time":2,"transit":false},{"i_long":106.82482,"i_lat":-6.149769,"line":2,"station_name":"Manggabesar","time":2,"transit":false,"station_id":"MGB","is_transit":false,"distance":906},{"i_lat":-6.141205,"station_id":"JAY","transit":false,"station_name":"Jayakarta","i_long":106.820901,"is_transit":false,"time":2,"distance":1080,"line":2},{"station_id":"JAKK","i_long":106.812439,"is_transit":true,"i_lat":-6.137569,"line":2,"station_name":"Jakarta Kota","distance":1264,"transit":true,"time":4},{"i_lat":-6.132549,"transit":true,"station_id":"KPB","time":3,"line":4,"i_long":106.826365,"is_transit":true,"station_name":"Kampung Bandan","distance":1364},{"i_long":106.836569,"station_id":"RJW","transit":false,"station_name":"Rajawali","time":3,"i_lat":-6.14505,"is_transit":false,"line":11,"distance":1444},{"time":5,"i_long":106.839204,"transit":false,"distance":1901,"is_transit":false,"i_lat":-6.161728,"line":11,"station_id":"KMO","station_name":"Kemayoran"},{"i_long":106.84368,"line":11,"distance":1436,"is_transit":false,"station_name":"Pasar Senen","station_id":"PSE","time":4,"i_lat":-6.174784,"transit":false},{"station_name":"Gang Sentiong","transit":false,"time":8,"distance":1567,"i_long":106.850107,"line":11,"station_id":"GST","is_transit":false,"i_lat":-6.185975},{"distance":973,"station_id":"KMT","is_transit":false,"i_long":106.855437,"line":11,"transit":false,"station_name":"Kramat","i_lat":-6.193792,"time":1},{"station_id":"POK","line":11,"distance":1829,"transit":false,"station_name":"Pondok Jati","is_transit":false,"time":2,"i_lat":-6.209188,"i_long":106.861737},{"i_long":106.86807400000001,"line":1,"transit":true,"station_name":"Jatinegara","station_id":"JNG","is_transit":true,"distance":1236,"time":9,"i_lat":-6.215091},{"distance":3395,"is_transit":false,"i_lat":-6.2135,"station_id":"KLD","station_name":"Klender","i_long":106.899548,"time":3,"line":1,"transit":false},{"station_name":"Buaran","station_id":"BUA","i_lat":-6.215568,"time":2,"i_long":106.922662,"is_transit":false,"distance":3100,"line":1,"transit":false},{"station_id":"KLDB","i_long":106.939679,"transit":false,"line":1,"station_name":"Klenderbaru","distance":1305,"is_transit":false,"i_lat":-6.217455,"time":1}]]}