{"data":[[{"station_name":"Tanah Tinggi","i_long":106.64657,"distance":0,"line":5,"time":0,"is_transit":false,"station_id":"TTI","i_lat":-6.17331,"transit":false},{"is_transit":false,"station_name":"Batuceper","i_lat":-6.171811,"i_long":106.665036,"line":0,"station_id":"BPR","distance":2028,"transit":false,"time":3},{"station_name":"Poris","i_lat":-6.169933,"station_id":"PI","is_transit":false,"transit":false,"i_long":106.679458,"distance":1834,"time":3,"line":5},{"time":3,"transit":false,"station_name":"Kalideres","line":5,"i_lat":-6.166068,"distance":2548,"is_transit":false,"i_long":106.701612,"station_id":"KDS"},{"i_lat":-6.162758,"is_transit":false,"line":5,"time":3,"i_long":106.723064,"transit":false,"station_id":"RW","distance":2504,"station_name":"Rawa Buaya"},{"time":4,"i_long":106.737035,"line":0,"station_name":"Bojongindah","i_lat":-6.159876,"is_transit":false,"transit":false,"station_id":"BOI","distance":1152},{"i_lat":-6.1587309999999995,"line":5,"is_transit":false,"station_name":"Taman Kota","time":2,"station_id":"TKO","i_long":106.756522,"distance":2334,"transit":false},{"station_name":"Pesing","transit":false,"station_id":"PSG","i_lat":-6.161433,"i_long":106.771379,"distance":1614,"time":2,"is_transit":false,"line":5},{"time":2,"is_transit":false,"distance":2036,"i_lat":-6.162021,"i_long":106.788277,"station_name":"Grogol","line":5,"transit":false,"station_id":"GGL"},{"distance":1700,"i_lat":-6.155215,"transit":true,"line":1,"time":3,"i_long":106.800832,"station_id":"DU","station_name":"Duri","is_transit":true},{"distance":3632,"station_name":"Tanah Abang","i_lat":-6.185545,"time":8,"line":1,"transit":true,"i_long":106.811091,"station_id":"THB","is_transit":true},{"line":6,"station_id":"PLM","time":6,"is_transit":false,"station_name":"Palmerah","i_long":106.79689,"i_lat":-6.207404,"distance":3191,"transit":false},{"i_long":106.780334,"is_transit":false,"distance":3737,"station_name":"Kebayoran","station_id":"KBY","transit":false,"time":7,"i_lat":-6.237242,"line":6},{"station_name":"Pondokranji","line":6,"transit":false,"time":8,"i_lat":-6.276362,"station_id":"PDJ","distance":6218,"i_long":106.74273,"is_transit":false},{"station_name":"Jurangmangu","time":3,"line":6,"distance":2179,"i_lat":-6.288927,"is_transit":false,"i_long":106.728916,"transit":false,"station_id":"JMU"},{"distance":1994,"is_transit":false,"transit":false,"station_id":"SDM","line":6,"i_lat":-6.296963,"i_long":106.712277,"station_name":"Sudimara","time":4},{"time":6,"distance":4566,"line":6,"transit":false,"station_name":"Rawa Buntu","is_transit":false,"station_id":"RU","i_long":106.675475,"i_lat":-6.314823},{"station_id":"SRP","is_transit":false,"transit":false,"i_lat":-6.319871,"line":6,"i_long":106.66566,"station_name":"Serpong","distance":2413,"time":4}],[{"station_name":"Tanah Tinggi","i_lat":-6.17331,"transit":false,"distance":0,"time":0,"is_transit":false,"i_long":106.64657,"station_id":"TTI","line":5},{"line":0,"is_transit":false,"station_id":"BPR","i_lat":-6.171811,"time":3,"distance":2028,"transit":false,"i_long":106.665036,"station_name":"Batuceper"},{"is_transit":false,"station_name":"Poris","time":3,"transit":false,"i_long":106.679458,"distance":1834,"line":5,"i_lat":-6.169933,"station_id":"PI"},{"time":3,"transit":false,"line":5,"station_id":"KDS","is_transit":false,"i_long":106.701612,"distance":2548,"station_name":"Kalideres","i_lat":-6.166068},{"i_long":106.723064,"transit":false,"i_lat":-6.162758,"distance":2504,"line":5,"station_name":"Rawa Buaya","is_transit":false,"time":3,"station_id":"RW"},{"station_id":"BOI","i_lat":-6.159876,"is_transit":false,"distance":1152,"i_long":106.737035,"line":0,"station_name":"Bojongindah","time":4,"transit":false},{"transit":false,"time":2,"i_long":106.756522,"station_id":"TKO","distance":2334,"line":5,"i_lat":-6.1587309999999995,"station_name":"Taman Kota","is_transit":false},{"i_lat":-6.161433,"is_transit":false,"transit":false,"distance":1614,"time":2,"station_id":"PSG","i_long":106.771379,"line":5,"station_name":"Pesing"},{"transit":false,"station_id":"GGL","is_transit":false,"i_long":106.788277,"time":2,"line":5,"distance":2036,"i_lat":-6.162021,"station_name":"Grogol"},{"i_lat":-6.155215,"distance":1700,"transit":true,"station_id":"DU","i_long":106.800832,"station_name":"Duri","line":1,"time":3,"is_transit":true},{"i_long":106.79867,"i_lat":-6.144674,"time":4,"station_id":"AK","line":0,"is_transit":false,"distance":1230,"station_name":"Angke","transit":false},{"i_long":106.826365,"station_id":"KPB","transit":false,"line":0,"station_name":"Kampung Bandan","distance":4102,"i_lat":-6.132549,"is_transit":true,"time":9},{"transit":true,"is_transit":true,"station_id":"JAKK","distance":1364,"i_lat":-6.137569,"station_name":"Jakarta Kota","time":3,"i_long":106.812439,"line":0},{"distance":1264,"transit":false,"i_long":106.820901,"is_transit":false,"line":7,"station_id":"JAY","time":4,"station_name":"Jayakarta","i_lat":-6.141205},{"time":2,"station_name":"Manggabesar","is_transit":false,"distance":1080,"station_id":"MGB","transit":false,"i_lat":-6.149769,"i_long":106.82482,"line":2},{"distance":906,"is_transit":false,"time":2,"i_long":106.827103,"line":2,"station_id":"SW","transit":false,"station_name":"Sawah Besar","i_lat":-6.160725},{"is_transit":false,"distance":1149,"time":2,"station_id":"JUA","i_lat":-6.166716,"station_name":"Juanda","transit":false,"i_long":106.828284,"line":2},{"station_id":"GDD","time":4,"line":2,"is_transit":false,"i_lat":-6.186295,"distance":2015,"station_name":"Gondangdia","transit":false,"i_long":106.832183},{"line":0,"i_lat":-6.198556,"station_name":"Cikini","i_long":106.840169,"distance":1750,"is_transit":false,"station_id":"CKI","transit":false,"time":3},{"is_transit":true,"time":4,"station_name":"Manggarai","line":0,"i_lat":-6.209883,"station_id":"MRI","transit":true,"i_long":106.84912,"distance":1590},{"distance":3186,"station_name":"Sudirman","time":4,"is_transit":false,"i_long":106.822649,"i_lat":-6.202263,"line":1,"transit":false,"station_id":"SUD"},{"distance":280,"is_transit":false,"station_name":"Sudirman Baru","transit":false,"time":1,"line":1,"station_id":"SUDB","i_long":106.819881,"i_lat":-6.201433},{"is_transit":false,"transit":false,"i_long":106.816351,"i_lat":-6.20132,"station_name":"Karet","line":1,"distance":471,"station_id":"KAT","time":1},{"station_name":"Tanah Abang","time":5,"is_transit":true,"i_long":106.811091,"line":1,"distance":2029,"station_id":"THB","transit":true,"i_lat":-6.185545},{"transit":false,"line":6,"i_long":106.79689,"station_name":"Palmerah","i_lat":-6.207404,"is_transit":false,"station_id":"PLM","time":6,"distance":3191},{"station_id":"KBY","station_name":"Kebayoran","is_transit":false,"line":6,"transit":false,"time":7,"i_lat":-6.237242,"distance":3737,"i_long":106.780334},{"is_transit":false,"i_lat":-6.276362,"station_id":"PDJ","distance":6218,"line":6,"time":8,"station_name":"Pondokranji","transit":false,"i_long":106.74273},{"time":3,"distance":2179,"station_name":"Jurangmangu","transit":false,"i_long":106.728916,"i_lat":-6.288927,"line":6,"station_id":"JMU","is_transit":false},{"is_transit":false,"transit":false,"station_id":"SDM","distance":1994,"line":6,"i_long":106.712277,"time":4,"i_lat":-6.296963,"station_name":"Sudimara"},{"distance":4566,"time":6,"line":6,"i_lat":-6.314823,"transit":false,"is_transit":false,"i_long":106.675475,"station_id":"RU","station_name":"Rawa Buntu"},{"distance":2413,"i_lat":-6.319871,"i_long":106.66566,"station_name":"Serpong","is_transit":false,"transit":false,"line":6,"time":4,"station_id":"SRP"}],[{"i_long":106.64657,"station_name":"Tanah Tinggi","station_id":"TTI","distance":0,"time":0,"is_transit":false,"i_lat":-6.17331,"line":5,"transit":false},{"is_transit":false,"transit":false,"i_long":106.665036,"i_lat":-6.171811,"time":3,"station_id":"BPR","distance":2028,"station_name":"Batuceper","line":0},{"transit":false,"i_lat":-6.169933,"station_name":"Poris","time":3,"distance":1834,"i_long":106.679458,"line":5,"is_transit":false,"station_id":"PI"},{"is_transit":false,"line":5,"station_id":"KDS","time":3,"i_lat":-6.166068,"distance":2548,"transit":false,"i_long":106.701612,"station_name":"Kalideres"},{"is_transit":false,"station_name":"Rawa Buaya","i_lat":-6.162758,"time":3,"line":5,"i_long":106.723064,"station_id":"RW","transit":false,"distance":2504},{"transit":false,"station_id":"BOI","line":0,"time":4,"distance":1152,"is_transit":false,"i_lat":-6.159876,"station_name":"Bojongindah","i_long":106.737035},{"transit":false,"time":2,"i_lat":-6.1587309999999995,"distance":2334,"line":5,"station_name":"Taman Kota","i_long":106.756522,"is_transit":false,"station_id":"TKO"},{"distance":1614,"station_id":"PSG","is_transit":false,"time":2,"i_lat":-6.161433,"i_long":106.771379,"station_name":"Pesing","transit":false,"line":5},{"station_name":"Grogol","distance":2036,"station_id":"GGL","transit":false,"time":2,"i_long":106.788277,"line":5,"is_transit":false,"i_lat":-6.162021},{"is_transit":true,"transit":true,"i_lat":-6.155215,"station_name":"Duri","station_id":"DU","i_long":106.800832,"distance":1700,"line":1,"time":3},{"station_name":"Angke","station_id":"AK","i_lat":-6.144674,"transit":false,"distance":1230,"i_long":106.79867,"line":0,"is_transit":false,"time":4},{"is_transit":true,"station_name":"Kampung Bandan","time":9,"i_lat":-6.132549,"distance":4102,"station_id":"KPB","transit":true,"i_long":106.826365,"line":0},{"station_id":"RJW","time":3,"station_name":"Rajawali","i_long":106.836569,"line":11,"distance":1444,"transit":false,"is_transit":false,"i_lat":-6.14505},{"line":11,"transit":false,"i_lat":-6.161728,"distance":1901,"is_transit":false,"station_name":"Kemayoran","i_long":106.839204,"time":5,"station_id":"KMO"},{"transit":false,"i_long":106.84368,"station_name":"Pasar Senen","i_lat":-6.174784,"is_transit":false,"time":4,"line":11,"station_id":"PSE","distance":1436},{"station_name":"Gang Sentiong","i_lat":-6.185975,"transit":false,"time":8,"i_long":106.850107,"line":11,"is_transit":false,"station_id":"GST","distance":1567},{"i_lat":-6.193792,"is_transit":false,"station_id":"KMT","station_name":"Kramat","line":11,"transit":false,"i_long":106.855437,"distance":973,"time":1},{"i_lat":-6.209188,"station_id":"POK","is_transit":false,"line":11,"station_name":"Pondok Jati","i_long":106.861737,"transit":false,"distance":1829,"time":2},{"transit":true,"time":9,"line":0,"is_transit":true,"station_name":"Jatinegara","station_id":"JNG","i_lat":-6.215091,"distance":1236,"i_long":106.86807400000001},{"is_transit":false,"station_name":"Matraman","station_id":"MTR","transit":false,"time":2,"i_long":106.858896,"line":1,"i_lat":-6.212485,"distance":1377},{"is_transit":true,"station_id":"MRI","i_long":106.84912,"line":0,"i_lat":-6.209883,"station_name":"Manggarai","time":2,"distance":1275,"transit":false},{"line":1,"is_transit":false,"time":4,"distance":3186,"station_id":"SUD","station_name":"Sudirman","transit":false,"i_long":106.822649,"i_lat":-6.202263},{"is_transit":false,"station_id":"SUDB","station_name":"Sudirman Baru","i_lat":-6.201433,"i_long":106.819881,"line":1,"transit":false,"time":1,"distance":280},{"station_name":"Karet","is_transit":false,"time":1,"i_lat":-6.20132,"i_long":106.816351,"line":1,"distance":471,"station_id":"KAT","transit":false},{"i_long":106.811091,"is_transit":true,"distance":2029,"station_name":"Tanah Abang","line":1,"station_id":"THB","i_lat":-6.185545,"transit":true,"time":5},{"distance":3191,"time":6,"station_id":"PLM","i_long":106.79689,"i_lat":-6.207404,"is_transit":false,"station_name":"Palmerah","line":6,"transit":false},{"line":6,"i_long":106.780334,"station_id":"KBY","distance":3737,"is_transit":false,"station_name":"Kebayoran","transit":false,"time":7,"i_lat":-6.237242},{"i_lat":-6.276362,"station_name":"Pondokranji","is_transit":false,"i_long":106.74273,"station_id":"PDJ","line":6,"distance":6218,"transit":false,"time":8},{"i_long":106.728916,"is_transit":false,"station_id":"JMU","time":3,"line":6,"i_lat":-6.288927,"station_name":"Jurangmangu","distance":2179,"transit":false},{"station_id":"SDM","i_lat":-6.296963,"distance":1994,"station_name":"Sudimara","time":4,"i_long":106.712277,"is_transit":false,"transit":false,"line":6},{"station_id":"RU","is_transit":false,"distance":4566,"time":6,"i_lat":-6.314823,"station_name":"Rawa Buntu","i_long":106.675475,"transit":false,"line":6},{"i_long":106.66566,"transit":false,"line":6,"distance":2413,"station_id":"SRP","time":4,"i_lat":-6.319871,"station_name":"Serpong","is_transit":false}]]}