{"data":[[{"i_long":106.64657,"distance":0,"i_lat":-6.17331,"line":5,"transit":false,"station_name":"Tanah Tinggi","station_id":"TTI","is_transit":false,"time":0},{"i_long":106.665036,"is_transit":false,"station_id":"BPR","station_name":"Batuceper","transit":false,"i_lat":-6.171811,"distance":2028,"line":5,"time":3},{"transit":false,"i_long":106.679458,"time":3,"distance":1834,"i_lat":-6.169933,"station_id":"PI","line":5,"station_name":"Poris","is_transit":false},{"time":3,"transit":false,"i_lat":-6.166068,"station_name":"Kalideres","station_id":"KDS","distance":2548,"is_transit":false,"line":5,"i_long":106.701612},{"line":5,"transit":false,"station_name":"Rawa Buaya","is_transit":false,"station_id":"RW","time":3,"distance":2504,"i_lat":-6.162758,"i_long":106.723064},{"distance":1152,"i_lat":-6.159876,"is_transit":false,"transit":false,"time":4,"i_long":106.737035,"station_id":"BOI","station_name":"Bojongindah","line":5},{"station_id":"TKO","is_transit":false,"distance":2334,"time":2,"station_name":"Taman Kota","line":5,"i_long":106.756522,"transit":false,"i_lat":-6.1587309999999995},{"line":5,"time":2,"station_name":"Pesing","i_lat":-6.161433,"is_transit":false,"transit":false,"station_id":"PSG","distance":1614,"i_long":106.771379},{"time":2,"station_id":"GGL","distance":2036,"i_long":106.788277,"is_transit":false,"station_name":"Grogol","transit":false,"line":5,"i_lat":-6.162021},{"distance":1700,"i_lat":-6.155215,"i_long":106.800832,"is_transit":true,"station_id":"DU","line":1,"transit":true,"station_name":"Duri","time":3},{"distance":1230,"i_lat":-6.144674,"i_long":106.79867,"line":1,"transit":false,"is_transit":false,"station_name":"Angke","time":4,"station_id":"AK"},{"distance":4102,"station_name":"Kampung Bandan","line":4,"station_id":"KPB","is_transit":true,"transit":true,"time":9,"i_lat":-6.132549,"i_long":106.826365},{"i_long":106.812439,"transit":true,"station_id":"JAKK","is_transit":true,"line":2,"station_name":"Jakarta Kota","time":3,"distance":1364,"i_lat":-6.137569},{"is_transit":false,"line":2,"station_name":"Jayakarta","transit":false,"distance":1264,"i_lat":-6.141205,"i_long":106.820901,"station_id":"JAY","time":4}],[{"i_lat":-6.17331,"distance":0,"is_transit":false,"time":0,"i_long":106.64657,"transit":false,"station_name":"Tanah Tinggi","station_id":"TTI","line":5},{"distance":2028,"i_lat":-6.171811,"i_long":106.665036,"is_transit":false,"transit":false,"line":5,"time":3,"station_name":"Batuceper","station_id":"BPR"},{"distance":1834,"station_id":"PI","is_transit":false,"i_long":106.679458,"transit":false,"line":5,"i_lat":-6.169933,"time":3,"station_name":"Poris"},{"time":3,"station_name":"Kalideres","is_transit":false,"station_id":"KDS","distance":2548,"i_lat":-6.166068,"transit":false,"i_long":106.701612,"line":5},{"time":3,"station_id":"RW","distance":2504,"is_transit":false,"station_name":"Rawa Buaya","line":5,"transit":false,"i_lat":-6.162758,"i_long":106.723064},{"station_id":"BOI","station_name":"Bojongindah","i_long":106.737035,"is_transit":false,"line":5,"transit":false,"distance":1152,"time":4,"i_lat":-6.159876},{"i_lat":-6.1587309999999995,"i_long":106.756522,"is_transit":false,"distance":2334,"time":2,"station_name":"Taman Kota","transit":false,"station_id":"TKO","line":5},{"station_name":"Pesing","i_long":106.771379,"station_id":"PSG","i_lat":-6.161433,"time":2,"is_transit":false,"transit":false,"distance":1614,"line":5},{"station_name":"Grogol","station_id":"GGL","time":2,"is_transit":false,"distance":2036,"transit":false,"i_long":106.788277,"line":5,"i_lat":-6.162021},{"transit":true,"is_transit":true,"time":3,"station_id":"DU","station_name":"Duri","distance":1700,"i_long":106.800832,"i_lat":-6.155215,"line":1},{"i_long":106.811091,"time":8,"i_lat":-6.185545,"distance":3632,"station_name":"Tanah Abang","station_id":"THB","transit":false,"is_transit":false,"line":1},{"time":5,"line":1,"transit":false,"i_lat":-6.20132,"station_id":"KAT","is_transit":false,"station_name":"Karet","distance":2029,"i_long":106.816351},{"station_id":"SUDB","time":1,"i_lat":-6.201433,"i_long":106.819881,"transit":false,"distance":471,"line":1,"is_transit":false,"station_name":"Sudirman Baru"},{"transit":false,"i_lat":-6.202263,"time":1,"is_transit":false,"distance":280,"i_long":106.822649,"station_id":"SUD","station_name":"Sudirman","line":1},{"time":4,"distance":3186,"line":2,"i_long":106.84912,"station_name":"Manggarai","transit":true,"i_lat":-6.209883,"station_id":"MRI","is_transit":true},{"station_name":"Cikini","transit":false,"is_transit":false,"distance":1590,"station_id":"CKI","time":4,"i_lat":-6.198556,"i_long":106.840169,"line":2},{"is_transit":false,"i_lat":-6.186295,"station_id":"GDD","line":2,"station_name":"Gondangdia","transit":false,"time":3,"distance":1750,"i_long":106.832183},{"line":2,"station_name":"Juanda","i_lat":-6.166716,"transit":false,"time":4,"distance":2015,"station_id":"JUA","i_long":106.828284,"is_transit":false},{"transit":false,"is_transit":false,"time":2,"line":2,"distance":1149,"i_lat":-6.160725,"station_id":"SW","i_long":106.827103,"station_name":"Sawah Besar"},{"time":2,"distance":906,"station_name":"Manggabesar","line":2,"i_lat":-6.149769,"transit":false,"station_id":"MGB","is_transit":false,"i_long":106.82482},{"is_transit":false,"time":2,"i_long":106.820901,"station_name":"Jayakarta","distance":1080,"i_lat":-6.141205,"line":2,"station_id":"JAY","transit":false}],[{"is_transit":false,"line":5,"i_long":106.64657,"transit":false,"time":0,"distance":0,"station_name":"Tanah Tinggi","i_lat":-6.17331,"station_id":"TTI"},{"transit":false,"station_id":"BPR","is_transit":false,"distance":2028,"i_lat":-6.171811,"i_long":106.665036,"station_name":"Batuceper","time":3,"line":5},{"line":5,"transit":false,"distance":1834,"is_transit":false,"station_name":"Poris","time":3,"station_id":"PI","i_lat":-6.169933,"i_long":106.679458},{"time":3,"distance":2548,"i_lat":-6.166068,"transit":false,"i_long":106.701612,"station_id":"KDS","line":5,"is_transit":false,"station_name":"Kalideres"},{"i_lat":-6.162758,"station_name":"Rawa Buaya","transit":false,"i_long":106.723064,"is_transit":false,"distance":2504,"station_id":"RW","time":3,"line":5},{"transit":false,"is_transit":false,"time":4,"station_name":"Bojongindah","i_lat":-6.159876,"i_long":106.737035,"line":5,"station_id":"BOI","distance":1152},{"time":2,"station_id":"TKO","i_long":106.756522,"transit":false,"i_lat":-6.1587309999999995,"station_name":"Taman Kota","line":5,"distance":2334,"is_transit":false},{"station_name":"Pesing","is_transit":false,"transit":false,"station_id":"PSG","time":2,"distance":1614,"i_lat":-6.161433,"line":5,"i_long":106.771379},{"is_transit":false,"time":2,"station_id":"GGL","distance":2036,"i_lat":-6.162021,"i_long":106.788277,"transit":false,"line":5,"station_name":"Grogol"},{"line":1,"i_long":106.800832,"station_name":"Duri","station_id":"DU","is_transit":true,"time":3,"transit":true,"distance":1700,"i_lat":-6.155215},{"station_name":"Tanah Abang","time":8,"transit":false,"station_id":"THB","line":1,"i_long":106.811091,"distance":3632,"is_transit":false,"i_lat":-6.185545},{"is_transit":false,"station_name":"Karet","station_id":"KAT","time":5,"transit":false,"i_long":106.816351,"distance":2029,"line":1,"i_lat":-6.20132},{"time":1,"transit":false,"is_transit":false,"i_lat":-6.201433,"i_long":106.819881,"station_id":"SUDB","station_name":"Sudirman Baru","distance":471,"line":1},{"i_lat":-6.202263,"transit":false,"station_id":"SUD","distance":280,"is_transit":false,"station_name":"Sudirman","time":1,"i_long":106.822649,"line":1},{"distance":3186,"i_lat":-6.209883,"i_long":106.84912,"transit":false,"line":2,"time":4,"station_id":"MRI","is_transit":false,"station_name":"Manggarai"},{"station_id":"MTR","distance":1275,"transit":false,"is_transit":false,"i_lat":-6.212485,"time":2,"i_long":106.858896,"station_name":"Matraman","line":1},{"i_long":106.86807400000001,"line":1,"distance":1377,"time":8,"i_lat":-6.215091,"station_id":"JNG","station_name":"Jatinegara","is_transit":true,"transit":true},{"time":2,"station_id":"POK","transit":false,"station_name":"Pondok Jati","is_transit":false,"i_lat":-6.209188,"line":11,"distance":1236,"i_long":106.861737},{"station_id":"KMT","time":2,"i_long":106.855437,"i_lat":-6.193792,"line":11,"is_transit":false,"distance":1829,"transit":false,"station_name":"Kramat"},{"transit":false,"station_id":"GST","i_lat":-6.185975,"is_transit":false,"distance":973,"station_name":"Gang Sentiong","i_long":106.850107,"line":11,"time":1},{"i_long":106.84368,"station_id":"PSE","station_name":"Pasar Senen","transit":false,"time":8,"i_lat":-6.174784,"distance":1567,"line":11,"is_transit":false},{"i_lat":-6.161728,"station_name":"Kemayoran","distance":1436,"station_id":"KMO","is_transit":false,"time":4,"i_long":106.839204,"transit":false,"line":11},{"i_lat":-6.14505,"station_name":"Rajawali","station_id":"RJW","distance":1901,"is_transit":false,"line":11,"time":5,"i_long":106.836569,"transit":false},{"line":4,"distance":1444,"transit":true,"station_id":"KPB","i_lat":-6.132549,"i_long":106.826365,"station_name":"Kampung Bandan","time":3,"is_transit":true},{"time":3,"i_long":106.812439,"i_lat":-6.137569,"is_transit":true,"distance":1364,"station_name":"Jakarta Kota","transit":true,"line":2,"station_id":"JAKK"},{"transit":false,"station_id":"JAY","is_transit":false,"time":4,"station_name":"Jayakarta","distance":1264,"i_long":106.820901,"i_lat":-6.141205,"line":2}],[{"distance":0,"time":0,"transit":false,"station_name":"Tanah Tinggi","i_lat":-6.17331,"i_long":106.64657,"station_id":"TTI","line":5,"is_transit":false},{"i_lat":-6.171811,"station_id":"BPR","i_long":106.665036,"line":5,"time":3,"distance":2028,"is_transit":false,"transit":false,"station_name":"Batuceper"},{"station_id":"PI","transit":false,"station_name":"Poris","distance":1834,"line":5,"time":3,"i_lat":-6.169933,"i_long":106.679458,"is_transit":false},{"line":5,"transit":false,"distance":2548,"station_name":"Kalideres","is_transit":false,"i_long":106.701612,"station_id":"KDS","time":3,"i_lat":-6.166068},{"i_long":106.723064,"i_lat":-6.162758,"station_id":"RW","is_transit":false,"station_name":"Rawa Buaya","line":5,"time":3,"transit":false,"distance":2504},{"line":5,"time":4,"is_transit":false,"i_lat":-6.159876,"transit":false,"station_id":"BOI","distance":1152,"station_name":"Bojongindah","i_long":106.737035},{"i_lat":-6.1587309999999995,"line":5,"station_id":"TKO","station_name":"Taman Kota","transit":false,"is_transit":false,"distance":2334,"i_long":106.756522,"time":2},{"i_long":106.771379,"station_name":"Pesing","station_id":"PSG","transit":false,"time":2,"distance":1614,"line":5,"is_transit":false,"i_lat":-6.161433},{"distance":2036,"i_lat":-6.162021,"is_transit":false,"i_long":106.788277,"line":5,"transit":false,"station_id":"GGL","station_name":"Grogol","time":2},{"station_name":"Duri","distance":1700,"is_transit":true,"i_long":106.800832,"transit":true,"time":3,"line":1,"station_id":"DU","i_lat":-6.155215},{"time":4,"transit":false,"distance":1230,"station_id":"AK","station_name":"Angke","is_transit":false,"i_long":106.79867,"line":1,"i_lat":-6.144674},{"transit":true,"station_name":"Kampung Bandan","line":4,"time":9,"i_long":106.826365,"station_id":"KPB","i_lat":-6.132549,"is_transit":true,"distance":4102},{"time":3,"i_lat":-6.14505,"is_transit":false,"i_long":106.836569,"distance":1444,"station_name":"Rajawali","transit":false,"station_id":"RJW","line":11},{"is_transit":false,"station_name":"Kemayoran","transit":false,"i_lat":-6.161728,"i_long":106.839204,"time":5,"distance":1901,"station_id":"KMO","line":11},{"time":4,"distance":1436,"transit":false,"i_long":106.84368,"station_name":"Pasar Senen","i_lat":-6.174784,"is_transit":false,"station_id":"PSE","line":11},{"time":8,"is_transit":false,"i_long":106.850107,"line":11,"distance":1567,"transit":false,"station_name":"Gang Sentiong","station_id":"GST","i_lat":-6.185975},{"transit":false,"i_long":106.855437,"is_transit":false,"station_id":"KMT","time":1,"line":11,"station_name":"Kramat","i_lat":-6.193792,"distance":973},{"station_id":"POK","is_transit":false,"station_name":"Pondok Jati","distance":1829,"i_long":106.861737,"i_lat":-6.209188,"time":2,"line":11,"transit":false},{"station_id":"JNG","is_transit":true,"station_name":"Jatinegara","i_long":106.86807400000001,"line":1,"transit":true,"i_lat":-6.215091,"time":9,"distance":1236},{"station_name":"Matraman","is_transit":false,"time":2,"i_long":106.858896,"distance":1377,"transit":false,"station_id":"MTR","i_lat":-6.212485,"line":1},{"station_id":"MRI","time":2,"i_long":106.84912,"line":2,"transit":true,"is_transit":true,"i_lat":-6.209883,"distance":1275,"station_name":"Manggarai"},{"i_long":106.840169,"is_transit":false,"line":2,"transit":false,"station_id":"CKI","station_name":"Cikini","distance":1590,"i_lat":-6.198556,"time":4},{"transit":false,"i_lat":-6.186295,"station_name":"Gondangdia","is_transit":false,"line":2,"distance":1750,"time":3,"station_id":"GDD","i_long":106.832183},{"time":4,"transit":false,"station_id":"JUA","is_transit":false,"distance":2015,"i_long":106.828284,"line":2,"i_lat":-6.166716,"station_name":"Juanda"},{"i_lat":-6.160725,"i_long":106.827103,"is_transit":false,"line":2,"distance":1149,"time":2,"transit":false,"station_name":"Sawah Besar","station_id":"SW"},{"line":2,"is_transit":false,"time":2,"station_name":"Manggabesar","i_lat":-6.149769,"transit":false,"distance":906,"i_long":106.82482,"station_id":"MGB"},{"i_lat":-6.141205,"station_name":"Jayakarta","time":2,"line":2,"distance":1080,"station_id":"JAY","transit":false,"is_transit":false,"i_long":106.820901}]]}