{"data":[[{"i_long":106.64657,"is_transit":false,"station_name":"Tanah Tinggi","i_lat":-6.17331,"distance":0,"line":5,"transit":false,"time":0,"station_id":"TTI"},{"station_id":"BPR","distance":2028,"i_lat":-6.171811,"time":3,"i_long":106.665036,"line":5,"is_transit":false,"station_name":"Batuceper","transit":false},{"i_lat":-6.169933,"line":5,"transit":false,"time":3,"is_transit":false,"distance":1834,"i_long":106.679458,"station_id":"PI","station_name":"Poris"},{"distance":2548,"station_id":"KDS","time":3,"is_transit":false,"i_lat":-6.166068,"station_name":"Kalideres","i_long":106.701612,"transit":false,"line":5},{"line":5,"time":3,"station_id":"RW","station_name":"Rawa Buaya","distance":2504,"is_transit":false,"i_lat":-6.162758,"i_long":106.723064,"transit":false},{"station_name":"Bojongindah","i_long":106.737035,"station_id":"BOI","transit":false,"is_transit":false,"time":4,"i_lat":-6.159876,"distance":1152,"line":5},{"station_id":"TKO","transit":false,"i_long":106.756522,"time":2,"is_transit":false,"station_name":"Taman Kota","line":5,"distance":2334,"i_lat":-6.1587309999999995},{"is_transit":false,"time":2,"i_lat":-6.161433,"transit":false,"distance":1614,"i_long":106.771379,"station_name":"Pesing","station_id":"PSG","line":5},{"station_name":"Grogol","i_lat":-6.162021,"is_transit":false,"distance":2036,"line":5,"time":2,"transit":false,"i_long":106.788277,"station_id":"GGL"},{"transit":true,"time":3,"i_long":106.800832,"station_name":"Duri","line":1,"i_lat":-6.155215,"station_id":"DU","distance":1700,"is_transit":true},{"i_lat":-6.144674,"transit":false,"time":4,"is_transit":false,"station_name":"Angke","station_id":"AK","i_long":106.79867,"line":1,"distance":1230},{"station_id":"KPB","is_transit":true,"station_name":"Kampung Bandan","transit":true,"i_lat":-6.132549,"i_long":106.826365,"time":9,"line":4,"distance":4102},{"transit":false,"station_id":"AC","i_lat":-6.128023,"distance":2185,"is_transit":false,"time":4,"line":4,"i_long":106.84464,"station_name":"Ancol"}],[{"station_name":"Tanah Tinggi","transit":false,"station_id":"TTI","time":0,"is_transit":false,"i_lat":-6.17331,"line":5,"i_long":106.64657,"distance":0},{"distance":2028,"time":3,"transit":false,"is_transit":false,"station_name":"Batuceper","i_lat":-6.171811,"station_id":"BPR","i_long":106.665036,"line":5},{"station_name":"Poris","is_transit":false,"station_id":"PI","i_lat":-6.169933,"distance":1834,"line":5,"transit":false,"time":3,"i_long":106.679458},{"i_lat":-6.166068,"station_id":"KDS","distance":2548,"transit":false,"i_long":106.701612,"line":5,"station_name":"Kalideres","is_transit":false,"time":3},{"line":5,"i_lat":-6.162758,"station_id":"RW","station_name":"Rawa Buaya","distance":2504,"transit":false,"is_transit":false,"time":3,"i_long":106.723064},{"station_id":"BOI","transit":false,"i_lat":-6.159876,"station_name":"Bojongindah","distance":1152,"line":5,"i_long":106.737035,"is_transit":false,"time":4},{"time":2,"is_transit":false,"station_id":"TKO","line":5,"i_lat":-6.1587309999999995,"i_long":106.756522,"transit":false,"distance":2334,"station_name":"Taman Kota"},{"time":2,"station_id":"PSG","transit":false,"distance":1614,"i_long":106.771379,"is_transit":false,"i_lat":-6.161433,"station_name":"Pesing","line":5},{"station_id":"GGL","i_lat":-6.162021,"time":2,"i_long":106.788277,"is_transit":false,"transit":false,"distance":2036,"station_name":"Grogol","line":5},{"i_lat":-6.155215,"is_transit":true,"transit":true,"station_id":"DU","i_long":106.800832,"line":1,"station_name":"Duri","distance":1700,"time":3},{"station_name":"Tanah Abang","distance":3632,"is_transit":false,"station_id":"THB","i_lat":-6.185545,"time":8,"line":1,"i_long":106.811091,"transit":false},{"station_name":"Karet","line":1,"i_long":106.816351,"distance":2029,"i_lat":-6.20132,"transit":false,"is_transit":false,"time":5,"station_id":"KAT"},{"station_id":"SUDB","i_long":106.819881,"time":1,"i_lat":-6.201433,"is_transit":false,"line":1,"distance":471,"station_name":"Sudirman Baru","transit":false},{"time":1,"is_transit":false,"station_id":"SUD","distance":280,"i_long":106.822649,"line":1,"station_name":"Sudirman","i_lat":-6.202263,"transit":false},{"line":2,"station_name":"Manggarai","transit":true,"station_id":"MRI","is_transit":true,"distance":3186,"time":4,"i_long":106.84912,"i_lat":-6.209883},{"transit":false,"station_name":"Cikini","station_id":"CKI","i_lat":-6.198556,"distance":1590,"time":4,"i_long":106.840169,"line":2,"is_transit":false},{"i_lat":-6.186295,"station_id":"GDD","i_long":106.832183,"line":2,"station_name":"Gondangdia","transit":false,"distance":1750,"is_transit":false,"time":3},{"is_transit":false,"station_id":"JUA","station_name":"Juanda","i_long":106.828284,"line":2,"transit":false,"distance":2015,"time":4,"i_lat":-6.166716},{"i_lat":-6.160725,"time":2,"i_long":106.827103,"transit":false,"station_id":"SW","distance":1149,"station_name":"Sawah Besar","line":2,"is_transit":false},{"distance":906,"station_id":"MGB","is_transit":false,"line":2,"i_long":106.82482,"i_lat":-6.149769,"time":2,"station_name":"Manggabesar","transit":false},{"time":2,"station_name":"Jayakarta","station_id":"JAY","is_transit":false,"transit":false,"i_lat":-6.141205,"i_long":106.820901,"distance":1080,"line":2},{"i_lat":-6.137569,"transit":true,"is_transit":true,"line":2,"i_long":106.812439,"distance":1264,"station_name":"Jakarta Kota","time":4,"station_id":"JAKK"},{"time":3,"distance":1364,"is_transit":true,"transit":true,"station_id":"KPB","i_long":106.826365,"line":4,"station_name":"Kampung Bandan","i_lat":-6.132549},{"distance":2185,"time":4,"i_long":106.84464,"is_transit":false,"i_lat":-6.128023,"station_name":"Ancol","transit":false,"line":4,"station_id":"AC"}],[{"is_transit":false,"station_id":"TTI","line":5,"station_name":"Tanah Tinggi","i_lat":-6.17331,"time":0,"transit":false,"distance":0,"i_long":106.64657},{"time":3,"transit":false,"station_id":"BPR","is_transit":false,"distance":2028,"i_lat":-6.171811,"i_long":106.665036,"line":5,"station_name":"Batuceper"},{"i_long":106.679458,"line":5,"is_transit":false,"station_name":"Poris","station_id":"PI","time":3,"transit":false,"distance":1834,"i_lat":-6.169933},{"i_lat":-6.166068,"i_long":106.701612,"transit":false,"station_id":"KDS","distance":2548,"line":5,"is_transit":false,"station_name":"Kalideres","time":3},{"distance":2504,"line":5,"station_id":"RW","time":3,"station_name":"Rawa Buaya","i_long":106.723064,"transit":false,"i_lat":-6.162758,"is_transit":false},{"distance":1152,"time":4,"transit":false,"station_id":"BOI","i_long":106.737035,"station_name":"Bojongindah","i_lat":-6.159876,"is_transit":false,"line":5},{"line":5,"is_transit":false,"i_lat":-6.1587309999999995,"station_id":"TKO","distance":2334,"station_name":"Taman Kota","time":2,"i_long":106.756522,"transit":false},{"station_name":"Pesing","transit":false,"i_lat":-6.161433,"station_id":"PSG","is_transit":false,"distance":1614,"line":5,"time":2,"i_long":106.771379},{"i_long":106.788277,"transit":false,"time":2,"station_id":"GGL","station_name":"Grogol","is_transit":false,"distance":2036,"line":5,"i_lat":-6.162021},{"distance":1700,"time":3,"station_name":"Duri","station_id":"DU","i_long":106.800832,"transit":true,"is_transit":true,"i_lat":-6.155215,"line":1},{"station_name":"Tanah Abang","i_long":106.811091,"line":1,"station_id":"THB","i_lat":-6.185545,"distance":3632,"time":8,"transit":false,"is_transit":false},{"is_transit":false,"transit":false,"distance":2029,"station_id":"KAT","time":5,"i_long":106.816351,"i_lat":-6.20132,"line":1,"station_name":"Karet"},{"line":1,"distance":471,"i_lat":-6.201433,"transit":false,"is_transit":false,"time":1,"i_long":106.819881,"station_id":"SUDB","station_name":"Sudirman Baru"},{"station_name":"Sudirman","is_transit":false,"station_id":"SUD","i_long":106.822649,"line":1,"transit":false,"distance":280,"time":1,"i_lat":-6.202263},{"station_name":"Manggarai","distance":3186,"is_transit":false,"i_lat":-6.209883,"station_id":"MRI","time":4,"i_long":106.84912,"transit":false,"line":2},{"is_transit":false,"i_long":106.858896,"station_name":"Matraman","line":1,"transit":false,"station_id":"MTR","time":2,"i_lat":-6.212485,"distance":1275},{"station_name":"Jatinegara","station_id":"JNG","distance":1377,"time":8,"i_lat":-6.215091,"line":1,"transit":true,"i_long":106.86807400000001,"is_transit":true},{"transit":false,"distance":1236,"time":2,"i_long":106.861737,"station_id":"POK","station_name":"Pondok Jati","line":11,"is_transit":false,"i_lat":-6.209188},{"distance":1829,"i_lat":-6.193792,"time":2,"station_id":"KMT","transit":false,"station_name":"Kramat","line":11,"i_long":106.855437,"is_transit":false},{"station_name":"Gang Sentiong","time":1,"i_long":106.850107,"line":11,"transit":false,"station_id":"GST","distance":973,"i_lat":-6.185975,"is_transit":false},{"distance":1567,"i_long":106.84368,"station_name":"Pasar Senen","time":8,"line":11,"station_id":"PSE","i_lat":-6.174784,"transit":false,"is_transit":false},{"transit":false,"station_name":"Kemayoran","line":11,"time":4,"i_long":106.839204,"is_transit":false,"station_id":"KMO","distance":1436,"i_lat":-6.161728},{"i_long":106.836569,"transit":false,"line":11,"time":5,"is_transit":false,"station_name":"Rajawali","i_lat":-6.14505,"distance":1901,"station_id":"RJW"},{"line":4,"time":3,"i_long":106.826365,"is_transit":true,"transit":true,"station_id":"KPB","i_lat":-6.132549,"station_name":"Kampung Bandan","distance":1444},{"i_long":106.84464,"i_lat":-6.128023,"station_id":"AC","transit":false,"line":4,"distance":2185,"station_name":"Ancol","is_transit":false,"time":4}]]}