{"data":[[{"distance":0,"station_name":"Tanah Tinggi","transit":false,"time":0,"i_lat":-6.17331,"i_long":106.64657,"is_transit":false,"line":5,"station_id":"TTI"},{"station_id":"BPR","station_name":"Batuceper","line":5,"i_long":106.665036,"distance":2028,"i_lat":-6.171811,"is_transit":false,"transit":false,"time":3},{"distance":1834,"transit":false,"i_lat":-6.169933,"line":5,"time":3,"station_name":"Poris","station_id":"PI","i_long":106.679458,"is_transit":false},{"i_lat":-6.166068,"is_transit":false,"station_id":"KDS","distance":2548,"line":5,"station_name":"Kalideres","time":3,"transit":false,"i_long":106.701612},{"i_long":106.723064,"station_id":"RW","line":5,"transit":false,"distance":2504,"station_name":"Rawa Buaya","is_transit":false,"i_lat":-6.162758,"time":3},{"distance":1152,"transit":false,"is_transit":false,"station_id":"BOI","i_lat":-6.159876,"line":5,"station_name":"Bojongindah","i_long":106.737035,"time":4},{"transit":false,"station_id":"TKO","time":2,"distance":2334,"is_transit":false,"station_name":"Taman Kota","i_lat":-6.1587309999999995,"i_long":106.756522,"line":5},{"is_transit":false,"i_long":106.771379,"distance":1614,"transit":false,"station_id":"PSG","i_lat":-6.161433,"time":2,"station_name":"Pesing","line":5},{"distance":2036,"is_transit":false,"transit":false,"station_name":"Grogol","station_id":"GGL","time":2,"line":5,"i_long":106.788277,"i_lat":-6.162021},{"i_lat":-6.155215,"transit":true,"station_name":"Duri","is_transit":true,"time":3,"distance":1700,"station_id":"DU","i_long":106.800832,"line":1},{"transit":true,"is_transit":true,"distance":3632,"i_lat":-6.185545,"station_id":"THB","i_long":106.811091,"time":8,"station_name":"Tanah Abang","line":1},{"transit":false,"station_name":"Palmerah","i_long":106.79689,"distance":3191,"i_lat":-6.207404,"station_id":"PLM","is_transit":false,"line":6,"time":6},{"station_id":"KBY","line":6,"time":7,"i_lat":-6.237242,"station_name":"Kebayoran","distance":3737,"transit":false,"i_long":106.780334,"is_transit":false},{"station_name":"Pondokranji","i_long":106.74273,"transit":false,"station_id":"PDJ","distance":6218,"time":8,"line":6,"i_lat":-6.276362,"is_transit":false},{"distance":2179,"i_long":106.728916,"i_lat":-6.288927,"station_name":"Jurangmangu","station_id":"JMU","time":3,"line":6,"transit":false,"is_transit":false},{"line":6,"i_long":106.712277,"i_lat":-6.296963,"time":4,"distance":1994,"station_name":"Sudimara","station_id":"SDM","is_transit":false,"transit":false},{"i_lat":-6.314823,"i_long":106.675475,"time":6,"transit":false,"station_id":"RU","line":6,"distance":4566,"station_name":"Rawa Buntu","is_transit":false},{"distance":2413,"station_name":"Serpong","line":6,"transit":false,"i_lat":-6.319871,"is_transit":false,"i_long":106.66566,"station_id":"SRP","time":4},{"i_long":106.640411,"line":3,"time":4,"station_name":"Cisauk","distance":1784,"transit":false,"i_lat":-6.32484,"station_id":"CSK","is_transit":false},{"distance":2519,"i_long":106.617853,"is_transit":false,"transit":false,"time":4,"station_id":"CC","i_lat":-6.329547,"station_name":"Cicayur","line":3},{"station_name":"Parung Panjang","is_transit":false,"station_id":"PRP","transit":false,"time":8,"distance":5968,"i_long":106.568863,"i_lat":-6.3441410000000005,"line":6},{"transit":false,"time":9,"distance":7025,"station_name":"Cilejit","i_lat":-6.354349,"station_id":"CJT","line":3,"i_long":106.508482,"is_transit":false},{"is_transit":false,"distance":2675,"station_name":"Daru","i_long":106.491338,"transit":false,"time":6,"station_id":"DAR","line":0,"i_lat":-6.338021}],[{"time":0,"i_long":106.64657,"station_id":"TTI","transit":false,"is_transit":false,"i_lat":-6.17331,"line":5,"station_name":"Tanah Tinggi","distance":0},{"time":3,"i_long":106.665036,"station_name":"Batuceper","distance":2028,"station_id":"BPR","i_lat":-6.171811,"transit":false,"is_transit":false,"line":5},{"station_id":"PI","transit":false,"time":3,"distance":1834,"station_name":"Poris","i_lat":-6.169933,"i_long":106.679458,"line":5,"is_transit":false},{"time":3,"i_lat":-6.166068,"is_transit":false,"station_id":"KDS","distance":2548,"station_name":"Kalideres","i_long":106.701612,"transit":false,"line":5},{"line":5,"station_id":"RW","station_name":"Rawa Buaya","is_transit":false,"time":3,"distance":2504,"transit":false,"i_long":106.723064,"i_lat":-6.162758},{"i_long":106.737035,"is_transit":false,"station_name":"Bojongindah","line":5,"transit":false,"i_lat":-6.159876,"time":4,"distance":1152,"station_id":"BOI"},{"station_name":"Taman Kota","distance":2334,"station_id":"TKO","i_long":106.756522,"transit":false,"is_transit":false,"time":2,"line":5,"i_lat":-6.1587309999999995},{"station_name":"Pesing","is_transit":false,"station_id":"PSG","transit":false,"line":5,"i_long":106.771379,"i_lat":-6.161433,"distance":1614,"time":2},{"transit":false,"i_lat":-6.162021,"i_long":106.788277,"is_transit":false,"station_id":"GGL","station_name":"Grogol","line":5,"distance":2036,"time":2},{"i_long":106.800832,"line":1,"station_name":"Duri","is_transit":true,"transit":true,"i_lat":-6.155215,"time":3,"distance":1700,"station_id":"DU"},{"line":1,"is_transit":false,"station_name":"Angke","station_id":"AK","distance":1230,"i_lat":-6.144674,"transit":false,"i_long":106.79867,"time":4},{"station_name":"Kampung Bandan","transit":true,"station_id":"KPB","i_lat":-6.132549,"is_transit":true,"time":9,"distance":4102,"line":4,"i_long":106.826365},{"transit":true,"distance":1364,"line":2,"station_name":"Jakarta Kota","i_long":106.812439,"time":3,"station_id":"JAKK","i_lat":-6.137569,"is_transit":true},{"is_transit":false,"transit":false,"station_id":"JAY","distance":1264,"i_lat":-6.141205,"time":4,"station_name":"Jayakarta","line":2,"i_long":106.820901},{"time":2,"i_lat":-6.149769,"is_transit":false,"line":2,"station_id":"MGB","distance":1080,"transit":false,"station_name":"Manggabesar","i_long":106.82482},{"i_lat":-6.160725,"time":2,"station_name":"Sawah Besar","is_transit":false,"transit":false,"station_id":"SW","i_long":106.827103,"distance":906,"line":2},{"line":2,"time":2,"station_name":"Juanda","station_id":"JUA","is_transit":false,"transit":false,"i_long":106.828284,"distance":1149,"i_lat":-6.166716},{"distance":2015,"i_lat":-6.186295,"station_name":"Gondangdia","time":4,"transit":false,"i_long":106.832183,"is_transit":false,"station_id":"GDD","line":2},{"is_transit":false,"station_name":"Cikini","station_id":"CKI","line":2,"transit":false,"i_long":106.840169,"i_lat":-6.198556,"time":3,"distance":1750},{"i_lat":-6.209883,"station_name":"Manggarai","i_long":106.84912,"station_id":"MRI","line":2,"distance":1590,"transit":true,"is_transit":true,"time":4},{"station_name":"Sudirman","line":1,"i_long":106.822649,"is_transit":false,"station_id":"SUD","i_lat":-6.202263,"distance":3186,"transit":false,"time":4},{"transit":false,"distance":280,"line":1,"station_name":"Sudirman Baru","i_lat":-6.201433,"station_id":"SUDB","is_transit":false,"i_long":106.819881,"time":1},{"i_lat":-6.20132,"station_id":"KAT","time":1,"station_name":"Karet","i_long":106.816351,"is_transit":false,"line":1,"transit":false,"distance":471},{"station_name":"Tanah Abang","station_id":"THB","transit":true,"time":5,"i_lat":-6.185545,"i_long":106.811091,"is_transit":true,"line":1,"distance":2029},{"time":6,"distance":3191,"i_lat":-6.207404,"transit":false,"is_transit":false,"station_name":"Palmerah","station_id":"PLM","line":6,"i_long":106.79689},{"i_long":106.780334,"is_transit":false,"transit":false,"station_name":"Kebayoran","line":6,"station_id":"KBY","i_lat":-6.237242,"time":7,"distance":3737},{"line":6,"transit":false,"station_id":"PDJ","time":8,"distance":6218,"is_transit":false,"station_name":"Pondokranji","i_lat":-6.276362,"i_long":106.74273},{"line":6,"station_id":"JMU","time":3,"station_name":"Jurangmangu","transit":false,"i_lat":-6.288927,"is_transit":false,"distance":2179,"i_long":106.728916},{"i_long":106.712277,"is_transit":false,"time":4,"station_id":"SDM","transit":false,"station_name":"Sudimara","i_lat":-6.296963,"distance":1994,"line":6},{"distance":4566,"transit":false,"line":6,"i_lat":-6.314823,"i_long":106.675475,"time":6,"station_name":"Rawa Buntu","station_id":"RU","is_transit":false},{"time":4,"station_name":"Serpong","distance":2413,"line":6,"i_long":106.66566,"is_transit":false,"station_id":"SRP","transit":false,"i_lat":-6.319871},{"i_long":106.640411,"time":4,"distance":1784,"i_lat":-6.32484,"station_name":"Cisauk","is_transit":false,"line":3,"transit":false,"station_id":"CSK"},{"is_transit":false,"station_id":"CC","time":4,"station_name":"Cicayur","i_lat":-6.329547,"line":3,"transit":false,"i_long":106.617853,"distance":2519},{"station_id":"PRP","line":6,"time":8,"i_lat":-6.3441410000000005,"distance":5968,"is_transit":false,"station_name":"Parung Panjang","transit":false,"i_long":106.568863},{"is_transit":false,"transit":false,"distance":7025,"station_id":"CJT","time":9,"i_long":106.508482,"station_name":"Cilejit","i_lat":-6.354349,"line":3},{"station_name":"Daru","is_transit":false,"distance":2675,"transit":false,"i_lat":-6.338021,"time":6,"line":0,"station_id":"DAR","i_long":106.491338}],[{"line":5,"station_id":"TTI","time":0,"station_name":"Tanah Tinggi","i_lat":-6.17331,"is_transit":false,"distance":0,"transit":false,"i_long":106.64657},{"distance":2028,"i_long":106.665036,"line":5,"time":3,"is_transit":false,"station_name":"Batuceper","i_lat":-6.171811,"station_id":"BPR","transit":false},{"is_transit":false,"distance":1834,"i_lat":-6.169933,"line":5,"transit":false,"time":3,"station_name":"Poris","station_id":"PI","i_long":106.679458},{"i_long":106.701612,"is_transit":false,"distance":2548,"line":5,"time":3,"i_lat":-6.166068,"station_id":"KDS","station_name":"Kalideres","transit":false},{"station_id":"RW","i_long":106.723064,"is_transit":false,"time":3,"i_lat":-6.162758,"distance":2504,"station_name":"Rawa Buaya","transit":false,"line":5},{"station_id":"BOI","i_long":106.737035,"station_name":"Bojongindah","line":5,"is_transit":false,"transit":false,"i_lat":-6.159876,"time":4,"distance":1152},{"distance":2334,"station_name":"Taman Kota","line":5,"transit":false,"time":2,"station_id":"TKO","i_long":106.756522,"is_transit":false,"i_lat":-6.1587309999999995},{"transit":false,"station_name":"Pesing","i_lat":-6.161433,"i_long":106.771379,"distance":1614,"is_transit":false,"time":2,"station_id":"PSG","line":5},{"i_long":106.788277,"is_transit":false,"time":2,"station_id":"GGL","station_name":"Grogol","line":5,"distance":2036,"transit":false,"i_lat":-6.162021},{"is_transit":true,"time":3,"i_long":106.800832,"i_lat":-6.155215,"station_name":"Duri","transit":true,"distance":1700,"station_id":"DU","line":1},{"line":1,"station_name":"Angke","i_lat":-6.144674,"is_transit":false,"distance":1230,"time":4,"i_long":106.79867,"station_id":"AK","transit":false},{"distance":4102,"is_transit":true,"i_long":106.826365,"station_name":"Kampung Bandan","transit":true,"line":4,"i_lat":-6.132549,"station_id":"KPB","time":9},{"transit":false,"station_name":"Rajawali","i_lat":-6.14505,"line":11,"station_id":"RJW","i_long":106.836569,"is_transit":false,"time":3,"distance":1444},{"i_lat":-6.161728,"time":5,"line":11,"distance":1901,"is_transit":false,"station_id":"KMO","i_long":106.839204,"transit":false,"station_name":"Kemayoran"},{"station_name":"Pasar Senen","station_id":"PSE","distance":1436,"i_long":106.84368,"line":11,"i_lat":-6.174784,"time":4,"transit":false,"is_transit":false},{"i_lat":-6.185975,"transit":false,"distance":1567,"is_transit":false,"station_name":"Gang Sentiong","station_id":"GST","i_long":106.850107,"line":11,"time":8},{"i_long":106.855437,"is_transit":false,"distance":973,"station_id":"KMT","transit":false,"i_lat":-6.193792,"line":11,"time":1,"station_name":"Kramat"},{"is_transit":false,"i_long":106.861737,"line":11,"station_name":"Pondok Jati","distance":1829,"i_lat":-6.209188,"transit":false,"time":2,"station_id":"POK"},{"i_long":106.86807400000001,"distance":1236,"station_name":"Jatinegara","line":1,"transit":true,"is_transit":true,"station_id":"JNG","i_lat":-6.215091,"time":9},{"station_name":"Matraman","is_transit":false,"station_id":"MTR","i_lat":-6.212485,"time":2,"distance":1377,"line":1,"transit":false,"i_long":106.858896},{"line":2,"time":2,"distance":1275,"is_transit":false,"i_lat":-6.209883,"station_name":"Manggarai","i_long":106.84912,"transit":false,"station_id":"MRI"},{"time":4,"line":1,"i_long":106.822649,"distance":3186,"is_transit":false,"station_name":"Sudirman","i_lat":-6.202263,"station_id":"SUD","transit":false},{"time":1,"i_long":106.819881,"is_transit":false,"distance":280,"station_id":"SUDB","transit":false,"line":1,"i_lat":-6.201433,"station_name":"Sudirman Baru"},{"station_name":"Karet","line":1,"transit":false,"time":1,"station_id":"KAT","i_lat":-6.20132,"distance":471,"is_transit":false,"i_long":106.816351},{"i_lat":-6.185545,"i_long":106.811091,"line":1,"station_name":"Tanah Abang","is_transit":true,"transit":true,"time":5,"distance":2029,"station_id":"THB"},{"is_transit":false,"station_id":"PLM","i_long":106.79689,"time":6,"transit":false,"distance":3191,"station_name":"Palmerah","i_lat":-6.207404,"line":6},{"distance":3737,"transit":false,"station_id":"KBY","station_name":"Kebayoran","is_transit":false,"time":7,"i_long":106.780334,"line":6,"i_lat":-6.237242},{"i_lat":-6.276362,"line":6,"i_long":106.74273,"station_id":"PDJ","distance":6218,"is_transit":false,"transit":false,"station_name":"Pondokranji","time":8},{"distance":2179,"i_long":106.728916,"station_name":"Jurangmangu","time":3,"transit":false,"is_transit":false,"line":6,"station_id":"JMU","i_lat":-6.288927},{"i_long":106.712277,"station_name":"Sudimara","i_lat":-6.296963,"station_id":"SDM","line":6,"transit":false,"time":4,"distance":1994,"is_transit":false},{"is_transit":false,"line":6,"i_lat":-6.314823,"station_id":"RU","distance":4566,"station_name":"Rawa Buntu","transit":false,"i_long":106.675475,"time":6},{"transit":false,"line":6,"station_name":"Serpong","station_id":"SRP","i_lat":-6.319871,"distance":2413,"i_long":106.66566,"time":4,"is_transit":false},{"transit":false,"is_transit":false,"i_lat":-6.32484,"line":3,"station_name":"Cisauk","station_id":"CSK","distance":1784,"time":4,"i_long":106.640411},{"distance":2519,"is_transit":false,"time":4,"i_long":106.617853,"line":3,"station_name":"Cicayur","station_id":"CC","i_lat":-6.329547,"transit":false},{"i_lat":-6.3441410000000005,"i_long":106.568863,"distance":5968,"time":8,"station_id":"PRP","is_transit":false,"transit":false,"line":6,"station_name":"Parung Panjang"},{"time":9,"i_lat":-6.354349,"line":3,"is_transit":false,"transit":false,"station_name":"Cilejit","station_id":"CJT","distance":7025,"i_long":106.508482},{"time":6,"is_transit":false,"station_id":"DAR","transit":false,"distance":2675,"i_long":106.491338,"station_name":"Daru","i_lat":-6.338021,"line":0}]]}