{"data":[[{"station_id":"TTI","distance":0,"i_lat":-6.17331,"i_long":106.64657,"time":0,"line":5,"is_transit":false,"station_name":"Tanah Tinggi","transit":false},{"is_transit":false,"station_id":"BPR","i_lat":-6.171811,"station_name":"Batuceper","time":3,"distance":2028,"i_long":106.665036,"line":0,"transit":false},{"i_long":106.679458,"transit":false,"distance":1834,"i_lat":-6.169933,"station_id":"PI","time":3,"line":5,"is_transit":false,"station_name":"Poris"},{"time":3,"line":5,"station_name":"Kalideres","i_long":106.701612,"is_transit":false,"station_id":"KDS","distance":2548,"transit":false,"i_lat":-6.166068},{"i_long":106.723064,"transit":false,"station_id":"RW","is_transit":false,"distance":2504,"i_lat":-6.162758,"line":5,"station_name":"Rawa Buaya","time":3},{"distance":1152,"station_name":"Bojongindah","time":4,"i_lat":-6.159876,"i_long":106.737035,"line":0,"transit":false,"station_id":"BOI","is_transit":false},{"transit":false,"distance":2334,"is_transit":false,"station_name":"Taman Kota","i_long":106.756522,"station_id":"TKO","i_lat":-6.1587309999999995,"time":2,"line":5},{"i_lat":-6.161433,"distance":1614,"transit":false,"station_name":"Pesing","line":5,"is_transit":false,"station_id":"PSG","i_long":106.771379,"time":2},{"station_name":"Grogol","transit":false,"i_lat":-6.162021,"i_long":106.788277,"is_transit":false,"line":5,"distance":2036,"time":2,"station_id":"GGL"},{"transit":true,"time":3,"i_long":106.800832,"i_lat":-6.155215,"distance":1700,"station_id":"DU","station_name":"Duri","line":1,"is_transit":true},{"is_transit":true,"station_name":"Tanah Abang","line":1,"transit":true,"distance":3632,"station_id":"THB","time":8,"i_lat":-6.185545,"i_long":106.811091},{"i_long":106.79689,"line":6,"station_name":"Palmerah","time":6,"transit":false,"station_id":"PLM","i_lat":-6.207404,"distance":3191,"is_transit":false},{"i_long":106.780334,"distance":3737,"transit":false,"i_lat":-6.237242,"station_id":"KBY","is_transit":false,"time":7,"station_name":"Kebayoran","line":6},{"line":6,"i_long":106.74273,"station_name":"Pondokranji","i_lat":-6.276362,"time":8,"transit":false,"is_transit":false,"station_id":"PDJ","distance":6218},{"i_long":106.728916,"transit":false,"line":6,"distance":2179,"is_transit":false,"time":3,"station_name":"Jurangmangu","station_id":"JMU","i_lat":-6.288927},{"transit":false,"i_long":106.712277,"station_name":"Sudimara","line":6,"time":4,"distance":1994,"is_transit":false,"station_id":"SDM","i_lat":-6.296963},{"i_lat":-6.314823,"is_transit":false,"line":6,"time":6,"distance":4566,"station_id":"RU","transit":false,"station_name":"Rawa Buntu","i_long":106.675475},{"i_long":106.66566,"line":6,"distance":2413,"station_name":"Serpong","is_transit":false,"i_lat":-6.319871,"transit":false,"station_id":"SRP","time":4},{"transit":false,"is_transit":false,"distance":1784,"station_name":"Cisauk","time":4,"station_id":"CSK","i_lat":-6.32484,"line":0,"i_long":106.640411},{"transit":false,"i_long":106.617853,"line":0,"i_lat":-6.329547,"distance":2519,"time":4,"is_transit":false,"station_name":"Cicayur","station_id":"CC"},{"station_name":"Parung Panjang","line":6,"transit":false,"distance":5968,"i_lat":-6.3441410000000005,"station_id":"PRP","time":8,"is_transit":false,"i_long":106.568863},{"time":9,"station_name":"Cilejit","distance":7025,"station_id":"CJT","i_long":106.508482,"is_transit":false,"i_lat":-6.354349,"line":0,"transit":false},{"transit":false,"station_name":"Daru","station_id":"DAR","distance":2675,"i_long":106.491338,"line":0,"time":6,"is_transit":false,"i_lat":-6.338021},{"station_name":"Tenjo","line":6,"i_lat":-6.327251,"i_long":106.460812,"station_id":"TEJ","transit":false,"time":5,"distance":3902,"is_transit":false},{"i_long":106.425991,"time":5,"is_transit":false,"transit":false,"station_name":"Tigaraksa","station_id":"TGS","line":6,"i_lat":-6.328533,"distance":2974}],[{"station_id":"TTI","time":0,"is_transit":false,"transit":false,"line":5,"i_lat":-6.17331,"i_long":106.64657,"station_name":"Tanah Tinggi","distance":0},{"station_name":"Batuceper","i_lat":-6.171811,"i_long":106.665036,"time":3,"line":0,"is_transit":false,"station_id":"BPR","transit":false,"distance":2028},{"line":5,"distance":1834,"is_transit":false,"transit":false,"i_long":106.679458,"station_id":"PI","time":3,"station_name":"Poris","i_lat":-6.169933},{"station_id":"KDS","transit":false,"distance":2548,"station_name":"Kalideres","i_lat":-6.166068,"line":5,"is_transit":false,"time":3,"i_long":106.701612},{"distance":2504,"station_name":"Rawa Buaya","i_lat":-6.162758,"time":3,"transit":false,"i_long":106.723064,"line":5,"station_id":"RW","is_transit":false},{"i_lat":-6.159876,"distance":1152,"line":0,"station_id":"BOI","transit":false,"i_long":106.737035,"is_transit":false,"time":4,"station_name":"Bojongindah"},{"line":5,"station_id":"TKO","transit":false,"time":2,"i_lat":-6.1587309999999995,"station_name":"Taman Kota","distance":2334,"is_transit":false,"i_long":106.756522},{"station_name":"Pesing","station_id":"PSG","time":2,"i_long":106.771379,"line":5,"i_lat":-6.161433,"distance":1614,"is_transit":false,"transit":false},{"transit":false,"line":5,"distance":2036,"station_id":"GGL","time":2,"station_name":"Grogol","i_long":106.788277,"i_lat":-6.162021,"is_transit":false},{"time":3,"distance":1700,"i_lat":-6.155215,"transit":true,"is_transit":true,"station_name":"Duri","station_id":"DU","line":1,"i_long":106.800832},{"station_id":"AK","station_name":"Angke","distance":1230,"is_transit":false,"time":4,"transit":false,"i_lat":-6.144674,"i_long":106.79867,"line":0},{"time":9,"i_lat":-6.132549,"i_long":106.826365,"station_name":"Kampung Bandan","station_id":"KPB","is_transit":true,"distance":4102,"line":0,"transit":false},{"station_name":"Jakarta Kota","transit":true,"is_transit":true,"station_id":"JAKK","i_lat":-6.137569,"time":3,"line":0,"i_long":106.812439,"distance":1364},{"transit":false,"distance":1264,"i_long":106.820901,"i_lat":-6.141205,"line":7,"station_id":"JAY","station_name":"Jayakarta","is_transit":false,"time":4},{"distance":1080,"line":2,"station_name":"Manggabesar","i_long":106.82482,"is_transit":false,"station_id":"MGB","transit":false,"i_lat":-6.149769,"time":2},{"station_id":"SW","station_name":"Sawah Besar","i_long":106.827103,"i_lat":-6.160725,"distance":906,"line":2,"transit":false,"is_transit":false,"time":2},{"is_transit":false,"station_name":"Juanda","transit":false,"station_id":"JUA","i_long":106.828284,"time":2,"i_lat":-6.166716,"line":2,"distance":1149},{"time":4,"distance":2015,"i_long":106.832183,"is_transit":false,"line":2,"i_lat":-6.186295,"transit":false,"station_id":"GDD","station_name":"Gondangdia"},{"station_id":"CKI","distance":1750,"i_lat":-6.198556,"time":3,"transit":false,"is_transit":false,"station_name":"Cikini","i_long":106.840169,"line":0},{"is_transit":true,"line":0,"transit":true,"time":4,"station_name":"Manggarai","distance":1590,"i_lat":-6.209883,"station_id":"MRI","i_long":106.84912},{"distance":3186,"is_transit":false,"transit":false,"line":1,"time":4,"i_lat":-6.202263,"station_id":"SUD","station_name":"Sudirman","i_long":106.822649},{"time":1,"station_id":"SUDB","station_name":"Sudirman Baru","is_transit":false,"line":1,"transit":false,"distance":280,"i_lat":-6.201433,"i_long":106.819881},{"line":1,"station_name":"Karet","time":1,"i_lat":-6.20132,"transit":false,"i_long":106.816351,"is_transit":false,"distance":471,"station_id":"KAT"},{"is_transit":true,"station_id":"THB","transit":true,"station_name":"Tanah Abang","i_lat":-6.185545,"i_long":106.811091,"distance":2029,"line":1,"time":5},{"station_id":"PLM","i_lat":-6.207404,"line":6,"time":6,"i_long":106.79689,"is_transit":false,"transit":false,"distance":3191,"station_name":"Palmerah"},{"transit":false,"distance":3737,"station_id":"KBY","time":7,"i_long":106.780334,"is_transit":false,"i_lat":-6.237242,"line":6,"station_name":"Kebayoran"},{"is_transit":false,"station_id":"PDJ","distance":6218,"station_name":"Pondokranji","i_long":106.74273,"transit":false,"i_lat":-6.276362,"time":8,"line":6},{"i_lat":-6.288927,"distance":2179,"station_name":"Jurangmangu","is_transit":false,"line":6,"station_id":"JMU","i_long":106.728916,"time":3,"transit":false},{"time":4,"i_lat":-6.296963,"i_long":106.712277,"transit":false,"station_name":"Sudimara","station_id":"SDM","distance":1994,"line":6,"is_transit":false},{"time":6,"is_transit":false,"transit":false,"station_name":"Rawa Buntu","line":6,"distance":4566,"i_lat":-6.314823,"i_long":106.675475,"station_id":"RU"},{"transit":false,"i_lat":-6.319871,"i_long":106.66566,"station_name":"Serpong","is_transit":false,"station_id":"SRP","time":4,"distance":2413,"line":6},{"i_long":106.640411,"station_name":"Cisauk","time":4,"line":0,"is_transit":false,"transit":false,"distance":1784,"i_lat":-6.32484,"station_id":"CSK"},{"transit":false,"time":4,"station_id":"CC","distance":2519,"station_name":"Cicayur","line":0,"i_long":106.617853,"is_transit":false,"i_lat":-6.329547},{"transit":false,"i_long":106.568863,"time":8,"is_transit":false,"station_name":"Parung Panjang","i_lat":-6.3441410000000005,"line":6,"distance":5968,"station_id":"PRP"},{"station_name":"Cilejit","line":0,"is_transit":false,"station_id":"CJT","transit":false,"time":9,"distance":7025,"i_long":106.508482,"i_lat":-6.354349},{"time":6,"station_id":"DAR","i_lat":-6.338021,"station_name":"Daru","line":0,"transit":false,"distance":2675,"is_transit":false,"i_long":106.491338},{"transit":false,"distance":3902,"station_id":"TEJ","i_lat":-6.327251,"i_long":106.460812,"line":6,"station_name":"Tenjo","time":5,"is_transit":false},{"is_transit":false,"transit":false,"time":5,"line":6,"i_lat":-6.328533,"station_id":"TGS","distance":2974,"i_long":106.425991,"station_name":"Tigaraksa"}],[{"time":0,"line":5,"station_name":"Tanah Tinggi","is_transit":false,"distance":0,"station_id":"TTI","i_lat":-6.17331,"i_long":106.64657,"transit":false},{"is_transit":false,"distance":2028,"i_long":106.665036,"station_id":"BPR","i_lat":-6.171811,"time":3,"line":0,"transit":false,"station_name":"Batuceper"},{"i_long":106.679458,"station_name":"Poris","time":3,"station_id":"PI","i_lat":-6.169933,"line":5,"is_transit":false,"transit":false,"distance":1834},{"is_transit":false,"time":3,"transit":false,"i_lat":-6.166068,"distance":2548,"i_long":106.701612,"station_name":"Kalideres","line":5,"station_id":"KDS"},{"station_id":"RW","distance":2504,"station_name":"Rawa Buaya","i_long":106.723064,"line":5,"time":3,"is_transit":false,"transit":false,"i_lat":-6.162758},{"station_id":"BOI","transit":false,"is_transit":false,"distance":1152,"i_lat":-6.159876,"i_long":106.737035,"time":4,"line":0,"station_name":"Bojongindah"},{"time":2,"is_transit":false,"station_id":"TKO","i_lat":-6.1587309999999995,"distance":2334,"station_name":"Taman Kota","i_long":106.756522,"line":5,"transit":false},{"station_name":"Pesing","line":5,"station_id":"PSG","is_transit":false,"distance":1614,"transit":false,"i_lat":-6.161433,"i_long":106.771379,"time":2},{"i_lat":-6.162021,"i_long":106.788277,"station_id":"GGL","is_transit":false,"time":2,"line":5,"transit":false,"distance":2036,"station_name":"Grogol"},{"time":3,"line":1,"station_id":"DU","station_name":"Duri","transit":true,"distance":1700,"i_lat":-6.155215,"i_long":106.800832,"is_transit":true},{"i_long":106.79867,"line":0,"is_transit":false,"station_id":"AK","i_lat":-6.144674,"station_name":"Angke","distance":1230,"transit":false,"time":4},{"station_id":"KPB","distance":4102,"station_name":"Kampung Bandan","is_transit":true,"i_lat":-6.132549,"transit":true,"i_long":106.826365,"time":9,"line":0},{"i_lat":-6.14505,"i_long":106.836569,"line":11,"is_transit":false,"distance":1444,"station_id":"RJW","transit":false,"station_name":"Rajawali","time":3},{"station_name":"Kemayoran","i_long":106.839204,"station_id":"KMO","i_lat":-6.161728,"time":5,"line":11,"transit":false,"is_transit":false,"distance":1901},{"transit":false,"time":4,"distance":1436,"i_lat":-6.174784,"i_long":106.84368,"line":11,"station_name":"Pasar Senen","station_id":"PSE","is_transit":false},{"i_lat":-6.185975,"transit":false,"time":8,"is_transit":false,"i_long":106.850107,"line":11,"distance":1567,"station_id":"GST","station_name":"Gang Sentiong"},{"station_name":"Kramat","line":11,"transit":false,"distance":973,"i_lat":-6.193792,"i_long":106.855437,"time":1,"is_transit":false,"station_id":"KMT"},{"station_name":"Pondok Jati","distance":1829,"line":11,"station_id":"POK","transit":false,"is_transit":false,"i_lat":-6.209188,"i_long":106.861737,"time":2},{"i_long":106.86807400000001,"distance":1236,"station_id":"JNG","station_name":"Jatinegara","line":0,"transit":true,"time":9,"i_lat":-6.215091,"is_transit":true},{"time":2,"distance":1377,"i_long":106.858896,"line":1,"is_transit":false,"i_lat":-6.212485,"station_id":"MTR","station_name":"Matraman","transit":false},{"distance":1275,"transit":false,"time":2,"is_transit":true,"station_id":"MRI","station_name":"Manggarai","i_lat":-6.209883,"i_long":106.84912,"line":0},{"distance":3186,"time":4,"is_transit":false,"line":1,"i_long":106.822649,"station_name":"Sudirman","station_id":"SUD","i_lat":-6.202263,"transit":false},{"distance":280,"line":1,"transit":false,"station_name":"Sudirman Baru","is_transit":false,"time":1,"i_lat":-6.201433,"station_id":"SUDB","i_long":106.819881},{"time":1,"station_id":"KAT","distance":471,"station_name":"Karet","i_lat":-6.20132,"transit":false,"line":1,"is_transit":false,"i_long":106.816351},{"distance":2029,"is_transit":true,"transit":true,"time":5,"i_long":106.811091,"line":1,"i_lat":-6.185545,"station_name":"Tanah Abang","station_id":"THB"},{"station_id":"PLM","station_name":"Palmerah","time":6,"i_long":106.79689,"transit":false,"distance":3191,"i_lat":-6.207404,"is_transit":false,"line":6},{"distance":3737,"is_transit":false,"i_lat":-6.237242,"time":7,"line":6,"i_long":106.780334,"station_id":"KBY","station_name":"Kebayoran","transit":false},{"time":8,"is_transit":false,"station_id":"PDJ","distance":6218,"transit":false,"i_long":106.74273,"line":6,"i_lat":-6.276362,"station_name":"Pondokranji"},{"station_name":"Jurangmangu","is_transit":false,"station_id":"JMU","i_long":106.728916,"time":3,"i_lat":-6.288927,"line":6,"distance":2179,"transit":false},{"i_long":106.712277,"station_id":"SDM","station_name":"Sudimara","line":6,"time":4,"transit":false,"is_transit":false,"i_lat":-6.296963,"distance":1994},{"station_id":"RU","time":6,"transit":false,"is_transit":false,"i_long":106.675475,"station_name":"Rawa Buntu","line":6,"i_lat":-6.314823,"distance":4566},{"station_id":"SRP","is_transit":false,"line":6,"i_long":106.66566,"time":4,"transit":false,"distance":2413,"station_name":"Serpong","i_lat":-6.319871},{"time":4,"distance":1784,"is_transit":false,"station_name":"Cisauk","i_lat":-6.32484,"transit":false,"i_long":106.640411,"line":0,"station_id":"CSK"},{"i_long":106.617853,"distance":2519,"station_name":"Cicayur","i_lat":-6.329547,"line":0,"is_transit":false,"time":4,"transit":false,"station_id":"CC"},{"is_transit":false,"station_id":"PRP","transit":false,"i_lat":-6.3441410000000005,"time":8,"distance":5968,"station_name":"Parung Panjang","i_long":106.568863,"line":6},{"transit":false,"is_transit":false,"station_name":"Cilejit","line":0,"time":9,"distance":7025,"i_long":106.508482,"station_id":"CJT","i_lat":-6.354349},{"distance":2675,"station_name":"Daru","transit":false,"time":6,"i_lat":-6.338021,"is_transit":false,"station_id":"DAR","i_long":106.491338,"line":0},{"station_name":"Tenjo","station_id":"TEJ","transit":false,"line":6,"distance":3902,"time":5,"i_lat":-6.327251,"i_long":106.460812,"is_transit":false},{"distance":2974,"station_id":"TGS","time":5,"i_lat":-6.328533,"is_transit":false,"line":6,"transit":false,"i_long":106.425991,"station_name":"Tigaraksa"}]]}