{"data":[[{"is_transit":false,"i_long":106.64657,"line":5,"i_lat":-6.17331,"distance":0,"transit":false,"time":0,"station_name":"Tanah Tinggi","station_id":"TTI"},{"distance":2028,"line":5,"station_id":"BPR","is_transit":false,"transit":false,"station_name":"Batuceper","i_long":106.665036,"time":3,"i_lat":-6.171811},{"is_transit":false,"transit":false,"time":3,"station_id":"PI","station_name":"Poris","i_long":106.679458,"distance":1834,"line":5,"i_lat":-6.169933},{"station_name":"Kalideres","transit":false,"i_long":106.701612,"is_transit":false,"station_id":"KDS","i_lat":-6.166068,"time":3,"line":5,"distance":2548},{"station_name":"Rawa Buaya","time":3,"station_id":"RW","i_lat":-6.162758,"is_transit":false,"i_long":106.723064,"transit":false,"line":5,"distance":2504},{"is_transit":false,"time":4,"line":5,"transit":false,"distance":1152,"i_lat":-6.159876,"station_id":"BOI","i_long":106.737035,"station_name":"Bojongindah"},{"station_id":"TKO","i_long":106.756522,"line":5,"station_name":"Taman Kota","distance":2334,"is_transit":false,"i_lat":-6.1587309999999995,"transit":false,"time":2},{"time":2,"station_id":"PSG","transit":false,"distance":1614,"i_lat":-6.161433,"i_long":106.771379,"station_name":"Pesing","line":5,"is_transit":false},{"station_name":"Grogol","i_long":106.788277,"transit":false,"is_transit":false,"time":2,"distance":2036,"i_lat":-6.162021,"station_id":"GGL","line":5},{"time":3,"transit":true,"i_lat":-6.155215,"line":1,"station_id":"DU","distance":1700,"station_name":"Duri","is_transit":true,"i_long":106.800832},{"distance":3632,"i_long":106.811091,"time":8,"transit":false,"line":1,"station_id":"THB","station_name":"Tanah Abang","is_transit":false,"i_lat":-6.185545},{"distance":2029,"transit":false,"i_long":106.816351,"is_transit":false,"line":1,"station_name":"Karet","station_id":"KAT","time":5,"i_lat":-6.20132},{"is_transit":false,"distance":471,"i_long":106.819881,"station_name":"Sudirman Baru","time":1,"transit":false,"i_lat":-6.201433,"line":1,"station_id":"SUDB"},{"distance":280,"i_lat":-6.202263,"time":1,"i_long":106.822649,"line":1,"is_transit":false,"transit":false,"station_name":"Sudirman","station_id":"SUD"},{"i_lat":-6.209883,"transit":true,"is_transit":true,"distance":3186,"i_long":106.84912,"station_id":"MRI","station_name":"Manggarai","line":2,"time":4},{"transit":false,"station_name":"Tebet","time":4,"is_transit":false,"distance":2610,"i_lat":-6.226659,"i_long":106.857948,"line":2,"station_id":"TEB"},{"time":2,"station_name":"Cawang","distance":1230,"i_lat":-6.242512,"i_long":106.856607,"station_id":"CW","line":2,"transit":false,"is_transit":false},{"i_lat":-6.255332,"transit":false,"station_id":"DRN","station_name":"Duren Kalibata","is_transit":false,"i_long":106.85449,"line":2,"time":3,"distance":1546},{"station_name":"Pasar Minggu Baru","is_transit":false,"distance":824,"time":2,"i_lat":-6.263214,"i_long":106.851577,"transit":false,"station_id":"PSMB","line":2}],[{"distance":0,"line":5,"time":0,"transit":false,"is_transit":false,"station_name":"Tanah Tinggi","station_id":"TTI","i_long":106.64657,"i_lat":-6.17331},{"time":3,"distance":2028,"i_long":106.665036,"i_lat":-6.171811,"station_name":"Batuceper","is_transit":false,"transit":false,"station_id":"BPR","line":5},{"station_id":"PI","i_long":106.679458,"is_transit":false,"distance":1834,"time":3,"i_lat":-6.169933,"line":5,"station_name":"Poris","transit":false},{"line":5,"transit":false,"station_name":"Kalideres","time":3,"is_transit":false,"i_long":106.701612,"i_lat":-6.166068,"station_id":"KDS","distance":2548},{"station_id":"RW","station_name":"Rawa Buaya","is_transit":false,"i_long":106.723064,"i_lat":-6.162758,"line":5,"distance":2504,"time":3,"transit":false},{"is_transit":false,"i_long":106.737035,"distance":1152,"i_lat":-6.159876,"station_name":"Bojongindah","time":4,"transit":false,"station_id":"BOI","line":5},{"station_name":"Taman Kota","distance":2334,"line":5,"station_id":"TKO","time":2,"is_transit":false,"i_lat":-6.1587309999999995,"i_long":106.756522,"transit":false},{"station_id":"PSG","i_long":106.771379,"time":2,"distance":1614,"transit":false,"station_name":"Pesing","is_transit":false,"i_lat":-6.161433,"line":5},{"is_transit":false,"distance":2036,"station_name":"Grogol","i_lat":-6.162021,"line":5,"station_id":"GGL","transit":false,"time":2,"i_long":106.788277},{"distance":1700,"line":1,"transit":true,"station_name":"Duri","i_lat":-6.155215,"is_transit":true,"i_long":106.800832,"time":3,"station_id":"DU"},{"line":1,"is_transit":false,"station_name":"Angke","distance":1230,"time":4,"i_long":106.79867,"i_lat":-6.144674,"transit":false,"station_id":"AK"},{"time":9,"transit":true,"is_transit":true,"station_name":"Kampung Bandan","distance":4102,"i_lat":-6.132549,"i_long":106.826365,"station_id":"KPB","line":4},{"time":3,"i_lat":-6.137569,"station_id":"JAKK","transit":true,"is_transit":true,"distance":1364,"i_long":106.812439,"line":2,"station_name":"Jakarta Kota"},{"i_long":106.820901,"line":2,"distance":1264,"is_transit":false,"station_name":"Jayakarta","transit":false,"station_id":"JAY","time":4,"i_lat":-6.141205},{"i_long":106.82482,"line":2,"i_lat":-6.149769,"time":2,"station_id":"MGB","is_transit":false,"distance":1080,"transit":false,"station_name":"Manggabesar"},{"station_id":"SW","i_lat":-6.160725,"is_transit":false,"distance":906,"time":2,"line":2,"transit":false,"station_name":"Sawah Besar","i_long":106.827103},{"station_name":"Juanda","is_transit":false,"i_long":106.828284,"line":2,"time":2,"i_lat":-6.166716,"transit":false,"station_id":"JUA","distance":1149},{"station_id":"GDD","i_long":106.832183,"i_lat":-6.186295,"is_transit":false,"distance":2015,"transit":false,"time":4,"line":2,"station_name":"Gondangdia"},{"line":2,"station_name":"Cikini","transit":false,"i_long":106.840169,"time":3,"station_id":"CKI","is_transit":false,"i_lat":-6.198556,"distance":1750},{"station_name":"Manggarai","station_id":"MRI","time":4,"transit":false,"is_transit":false,"i_lat":-6.209883,"i_long":106.84912,"line":2,"distance":1590},{"distance":2610,"time":4,"is_transit":false,"station_name":"Tebet","station_id":"TEB","line":2,"i_lat":-6.226659,"i_long":106.857948,"transit":false},{"station_name":"Cawang","i_lat":-6.242512,"is_transit":false,"transit":false,"distance":1230,"i_long":106.856607,"line":2,"station_id":"CW","time":2},{"distance":1546,"i_lat":-6.255332,"transit":false,"i_long":106.85449,"line":2,"is_transit":false,"time":3,"station_name":"Duren Kalibata","station_id":"DRN"},{"i_lat":-6.263214,"distance":824,"is_transit":false,"i_long":106.851577,"station_id":"PSMB","time":2,"station_name":"Pasar Minggu Baru","transit":false,"line":2}],[{"i_long":106.64657,"time":0,"i_lat":-6.17331,"line":5,"station_name":"Tanah Tinggi","station_id":"TTI","distance":0,"transit":false,"is_transit":false},{"line":5,"station_id":"BPR","station_name":"Batuceper","is_transit":false,"i_long":106.665036,"distance":2028,"i_lat":-6.171811,"transit":false,"time":3},{"time":3,"i_lat":-6.169933,"transit":false,"i_long":106.679458,"line":5,"distance":1834,"is_transit":false,"station_id":"PI","station_name":"Poris"},{"i_lat":-6.166068,"station_name":"Kalideres","distance":2548,"transit":false,"line":5,"station_id":"KDS","time":3,"is_transit":false,"i_long":106.701612},{"distance":2504,"i_long":106.723064,"station_name":"Rawa Buaya","is_transit":false,"transit":false,"time":3,"i_lat":-6.162758,"line":5,"station_id":"RW"},{"transit":false,"is_transit":false,"station_name":"Bojongindah","line":5,"time":4,"distance":1152,"i_lat":-6.159876,"station_id":"BOI","i_long":106.737035},{"i_long":106.756522,"time":2,"distance":2334,"line":5,"is_transit":false,"transit":false,"station_name":"Taman Kota","station_id":"TKO","i_lat":-6.1587309999999995},{"time":2,"station_name":"Pesing","distance":1614,"i_long":106.771379,"line":5,"i_lat":-6.161433,"transit":false,"station_id":"PSG","is_transit":false},{"i_lat":-6.162021,"line":5,"station_id":"GGL","is_transit":false,"i_long":106.788277,"time":2,"station_name":"Grogol","distance":2036,"transit":false},{"station_name":"Duri","time":3,"station_id":"DU","distance":1700,"is_transit":true,"i_lat":-6.155215,"transit":true,"i_long":106.800832,"line":1},{"station_name":"Angke","i_lat":-6.144674,"line":1,"distance":1230,"is_transit":false,"station_id":"AK","i_long":106.79867,"transit":false,"time":4},{"i_lat":-6.132549,"is_transit":true,"i_long":106.826365,"line":4,"transit":true,"distance":4102,"station_name":"Kampung Bandan","time":9,"station_id":"KPB"},{"i_lat":-6.14505,"line":11,"transit":false,"station_id":"RJW","station_name":"Rajawali","is_transit":false,"time":3,"distance":1444,"i_long":106.836569},{"station_name":"Kemayoran","distance":1901,"i_lat":-6.161728,"is_transit":false,"time":5,"line":11,"station_id":"KMO","i_long":106.839204,"transit":false},{"station_id":"PSE","distance":1436,"i_long":106.84368,"line":11,"time":4,"i_lat":-6.174784,"transit":false,"station_name":"Pasar Senen","is_transit":false},{"transit":false,"is_transit":false,"i_lat":-6.185975,"line":11,"station_name":"Gang Sentiong","i_long":106.850107,"time":8,"station_id":"GST","distance":1567},{"transit":false,"station_name":"Kramat","is_transit":false,"distance":973,"station_id":"KMT","i_lat":-6.193792,"line":11,"time":1,"i_long":106.855437},{"distance":1829,"station_name":"Pondok Jati","is_transit":false,"station_id":"POK","i_long":106.861737,"transit":false,"line":11,"i_lat":-6.209188,"time":2},{"station_id":"JNG","station_name":"Jatinegara","transit":true,"is_transit":true,"time":9,"i_long":106.86807400000001,"line":1,"distance":1236,"i_lat":-6.215091},{"time":2,"transit":false,"i_lat":-6.212485,"distance":1377,"station_id":"MTR","is_transit":false,"i_long":106.858896,"line":1,"station_name":"Matraman"},{"i_long":106.84912,"is_transit":true,"i_lat":-6.209883,"transit":true,"station_name":"Manggarai","distance":1275,"line":2,"station_id":"MRI","time":2},{"i_long":106.857948,"distance":2610,"line":2,"time":4,"station_name":"Tebet","station_id":"TEB","is_transit":false,"i_lat":-6.226659,"transit":false},{"time":2,"station_name":"Cawang","i_lat":-6.242512,"i_long":106.856607,"line":2,"distance":1230,"transit":false,"station_id":"CW","is_transit":false},{"station_id":"DRN","station_name":"Duren Kalibata","i_lat":-6.255332,"distance":1546,"i_long":106.85449,"line":2,"time":3,"transit":false,"is_transit":false},{"i_lat":-6.263214,"line":2,"station_name":"Pasar Minggu Baru","time":2,"distance":824,"station_id":"PSMB","transit":false,"is_transit":false,"i_long":106.851577}]]}