{"data":[[{"i_long":106.64657,"time":0,"transit":false,"station_id":"TTI","station_name":"Tanah Tinggi","i_lat":-6.17331,"line":5,"distance":0,"is_transit":false},{"is_transit":false,"transit":false,"station_name":"Batuceper","line":5,"distance":2028,"i_lat":-6.171811,"i_long":106.665036,"time":3,"station_id":"BPR"},{"i_long":106.679458,"distance":1834,"time":3,"station_name":"Poris","station_id":"PI","line":5,"is_transit":false,"transit":false,"i_lat":-6.169933},{"time":3,"is_transit":false,"distance":2548,"line":5,"i_long":106.701612,"station_name":"Kalideres","transit":false,"i_lat":-6.166068,"station_id":"KDS"},{"line":5,"station_id":"RW","distance":2504,"is_transit":false,"transit":false,"station_name":"Rawa Buaya","i_lat":-6.162758,"time":3,"i_long":106.723064},{"distance":1152,"i_lat":-6.159876,"is_transit":false,"station_id":"BOI","time":4,"i_long":106.737035,"transit":false,"station_name":"Bojongindah","line":5},{"station_id":"TKO","station_name":"Taman Kota","line":5,"time":2,"is_transit":false,"distance":2334,"transit":false,"i_long":106.756522,"i_lat":-6.1587309999999995},{"station_name":"Pesing","i_lat":-6.161433,"station_id":"PSG","line":5,"transit":false,"is_transit":false,"i_long":106.771379,"time":2,"distance":1614},{"distance":2036,"is_transit":false,"time":2,"station_name":"Grogol","line":5,"i_lat":-6.162021,"station_id":"GGL","transit":false,"i_long":106.788277},{"transit":true,"time":3,"station_id":"DU","distance":1700,"is_transit":true,"i_lat":-6.155215,"i_long":106.800832,"line":1,"station_name":"Duri"},{"transit":false,"line":1,"station_id":"AK","station_name":"Angke","i_long":106.79867,"time":4,"i_lat":-6.144674,"is_transit":false,"distance":1230},{"time":9,"i_long":106.826365,"line":4,"station_id":"KPB","distance":4102,"is_transit":true,"transit":true,"station_name":"Kampung Bandan","i_lat":-6.132549},{"distance":1364,"time":3,"transit":true,"station_name":"Jakarta Kota","station_id":"JAKK","line":2,"is_transit":true,"i_long":106.812439,"i_lat":-6.137569},{"i_long":106.820901,"transit":false,"is_transit":false,"distance":1264,"time":4,"station_id":"JAY","i_lat":-6.141205,"station_name":"Jayakarta","line":2}],[{"distance":0,"i_lat":-6.17331,"is_transit":false,"i_long":106.64657,"station_id":"TTI","time":0,"line":5,"station_name":"Tanah Tinggi","transit":false},{"transit":false,"i_long":106.665036,"line":5,"i_lat":-6.171811,"time":3,"station_id":"BPR","is_transit":false,"station_name":"Batuceper","distance":2028},{"line":5,"time":3,"is_transit":false,"station_id":"PI","i_lat":-6.169933,"distance":1834,"transit":false,"i_long":106.679458,"station_name":"Poris"},{"transit":false,"i_lat":-6.166068,"i_long":106.701612,"distance":2548,"time":3,"station_name":"Kalideres","line":5,"station_id":"KDS","is_transit":false},{"line":5,"station_name":"Rawa Buaya","i_long":106.723064,"is_transit":false,"distance":2504,"i_lat":-6.162758,"station_id":"RW","time":3,"transit":false},{"transit":false,"line":5,"i_lat":-6.159876,"distance":1152,"station_name":"Bojongindah","time":4,"i_long":106.737035,"station_id":"BOI","is_transit":false},{"line":5,"distance":2334,"station_id":"TKO","is_transit":false,"time":2,"station_name":"Taman Kota","i_long":106.756522,"transit":false,"i_lat":-6.1587309999999995},{"station_id":"PSG","is_transit":false,"station_name":"Pesing","i_lat":-6.161433,"i_long":106.771379,"distance":1614,"line":5,"transit":false,"time":2},{"distance":2036,"time":2,"i_lat":-6.162021,"i_long":106.788277,"transit":false,"line":5,"is_transit":false,"station_name":"Grogol","station_id":"GGL"},{"distance":1700,"station_name":"Duri","is_transit":true,"i_lat":-6.155215,"station_id":"DU","transit":true,"i_long":106.800832,"time":3,"line":1},{"station_id":"THB","transit":false,"time":8,"distance":3632,"station_name":"Tanah Abang","is_transit":false,"i_lat":-6.185545,"i_long":106.811091,"line":1},{"transit":false,"line":1,"distance":2029,"i_long":106.816351,"i_lat":-6.20132,"time":5,"station_name":"Karet","is_transit":false,"station_id":"KAT"},{"station_name":"Sudirman Baru","time":1,"i_long":106.819881,"distance":471,"station_id":"SUDB","line":1,"i_lat":-6.201433,"is_transit":false,"transit":false},{"time":1,"distance":280,"station_id":"SUD","transit":false,"line":1,"i_lat":-6.202263,"station_name":"Sudirman","is_transit":false,"i_long":106.822649},{"time":4,"i_long":106.84912,"station_id":"MRI","distance":3186,"transit":true,"station_name":"Manggarai","line":2,"is_transit":true,"i_lat":-6.209883},{"is_transit":false,"station_name":"Cikini","i_long":106.840169,"i_lat":-6.198556,"line":2,"transit":false,"distance":1590,"time":4,"station_id":"CKI"},{"line":2,"station_name":"Gondangdia","distance":1750,"time":3,"i_long":106.832183,"station_id":"GDD","transit":false,"is_transit":false,"i_lat":-6.186295},{"transit":false,"station_name":"Juanda","i_long":106.828284,"distance":2015,"line":2,"time":4,"station_id":"JUA","is_transit":false,"i_lat":-6.166716},{"distance":1149,"station_name":"Sawah Besar","i_lat":-6.160725,"line":2,"transit":false,"time":2,"station_id":"SW","is_transit":false,"i_long":106.827103},{"transit":false,"i_long":106.82482,"is_transit":false,"station_name":"Manggabesar","time":2,"station_id":"MGB","distance":906,"line":2,"i_lat":-6.149769},{"distance":1080,"transit":false,"time":2,"station_id":"JAY","is_transit":false,"i_lat":-6.141205,"station_name":"Jayakarta","i_long":106.820901,"line":2}],[{"distance":0,"is_transit":false,"i_lat":-6.17331,"station_name":"Tanah Tinggi","i_long":106.64657,"line":5,"station_id":"TTI","transit":false,"time":0},{"station_id":"BPR","is_transit":false,"line":5,"i_lat":-6.171811,"transit":false,"time":3,"i_long":106.665036,"station_name":"Batuceper","distance":2028},{"is_transit":false,"station_id":"PI","transit":false,"time":3,"station_name":"Poris","distance":1834,"line":5,"i_lat":-6.169933,"i_long":106.679458},{"station_id":"KDS","transit":false,"station_name":"Kalideres","time":3,"is_transit":false,"distance":2548,"i_long":106.701612,"line":5,"i_lat":-6.166068},{"line":5,"time":3,"i_long":106.723064,"transit":false,"distance":2504,"is_transit":false,"i_lat":-6.162758,"station_id":"RW","station_name":"Rawa Buaya"},{"station_id":"BOI","line":5,"i_long":106.737035,"is_transit":false,"time":4,"station_name":"Bojongindah","distance":1152,"transit":false,"i_lat":-6.159876},{"station_id":"TKO","transit":false,"is_transit":false,"time":2,"i_lat":-6.1587309999999995,"line":5,"station_name":"Taman Kota","distance":2334,"i_long":106.756522},{"is_transit":false,"i_lat":-6.161433,"line":5,"time":2,"station_name":"Pesing","i_long":106.771379,"distance":1614,"transit":false,"station_id":"PSG"},{"transit":false,"station_id":"GGL","distance":2036,"line":5,"i_lat":-6.162021,"is_transit":false,"station_name":"Grogol","time":2,"i_long":106.788277},{"distance":1700,"i_lat":-6.155215,"station_id":"DU","is_transit":true,"transit":true,"station_name":"Duri","i_long":106.800832,"time":3,"line":1},{"i_lat":-6.185545,"i_long":106.811091,"is_transit":false,"transit":false,"station_id":"THB","station_name":"Tanah Abang","line":1,"time":8,"distance":3632},{"is_transit":false,"i_long":106.816351,"station_name":"Karet","transit":false,"time":5,"line":1,"station_id":"KAT","i_lat":-6.20132,"distance":2029},{"distance":471,"is_transit":false,"station_id":"SUDB","line":1,"i_long":106.819881,"i_lat":-6.201433,"time":1,"station_name":"Sudirman Baru","transit":false},{"station_name":"Sudirman","station_id":"SUD","distance":280,"i_long":106.822649,"is_transit":false,"time":1,"transit":false,"i_lat":-6.202263,"line":1},{"time":4,"distance":3186,"i_long":106.84912,"line":2,"station_id":"MRI","transit":false,"is_transit":false,"i_lat":-6.209883,"station_name":"Manggarai"},{"i_long":106.858896,"station_id":"MTR","is_transit":false,"line":1,"station_name":"Matraman","time":2,"i_lat":-6.212485,"transit":false,"distance":1275},{"distance":1377,"station_id":"JNG","transit":true,"line":1,"i_lat":-6.215091,"station_name":"Jatinegara","time":8,"i_long":106.86807400000001,"is_transit":true},{"transit":false,"distance":1236,"line":11,"station_id":"POK","time":2,"is_transit":false,"i_long":106.861737,"i_lat":-6.209188,"station_name":"Pondok Jati"},{"time":2,"distance":1829,"station_id":"KMT","is_transit":false,"i_long":106.855437,"transit":false,"i_lat":-6.193792,"line":11,"station_name":"Kramat"},{"i_lat":-6.185975,"station_name":"Gang Sentiong","is_transit":false,"distance":973,"line":11,"i_long":106.850107,"time":1,"station_id":"GST","transit":false},{"station_name":"Pasar Senen","station_id":"PSE","time":8,"line":11,"distance":1567,"is_transit":false,"i_lat":-6.174784,"i_long":106.84368,"transit":false},{"i_lat":-6.161728,"is_transit":false,"transit":false,"station_name":"Kemayoran","time":4,"station_id":"KMO","i_long":106.839204,"line":11,"distance":1436},{"line":11,"transit":false,"is_transit":false,"station_name":"Rajawali","station_id":"RJW","time":5,"i_long":106.836569,"distance":1901,"i_lat":-6.14505},{"distance":1444,"is_transit":true,"i_lat":-6.132549,"i_long":106.826365,"transit":true,"station_id":"KPB","line":4,"station_name":"Kampung Bandan","time":3},{"is_transit":true,"transit":true,"line":2,"station_name":"Jakarta Kota","time":3,"i_long":106.812439,"i_lat":-6.137569,"station_id":"JAKK","distance":1364},{"time":4,"i_long":106.820901,"transit":false,"i_lat":-6.141205,"distance":1264,"station_name":"Jayakarta","is_transit":false,"line":2,"station_id":"JAY"}],[{"i_lat":-6.17331,"station_id":"TTI","line":5,"distance":0,"station_name":"Tanah Tinggi","is_transit":false,"i_long":106.64657,"transit":false,"time":0},{"station_name":"Batuceper","i_long":106.665036,"is_transit":false,"i_lat":-6.171811,"distance":2028,"line":5,"station_id":"BPR","time":3,"transit":false},{"station_id":"PI","time":3,"is_transit":false,"line":5,"i_lat":-6.169933,"transit":false,"i_long":106.679458,"distance":1834,"station_name":"Poris"},{"line":5,"station_name":"Kalideres","i_long":106.701612,"time":3,"transit":false,"is_transit":false,"station_id":"KDS","distance":2548,"i_lat":-6.166068},{"time":3,"i_long":106.723064,"station_id":"RW","i_lat":-6.162758,"station_name":"Rawa Buaya","line":5,"is_transit":false,"transit":false,"distance":2504},{"station_name":"Bojongindah","i_lat":-6.159876,"station_id":"BOI","time":4,"transit":false,"i_long":106.737035,"line":5,"distance":1152,"is_transit":false},{"station_name":"Taman Kota","line":5,"distance":2334,"i_long":106.756522,"i_lat":-6.1587309999999995,"time":2,"transit":false,"is_transit":false,"station_id":"TKO"},{"line":5,"time":2,"is_transit":false,"station_name":"Pesing","distance":1614,"transit":false,"i_long":106.771379,"station_id":"PSG","i_lat":-6.161433},{"station_id":"GGL","i_lat":-6.162021,"is_transit":false,"time":2,"transit":false,"line":5,"distance":2036,"i_long":106.788277,"station_name":"Grogol"},{"i_lat":-6.155215,"i_long":106.800832,"is_transit":true,"distance":1700,"line":1,"station_id":"DU","transit":true,"time":3,"station_name":"Duri"},{"is_transit":false,"station_id":"AK","time":4,"transit":false,"distance":1230,"station_name":"Angke","i_lat":-6.144674,"i_long":106.79867,"line":1},{"time":9,"transit":true,"distance":4102,"station_id":"KPB","i_lat":-6.132549,"station_name":"Kampung Bandan","line":4,"i_long":106.826365,"is_transit":true},{"is_transit":false,"station_id":"RJW","station_name":"Rajawali","distance":1444,"i_lat":-6.14505,"i_long":106.836569,"time":3,"transit":false,"line":11},{"i_long":106.839204,"distance":1901,"station_name":"Kemayoran","station_id":"KMO","time":5,"transit":false,"is_transit":false,"i_lat":-6.161728,"line":11},{"station_name":"Pasar Senen","distance":1436,"transit":false,"time":4,"i_lat":-6.174784,"line":11,"station_id":"PSE","i_long":106.84368,"is_transit":false},{"is_transit":false,"distance":1567,"i_long":106.850107,"station_name":"Gang Sentiong","line":11,"station_id":"GST","i_lat":-6.185975,"transit":false,"time":8},{"line":11,"i_lat":-6.193792,"is_transit":false,"station_name":"Kramat","transit":false,"time":1,"distance":973,"station_id":"KMT","i_long":106.855437},{"is_transit":false,"distance":1829,"transit":false,"time":2,"i_lat":-6.209188,"station_id":"POK","station_name":"Pondok Jati","i_long":106.861737,"line":11},{"transit":true,"station_name":"Jatinegara","distance":1236,"line":1,"is_transit":true,"time":9,"station_id":"JNG","i_long":106.86807400000001,"i_lat":-6.215091},{"station_name":"Matraman","time":2,"i_long":106.858896,"line":1,"distance":1377,"is_transit":false,"i_lat":-6.212485,"transit":false,"station_id":"MTR"},{"station_id":"MRI","transit":true,"is_transit":true,"i_long":106.84912,"line":2,"distance":1275,"time":2,"i_lat":-6.209883,"station_name":"Manggarai"},{"transit":false,"station_name":"Cikini","station_id":"CKI","i_lat":-6.198556,"distance":1590,"is_transit":false,"time":4,"i_long":106.840169,"line":2},{"station_id":"GDD","is_transit":false,"i_lat":-6.186295,"line":2,"time":3,"station_name":"Gondangdia","distance":1750,"i_long":106.832183,"transit":false},{"i_long":106.828284,"i_lat":-6.166716,"time":4,"is_transit":false,"station_id":"JUA","station_name":"Juanda","distance":2015,"transit":false,"line":2},{"i_long":106.827103,"line":2,"i_lat":-6.160725,"station_id":"SW","transit":false,"distance":1149,"is_transit":false,"time":2,"station_name":"Sawah Besar"},{"transit":false,"distance":906,"i_long":106.82482,"station_id":"MGB","is_transit":false,"station_name":"Manggabesar","i_lat":-6.149769,"line":2,"time":2},{"station_name":"Jayakarta","i_lat":-6.141205,"i_long":106.820901,"is_transit":false,"station_id":"JAY","transit":false,"time":2,"distance":1080,"line":2}]]}