{"data":[[{"station_name":"Tanah Tinggi","is_transit":false,"distance":0,"i_long":106.64657,"station_id":"TTI","line":5,"i_lat":-6.17331,"time":0,"transit":false},{"line":5,"time":3,"station_name":"Batuceper","i_lat":-6.171811,"distance":2028,"is_transit":false,"transit":false,"station_id":"BPR","i_long":106.665036},{"station_name":"Poris","transit":false,"time":3,"is_transit":false,"station_id":"PI","i_long":106.679458,"line":5,"distance":1834,"i_lat":-6.169933},{"distance":2548,"time":3,"i_long":106.701612,"station_id":"KDS","is_transit":false,"transit":false,"line":5,"i_lat":-6.166068,"station_name":"Kalideres"},{"time":3,"distance":2504,"is_transit":false,"station_name":"Rawa Buaya","i_lat":-6.162758,"i_long":106.723064,"transit":false,"station_id":"RW","line":5},{"station_name":"Bojongindah","line":5,"i_long":106.737035,"transit":false,"time":4,"distance":1152,"is_transit":false,"station_id":"BOI","i_lat":-6.159876},{"is_transit":false,"i_lat":-6.1587309999999995,"line":5,"distance":2334,"station_id":"TKO","station_name":"Taman Kota","transit":false,"i_long":106.756522,"time":2},{"line":5,"distance":1614,"is_transit":false,"transit":false,"i_lat":-6.161433,"station_name":"Pesing","time":2,"i_long":106.771379,"station_id":"PSG"},{"station_id":"GRG","station_name":"Grogol","transit":false,"time":2,"distance":2036,"i_lat":-6.162021,"is_transit":false,"line":5,"i_long":106.788277},{"i_lat":-6.155215,"line":1,"time":3,"i_long":106.800832,"distance":1700,"station_name":"Duri","is_transit":true,"transit":true,"station_id":"DU"},{"distance":3632,"time":8,"station_id":"THB","is_transit":false,"i_lat":-6.185545,"i_long":106.811091,"line":1,"transit":false,"station_name":"Tanah Abang"},{"is_transit":false,"i_long":106.816351,"distance":2029,"station_id":"KAT","transit":false,"i_lat":-6.20132,"station_name":"Karet","line":1,"time":5}],[{"distance":0,"station_name":"Tanah Tinggi","is_transit":false,"transit":false,"station_id":"TTI","i_lat":-6.17331,"time":0,"i_long":106.64657,"line":5},{"is_transit":false,"station_id":"BPR","i_lat":-6.171811,"i_long":106.665036,"station_name":"Batuceper","line":5,"time":3,"transit":false,"distance":2028},{"i_long":106.679458,"line":5,"time":3,"station_id":"PI","i_lat":-6.169933,"station_name":"Poris","transit":false,"is_transit":false,"distance":1834},{"distance":2548,"time":3,"is_transit":false,"i_lat":-6.166068,"i_long":106.701612,"line":5,"station_id":"KDS","transit":false,"station_name":"Kalideres"},{"distance":2504,"transit":false,"i_long":106.723064,"is_transit":false,"line":5,"station_name":"Rawa Buaya","i_lat":-6.162758,"time":3,"station_id":"RW"},{"i_long":106.737035,"line":5,"transit":false,"station_name":"Bojongindah","time":4,"i_lat":-6.159876,"station_id":"BOI","distance":1152,"is_transit":false},{"i_lat":-6.1587309999999995,"station_id":"TKO","i_long":106.756522,"transit":false,"is_transit":false,"time":2,"distance":2334,"line":5,"station_name":"Taman Kota"},{"station_name":"Pesing","transit":false,"line":5,"station_id":"PSG","is_transit":false,"i_lat":-6.161433,"i_long":106.771379,"time":2,"distance":1614},{"is_transit":false,"station_id":"GRG","station_name":"Grogol","time":2,"distance":2036,"i_lat":-6.162021,"transit":false,"i_long":106.788277,"line":5},{"distance":1700,"station_name":"Duri","transit":true,"i_long":106.800832,"is_transit":true,"time":3,"line":1,"i_lat":-6.155215,"station_id":"DU"},{"station_id":"AK","station_name":"Angke","is_transit":false,"i_long":106.79867,"distance":1230,"transit":false,"line":1,"time":4,"i_lat":-6.144674},{"i_long":106.826365,"i_lat":-6.132549,"distance":4102,"station_id":"KPB","is_transit":true,"station_name":"Kampung Bandan","transit":true,"line":4,"time":9},{"transit":true,"station_name":"Jakarta Kota","line":2,"station_id":"JAKK","i_long":106.812439,"is_transit":true,"i_lat":-6.137569,"distance":1364,"time":3},{"i_lat":-6.141205,"station_name":"Jayakarta","line":2,"distance":1264,"is_transit":false,"transit":false,"i_long":106.820901,"station_id":"JAY","time":4},{"is_transit":false,"i_long":106.82482,"transit":false,"station_id":"MGB","i_lat":-6.149769,"distance":1080,"time":2,"station_name":"Manggabesar","line":2},{"i_lat":-6.160725,"station_id":"SW","line":2,"station_name":"Sawah Besar","is_transit":false,"i_long":106.827103,"distance":906,"time":2,"transit":false},{"time":2,"is_transit":false,"line":2,"i_lat":-6.166716,"station_name":"Juanda","transit":false,"station_id":"JUA","distance":1149,"i_long":106.828284},{"is_transit":false,"distance":2015,"line":2,"station_name":"Gondangdia","transit":false,"time":4,"i_long":106.832183,"i_lat":-6.186295,"station_id":"GDD"},{"station_name":"Cikini","i_long":106.840169,"time":3,"transit":false,"distance":1750,"is_transit":false,"station_id":"CKI","i_lat":-6.198556,"line":2},{"i_lat":-6.209883,"station_name":"Manggarai","time":4,"i_long":106.84912,"distance":1590,"transit":true,"is_transit":true,"station_id":"MRI","line":2},{"line":1,"station_id":"SUD","transit":false,"time":4,"i_lat":-6.202263,"is_transit":false,"station_name":"Sudirman","i_long":106.822649,"distance":3186},{"line":1,"distance":280,"i_lat":-6.201433,"transit":false,"station_name":"Sudirman Baru","is_transit":false,"station_id":"SUDB","i_long":106.819881,"time":1},{"station_name":"Karet","distance":471,"is_transit":false,"i_lat":-6.20132,"i_long":106.816351,"line":1,"station_id":"KAT","time":1,"transit":false}],[{"line":5,"is_transit":false,"distance":0,"transit":false,"station_id":"TTI","i_lat":-6.17331,"time":0,"station_name":"Tanah Tinggi","i_long":106.64657},{"is_transit":false,"station_name":"Batuceper","station_id":"BPR","distance":2028,"transit":false,"i_lat":-6.171811,"i_long":106.665036,"line":5,"time":3},{"is_transit":false,"time":3,"station_name":"Poris","distance":1834,"transit":false,"station_id":"PI","i_long":106.679458,"line":5,"i_lat":-6.169933},{"station_name":"Kalideres","transit":false,"is_transit":false,"time":3,"i_lat":-6.166068,"station_id":"KDS","i_long":106.701612,"line":5,"distance":2548},{"transit":false,"station_id":"RW","i_lat":-6.162758,"station_name":"Rawa Buaya","i_long":106.723064,"line":5,"time":3,"distance":2504,"is_transit":false},{"i_long":106.737035,"line":5,"station_name":"Bojongindah","time":4,"distance":1152,"is_transit":false,"station_id":"BOI","transit":false,"i_lat":-6.159876},{"transit":false,"distance":2334,"i_lat":-6.1587309999999995,"station_id":"TKO","line":5,"station_name":"Taman Kota","is_transit":false,"time":2,"i_long":106.756522},{"is_transit":false,"station_name":"Pesing","station_id":"PSG","distance":1614,"line":5,"i_lat":-6.161433,"transit":false,"i_long":106.771379,"time":2},{"is_transit":false,"transit":false,"station_id":"GRG","i_lat":-6.162021,"i_long":106.788277,"distance":2036,"station_name":"Grogol","time":2,"line":5},{"station_id":"DU","distance":1700,"is_transit":true,"i_lat":-6.155215,"time":3,"transit":true,"station_name":"Duri","i_long":106.800832,"line":1},{"is_transit":false,"time":4,"station_name":"Angke","station_id":"AK","line":1,"distance":1230,"i_long":106.79867,"i_lat":-6.144674,"transit":false},{"is_transit":true,"transit":true,"i_long":106.826365,"station_name":"Kampung Bandan","distance":4102,"station_id":"KPB","time":9,"line":4,"i_lat":-6.132549},{"time":3,"is_transit":false,"i_lat":-6.14505,"distance":1444,"transit":false,"station_name":"Rajawali","station_id":"RJW","i_long":106.836569,"line":11},{"time":5,"station_id":"KMO","line":11,"distance":1901,"transit":false,"i_lat":-6.161728,"i_long":106.839204,"is_transit":false,"station_name":"Kemayoran"},{"i_lat":-6.174784,"transit":false,"station_name":"Pasar Senen","is_transit":false,"station_id":"PSE","distance":1436,"time":4,"i_long":106.84368,"line":11},{"distance":1567,"i_long":106.850107,"transit":false,"station_id":"GST","line":11,"time":8,"i_lat":-6.185975,"is_transit":false,"station_name":"Gang Sentiong"},{"line":11,"time":1,"i_long":106.855437,"is_transit":false,"distance":973,"station_name":"Kramat","station_id":"KMT","i_lat":-6.193792,"transit":false},{"i_long":106.861737,"distance":1829,"station_name":"Pondok Jati","i_lat":-6.209188,"line":11,"station_id":"POK","is_transit":false,"transit":false,"time":2},{"line":1,"station_id":"JNG","i_long":106.86807400000001,"i_lat":-6.215091,"transit":true,"is_transit":true,"station_name":"Jatinegara","distance":1236,"time":9},{"time":2,"i_long":106.858896,"station_id":"MTR","is_transit":false,"distance":1377,"station_name":"Matraman","transit":false,"i_lat":-6.212485,"line":1},{"i_lat":-6.209883,"station_id":"MRI","transit":false,"line":2,"station_name":"Manggarai","time":2,"distance":1275,"is_transit":false,"i_long":106.84912},{"time":4,"i_long":106.822649,"distance":3186,"transit":false,"station_id":"SUD","i_lat":-6.202263,"station_name":"Sudirman","line":1,"is_transit":false},{"i_lat":-6.201433,"station_id":"SUDB","is_transit":false,"time":1,"distance":280,"station_name":"Sudirman Baru","i_long":106.819881,"transit":false,"line":1},{"time":1,"station_name":"Karet","is_transit":false,"transit":false,"i_lat":-6.20132,"station_id":"KAT","i_long":106.816351,"distance":471,"line":1}]]}