{"data":[[{"i_long":106.64657,"line":5,"station_name":"Tanah Tinggi","transit":false,"time":0,"is_transit":false,"i_lat":-6.17331,"distance":0,"station_id":"TTI"},{"distance":2028,"is_transit":false,"line":0,"i_long":106.665036,"i_lat":-6.171811,"transit":false,"time":3,"station_name":"Batuceper","station_id":"BPR"},{"i_lat":-6.169933,"station_name":"Poris","distance":1834,"time":3,"i_long":106.679458,"station_id":"PI","is_transit":false,"line":5,"transit":false},{"i_long":106.701612,"line":5,"transit":false,"i_lat":-6.166068,"distance":2548,"station_id":"KDS","is_transit":false,"time":3,"station_name":"Kalideres"},{"station_id":"RW","line":5,"distance":2504,"i_long":106.723064,"station_name":"Rawa Buaya","transit":false,"i_lat":-6.162758,"is_transit":false,"time":3},{"i_lat":-6.159876,"station_id":"BOI","distance":1152,"station_name":"Bojongindah","is_transit":false,"time":4,"i_long":106.737035,"line":0,"transit":false},{"line":5,"distance":2334,"i_lat":-6.1587309999999995,"station_name":"Taman Kota","transit":false,"station_id":"TKO","time":2,"i_long":106.756522,"is_transit":false},{"station_name":"Pesing","i_long":106.771379,"transit":false,"time":2,"line":5,"station_id":"PSG","distance":1614,"is_transit":false,"i_lat":-6.161433},{"is_transit":false,"station_name":"Grogol","station_id":"GGL","line":5,"time":2,"distance":2036,"i_long":106.788277,"transit":false,"i_lat":-6.162021},{"is_transit":true,"distance":1700,"line":1,"station_name":"Duri","transit":true,"station_id":"DU","i_long":106.800832,"time":3,"i_lat":-6.155215},{"station_name":"Tanah Abang","is_transit":true,"transit":true,"i_lat":-6.185545,"station_id":"THB","line":1,"distance":3632,"time":8,"i_long":106.811091},{"station_name":"Palmerah","transit":false,"distance":3191,"station_id":"PLM","i_long":106.79689,"line":6,"time":6,"i_lat":-6.207404,"is_transit":false},{"station_name":"Kebayoran","distance":3737,"is_transit":false,"line":6,"transit":false,"station_id":"KBY","time":7,"i_lat":-6.237242,"i_long":106.780334},{"line":6,"station_id":"PDJ","is_transit":false,"i_long":106.74273,"distance":6218,"transit":false,"time":8,"station_name":"Pondokranji","i_lat":-6.276362},{"is_transit":false,"transit":false,"i_lat":-6.288927,"time":3,"station_name":"Jurangmangu","distance":2179,"station_id":"JMU","i_long":106.728916,"line":6},{"distance":1994,"station_id":"SDM","transit":false,"line":6,"i_lat":-6.296963,"station_name":"Sudimara","i_long":106.712277,"time":4,"is_transit":false},{"line":6,"i_long":106.675475,"station_name":"Rawa Buntu","i_lat":-6.314823,"is_transit":false,"distance":4566,"transit":false,"time":6,"station_id":"RU"},{"transit":false,"i_long":106.66566,"is_transit":false,"distance":2413,"time":4,"station_id":"SRP","line":6,"station_name":"Serpong","i_lat":-6.319871},{"distance":1784,"line":0,"station_id":"CSK","i_lat":-6.32484,"station_name":"Cisauk","is_transit":false,"time":4,"i_long":106.640411,"transit":false},{"transit":false,"distance":2519,"station_id":"CC","time":4,"line":0,"is_transit":false,"i_long":106.617853,"station_name":"Cicayur","i_lat":-6.329547},{"line":6,"station_id":"PRP","transit":false,"is_transit":false,"time":8,"distance":5968,"i_lat":-6.3441410000000005,"station_name":"Parung Panjang","i_long":106.568863},{"transit":false,"i_lat":-6.354349,"i_long":106.508482,"time":9,"station_id":"CJT","line":0,"is_transit":false,"station_name":"Cilejit","distance":7025},{"distance":2675,"time":6,"transit":false,"i_long":106.491338,"is_transit":false,"station_name":"Daru","i_lat":-6.338021,"line":0,"station_id":"DAR"}],[{"i_long":106.64657,"station_id":"TTI","distance":0,"line":5,"time":0,"station_name":"Tanah Tinggi","i_lat":-6.17331,"is_transit":false,"transit":false},{"distance":2028,"i_lat":-6.171811,"i_long":106.665036,"line":0,"transit":false,"station_name":"Batuceper","station_id":"BPR","is_transit":false,"time":3},{"line":5,"i_lat":-6.169933,"is_transit":false,"station_name":"Poris","time":3,"distance":1834,"station_id":"PI","i_long":106.679458,"transit":false},{"is_transit":false,"transit":false,"station_id":"KDS","i_long":106.701612,"line":5,"distance":2548,"station_name":"Kalideres","i_lat":-6.166068,"time":3},{"station_name":"Rawa Buaya","i_long":106.723064,"is_transit":false,"distance":2504,"time":3,"transit":false,"station_id":"RW","i_lat":-6.162758,"line":5},{"is_transit":false,"time":4,"line":0,"i_lat":-6.159876,"station_id":"BOI","transit":false,"distance":1152,"station_name":"Bojongindah","i_long":106.737035},{"station_id":"TKO","distance":2334,"i_long":106.756522,"transit":false,"i_lat":-6.1587309999999995,"station_name":"Taman Kota","time":2,"line":5,"is_transit":false},{"station_name":"Pesing","station_id":"PSG","time":2,"line":5,"is_transit":false,"transit":false,"distance":1614,"i_lat":-6.161433,"i_long":106.771379},{"i_lat":-6.162021,"station_name":"Grogol","transit":false,"station_id":"GGL","is_transit":false,"time":2,"i_long":106.788277,"distance":2036,"line":5},{"is_transit":true,"time":3,"i_long":106.800832,"line":1,"station_name":"Duri","station_id":"DU","distance":1700,"i_lat":-6.155215,"transit":true},{"distance":1230,"transit":false,"i_lat":-6.144674,"is_transit":false,"line":0,"station_name":"Angke","station_id":"AK","time":4,"i_long":106.79867},{"station_name":"Kampung Bandan","transit":false,"i_long":106.826365,"time":9,"line":0,"distance":4102,"station_id":"KPB","is_transit":true,"i_lat":-6.132549},{"i_lat":-6.137569,"transit":true,"line":0,"station_name":"Jakarta Kota","is_transit":true,"distance":1364,"station_id":"JAKK","time":3,"i_long":106.812439},{"distance":1264,"i_lat":-6.141205,"station_name":"Jayakarta","i_long":106.820901,"transit":false,"line":7,"is_transit":false,"time":4,"station_id":"JAY"},{"is_transit":false,"time":2,"i_lat":-6.149769,"station_id":"MGB","transit":false,"line":2,"i_long":106.82482,"distance":1080,"station_name":"Manggabesar"},{"i_lat":-6.160725,"station_name":"Sawah Besar","distance":906,"station_id":"SW","line":2,"time":2,"is_transit":false,"transit":false,"i_long":106.827103},{"is_transit":false,"distance":1149,"time":2,"i_lat":-6.166716,"line":2,"transit":false,"station_name":"Juanda","i_long":106.828284,"station_id":"JUA"},{"transit":false,"time":4,"station_id":"GDD","distance":2015,"station_name":"Gondangdia","line":2,"i_lat":-6.186295,"is_transit":false,"i_long":106.832183},{"i_lat":-6.198556,"time":3,"station_name":"Cikini","i_long":106.840169,"transit":false,"line":0,"is_transit":false,"station_id":"CKI","distance":1750},{"i_long":106.84912,"transit":true,"distance":1590,"time":4,"station_name":"Manggarai","station_id":"MRI","line":0,"is_transit":true,"i_lat":-6.209883},{"distance":3186,"line":1,"is_transit":false,"i_lat":-6.202263,"i_long":106.822649,"time":4,"station_id":"SUD","station_name":"Sudirman","transit":false},{"line":1,"i_long":106.819881,"time":1,"is_transit":false,"station_id":"SUDB","station_name":"Sudirman Baru","transit":false,"distance":280,"i_lat":-6.201433},{"i_lat":-6.20132,"is_transit":false,"distance":471,"line":1,"station_name":"Karet","station_id":"KAT","time":1,"transit":false,"i_long":106.816351},{"distance":2029,"is_transit":true,"time":5,"transit":true,"station_name":"Tanah Abang","station_id":"THB","i_lat":-6.185545,"i_long":106.811091,"line":1},{"is_transit":false,"station_name":"Palmerah","line":6,"i_lat":-6.207404,"i_long":106.79689,"station_id":"PLM","transit":false,"distance":3191,"time":6},{"is_transit":false,"distance":3737,"station_id":"KBY","transit":false,"time":7,"i_long":106.780334,"line":6,"i_lat":-6.237242,"station_name":"Kebayoran"},{"distance":6218,"is_transit":false,"station_id":"PDJ","station_name":"Pondokranji","time":8,"line":6,"transit":false,"i_long":106.74273,"i_lat":-6.276362},{"station_name":"Jurangmangu","transit":false,"time":3,"i_lat":-6.288927,"i_long":106.728916,"line":6,"is_transit":false,"station_id":"JMU","distance":2179},{"distance":1994,"line":6,"transit":false,"is_transit":false,"station_id":"SDM","i_long":106.712277,"time":4,"i_lat":-6.296963,"station_name":"Sudimara"},{"line":6,"is_transit":false,"i_lat":-6.314823,"station_name":"Rawa Buntu","time":6,"transit":false,"station_id":"RU","distance":4566,"i_long":106.675475},{"time":4,"is_transit":false,"station_name":"Serpong","distance":2413,"station_id":"SRP","transit":false,"i_long":106.66566,"line":6,"i_lat":-6.319871},{"i_lat":-6.32484,"station_name":"Cisauk","line":0,"station_id":"CSK","time":4,"is_transit":false,"distance":1784,"transit":false,"i_long":106.640411},{"i_lat":-6.329547,"station_name":"Cicayur","distance":2519,"transit":false,"line":0,"station_id":"CC","time":4,"i_long":106.617853,"is_transit":false},{"transit":false,"is_transit":false,"distance":5968,"time":8,"station_id":"PRP","line":6,"i_long":106.568863,"station_name":"Parung Panjang","i_lat":-6.3441410000000005},{"station_id":"CJT","i_lat":-6.354349,"is_transit":false,"distance":7025,"line":0,"i_long":106.508482,"transit":false,"station_name":"Cilejit","time":9},{"station_name":"Daru","transit":false,"i_long":106.491338,"time":6,"i_lat":-6.338021,"line":0,"is_transit":false,"distance":2675,"station_id":"DAR"}],[{"i_lat":-6.17331,"i_long":106.64657,"transit":false,"time":0,"distance":0,"station_id":"TTI","line":5,"station_name":"Tanah Tinggi","is_transit":false},{"station_id":"BPR","i_lat":-6.171811,"line":0,"station_name":"Batuceper","transit":false,"distance":2028,"time":3,"is_transit":false,"i_long":106.665036},{"station_name":"Poris","i_lat":-6.169933,"distance":1834,"station_id":"PI","time":3,"i_long":106.679458,"line":5,"is_transit":false,"transit":false},{"distance":2548,"i_lat":-6.166068,"time":3,"i_long":106.701612,"transit":false,"line":5,"is_transit":false,"station_name":"Kalideres","station_id":"KDS"},{"station_name":"Rawa Buaya","distance":2504,"station_id":"RW","transit":false,"i_lat":-6.162758,"time":3,"is_transit":false,"i_long":106.723064,"line":5},{"time":4,"i_lat":-6.159876,"is_transit":false,"station_name":"Bojongindah","transit":false,"station_id":"BOI","i_long":106.737035,"distance":1152,"line":0},{"transit":false,"distance":2334,"is_transit":false,"time":2,"i_long":106.756522,"station_id":"TKO","line":5,"i_lat":-6.1587309999999995,"station_name":"Taman Kota"},{"i_lat":-6.161433,"station_id":"PSG","i_long":106.771379,"distance":1614,"line":5,"transit":false,"station_name":"Pesing","is_transit":false,"time":2},{"station_id":"GGL","station_name":"Grogol","i_lat":-6.162021,"transit":false,"is_transit":false,"time":2,"line":5,"distance":2036,"i_long":106.788277},{"station_id":"DU","station_name":"Duri","is_transit":true,"time":3,"distance":1700,"transit":true,"i_lat":-6.155215,"i_long":106.800832,"line":1},{"line":0,"station_id":"AK","transit":false,"distance":1230,"time":4,"i_lat":-6.144674,"i_long":106.79867,"is_transit":false,"station_name":"Angke"},{"station_id":"KPB","line":0,"i_long":106.826365,"is_transit":true,"station_name":"Kampung Bandan","transit":true,"distance":4102,"i_lat":-6.132549,"time":9},{"station_name":"Rajawali","station_id":"RJW","transit":false,"i_long":106.836569,"is_transit":false,"distance":1444,"i_lat":-6.14505,"time":3,"line":11},{"station_id":"KMO","distance":1901,"time":5,"station_name":"Kemayoran","line":11,"is_transit":false,"i_lat":-6.161728,"transit":false,"i_long":106.839204},{"station_id":"PSE","time":4,"distance":1436,"i_lat":-6.174784,"i_long":106.84368,"is_transit":false,"station_name":"Pasar Senen","transit":false,"line":11},{"distance":1567,"line":11,"time":8,"station_name":"Gang Sentiong","station_id":"GST","i_lat":-6.185975,"i_long":106.850107,"is_transit":false,"transit":false},{"is_transit":false,"station_id":"KMT","time":1,"i_lat":-6.193792,"station_name":"Kramat","transit":false,"i_long":106.855437,"distance":973,"line":11},{"is_transit":false,"distance":1829,"i_lat":-6.209188,"station_name":"Pondok Jati","transit":false,"line":11,"time":2,"station_id":"POK","i_long":106.861737},{"is_transit":true,"station_id":"JNG","time":9,"station_name":"Jatinegara","i_long":106.86807400000001,"i_lat":-6.215091,"transit":true,"line":0,"distance":1236},{"i_long":106.858896,"is_transit":false,"station_id":"MTR","transit":false,"i_lat":-6.212485,"station_name":"Matraman","distance":1377,"line":1,"time":2},{"i_long":106.84912,"station_id":"MRI","transit":false,"distance":1275,"station_name":"Manggarai","i_lat":-6.209883,"is_transit":true,"time":2,"line":0},{"line":1,"station_name":"Sudirman","distance":3186,"i_long":106.822649,"station_id":"SUD","time":4,"is_transit":false,"transit":false,"i_lat":-6.202263},{"time":1,"station_id":"SUDB","i_long":106.819881,"line":1,"distance":280,"i_lat":-6.201433,"is_transit":false,"transit":false,"station_name":"Sudirman Baru"},{"distance":471,"station_name":"Karet","transit":false,"time":1,"i_lat":-6.20132,"line":1,"i_long":106.816351,"station_id":"KAT","is_transit":false},{"distance":2029,"station_name":"Tanah Abang","line":1,"time":5,"is_transit":true,"i_long":106.811091,"transit":true,"i_lat":-6.185545,"station_id":"THB"},{"line":6,"transit":false,"time":6,"is_transit":false,"i_lat":-6.207404,"station_id":"PLM","station_name":"Palmerah","distance":3191,"i_long":106.79689},{"transit":false,"distance":3737,"time":7,"is_transit":false,"i_lat":-6.237242,"i_long":106.780334,"line":6,"station_name":"Kebayoran","station_id":"KBY"},{"station_name":"Pondokranji","i_long":106.74273,"distance":6218,"is_transit":false,"line":6,"time":8,"i_lat":-6.276362,"station_id":"PDJ","transit":false},{"line":6,"transit":false,"i_long":106.728916,"time":3,"is_transit":false,"station_id":"JMU","distance":2179,"i_lat":-6.288927,"station_name":"Jurangmangu"},{"station_name":"Sudimara","distance":1994,"transit":false,"i_lat":-6.296963,"is_transit":false,"i_long":106.712277,"time":4,"station_id":"SDM","line":6},{"station_id":"RU","distance":4566,"transit":false,"i_long":106.675475,"i_lat":-6.314823,"is_transit":false,"line":6,"station_name":"Rawa Buntu","time":6},{"time":4,"station_name":"Serpong","distance":2413,"is_transit":false,"station_id":"SRP","line":6,"transit":false,"i_long":106.66566,"i_lat":-6.319871},{"station_id":"CSK","time":4,"i_long":106.640411,"station_name":"Cisauk","transit":false,"i_lat":-6.32484,"distance":1784,"line":0,"is_transit":false},{"i_long":106.617853,"station_name":"Cicayur","transit":false,"time":4,"i_lat":-6.329547,"line":0,"is_transit":false,"station_id":"CC","distance":2519},{"transit":false,"distance":5968,"i_lat":-6.3441410000000005,"line":6,"i_long":106.568863,"time":8,"station_id":"PRP","is_transit":false,"station_name":"Parung Panjang"},{"station_id":"CJT","station_name":"Cilejit","is_transit":false,"distance":7025,"i_lat":-6.354349,"i_long":106.508482,"line":0,"transit":false,"time":9},{"station_id":"DAR","station_name":"Daru","transit":false,"i_lat":-6.338021,"i_long":106.491338,"distance":2675,"line":0,"time":6,"is_transit":false}]]}