{"data":[[{"station_name":"Tanah Tinggi","distance":0,"i_long":106.64657,"station_id":"TTI","i_lat":-6.17331,"is_transit":false,"transit":false,"line":5,"time":0},{"station_name":"Batuceper","is_transit":false,"i_lat":-6.171811,"station_id":"BPR","transit":false,"i_long":106.665036,"line":5,"distance":2028,"time":3},{"is_transit":false,"time":3,"station_id":"PI","station_name":"Poris","i_lat":-6.169933,"i_long":106.679458,"transit":false,"line":5,"distance":1834},{"is_transit":false,"i_long":106.701612,"i_lat":-6.166068,"station_name":"Kalideres","station_id":"KDS","transit":false,"line":5,"time":3,"distance":2548},{"time":3,"distance":2504,"station_name":"Rawa Buaya","i_lat":-6.162758,"station_id":"RW","i_long":106.723064,"transit":false,"line":5,"is_transit":false},{"is_transit":false,"station_id":"BOI","distance":1152,"line":5,"transit":false,"i_lat":-6.159876,"time":4,"i_long":106.737035,"station_name":"Bojongindah"},{"distance":2334,"station_id":"TKO","i_lat":-6.1587309999999995,"time":2,"transit":false,"line":5,"i_long":106.756522,"is_transit":false,"station_name":"Taman Kota"},{"distance":1614,"transit":false,"line":5,"i_lat":-6.161433,"time":2,"is_transit":false,"station_id":"PSG","station_name":"Pesing","i_long":106.771379},{"i_lat":-6.162021,"station_id":"GGL","is_transit":false,"time":2,"station_name":"Grogol","line":5,"distance":2036,"i_long":106.788277,"transit":false},{"i_lat":-6.155215,"station_name":"Duri","station_id":"DU","distance":1700,"is_transit":true,"i_long":106.800832,"line":1,"time":3,"transit":true},{"station_name":"Tanah Abang","i_lat":-6.185545,"i_long":106.811091,"distance":3632,"is_transit":false,"line":1,"transit":false,"station_id":"THB","time":8},{"is_transit":false,"station_id":"KAT","time":5,"transit":false,"distance":2029,"i_lat":-6.20132,"line":1,"i_long":106.816351,"station_name":"Karet"},{"time":1,"station_id":"SUDB","distance":471,"i_lat":-6.201433,"i_long":106.819881,"line":1,"transit":false,"station_name":"Sudirman Baru","is_transit":false},{"i_lat":-6.202263,"i_long":106.822649,"time":1,"station_id":"SUD","is_transit":false,"distance":280,"station_name":"Sudirman","line":1,"transit":false},{"transit":true,"i_lat":-6.209883,"station_name":"Manggarai","i_long":106.84912,"line":2,"station_id":"MRI","time":4,"distance":3186,"is_transit":true},{"station_name":"Tebet","transit":false,"is_transit":false,"time":4,"distance":2610,"i_lat":-6.226659,"i_long":106.857948,"station_id":"TEB","line":2},{"i_lat":-6.242512,"i_long":106.856607,"distance":1230,"line":2,"is_transit":false,"station_name":"Cawang","time":2,"station_id":"CW","transit":false}],[{"is_transit":false,"station_id":"TTI","transit":false,"i_lat":-6.17331,"time":0,"distance":0,"line":5,"i_long":106.64657,"station_name":"Tanah Tinggi"},{"station_name":"Batuceper","is_transit":false,"distance":2028,"i_long":106.665036,"time":3,"i_lat":-6.171811,"line":5,"station_id":"BPR","transit":false},{"i_long":106.679458,"i_lat":-6.169933,"line":5,"station_name":"Poris","time":3,"distance":1834,"station_id":"PI","is_transit":false,"transit":false},{"is_transit":false,"time":3,"station_id":"KDS","i_lat":-6.166068,"i_long":106.701612,"distance":2548,"transit":false,"station_name":"Kalideres","line":5},{"distance":2504,"station_name":"Rawa Buaya","i_lat":-6.162758,"line":5,"is_transit":false,"time":3,"station_id":"RW","transit":false,"i_long":106.723064},{"i_long":106.737035,"station_name":"Bojongindah","line":5,"i_lat":-6.159876,"transit":false,"is_transit":false,"time":4,"distance":1152,"station_id":"BOI"},{"i_lat":-6.1587309999999995,"time":2,"transit":false,"line":5,"station_id":"TKO","station_name":"Taman Kota","i_long":106.756522,"is_transit":false,"distance":2334},{"station_name":"Pesing","i_lat":-6.161433,"transit":false,"i_long":106.771379,"distance":1614,"line":5,"station_id":"PSG","is_transit":false,"time":2},{"time":2,"station_name":"Grogol","is_transit":false,"i_lat":-6.162021,"transit":false,"distance":2036,"i_long":106.788277,"line":5,"station_id":"GGL"},{"distance":1700,"time":3,"i_lat":-6.155215,"station_name":"Duri","transit":true,"is_transit":true,"i_long":106.800832,"line":1,"station_id":"DU"},{"distance":1230,"is_transit":false,"transit":false,"i_long":106.79867,"station_name":"Angke","line":1,"i_lat":-6.144674,"station_id":"AK","time":4},{"distance":4102,"is_transit":true,"station_name":"Kampung Bandan","i_lat":-6.132549,"i_long":106.826365,"time":9,"line":4,"station_id":"KPB","transit":true},{"i_lat":-6.137569,"line":2,"time":3,"station_id":"JAKK","station_name":"Jakarta Kota","is_transit":true,"i_long":106.812439,"distance":1364,"transit":true},{"line":2,"i_long":106.820901,"is_transit":false,"time":4,"station_id":"JAY","transit":false,"i_lat":-6.141205,"station_name":"Jayakarta","distance":1264},{"distance":1080,"i_lat":-6.149769,"line":2,"is_transit":false,"station_name":"Manggabesar","transit":false,"i_long":106.82482,"time":2,"station_id":"MGB"},{"station_id":"SW","transit":false,"time":2,"i_lat":-6.160725,"distance":906,"i_long":106.827103,"station_name":"Sawah Besar","line":2,"is_transit":false},{"is_transit":false,"transit":false,"distance":1149,"station_name":"Juanda","i_lat":-6.166716,"i_long":106.828284,"line":2,"time":2,"station_id":"JUA"},{"i_lat":-6.186295,"station_name":"Gondangdia","i_long":106.832183,"station_id":"GDD","distance":2015,"time":4,"transit":false,"line":2,"is_transit":false},{"distance":1750,"transit":false,"station_name":"Cikini","line":2,"station_id":"CKI","is_transit":false,"i_lat":-6.198556,"i_long":106.840169,"time":3},{"station_id":"MRI","time":4,"station_name":"Manggarai","i_long":106.84912,"transit":false,"distance":1590,"i_lat":-6.209883,"line":2,"is_transit":false},{"distance":2610,"is_transit":false,"i_long":106.857948,"station_id":"TEB","line":2,"time":4,"transit":false,"station_name":"Tebet","i_lat":-6.226659},{"i_lat":-6.242512,"time":2,"distance":1230,"line":2,"transit":false,"i_long":106.856607,"is_transit":false,"station_name":"Cawang","station_id":"CW"}],[{"time":0,"transit":false,"is_transit":false,"station_id":"TTI","distance":0,"i_lat":-6.17331,"station_name":"Tanah Tinggi","i_long":106.64657,"line":5},{"time":3,"station_name":"Batuceper","distance":2028,"transit":false,"line":5,"station_id":"BPR","i_lat":-6.171811,"is_transit":false,"i_long":106.665036},{"line":5,"station_id":"PI","is_transit":false,"distance":1834,"i_lat":-6.169933,"time":3,"station_name":"Poris","transit":false,"i_long":106.679458},{"i_lat":-6.166068,"transit":false,"is_transit":false,"station_id":"KDS","i_long":106.701612,"line":5,"time":3,"station_name":"Kalideres","distance":2548},{"i_long":106.723064,"distance":2504,"transit":false,"station_name":"Rawa Buaya","line":5,"is_transit":false,"i_lat":-6.162758,"time":3,"station_id":"RW"},{"transit":false,"line":5,"station_id":"BOI","i_long":106.737035,"station_name":"Bojongindah","is_transit":false,"time":4,"distance":1152,"i_lat":-6.159876},{"transit":false,"station_id":"TKO","distance":2334,"i_lat":-6.1587309999999995,"i_long":106.756522,"is_transit":false,"time":2,"station_name":"Taman Kota","line":5},{"transit":false,"station_id":"PSG","is_transit":false,"i_long":106.771379,"station_name":"Pesing","time":2,"distance":1614,"i_lat":-6.161433,"line":5},{"distance":2036,"transit":false,"station_id":"GGL","i_lat":-6.162021,"is_transit":false,"i_long":106.788277,"line":5,"station_name":"Grogol","time":2},{"i_lat":-6.155215,"time":3,"distance":1700,"transit":true,"station_id":"DU","station_name":"Duri","i_long":106.800832,"is_transit":true,"line":1},{"line":1,"i_long":106.79867,"distance":1230,"transit":false,"is_transit":false,"station_name":"Angke","station_id":"AK","time":4,"i_lat":-6.144674},{"station_name":"Kampung Bandan","i_long":106.826365,"time":9,"line":4,"is_transit":true,"station_id":"KPB","transit":true,"distance":4102,"i_lat":-6.132549},{"station_id":"RJW","station_name":"Rajawali","line":11,"distance":1444,"i_lat":-6.14505,"time":3,"transit":false,"i_long":106.836569,"is_transit":false},{"is_transit":false,"time":5,"distance":1901,"station_name":"Kemayoran","line":11,"transit":false,"i_long":106.839204,"station_id":"KMO","i_lat":-6.161728},{"i_long":106.84368,"line":11,"station_name":"Pasar Senen","transit":false,"station_id":"PSE","is_transit":false,"i_lat":-6.174784,"time":4,"distance":1436},{"i_long":106.850107,"line":11,"transit":false,"i_lat":-6.185975,"distance":1567,"time":8,"is_transit":false,"station_name":"Gang Sentiong","station_id":"GST"},{"time":1,"is_transit":false,"i_lat":-6.193792,"i_long":106.855437,"line":11,"distance":973,"station_id":"KMT","transit":false,"station_name":"Kramat"},{"transit":false,"is_transit":false,"time":2,"station_name":"Pondok Jati","i_long":106.861737,"station_id":"POK","distance":1829,"line":11,"i_lat":-6.209188},{"i_lat":-6.215091,"i_long":106.86807400000001,"line":1,"is_transit":true,"time":9,"station_id":"JNG","transit":true,"station_name":"Jatinegara","distance":1236},{"i_long":106.858896,"transit":false,"is_transit":false,"distance":1377,"station_name":"Matraman","station_id":"MTR","line":1,"i_lat":-6.212485,"time":2},{"station_name":"Manggarai","i_lat":-6.209883,"line":2,"i_long":106.84912,"distance":1275,"is_transit":true,"station_id":"MRI","time":2,"transit":true},{"line":2,"time":4,"distance":2610,"i_lat":-6.226659,"transit":false,"station_name":"Tebet","i_long":106.857948,"is_transit":false,"station_id":"TEB"},{"time":2,"line":2,"is_transit":false,"i_lat":-6.242512,"station_name":"Cawang","transit":false,"station_id":"CW","i_long":106.856607,"distance":1230}]]}