{"data":[[{"line":5,"station_id":"TTI","i_lat":-6.17331,"i_long":106.64657,"distance":0,"transit":false,"is_transit":false,"time":0,"station_name":"Tanah Tinggi"},{"distance":2028,"station_name":"Batuceper","time":3,"station_id":"BPR","is_transit":false,"i_lat":-6.171811,"i_long":106.665036,"transit":false,"line":5},{"station_id":"PI","line":5,"is_transit":false,"i_long":106.679458,"transit":false,"time":3,"i_lat":-6.169933,"distance":1834,"station_name":"Poris"},{"station_name":"Kalideres","line":5,"is_transit":false,"station_id":"KDS","i_lat":-6.166068,"distance":2548,"transit":false,"time":3,"i_long":106.701612},{"line":5,"distance":2504,"is_transit":false,"transit":false,"station_id":"RW","station_name":"Rawa Buaya","i_lat":-6.162758,"time":3,"i_long":106.723064},{"transit":false,"is_transit":false,"i_long":106.737035,"line":5,"i_lat":-6.159876,"time":4,"distance":1152,"station_id":"BOI","station_name":"Bojongindah"},{"is_transit":false,"transit":false,"i_long":106.756522,"station_id":"TKO","distance":2334,"station_name":"Taman Kota","time":2,"line":5,"i_lat":-6.1587309999999995},{"is_transit":false,"station_name":"Pesing","line":5,"i_long":106.771379,"station_id":"PSG","distance":1614,"time":2,"transit":false,"i_lat":-6.161433},{"i_lat":-6.162021,"distance":2036,"station_name":"Grogol","is_transit":false,"transit":false,"line":5,"time":2,"station_id":"GGL","i_long":106.788277},{"is_transit":true,"i_lat":-6.155215,"i_long":106.800832,"station_id":"DU","line":1,"time":3,"station_name":"Duri","transit":true,"distance":1700},{"line":1,"is_transit":false,"time":8,"distance":3632,"station_name":"Tanah Abang","station_id":"THB","transit":false,"i_lat":-6.185545,"i_long":106.811091},{"is_transit":false,"i_lat":-6.20132,"line":1,"i_long":106.816351,"time":5,"station_id":"KAT","transit":false,"distance":2029,"station_name":"Karet"},{"transit":false,"distance":471,"i_long":106.819881,"time":1,"station_name":"Sudirman Baru","station_id":"SUDB","line":1,"i_lat":-6.201433,"is_transit":false},{"transit":false,"i_lat":-6.202263,"time":1,"line":1,"is_transit":false,"station_id":"SUD","station_name":"Sudirman","distance":280,"i_long":106.822649},{"distance":3186,"transit":true,"station_name":"Manggarai","is_transit":true,"i_lat":-6.209883,"time":4,"i_long":106.84912,"line":2,"station_id":"MRI"},{"time":4,"station_id":"TEB","is_transit":false,"line":2,"i_lat":-6.226659,"station_name":"Tebet","distance":2610,"transit":false,"i_long":106.857948},{"transit":false,"time":2,"station_id":"CW","station_name":"Cawang","is_transit":false,"i_long":106.856607,"distance":1230,"i_lat":-6.242512,"line":2},{"i_long":106.85449,"distance":1546,"station_name":"Duren Kalibata","i_lat":-6.255332,"is_transit":false,"station_id":"DRN","time":3,"transit":false,"line":2},{"time":2,"is_transit":false,"i_lat":-6.263214,"station_name":"Pasar Minggu Baru","transit":false,"station_id":"PSMB","i_long":106.851577,"line":2,"distance":824}],[{"i_lat":-6.17331,"distance":0,"line":5,"time":0,"is_transit":false,"station_id":"TTI","transit":false,"station_name":"Tanah Tinggi","i_long":106.64657},{"distance":2028,"station_name":"Batuceper","transit":false,"i_long":106.665036,"time":3,"line":5,"is_transit":false,"station_id":"BPR","i_lat":-6.171811},{"is_transit":false,"station_name":"Poris","i_lat":-6.169933,"distance":1834,"i_long":106.679458,"time":3,"line":5,"station_id":"PI","transit":false},{"distance":2548,"station_id":"KDS","i_long":106.701612,"i_lat":-6.166068,"line":5,"is_transit":false,"time":3,"station_name":"Kalideres","transit":false},{"i_lat":-6.162758,"station_id":"RW","line":5,"is_transit":false,"station_name":"Rawa Buaya","i_long":106.723064,"distance":2504,"time":3,"transit":false},{"is_transit":false,"transit":false,"time":4,"station_name":"Bojongindah","distance":1152,"i_long":106.737035,"line":5,"station_id":"BOI","i_lat":-6.159876},{"i_long":106.756522,"station_id":"TKO","station_name":"Taman Kota","distance":2334,"time":2,"is_transit":false,"transit":false,"i_lat":-6.1587309999999995,"line":5},{"line":5,"time":2,"transit":false,"distance":1614,"is_transit":false,"station_name":"Pesing","station_id":"PSG","i_long":106.771379,"i_lat":-6.161433},{"transit":false,"i_long":106.788277,"distance":2036,"line":5,"time":2,"station_name":"Grogol","station_id":"GGL","i_lat":-6.162021,"is_transit":false},{"i_long":106.800832,"time":3,"distance":1700,"i_lat":-6.155215,"is_transit":true,"line":1,"station_id":"DU","transit":true,"station_name":"Duri"},{"line":1,"station_name":"Angke","transit":false,"station_id":"AK","time":4,"i_long":106.79867,"is_transit":false,"distance":1230,"i_lat":-6.144674},{"station_id":"KPB","line":4,"i_long":106.826365,"distance":4102,"station_name":"Kampung Bandan","i_lat":-6.132549,"time":9,"is_transit":true,"transit":true},{"i_long":106.812439,"line":2,"station_name":"Jakarta Kota","distance":1364,"station_id":"JAKK","transit":true,"i_lat":-6.137569,"time":3,"is_transit":true},{"i_long":106.820901,"time":4,"station_name":"Jayakarta","is_transit":false,"station_id":"JAY","transit":false,"distance":1264,"i_lat":-6.141205,"line":2},{"distance":1080,"line":2,"station_name":"Manggabesar","i_long":106.82482,"time":2,"is_transit":false,"transit":false,"i_lat":-6.149769,"station_id":"MGB"},{"time":2,"station_id":"SW","i_long":106.827103,"is_transit":false,"transit":false,"distance":906,"station_name":"Sawah Besar","line":2,"i_lat":-6.160725},{"is_transit":false,"i_long":106.828284,"i_lat":-6.166716,"line":2,"transit":false,"station_name":"Juanda","station_id":"JUA","time":2,"distance":1149},{"i_lat":-6.186295,"distance":2015,"time":4,"transit":false,"i_long":106.832183,"is_transit":false,"station_name":"Gondangdia","station_id":"GDD","line":2},{"station_name":"Cikini","is_transit":false,"i_long":106.840169,"transit":false,"line":2,"distance":1750,"i_lat":-6.198556,"time":3,"station_id":"CKI"},{"line":2,"station_id":"MRI","transit":false,"time":4,"distance":1590,"is_transit":false,"i_lat":-6.209883,"station_name":"Manggarai","i_long":106.84912},{"time":4,"station_name":"Tebet","is_transit":false,"station_id":"TEB","distance":2610,"i_long":106.857948,"line":2,"transit":false,"i_lat":-6.226659},{"i_lat":-6.242512,"distance":1230,"line":2,"time":2,"station_id":"CW","is_transit":false,"transit":false,"i_long":106.856607,"station_name":"Cawang"},{"transit":false,"station_name":"Duren Kalibata","time":3,"is_transit":false,"station_id":"DRN","i_lat":-6.255332,"line":2,"distance":1546,"i_long":106.85449},{"station_id":"PSMB","i_lat":-6.263214,"is_transit":false,"line":2,"distance":824,"transit":false,"time":2,"i_long":106.851577,"station_name":"Pasar Minggu Baru"}],[{"distance":0,"is_transit":false,"i_long":106.64657,"line":5,"station_name":"Tanah Tinggi","i_lat":-6.17331,"time":0,"transit":false,"station_id":"TTI"},{"line":5,"i_lat":-6.171811,"transit":false,"time":3,"i_long":106.665036,"is_transit":false,"distance":2028,"station_name":"Batuceper","station_id":"BPR"},{"station_id":"PI","time":3,"is_transit":false,"line":5,"i_long":106.679458,"i_lat":-6.169933,"transit":false,"station_name":"Poris","distance":1834},{"station_name":"Kalideres","i_long":106.701612,"line":5,"station_id":"KDS","distance":2548,"transit":false,"time":3,"i_lat":-6.166068,"is_transit":false},{"transit":false,"i_lat":-6.162758,"station_name":"Rawa Buaya","is_transit":false,"distance":2504,"time":3,"station_id":"RW","line":5,"i_long":106.723064},{"station_name":"Bojongindah","line":5,"i_lat":-6.159876,"station_id":"BOI","time":4,"distance":1152,"is_transit":false,"transit":false,"i_long":106.737035},{"station_name":"Taman Kota","is_transit":false,"line":5,"distance":2334,"i_lat":-6.1587309999999995,"i_long":106.756522,"station_id":"TKO","transit":false,"time":2},{"station_id":"PSG","distance":1614,"line":5,"transit":false,"i_long":106.771379,"station_name":"Pesing","is_transit":false,"i_lat":-6.161433,"time":2},{"i_lat":-6.162021,"distance":2036,"is_transit":false,"time":2,"station_name":"Grogol","line":5,"i_long":106.788277,"transit":false,"station_id":"GGL"},{"transit":true,"time":3,"station_id":"DU","i_lat":-6.155215,"i_long":106.800832,"distance":1700,"line":1,"is_transit":true,"station_name":"Duri"},{"distance":1230,"i_long":106.79867,"station_name":"Angke","transit":false,"time":4,"line":1,"station_id":"AK","i_lat":-6.144674,"is_transit":false},{"transit":true,"line":4,"distance":4102,"station_id":"KPB","i_long":106.826365,"is_transit":true,"station_name":"Kampung Bandan","i_lat":-6.132549,"time":9},{"transit":false,"i_lat":-6.14505,"i_long":106.836569,"station_name":"Rajawali","is_transit":false,"time":3,"station_id":"RJW","line":11,"distance":1444},{"station_id":"KMO","station_name":"Kemayoran","i_long":106.839204,"line":11,"distance":1901,"time":5,"is_transit":false,"transit":false,"i_lat":-6.161728},{"is_transit":false,"transit":false,"i_long":106.84368,"station_id":"PSE","station_name":"Pasar Senen","distance":1436,"i_lat":-6.174784,"line":11,"time":4},{"is_transit":false,"distance":1567,"i_lat":-6.185975,"station_name":"Gang Sentiong","i_long":106.850107,"time":8,"line":11,"station_id":"GST","transit":false},{"is_transit":false,"station_name":"Kramat","line":11,"i_long":106.855437,"station_id":"KMT","distance":973,"i_lat":-6.193792,"time":1,"transit":false},{"time":2,"line":11,"i_lat":-6.209188,"i_long":106.861737,"station_id":"POK","transit":false,"distance":1829,"is_transit":false,"station_name":"Pondok Jati"},{"transit":true,"distance":1236,"is_transit":true,"station_name":"Jatinegara","i_lat":-6.215091,"i_long":106.86807400000001,"time":9,"station_id":"JNG","line":1},{"station_name":"Matraman","transit":false,"time":2,"distance":1377,"line":1,"is_transit":false,"i_long":106.858896,"i_lat":-6.212485,"station_id":"MTR"},{"i_lat":-6.209883,"station_id":"MRI","station_name":"Manggarai","i_long":106.84912,"time":2,"transit":true,"line":2,"is_transit":true,"distance":1275},{"i_lat":-6.226659,"line":2,"station_name":"Tebet","time":4,"distance":2610,"transit":false,"station_id":"TEB","is_transit":false,"i_long":106.857948},{"is_transit":false,"station_name":"Cawang","line":2,"transit":false,"i_lat":-6.242512,"station_id":"CW","i_long":106.856607,"distance":1230,"time":2},{"distance":1546,"transit":false,"is_transit":false,"station_id":"DRN","line":2,"i_lat":-6.255332,"i_long":106.85449,"time":3,"station_name":"Duren Kalibata"},{"line":2,"time":2,"distance":824,"i_lat":-6.263214,"i_long":106.851577,"station_id":"PSMB","transit":false,"is_transit":false,"station_name":"Pasar Minggu Baru"}]]}