{"data":[[{"distance":0,"station_id":"TTI","transit":false,"time":0,"line":5,"station_name":"Tanah Tinggi","is_transit":false,"i_lat":-6.17331,"i_long":106.64657},{"station_name":"Batuceper","is_transit":false,"station_id":"BPR","line":0,"distance":2028,"transit":false,"time":3,"i_lat":-6.171811,"i_long":106.665036},{"i_lat":-6.169933,"line":5,"transit":false,"station_id":"PI","time":3,"i_long":106.679458,"distance":1834,"station_name":"Poris","is_transit":false},{"is_transit":false,"time":3,"i_lat":-6.166068,"i_long":106.701612,"transit":false,"distance":2548,"line":5,"station_id":"KDS","station_name":"Kalideres"},{"is_transit":false,"transit":false,"station_name":"Rawa Buaya","line":5,"station_id":"RW","i_long":106.723064,"time":3,"distance":2504,"i_lat":-6.162758},{"i_lat":-6.159876,"i_long":106.737035,"line":0,"station_id":"BOI","station_name":"Bojongindah","is_transit":false,"transit":false,"distance":1152,"time":4},{"is_transit":false,"i_long":106.756522,"distance":2334,"time":2,"station_name":"Taman Kota","transit":false,"i_lat":-6.1587309999999995,"line":5,"station_id":"TKO"},{"distance":1614,"station_id":"PSG","station_name":"Pesing","time":2,"transit":false,"line":5,"i_long":106.771379,"i_lat":-6.161433,"is_transit":false},{"station_name":"Grogol","is_transit":false,"time":2,"station_id":"GGL","distance":2036,"transit":false,"i_lat":-6.162021,"line":5,"i_long":106.788277},{"is_transit":true,"station_id":"DU","station_name":"Duri","transit":true,"time":3,"i_lat":-6.155215,"i_long":106.800832,"line":1,"distance":1700},{"distance":3632,"station_name":"Tanah Abang","i_lat":-6.185545,"is_transit":true,"transit":false,"line":1,"i_long":106.811091,"station_id":"THB","time":8},{"i_lat":-6.20132,"i_long":106.816351,"is_transit":false,"station_id":"KAT","distance":2029,"station_name":"Karet","time":5,"line":1,"transit":false},{"time":1,"station_name":"Sudirman Baru","line":1,"distance":471,"is_transit":false,"station_id":"SUDB","i_lat":-6.201433,"i_long":106.819881,"transit":false},{"transit":false,"i_long":106.822649,"is_transit":false,"line":1,"i_lat":-6.202263,"station_name":"Sudirman","station_id":"SUD","distance":280,"time":1},{"station_id":"MRI","distance":3186,"transit":true,"time":4,"i_lat":-6.209883,"station_name":"Manggarai","line":0,"is_transit":true,"i_long":106.84912},{"distance":2610,"i_long":106.857948,"station_name":"Tebet","transit":false,"i_lat":-6.226659,"line":2,"station_id":"TEB","is_transit":false,"time":4},{"i_long":106.856607,"transit":false,"time":2,"is_transit":false,"line":0,"i_lat":-6.242512,"station_name":"Cawang","station_id":"CW","distance":1230},{"is_transit":false,"station_id":"DRN","time":3,"transit":false,"distance":1546,"station_name":"Duren Kalibata","i_lat":-6.255332,"line":0,"i_long":106.85449},{"i_lat":-6.263214,"transit":false,"time":2,"i_long":106.851577,"station_id":"PSMB","station_name":"Pasar Minggu Baru","line":2,"distance":824,"is_transit":false}],[{"i_lat":-6.17331,"distance":0,"is_transit":false,"station_id":"TTI","line":5,"time":0,"transit":false,"i_long":106.64657,"station_name":"Tanah Tinggi"},{"i_long":106.665036,"distance":2028,"station_id":"BPR","station_name":"Batuceper","line":0,"transit":false,"is_transit":false,"time":3,"i_lat":-6.171811},{"distance":1834,"time":3,"is_transit":false,"station_name":"Poris","station_id":"PI","i_lat":-6.169933,"transit":false,"i_long":106.679458,"line":5},{"station_name":"Kalideres","i_lat":-6.166068,"line":5,"transit":false,"i_long":106.701612,"distance":2548,"time":3,"station_id":"KDS","is_transit":false},{"i_long":106.723064,"station_name":"Rawa Buaya","station_id":"RW","i_lat":-6.162758,"transit":false,"line":5,"distance":2504,"time":3,"is_transit":false},{"time":4,"station_name":"Bojongindah","is_transit":false,"transit":false,"i_lat":-6.159876,"i_long":106.737035,"distance":1152,"line":0,"station_id":"BOI"},{"station_id":"TKO","line":5,"time":2,"i_lat":-6.1587309999999995,"i_long":106.756522,"distance":2334,"is_transit":false,"transit":false,"station_name":"Taman Kota"},{"transit":false,"i_long":106.771379,"station_id":"PSG","distance":1614,"i_lat":-6.161433,"station_name":"Pesing","line":5,"is_transit":false,"time":2},{"station_id":"GGL","station_name":"Grogol","i_lat":-6.162021,"i_long":106.788277,"line":5,"distance":2036,"transit":false,"time":2,"is_transit":false},{"is_transit":true,"station_id":"DU","distance":1700,"time":3,"line":1,"transit":true,"i_long":106.800832,"station_name":"Duri","i_lat":-6.155215},{"i_lat":-6.144674,"station_name":"Angke","distance":1230,"is_transit":false,"line":0,"transit":false,"i_long":106.79867,"station_id":"AK","time":4},{"station_id":"KPB","time":9,"i_long":106.826365,"station_name":"Kampung Bandan","line":0,"i_lat":-6.132549,"distance":4102,"transit":false,"is_transit":true},{"distance":1364,"line":0,"station_id":"JAKK","i_long":106.812439,"time":3,"transit":true,"i_lat":-6.137569,"station_name":"Jakarta Kota","is_transit":true},{"time":4,"distance":1264,"station_id":"JAY","transit":false,"i_long":106.820901,"i_lat":-6.141205,"station_name":"Jayakarta","line":7,"is_transit":false},{"is_transit":false,"distance":1080,"station_name":"Manggabesar","station_id":"MGB","time":2,"i_long":106.82482,"i_lat":-6.149769,"transit":false,"line":2},{"station_name":"Sawah Besar","station_id":"SW","line":2,"i_lat":-6.160725,"distance":906,"transit":false,"i_long":106.827103,"is_transit":false,"time":2},{"transit":false,"distance":1149,"station_name":"Juanda","is_transit":false,"time":2,"station_id":"JUA","i_long":106.828284,"i_lat":-6.166716,"line":2},{"station_id":"GDD","line":2,"station_name":"Gondangdia","is_transit":false,"i_long":106.832183,"distance":2015,"i_lat":-6.186295,"transit":false,"time":4},{"station_name":"Cikini","i_long":106.840169,"transit":false,"i_lat":-6.198556,"is_transit":false,"time":3,"line":0,"station_id":"CKI","distance":1750},{"distance":1590,"station_name":"Manggarai","time":4,"station_id":"MRI","transit":true,"i_long":106.84912,"line":0,"is_transit":true,"i_lat":-6.209883},{"i_long":106.857948,"distance":2610,"station_name":"Tebet","time":4,"transit":false,"station_id":"TEB","is_transit":false,"i_lat":-6.226659,"line":2},{"i_lat":-6.242512,"station_name":"Cawang","distance":1230,"station_id":"CW","transit":false,"time":2,"line":0,"is_transit":false,"i_long":106.856607},{"line":0,"station_name":"Duren Kalibata","is_transit":false,"transit":false,"distance":1546,"station_id":"DRN","time":3,"i_lat":-6.255332,"i_long":106.85449},{"transit":false,"i_long":106.851577,"station_id":"PSMB","line":2,"is_transit":false,"station_name":"Pasar Minggu Baru","time":2,"i_lat":-6.263214,"distance":824}],[{"time":0,"i_long":106.64657,"line":5,"station_id":"TTI","transit":false,"is_transit":false,"i_lat":-6.17331,"station_name":"Tanah Tinggi","distance":0},{"transit":false,"line":0,"time":3,"station_id":"BPR","distance":2028,"is_transit":false,"i_long":106.665036,"station_name":"Batuceper","i_lat":-6.171811},{"i_long":106.679458,"distance":1834,"line":5,"station_id":"PI","i_lat":-6.169933,"station_name":"Poris","is_transit":false,"transit":false,"time":3},{"line":5,"station_id":"KDS","is_transit":false,"i_long":106.701612,"transit":false,"i_lat":-6.166068,"time":3,"distance":2548,"station_name":"Kalideres"},{"station_id":"RW","station_name":"Rawa Buaya","i_lat":-6.162758,"time":3,"is_transit":false,"line":5,"distance":2504,"transit":false,"i_long":106.723064},{"is_transit":false,"station_name":"Bojongindah","distance":1152,"i_lat":-6.159876,"time":4,"station_id":"BOI","line":0,"transit":false,"i_long":106.737035},{"is_transit":false,"station_id":"TKO","time":2,"i_long":106.756522,"distance":2334,"transit":false,"i_lat":-6.1587309999999995,"line":5,"station_name":"Taman Kota"},{"time":2,"i_long":106.771379,"distance":1614,"is_transit":false,"station_name":"Pesing","station_id":"PSG","transit":false,"i_lat":-6.161433,"line":5},{"time":2,"distance":2036,"transit":false,"line":5,"station_name":"Grogol","i_long":106.788277,"is_transit":false,"i_lat":-6.162021,"station_id":"GGL"},{"station_id":"DU","i_lat":-6.155215,"distance":1700,"line":1,"time":3,"is_transit":true,"transit":true,"i_long":106.800832,"station_name":"Duri"},{"station_name":"Angke","transit":false,"i_lat":-6.144674,"line":0,"distance":1230,"i_long":106.79867,"time":4,"is_transit":false,"station_id":"AK"},{"i_long":106.826365,"transit":true,"time":9,"station_name":"Kampung Bandan","station_id":"KPB","i_lat":-6.132549,"distance":4102,"is_transit":true,"line":0},{"station_name":"Rajawali","line":11,"i_lat":-6.14505,"station_id":"RJW","is_transit":false,"distance":1444,"transit":false,"i_long":106.836569,"time":3},{"i_long":106.839204,"line":11,"time":5,"station_name":"Kemayoran","is_transit":false,"station_id":"KMO","transit":false,"distance":1901,"i_lat":-6.161728},{"station_id":"PSE","transit":false,"time":4,"i_lat":-6.174784,"distance":1436,"station_name":"Pasar Senen","i_long":106.84368,"is_transit":false,"line":11},{"time":8,"distance":1567,"i_long":106.850107,"line":11,"i_lat":-6.185975,"station_name":"Gang Sentiong","is_transit":false,"station_id":"GST","transit":false},{"station_id":"KMT","transit":false,"i_lat":-6.193792,"distance":973,"is_transit":false,"i_long":106.855437,"time":1,"station_name":"Kramat","line":11},{"line":11,"distance":1829,"station_id":"POK","i_lat":-6.209188,"i_long":106.861737,"time":2,"is_transit":false,"station_name":"Pondok Jati","transit":false},{"line":0,"station_name":"Jatinegara","time":9,"i_lat":-6.215091,"i_long":106.86807400000001,"transit":true,"station_id":"JNG","distance":1236,"is_transit":true},{"i_long":106.858896,"distance":1377,"line":1,"is_transit":false,"station_id":"MTR","time":2,"transit":false,"i_lat":-6.212485,"station_name":"Matraman"},{"distance":1275,"is_transit":true,"transit":true,"station_name":"Manggarai","time":2,"i_long":106.84912,"station_id":"MRI","line":0,"i_lat":-6.209883},{"transit":false,"is_transit":false,"time":4,"i_lat":-6.226659,"station_name":"Tebet","distance":2610,"i_long":106.857948,"station_id":"TEB","line":2},{"i_long":106.856607,"line":0,"station_name":"Cawang","time":2,"station_id":"CW","is_transit":false,"transit":false,"distance":1230,"i_lat":-6.242512},{"is_transit":false,"station_name":"Duren Kalibata","time":3,"line":0,"station_id":"DRN","transit":false,"i_long":106.85449,"i_lat":-6.255332,"distance":1546},{"i_lat":-6.263214,"distance":824,"station_name":"Pasar Minggu Baru","line":2,"time":2,"is_transit":false,"transit":false,"i_long":106.851577,"station_id":"PSMB"}]]}