{"data":[[{"station_name":"Tanah Tinggi","is_transit":false,"i_long":106.64657,"time":0,"station_id":"TTI","transit":false,"distance":0,"line":5,"i_lat":-6.17331},{"i_long":106.665036,"i_lat":-6.171811,"is_transit":false,"station_name":"Batuceper","time":3,"station_id":"BPR","transit":false,"line":5,"distance":2028},{"station_id":"PI","is_transit":false,"distance":1834,"transit":false,"i_long":106.679458,"time":3,"station_name":"Poris","i_lat":-6.169933,"line":5},{"station_name":"Kalideres","i_long":106.701612,"station_id":"KDS","is_transit":false,"distance":2548,"i_lat":-6.166068,"transit":false,"time":3,"line":5},{"distance":2504,"transit":false,"i_long":106.723064,"is_transit":false,"line":5,"station_name":"Rawa Buaya","time":3,"station_id":"RW","i_lat":-6.162758},{"station_name":"Bojongindah","is_transit":false,"distance":1152,"time":4,"station_id":"BOI","i_long":106.737035,"transit":false,"i_lat":-6.159876,"line":5},{"distance":2334,"i_long":106.756522,"time":2,"station_name":"Taman Kota","transit":false,"i_lat":-6.1587309999999995,"station_id":"TKO","is_transit":false,"line":5},{"distance":1614,"line":5,"transit":false,"station_id":"PSG","station_name":"Pesing","i_lat":-6.161433,"time":2,"i_long":106.771379,"is_transit":false},{"time":2,"line":5,"station_id":"GGL","is_transit":false,"station_name":"Grogol","i_lat":-6.162021,"transit":false,"i_long":106.788277,"distance":2036},{"i_long":106.800832,"station_id":"DU","station_name":"Duri","is_transit":true,"line":1,"transit":true,"time":3,"i_lat":-6.155215,"distance":1700},{"i_long":106.811091,"line":1,"distance":3632,"station_id":"THB","time":8,"station_name":"Tanah Abang","transit":true,"i_lat":-6.185545,"is_transit":true},{"is_transit":false,"transit":false,"i_lat":-6.207404,"station_id":"PLM","line":6,"time":6,"station_name":"Palmerah","distance":3191,"i_long":106.79689},{"station_id":"KBY","distance":3737,"i_long":106.780334,"line":6,"station_name":"Kebayoran","is_transit":false,"i_lat":-6.237242,"time":7,"transit":false},{"station_name":"Pondokranji","i_long":106.74273,"distance":6218,"is_transit":false,"i_lat":-6.276362,"line":6,"station_id":"PDJ","transit":false,"time":8},{"station_id":"JMU","i_lat":-6.288927,"transit":false,"i_long":106.728916,"time":3,"line":6,"is_transit":false,"station_name":"Jurangmangu","distance":2179},{"i_long":106.712277,"station_name":"Sudimara","i_lat":-6.296963,"line":6,"transit":false,"is_transit":false,"time":4,"station_id":"SDM","distance":1994},{"station_id":"RU","i_lat":-6.314823,"is_transit":false,"time":6,"station_name":"Rawa Buntu","transit":false,"line":6,"distance":4566,"i_long":106.675475},{"i_lat":-6.319871,"i_long":106.66566,"time":4,"line":6,"distance":2413,"station_name":"Serpong","station_id":"SRP","transit":false,"is_transit":false},{"i_lat":-6.32484,"station_id":"CSK","station_name":"Cisauk","i_long":106.640411,"time":4,"distance":1784,"transit":false,"is_transit":false,"line":3},{"distance":2519,"is_transit":false,"i_lat":-6.329547,"line":3,"time":4,"station_id":"CC","transit":false,"i_long":106.617853,"station_name":"Cicayur"},{"is_transit":false,"time":8,"station_id":"PRP","i_long":106.568863,"line":6,"distance":5968,"station_name":"Parung Panjang","i_lat":-6.3441410000000005,"transit":false},{"line":3,"station_id":"CJT","time":9,"is_transit":false,"transit":false,"distance":7025,"i_lat":-6.354349,"station_name":"Cilejit","i_long":106.508482},{"line":0,"i_lat":-6.338021,"time":6,"station_id":"DAR","transit":false,"is_transit":false,"i_long":106.491338,"station_name":"Daru","distance":2675},{"time":5,"station_id":"TEJ","distance":3902,"i_long":106.460812,"i_lat":-6.327251,"line":6,"station_name":"Tenjo","transit":false,"is_transit":false},{"station_id":"TGS","line":6,"transit":false,"i_lat":-6.328533,"time":5,"station_name":"Tigaraksa","distance":2974,"i_long":106.425991,"is_transit":false},{"i_long":106.411216,"station_id":"CKY","i_lat":-6.33561,"line":3,"station_name":"Cikoya","distance":2651,"transit":false,"is_transit":false,"time":3}],[{"transit":false,"station_name":"Tanah Tinggi","i_long":106.64657,"i_lat":-6.17331,"station_id":"TTI","distance":0,"time":0,"is_transit":false,"line":5},{"i_lat":-6.171811,"distance":2028,"line":5,"time":3,"station_id":"BPR","station_name":"Batuceper","transit":false,"is_transit":false,"i_long":106.665036},{"station_id":"PI","i_long":106.679458,"time":3,"distance":1834,"is_transit":false,"i_lat":-6.169933,"station_name":"Poris","line":5,"transit":false},{"time":3,"i_lat":-6.166068,"station_id":"KDS","i_long":106.701612,"line":5,"transit":false,"is_transit":false,"distance":2548,"station_name":"Kalideres"},{"time":3,"station_name":"Rawa Buaya","i_lat":-6.162758,"distance":2504,"station_id":"RW","is_transit":false,"i_long":106.723064,"transit":false,"line":5},{"distance":1152,"transit":false,"time":4,"i_lat":-6.159876,"station_name":"Bojongindah","line":5,"is_transit":false,"station_id":"BOI","i_long":106.737035},{"station_name":"Taman Kota","i_lat":-6.1587309999999995,"distance":2334,"transit":false,"is_transit":false,"line":5,"i_long":106.756522,"station_id":"TKO","time":2},{"station_name":"Pesing","i_lat":-6.161433,"distance":1614,"station_id":"PSG","line":5,"i_long":106.771379,"transit":false,"time":2,"is_transit":false},{"station_name":"Grogol","line":5,"station_id":"GGL","distance":2036,"time":2,"transit":false,"is_transit":false,"i_lat":-6.162021,"i_long":106.788277},{"station_name":"Duri","distance":1700,"transit":true,"station_id":"DU","is_transit":true,"i_long":106.800832,"line":1,"i_lat":-6.155215,"time":3},{"transit":false,"line":1,"i_lat":-6.144674,"time":4,"distance":1230,"station_id":"AK","i_long":106.79867,"station_name":"Angke","is_transit":false},{"transit":true,"time":9,"station_name":"Kampung Bandan","i_long":106.826365,"line":4,"i_lat":-6.132549,"is_transit":true,"station_id":"KPB","distance":4102},{"distance":1364,"i_lat":-6.137569,"station_name":"Jakarta Kota","i_long":106.812439,"time":3,"is_transit":true,"transit":true,"station_id":"JAKK","line":2},{"i_lat":-6.141205,"is_transit":false,"station_name":"Jayakarta","i_long":106.820901,"line":2,"time":4,"station_id":"JAY","transit":false,"distance":1264},{"station_name":"Manggabesar","distance":1080,"is_transit":false,"transit":false,"i_long":106.82482,"i_lat":-6.149769,"time":2,"line":2,"station_id":"MGB"},{"station_name":"Sawah Besar","time":2,"i_long":106.827103,"distance":906,"line":2,"transit":false,"station_id":"SW","is_transit":false,"i_lat":-6.160725},{"line":2,"time":2,"station_name":"Juanda","i_lat":-6.166716,"distance":1149,"is_transit":false,"transit":false,"i_long":106.828284,"station_id":"JUA"},{"i_lat":-6.186295,"i_long":106.832183,"time":4,"transit":false,"line":2,"station_id":"GDD","distance":2015,"is_transit":false,"station_name":"Gondangdia"},{"station_id":"CKI","station_name":"Cikini","distance":1750,"i_lat":-6.198556,"is_transit":false,"time":3,"i_long":106.840169,"line":2,"transit":false},{"transit":true,"is_transit":true,"i_lat":-6.209883,"i_long":106.84912,"distance":1590,"line":2,"station_id":"MRI","time":4,"station_name":"Manggarai"},{"station_id":"SUD","time":4,"line":1,"i_lat":-6.202263,"is_transit":false,"distance":3186,"station_name":"Sudirman","i_long":106.822649,"transit":false},{"distance":280,"i_long":106.819881,"i_lat":-6.201433,"station_id":"SUDB","transit":false,"is_transit":false,"station_name":"Sudirman Baru","line":1,"time":1},{"is_transit":false,"i_lat":-6.20132,"time":1,"line":1,"transit":false,"distance":471,"station_id":"KAT","station_name":"Karet","i_long":106.816351},{"is_transit":true,"i_lat":-6.185545,"i_long":106.811091,"distance":2029,"transit":true,"station_id":"THB","line":1,"time":5,"station_name":"Tanah Abang"},{"line":6,"time":6,"is_transit":false,"transit":false,"station_id":"PLM","station_name":"Palmerah","i_lat":-6.207404,"i_long":106.79689,"distance":3191},{"distance":3737,"line":6,"i_long":106.780334,"transit":false,"station_name":"Kebayoran","station_id":"KBY","is_transit":false,"time":7,"i_lat":-6.237242},{"is_transit":false,"time":8,"station_id":"PDJ","transit":false,"i_long":106.74273,"distance":6218,"station_name":"Pondokranji","line":6,"i_lat":-6.276362},{"i_long":106.728916,"time":3,"station_name":"Jurangmangu","is_transit":false,"i_lat":-6.288927,"distance":2179,"station_id":"JMU","transit":false,"line":6},{"distance":1994,"time":4,"station_name":"Sudimara","station_id":"SDM","i_lat":-6.296963,"i_long":106.712277,"transit":false,"is_transit":false,"line":6},{"station_name":"Rawa Buntu","time":6,"transit":false,"i_lat":-6.314823,"line":6,"is_transit":false,"station_id":"RU","distance":4566,"i_long":106.675475},{"transit":false,"station_id":"SRP","distance":2413,"line":6,"i_long":106.66566,"i_lat":-6.319871,"station_name":"Serpong","time":4,"is_transit":false},{"time":4,"i_lat":-6.32484,"station_id":"CSK","distance":1784,"transit":false,"i_long":106.640411,"station_name":"Cisauk","is_transit":false,"line":3},{"transit":false,"line":3,"station_id":"CC","distance":2519,"station_name":"Cicayur","is_transit":false,"time":4,"i_long":106.617853,"i_lat":-6.329547},{"i_lat":-6.3441410000000005,"station_id":"PRP","time":8,"distance":5968,"station_name":"Parung Panjang","transit":false,"i_long":106.568863,"line":6,"is_transit":false},{"station_id":"CJT","distance":7025,"is_transit":false,"transit":false,"station_name":"Cilejit","i_lat":-6.354349,"i_long":106.508482,"time":9,"line":3},{"is_transit":false,"transit":false,"i_lat":-6.338021,"distance":2675,"time":6,"i_long":106.491338,"station_id":"DAR","line":0,"station_name":"Daru"},{"i_long":106.460812,"station_id":"TEJ","distance":3902,"time":5,"station_name":"Tenjo","i_lat":-6.327251,"line":6,"is_transit":false,"transit":false},{"line":6,"distance":2974,"time":5,"i_long":106.425991,"transit":false,"station_name":"Tigaraksa","station_id":"TGS","is_transit":false,"i_lat":-6.328533},{"i_long":106.411216,"line":3,"station_id":"CKY","is_transit":false,"transit":false,"distance":2651,"station_name":"Cikoya","time":3,"i_lat":-6.33561}],[{"i_lat":-6.17331,"is_transit":false,"transit":false,"distance":0,"station_id":"TTI","i_long":106.64657,"line":5,"station_name":"Tanah Tinggi","time":0},{"is_transit":false,"station_id":"BPR","i_long":106.665036,"distance":2028,"station_name":"Batuceper","i_lat":-6.171811,"line":5,"transit":false,"time":3},{"station_name":"Poris","transit":false,"station_id":"PI","time":3,"distance":1834,"i_lat":-6.169933,"line":5,"is_transit":false,"i_long":106.679458},{"line":5,"station_id":"KDS","station_name":"Kalideres","i_lat":-6.166068,"is_transit":false,"transit":false,"i_long":106.701612,"time":3,"distance":2548},{"i_lat":-6.162758,"line":5,"time":3,"station_id":"RW","i_long":106.723064,"station_name":"Rawa Buaya","distance":2504,"is_transit":false,"transit":false},{"station_id":"BOI","is_transit":false,"transit":false,"i_long":106.737035,"distance":1152,"line":5,"time":4,"station_name":"Bojongindah","i_lat":-6.159876},{"i_lat":-6.1587309999999995,"transit":false,"distance":2334,"i_long":106.756522,"line":5,"station_id":"TKO","time":2,"station_name":"Taman Kota","is_transit":false},{"station_id":"PSG","transit":false,"i_long":106.771379,"line":5,"i_lat":-6.161433,"is_transit":false,"station_name":"Pesing","distance":1614,"time":2},{"time":2,"station_name":"Grogol","distance":2036,"is_transit":false,"transit":false,"line":5,"station_id":"GGL","i_lat":-6.162021,"i_long":106.788277},{"station_id":"DU","i_lat":-6.155215,"i_long":106.800832,"distance":1700,"time":3,"station_name":"Duri","transit":true,"is_transit":true,"line":1},{"time":4,"distance":1230,"transit":false,"is_transit":false,"i_long":106.79867,"line":1,"station_name":"Angke","station_id":"AK","i_lat":-6.144674},{"time":9,"station_id":"KPB","station_name":"Kampung Bandan","transit":true,"distance":4102,"is_transit":true,"i_long":106.826365,"line":4,"i_lat":-6.132549},{"transit":false,"line":11,"i_long":106.836569,"i_lat":-6.14505,"is_transit":false,"station_id":"RJW","distance":1444,"time":3,"station_name":"Rajawali"},{"station_id":"KMO","distance":1901,"transit":false,"station_name":"Kemayoran","i_lat":-6.161728,"is_transit":false,"line":11,"time":5,"i_long":106.839204},{"i_lat":-6.174784,"time":4,"station_name":"Pasar Senen","station_id":"PSE","i_long":106.84368,"is_transit":false,"line":11,"distance":1436,"transit":false},{"time":8,"station_name":"Gang Sentiong","is_transit":false,"distance":1567,"i_lat":-6.185975,"line":11,"i_long":106.850107,"station_id":"GST","transit":false},{"time":1,"station_name":"Kramat","transit":false,"line":11,"i_lat":-6.193792,"distance":973,"is_transit":false,"station_id":"KMT","i_long":106.855437},{"i_long":106.861737,"transit":false,"line":11,"distance":1829,"station_name":"Pondok Jati","time":2,"is_transit":false,"i_lat":-6.209188,"station_id":"POK"},{"i_lat":-6.215091,"line":1,"time":9,"station_id":"JNG","station_name":"Jatinegara","transit":true,"i_long":106.86807400000001,"is_transit":true,"distance":1236},{"distance":1377,"time":2,"station_name":"Matraman","is_transit":false,"i_lat":-6.212485,"line":1,"transit":false,"station_id":"MTR","i_long":106.858896},{"station_id":"MRI","is_transit":false,"distance":1275,"i_lat":-6.209883,"time":2,"station_name":"Manggarai","i_long":106.84912,"transit":false,"line":2},{"transit":false,"i_lat":-6.202263,"station_id":"SUD","line":1,"time":4,"distance":3186,"i_long":106.822649,"is_transit":false,"station_name":"Sudirman"},{"station_name":"Sudirman Baru","i_lat":-6.201433,"station_id":"SUDB","i_long":106.819881,"is_transit":false,"transit":false,"line":1,"time":1,"distance":280},{"station_name":"Karet","line":1,"station_id":"KAT","distance":471,"is_transit":false,"i_long":106.816351,"i_lat":-6.20132,"time":1,"transit":false},{"station_id":"THB","station_name":"Tanah Abang","distance":2029,"transit":true,"i_long":106.811091,"line":1,"time":5,"is_transit":true,"i_lat":-6.185545},{"line":6,"is_transit":false,"distance":3191,"time":6,"i_lat":-6.207404,"station_id":"PLM","station_name":"Palmerah","i_long":106.79689,"transit":false},{"is_transit":false,"time":7,"i_lat":-6.237242,"i_long":106.780334,"line":6,"distance":3737,"station_id":"KBY","station_name":"Kebayoran","transit":false},{"i_lat":-6.276362,"station_name":"Pondokranji","time":8,"is_transit":false,"transit":false,"line":6,"i_long":106.74273,"station_id":"PDJ","distance":6218},{"is_transit":false,"i_lat":-6.288927,"i_long":106.728916,"transit":false,"time":3,"station_id":"JMU","station_name":"Jurangmangu","distance":2179,"line":6},{"line":6,"distance":1994,"i_lat":-6.296963,"station_name":"Sudimara","i_long":106.712277,"transit":false,"station_id":"SDM","is_transit":false,"time":4},{"station_name":"Rawa Buntu","distance":4566,"line":6,"transit":false,"i_lat":-6.314823,"time":6,"is_transit":false,"station_id":"RU","i_long":106.675475},{"station_id":"SRP","station_name":"Serpong","is_transit":false,"line":6,"distance":2413,"i_lat":-6.319871,"i_long":106.66566,"transit":false,"time":4},{"time":4,"distance":1784,"station_id":"CSK","station_name":"Cisauk","is_transit":false,"i_long":106.640411,"transit":false,"line":3,"i_lat":-6.32484},{"time":4,"station_name":"Cicayur","transit":false,"is_transit":false,"station_id":"CC","distance":2519,"i_lat":-6.329547,"i_long":106.617853,"line":3},{"station_id":"PRP","line":6,"distance":5968,"is_transit":false,"i_long":106.568863,"time":8,"station_name":"Parung Panjang","i_lat":-6.3441410000000005,"transit":false},{"time":9,"line":3,"i_long":106.508482,"station_name":"Cilejit","is_transit":false,"transit":false,"i_lat":-6.354349,"station_id":"CJT","distance":7025},{"i_long":106.491338,"line":0,"distance":2675,"station_name":"Daru","station_id":"DAR","time":6,"transit":false,"is_transit":false,"i_lat":-6.338021},{"station_name":"Tenjo","i_long":106.460812,"station_id":"TEJ","i_lat":-6.327251,"transit":false,"distance":3902,"line":6,"is_transit":false,"time":5},{"station_id":"TGS","distance":2974,"is_transit":false,"i_lat":-6.328533,"time":5,"i_long":106.425991,"station_name":"Tigaraksa","transit":false,"line":6},{"station_id":"CKY","i_long":106.411216,"time":3,"station_name":"Cikoya","transit":false,"is_transit":false,"line":3,"i_lat":-6.33561,"distance":2651}]]}