{"data":[[{"distance":0,"station_id":"TTI","i_long":106.64657,"line":5,"is_transit":false,"time":0,"transit":false,"station_name":"Tanah Tinggi","i_lat":-6.17331},{"station_id":"BPR","transit":false,"i_long":106.665036,"is_transit":false,"time":3,"line":5,"i_lat":-6.171811,"distance":2028,"station_name":"Batuceper"},{"time":3,"transit":false,"i_lat":-6.169933,"is_transit":false,"station_name":"Poris","i_long":106.679458,"line":5,"station_id":"PI","distance":1834},{"distance":2548,"is_transit":false,"station_id":"KDS","time":3,"transit":false,"i_lat":-6.166068,"station_name":"Kalideres","i_long":106.701612,"line":5},{"i_long":106.723064,"line":5,"distance":2504,"i_lat":-6.162758,"transit":false,"station_id":"RW","is_transit":false,"time":3,"station_name":"Rawa Buaya"},{"station_id":"BOI","station_name":"Bojongindah","i_long":106.737035,"i_lat":-6.159876,"transit":false,"time":4,"is_transit":false,"line":5,"distance":1152},{"line":5,"station_id":"TKO","i_long":106.756522,"distance":2334,"station_name":"Taman Kota","i_lat":-6.1587309999999995,"is_transit":false,"time":2,"transit":false},{"time":2,"line":5,"is_transit":false,"distance":1614,"i_lat":-6.161433,"station_name":"Pesing","station_id":"PSG","transit":false,"i_long":106.771379},{"transit":false,"distance":2036,"line":5,"station_id":"GGL","is_transit":false,"station_name":"Grogol","i_lat":-6.162021,"time":2,"i_long":106.788277},{"line":1,"station_name":"Duri","transit":true,"time":3,"distance":1700,"station_id":"DU","is_transit":true,"i_lat":-6.155215,"i_long":106.800832},{"i_lat":-6.185545,"transit":true,"is_transit":true,"station_id":"THB","station_name":"Tanah Abang","time":8,"distance":3632,"i_long":106.811091,"line":1},{"transit":false,"station_name":"Palmerah","i_lat":-6.207404,"is_transit":false,"time":6,"distance":3191,"station_id":"PLM","i_long":106.79689,"line":6},{"station_name":"Kebayoran","i_lat":-6.237242,"line":6,"station_id":"KBY","time":7,"is_transit":false,"i_long":106.780334,"distance":3737,"transit":false},{"station_name":"Pondokranji","distance":6218,"transit":false,"time":8,"i_long":106.74273,"station_id":"PDJ","is_transit":false,"i_lat":-6.276362,"line":6},{"time":3,"transit":false,"station_name":"Jurangmangu","i_lat":-6.288927,"distance":2179,"line":6,"station_id":"JMU","is_transit":false,"i_long":106.728916},{"line":6,"station_id":"SDM","station_name":"Sudimara","transit":false,"time":4,"i_lat":-6.296963,"i_long":106.712277,"distance":1994,"is_transit":false},{"i_lat":-6.314823,"line":6,"i_long":106.675475,"distance":4566,"station_id":"RU","transit":false,"time":6,"station_name":"Rawa Buntu","is_transit":false},{"distance":2413,"station_name":"Serpong","station_id":"SRP","time":4,"line":6,"is_transit":false,"transit":false,"i_long":106.66566,"i_lat":-6.319871},{"station_name":"Cisauk","transit":false,"i_lat":-6.32484,"time":4,"line":3,"distance":1784,"station_id":"CSK","i_long":106.640411,"is_transit":false},{"i_lat":-6.329547,"time":4,"station_id":"CC","distance":2519,"i_long":106.617853,"line":3,"transit":false,"is_transit":false,"station_name":"Cicayur"},{"i_long":106.568863,"transit":false,"station_name":"Parung Panjang","is_transit":false,"distance":5968,"station_id":"PRP","i_lat":-6.3441410000000005,"line":6,"time":8},{"line":3,"distance":7025,"i_lat":-6.354349,"station_name":"Cilejit","i_long":106.508482,"transit":false,"is_transit":false,"station_id":"CJT","time":9},{"time":6,"station_name":"Daru","i_long":106.491338,"station_id":"DAR","line":0,"is_transit":false,"transit":false,"distance":2675,"i_lat":-6.338021}],[{"station_id":"TTI","transit":false,"is_transit":false,"line":5,"time":0,"station_name":"Tanah Tinggi","i_long":106.64657,"distance":0,"i_lat":-6.17331},{"distance":2028,"time":3,"transit":false,"i_lat":-6.171811,"station_id":"BPR","i_long":106.665036,"station_name":"Batuceper","is_transit":false,"line":5},{"time":3,"i_lat":-6.169933,"line":5,"distance":1834,"station_id":"PI","transit":false,"i_long":106.679458,"is_transit":false,"station_name":"Poris"},{"station_id":"KDS","distance":2548,"line":5,"is_transit":false,"time":3,"station_name":"Kalideres","i_lat":-6.166068,"i_long":106.701612,"transit":false},{"time":3,"distance":2504,"is_transit":false,"i_long":106.723064,"transit":false,"station_id":"RW","line":5,"station_name":"Rawa Buaya","i_lat":-6.162758},{"i_lat":-6.159876,"station_id":"BOI","line":5,"is_transit":false,"transit":false,"distance":1152,"station_name":"Bojongindah","i_long":106.737035,"time":4},{"i_long":106.756522,"line":5,"station_id":"TKO","is_transit":false,"transit":false,"distance":2334,"station_name":"Taman Kota","time":2,"i_lat":-6.1587309999999995},{"is_transit":false,"line":5,"transit":false,"time":2,"i_long":106.771379,"station_name":"Pesing","station_id":"PSG","distance":1614,"i_lat":-6.161433},{"i_lat":-6.162021,"station_id":"GGL","station_name":"Grogol","i_long":106.788277,"distance":2036,"line":5,"is_transit":false,"time":2,"transit":false},{"time":3,"transit":true,"i_lat":-6.155215,"is_transit":true,"station_id":"DU","station_name":"Duri","line":1,"distance":1700,"i_long":106.800832},{"station_id":"AK","time":4,"transit":false,"i_lat":-6.144674,"i_long":106.79867,"line":1,"distance":1230,"station_name":"Angke","is_transit":false},{"line":4,"time":9,"i_lat":-6.132549,"i_long":106.826365,"is_transit":true,"station_name":"Kampung Bandan","station_id":"KPB","distance":4102,"transit":true},{"is_transit":true,"distance":1364,"i_lat":-6.137569,"transit":true,"station_name":"Jakarta Kota","line":2,"station_id":"JAKK","i_long":106.812439,"time":3},{"station_id":"JAY","line":2,"is_transit":false,"transit":false,"i_long":106.820901,"i_lat":-6.141205,"time":4,"distance":1264,"station_name":"Jayakarta"},{"i_long":106.82482,"distance":1080,"is_transit":false,"station_id":"MGB","line":2,"time":2,"transit":false,"station_name":"Manggabesar","i_lat":-6.149769},{"station_id":"SW","line":2,"distance":906,"is_transit":false,"transit":false,"i_lat":-6.160725,"time":2,"station_name":"Sawah Besar","i_long":106.827103},{"is_transit":false,"line":2,"i_lat":-6.166716,"time":2,"station_name":"Juanda","distance":1149,"station_id":"JUA","transit":false,"i_long":106.828284},{"station_id":"GDD","station_name":"Gondangdia","i_lat":-6.186295,"line":2,"time":4,"distance":2015,"transit":false,"is_transit":false,"i_long":106.832183},{"station_name":"Cikini","distance":1750,"i_lat":-6.198556,"line":2,"transit":false,"i_long":106.840169,"time":3,"is_transit":false,"station_id":"CKI"},{"transit":true,"line":2,"time":4,"is_transit":true,"station_name":"Manggarai","i_lat":-6.209883,"station_id":"MRI","i_long":106.84912,"distance":1590},{"station_name":"Sudirman","time":4,"distance":3186,"i_lat":-6.202263,"is_transit":false,"station_id":"SUD","transit":false,"line":1,"i_long":106.822649},{"is_transit":false,"station_id":"SUDB","station_name":"Sudirman Baru","i_lat":-6.201433,"distance":280,"time":1,"line":1,"transit":false,"i_long":106.819881},{"i_long":106.816351,"line":1,"i_lat":-6.20132,"time":1,"station_name":"Karet","transit":false,"distance":471,"station_id":"KAT","is_transit":false},{"station_name":"Tanah Abang","i_lat":-6.185545,"distance":2029,"i_long":106.811091,"line":1,"station_id":"THB","time":5,"transit":true,"is_transit":true},{"is_transit":false,"distance":3191,"transit":false,"station_id":"PLM","i_long":106.79689,"line":6,"time":6,"station_name":"Palmerah","i_lat":-6.207404},{"distance":3737,"is_transit":false,"transit":false,"station_id":"KBY","i_long":106.780334,"time":7,"i_lat":-6.237242,"station_name":"Kebayoran","line":6},{"i_lat":-6.276362,"station_id":"PDJ","station_name":"Pondokranji","distance":6218,"i_long":106.74273,"line":6,"is_transit":false,"transit":false,"time":8},{"station_id":"JMU","distance":2179,"station_name":"Jurangmangu","i_long":106.728916,"line":6,"i_lat":-6.288927,"is_transit":false,"time":3,"transit":false},{"i_long":106.712277,"transit":false,"is_transit":false,"time":4,"station_id":"SDM","station_name":"Sudimara","i_lat":-6.296963,"line":6,"distance":1994},{"is_transit":false,"time":6,"distance":4566,"station_name":"Rawa Buntu","i_long":106.675475,"station_id":"RU","transit":false,"i_lat":-6.314823,"line":6},{"i_long":106.66566,"line":6,"is_transit":false,"i_lat":-6.319871,"station_name":"Serpong","distance":2413,"transit":false,"time":4,"station_id":"SRP"},{"distance":1784,"transit":false,"time":4,"i_lat":-6.32484,"i_long":106.640411,"station_name":"Cisauk","line":3,"is_transit":false,"station_id":"CSK"},{"station_name":"Cicayur","i_lat":-6.329547,"transit":false,"i_long":106.617853,"is_transit":false,"time":4,"station_id":"CC","distance":2519,"line":3},{"station_id":"PRP","time":8,"i_lat":-6.3441410000000005,"line":6,"i_long":106.568863,"transit":false,"station_name":"Parung Panjang","is_transit":false,"distance":5968},{"time":9,"is_transit":false,"distance":7025,"station_id":"CJT","i_long":106.508482,"transit":false,"station_name":"Cilejit","line":3,"i_lat":-6.354349},{"line":0,"i_lat":-6.338021,"station_name":"Daru","time":6,"transit":false,"distance":2675,"station_id":"DAR","i_long":106.491338,"is_transit":false}],[{"distance":0,"is_transit":false,"transit":false,"station_name":"Tanah Tinggi","i_long":106.64657,"line":5,"station_id":"TTI","i_lat":-6.17331,"time":0},{"transit":false,"station_id":"BPR","station_name":"Batuceper","distance":2028,"line":5,"i_long":106.665036,"i_lat":-6.171811,"time":3,"is_transit":false},{"station_id":"PI","time":3,"station_name":"Poris","i_lat":-6.169933,"is_transit":false,"transit":false,"i_long":106.679458,"line":5,"distance":1834},{"station_name":"Kalideres","i_lat":-6.166068,"distance":2548,"time":3,"station_id":"KDS","transit":false,"is_transit":false,"i_long":106.701612,"line":5},{"station_name":"Rawa Buaya","is_transit":false,"line":5,"i_lat":-6.162758,"transit":false,"distance":2504,"i_long":106.723064,"time":3,"station_id":"RW"},{"line":5,"time":4,"is_transit":false,"distance":1152,"station_name":"Bojongindah","i_long":106.737035,"transit":false,"station_id":"BOI","i_lat":-6.159876},{"i_lat":-6.1587309999999995,"i_long":106.756522,"line":5,"transit":false,"station_name":"Taman Kota","is_transit":false,"station_id":"TKO","time":2,"distance":2334},{"transit":false,"is_transit":false,"i_lat":-6.161433,"i_long":106.771379,"time":2,"distance":1614,"line":5,"station_name":"Pesing","station_id":"PSG"},{"is_transit":false,"distance":2036,"line":5,"transit":false,"station_name":"Grogol","station_id":"GGL","i_lat":-6.162021,"time":2,"i_long":106.788277},{"i_lat":-6.155215,"is_transit":true,"line":1,"station_name":"Duri","station_id":"DU","time":3,"transit":true,"i_long":106.800832,"distance":1700},{"station_id":"AK","transit":false,"time":4,"distance":1230,"station_name":"Angke","i_lat":-6.144674,"line":1,"i_long":106.79867,"is_transit":false},{"time":9,"is_transit":true,"i_lat":-6.132549,"transit":true,"station_id":"KPB","i_long":106.826365,"station_name":"Kampung Bandan","distance":4102,"line":4},{"i_long":106.836569,"time":3,"station_id":"RJW","distance":1444,"station_name":"Rajawali","transit":false,"i_lat":-6.14505,"line":11,"is_transit":false},{"transit":false,"i_long":106.839204,"time":5,"station_id":"KMO","line":11,"i_lat":-6.161728,"is_transit":false,"station_name":"Kemayoran","distance":1901},{"transit":false,"station_id":"PSE","station_name":"Pasar Senen","i_long":106.84368,"time":4,"i_lat":-6.174784,"line":11,"is_transit":false,"distance":1436},{"station_id":"GST","i_lat":-6.185975,"station_name":"Gang Sentiong","distance":1567,"transit":false,"i_long":106.850107,"is_transit":false,"line":11,"time":8},{"line":11,"station_name":"Kramat","is_transit":false,"distance":973,"transit":false,"station_id":"KMT","i_lat":-6.193792,"time":1,"i_long":106.855437},{"is_transit":false,"station_id":"POK","time":2,"i_lat":-6.209188,"station_name":"Pondok Jati","i_long":106.861737,"line":11,"distance":1829,"transit":false},{"is_transit":true,"station_name":"Jatinegara","distance":1236,"i_lat":-6.215091,"i_long":106.86807400000001,"time":9,"line":1,"station_id":"JNG","transit":true},{"time":2,"distance":1377,"station_id":"MTR","is_transit":false,"transit":false,"station_name":"Matraman","i_long":106.858896,"line":1,"i_lat":-6.212485},{"i_lat":-6.209883,"station_name":"Manggarai","distance":1275,"line":2,"station_id":"MRI","transit":false,"i_long":106.84912,"time":2,"is_transit":false},{"i_long":106.822649,"is_transit":false,"time":4,"i_lat":-6.202263,"station_id":"SUD","station_name":"Sudirman","transit":false,"line":1,"distance":3186},{"station_id":"SUDB","transit":false,"time":1,"i_lat":-6.201433,"station_name":"Sudirman Baru","i_long":106.819881,"distance":280,"line":1,"is_transit":false},{"i_long":106.816351,"time":1,"station_name":"Karet","distance":471,"i_lat":-6.20132,"line":1,"transit":false,"is_transit":false,"station_id":"KAT"},{"station_id":"THB","is_transit":true,"station_name":"Tanah Abang","transit":true,"time":5,"i_lat":-6.185545,"distance":2029,"i_long":106.811091,"line":1},{"line":6,"time":6,"distance":3191,"i_long":106.79689,"transit":false,"is_transit":false,"station_id":"PLM","station_name":"Palmerah","i_lat":-6.207404},{"distance":3737,"i_lat":-6.237242,"time":7,"station_name":"Kebayoran","is_transit":false,"station_id":"KBY","i_long":106.780334,"line":6,"transit":false},{"is_transit":false,"transit":false,"time":8,"distance":6218,"i_lat":-6.276362,"line":6,"i_long":106.74273,"station_id":"PDJ","station_name":"Pondokranji"},{"time":3,"i_long":106.728916,"station_name":"Jurangmangu","station_id":"JMU","distance":2179,"transit":false,"line":6,"i_lat":-6.288927,"is_transit":false},{"i_lat":-6.296963,"i_long":106.712277,"is_transit":false,"distance":1994,"station_id":"SDM","line":6,"time":4,"transit":false,"station_name":"Sudimara"},{"distance":4566,"station_id":"RU","transit":false,"station_name":"Rawa Buntu","line":6,"i_long":106.675475,"time":6,"is_transit":false,"i_lat":-6.314823},{"i_long":106.66566,"station_name":"Serpong","is_transit":false,"station_id":"SRP","line":6,"time":4,"i_lat":-6.319871,"distance":2413,"transit":false},{"station_name":"Cisauk","transit":false,"i_lat":-6.32484,"is_transit":false,"distance":1784,"station_id":"CSK","line":3,"time":4,"i_long":106.640411},{"i_lat":-6.329547,"station_id":"CC","line":3,"station_name":"Cicayur","transit":false,"is_transit":false,"time":4,"i_long":106.617853,"distance":2519},{"time":8,"distance":5968,"i_lat":-6.3441410000000005,"line":6,"station_name":"Parung Panjang","transit":false,"is_transit":false,"station_id":"PRP","i_long":106.568863},{"line":3,"station_id":"CJT","time":9,"i_lat":-6.354349,"distance":7025,"station_name":"Cilejit","is_transit":false,"i_long":106.508482,"transit":false},{"time":6,"is_transit":false,"line":0,"station_id":"DAR","distance":2675,"i_lat":-6.338021,"i_long":106.491338,"transit":false,"station_name":"Daru"}]]}