{"data":[[{"station_name":"Tanah Tinggi","transit":false,"station_id":"TTI","distance":0,"line":5,"is_transit":false,"i_long":106.64657,"time":0,"i_lat":-6.17331},{"station_id":"BPR","distance":2028,"station_name":"Batuceper","transit":false,"i_long":106.665036,"time":3,"i_lat":-6.171811,"line":5,"is_transit":false},{"is_transit":false,"station_id":"PI","station_name":"Poris","transit":false,"i_lat":-6.169933,"line":5,"i_long":106.679458,"distance":1834,"time":3},{"i_lat":-6.166068,"distance":2548,"i_long":106.701612,"line":5,"time":3,"station_name":"Kalideres","is_transit":false,"station_id":"KDS","transit":false},{"transit":false,"station_name":"Rawa Buaya","station_id":"RW","i_lat":-6.162758,"time":3,"i_long":106.723064,"distance":2504,"is_transit":false,"line":5},{"time":4,"i_long":106.737035,"i_lat":-6.159876,"transit":false,"line":5,"is_transit":false,"station_id":"BOI","station_name":"Bojongindah","distance":1152},{"transit":false,"i_lat":-6.1587309999999995,"i_long":106.756522,"line":5,"time":2,"station_id":"TKO","distance":2334,"station_name":"Taman Kota","is_transit":false},{"time":2,"distance":1614,"is_transit":false,"station_id":"PSG","station_name":"Pesing","transit":false,"line":5,"i_long":106.771379,"i_lat":-6.161433},{"distance":2036,"i_lat":-6.162021,"time":2,"station_id":"GRG","is_transit":false,"line":5,"station_name":"Grogol","transit":false,"i_long":106.788277},{"station_name":"Duri","transit":true,"line":1,"i_long":106.800832,"distance":1700,"i_lat":-6.155215,"time":3,"station_id":"DU","is_transit":true},{"station_id":"THB","i_lat":-6.185545,"station_name":"Tanah Abang","time":8,"i_long":106.811091,"is_transit":true,"transit":true,"line":1,"distance":3632},{"time":6,"station_id":"PLM","transit":false,"is_transit":false,"station_name":"Palmerah","i_lat":-6.207404,"distance":3191,"line":6,"i_long":106.79689},{"station_id":"KBY","time":7,"is_transit":false,"i_lat":-6.237242,"station_name":"Kebayoran","transit":false,"i_long":106.780334,"line":6,"distance":3737},{"station_name":"Pondokranji","station_id":"PDJ","is_transit":false,"transit":false,"distance":6218,"i_long":106.74273,"i_lat":-6.276362,"line":6,"time":8},{"line":6,"transit":false,"is_transit":false,"station_name":"Jurangmangu","station_id":"JMU","distance":2179,"i_long":106.728916,"time":3,"i_lat":-6.288927},{"distance":1994,"line":6,"station_id":"SDM","station_name":"Sudimara","i_long":106.712277,"time":4,"transit":false,"i_lat":-6.296963,"is_transit":false},{"transit":false,"station_name":"Rawa Buntu","is_transit":false,"i_lat":-6.314823,"i_long":106.675475,"station_id":"RU","time":6,"line":6,"distance":4566},{"transit":false,"station_id":"SRP","time":4,"line":6,"i_lat":-6.319871,"distance":2413,"is_transit":false,"i_long":106.66566,"station_name":"Serpong"},{"station_id":"CSK","distance":1784,"station_name":"Cisauk","time":4,"i_lat":-6.32484,"transit":false,"i_long":106.640411,"line":3,"is_transit":false},{"i_long":106.617853,"distance":2519,"is_transit":false,"station_id":"CC","i_lat":-6.329547,"station_name":"Cicayur","transit":false,"time":4,"line":3},{"distance":5968,"time":8,"station_id":"PRP","station_name":"Parung Panjang","transit":false,"line":6,"is_transit":false,"i_lat":-6.3441410000000005,"i_long":106.568863},{"line":3,"station_name":"Cilejit","time":9,"distance":7025,"transit":false,"station_id":"CJT","is_transit":false,"i_lat":-6.354349,"i_long":106.508482},{"line":0,"station_name":"Daru","is_transit":false,"i_lat":-6.338021,"transit":false,"station_id":"DAR","distance":2675,"i_long":106.491338,"time":6},{"i_long":106.460812,"station_name":"Tenjo","time":5,"transit":false,"line":6,"is_transit":false,"station_id":"TEJ","i_lat":-6.327251,"distance":3902},{"i_long":106.425991,"time":5,"is_transit":false,"distance":2974,"i_lat":-6.328533,"line":6,"station_id":"TGS","transit":false,"station_name":"Tigaraksa"},{"station_name":"Cikoya","i_lat":-6.33561,"distance":2651,"is_transit":false,"time":3,"line":3,"station_id":"CKY","i_long":106.411216,"transit":false},{"station_name":"Maja","is_transit":false,"i_lat":-6.332307,"time":4,"line":6,"distance":1853,"station_id":"MJ","transit":false,"i_long":106.394373},{"station_name":"Citeras","time":10,"is_transit":false,"station_id":"CTR","i_lat":-6.334892,"distance":7293,"line":3,"transit":false,"i_long":106.332092}],[{"transit":false,"station_id":"TTI","distance":0,"line":5,"station_name":"Tanah Tinggi","time":0,"i_long":106.64657,"i_lat":-6.17331,"is_transit":false},{"line":5,"time":3,"station_id":"BPR","transit":false,"distance":2028,"is_transit":false,"station_name":"Batuceper","i_lat":-6.171811,"i_long":106.665036},{"transit":false,"line":5,"distance":1834,"i_long":106.679458,"station_name":"Poris","is_transit":false,"station_id":"PI","time":3,"i_lat":-6.169933},{"is_transit":false,"i_long":106.701612,"line":5,"station_name":"Kalideres","i_lat":-6.166068,"transit":false,"distance":2548,"station_id":"KDS","time":3},{"distance":2504,"line":5,"station_id":"RW","time":3,"transit":false,"i_lat":-6.162758,"i_long":106.723064,"station_name":"Rawa Buaya","is_transit":false},{"distance":1152,"station_name":"Bojongindah","time":4,"is_transit":false,"i_lat":-6.159876,"line":5,"transit":false,"station_id":"BOI","i_long":106.737035},{"i_lat":-6.1587309999999995,"time":2,"i_long":106.756522,"is_transit":false,"line":5,"station_name":"Taman Kota","transit":false,"station_id":"TKO","distance":2334},{"line":5,"is_transit":false,"distance":1614,"station_name":"Pesing","station_id":"PSG","i_lat":-6.161433,"i_long":106.771379,"time":2,"transit":false},{"i_lat":-6.162021,"distance":2036,"is_transit":false,"transit":false,"station_id":"GRG","time":2,"station_name":"Grogol","i_long":106.788277,"line":5},{"distance":1700,"line":1,"transit":true,"i_long":106.800832,"station_id":"DU","time":3,"station_name":"Duri","i_lat":-6.155215,"is_transit":true},{"station_name":"Angke","station_id":"AK","line":1,"is_transit":false,"distance":1230,"i_long":106.79867,"i_lat":-6.144674,"time":4,"transit":false},{"i_lat":-6.132549,"i_long":106.826365,"line":4,"is_transit":true,"time":9,"distance":4102,"station_id":"KPB","transit":true,"station_name":"Kampung Bandan"},{"time":3,"i_lat":-6.137569,"station_id":"JAKK","transit":true,"line":2,"distance":1364,"is_transit":true,"station_name":"Jakarta Kota","i_long":106.812439},{"i_long":106.820901,"transit":false,"station_name":"Jayakarta","i_lat":-6.141205,"distance":1264,"station_id":"JAY","line":2,"time":4,"is_transit":false},{"distance":1080,"is_transit":false,"i_long":106.82482,"i_lat":-6.149769,"time":2,"transit":false,"station_name":"Manggabesar","line":2,"station_id":"MGB"},{"distance":906,"station_name":"Sawah Besar","transit":false,"station_id":"SW","i_lat":-6.160725,"i_long":106.827103,"line":2,"time":2,"is_transit":false},{"station_name":"Juanda","i_long":106.828284,"i_lat":-6.166716,"line":2,"is_transit":false,"distance":1149,"transit":false,"time":2,"station_id":"JUA"},{"is_transit":false,"line":2,"distance":2015,"transit":false,"i_long":106.832183,"i_lat":-6.186295,"station_name":"Gondangdia","station_id":"GDD","time":4},{"transit":false,"time":3,"is_transit":false,"station_name":"Cikini","line":2,"station_id":"CKI","i_lat":-6.198556,"distance":1750,"i_long":106.840169},{"is_transit":true,"station_id":"MRI","distance":1590,"station_name":"Manggarai","time":4,"line":2,"transit":true,"i_long":106.84912,"i_lat":-6.209883},{"i_long":106.822649,"station_name":"Sudirman","station_id":"SUD","is_transit":false,"time":4,"transit":false,"i_lat":-6.202263,"line":1,"distance":3186},{"distance":280,"i_lat":-6.201433,"line":1,"time":1,"station_name":"Sudirman Baru","station_id":"SUDB","transit":false,"i_long":106.819881,"is_transit":false},{"distance":471,"i_lat":-6.20132,"station_id":"KAT","transit":false,"is_transit":false,"i_long":106.816351,"time":1,"station_name":"Karet","line":1},{"is_transit":true,"line":1,"station_name":"Tanah Abang","i_lat":-6.185545,"distance":2029,"transit":true,"time":5,"i_long":106.811091,"station_id":"THB"},{"i_lat":-6.207404,"station_id":"PLM","is_transit":false,"i_long":106.79689,"distance":3191,"station_name":"Palmerah","line":6,"time":6,"transit":false},{"distance":3737,"transit":false,"is_transit":false,"time":7,"line":6,"i_lat":-6.237242,"station_id":"KBY","station_name":"Kebayoran","i_long":106.780334},{"station_name":"Pondokranji","time":8,"is_transit":false,"station_id":"PDJ","i_long":106.74273,"line":6,"i_lat":-6.276362,"transit":false,"distance":6218},{"time":3,"line":6,"distance":2179,"transit":false,"i_long":106.728916,"station_name":"Jurangmangu","station_id":"JMU","is_transit":false,"i_lat":-6.288927},{"station_id":"SDM","is_transit":false,"time":4,"station_name":"Sudimara","distance":1994,"transit":false,"line":6,"i_lat":-6.296963,"i_long":106.712277},{"is_transit":false,"time":6,"transit":false,"station_id":"RU","station_name":"Rawa Buntu","i_long":106.675475,"distance":4566,"i_lat":-6.314823,"line":6},{"is_transit":false,"i_lat":-6.319871,"transit":false,"line":6,"time":4,"station_id":"SRP","distance":2413,"station_name":"Serpong","i_long":106.66566},{"station_id":"CSK","i_lat":-6.32484,"transit":false,"i_long":106.640411,"distance":1784,"line":3,"is_transit":false,"time":4,"station_name":"Cisauk"},{"distance":2519,"time":4,"transit":false,"i_long":106.617853,"station_id":"CC","line":3,"station_name":"Cicayur","i_lat":-6.329547,"is_transit":false},{"station_name":"Parung Panjang","time":8,"i_lat":-6.3441410000000005,"is_transit":false,"distance":5968,"station_id":"PRP","line":6,"transit":false,"i_long":106.568863},{"station_id":"CJT","i_long":106.508482,"time":9,"transit":false,"line":3,"distance":7025,"station_name":"Cilejit","is_transit":false,"i_lat":-6.354349},{"is_transit":false,"line":0,"i_lat":-6.338021,"transit":false,"distance":2675,"time":6,"i_long":106.491338,"station_name":"Daru","station_id":"DAR"},{"i_lat":-6.327251,"distance":3902,"time":5,"is_transit":false,"station_name":"Tenjo","line":6,"transit":false,"i_long":106.460812,"station_id":"TEJ"},{"is_transit":false,"i_lat":-6.328533,"line":6,"station_name":"Tigaraksa","station_id":"TGS","transit":false,"i_long":106.425991,"distance":2974,"time":5},{"station_id":"CKY","time":3,"i_long":106.411216,"is_transit":false,"distance":2651,"station_name":"Cikoya","transit":false,"i_lat":-6.33561,"line":3},{"line":6,"transit":false,"station_name":"Maja","time":4,"station_id":"MJ","i_lat":-6.332307,"i_long":106.394373,"distance":1853,"is_transit":false},{"is_transit":false,"i_lat":-6.334892,"transit":false,"i_long":106.332092,"line":3,"time":10,"station_id":"CTR","distance":7293,"station_name":"Citeras"}],[{"line":5,"station_name":"Tanah Tinggi","transit":false,"i_lat":-6.17331,"i_long":106.64657,"time":0,"is_transit":false,"distance":0,"station_id":"TTI"},{"i_long":106.665036,"station_id":"BPR","transit":false,"is_transit":false,"i_lat":-6.171811,"time":3,"distance":2028,"line":5,"station_name":"Batuceper"},{"distance":1834,"transit":false,"i_lat":-6.169933,"time":3,"station_name":"Poris","is_transit":false,"line":5,"station_id":"PI","i_long":106.679458},{"distance":2548,"is_transit":false,"time":3,"i_long":106.701612,"station_name":"Kalideres","i_lat":-6.166068,"station_id":"KDS","line":5,"transit":false},{"distance":2504,"time":3,"i_long":106.723064,"station_name":"Rawa Buaya","line":5,"i_lat":-6.162758,"station_id":"RW","transit":false,"is_transit":false},{"line":5,"distance":1152,"station_id":"BOI","time":4,"i_lat":-6.159876,"station_name":"Bojongindah","is_transit":false,"transit":false,"i_long":106.737035},{"i_lat":-6.1587309999999995,"is_transit":false,"transit":false,"line":5,"distance":2334,"station_name":"Taman Kota","time":2,"i_long":106.756522,"station_id":"TKO"},{"distance":1614,"transit":false,"is_transit":false,"time":2,"station_name":"Pesing","station_id":"PSG","i_long":106.771379,"line":5,"i_lat":-6.161433},{"time":2,"i_lat":-6.162021,"is_transit":false,"line":5,"station_name":"Grogol","transit":false,"i_long":106.788277,"distance":2036,"station_id":"GRG"},{"line":1,"station_name":"Duri","station_id":"DU","time":3,"transit":true,"is_transit":true,"i_long":106.800832,"distance":1700,"i_lat":-6.155215},{"transit":false,"i_long":106.79867,"station_id":"AK","distance":1230,"station_name":"Angke","is_transit":false,"i_lat":-6.144674,"line":1,"time":4},{"distance":4102,"time":9,"station_id":"KPB","i_lat":-6.132549,"station_name":"Kampung Bandan","i_long":106.826365,"is_transit":true,"transit":true,"line":4},{"station_name":"Rajawali","station_id":"RJW","line":11,"distance":1444,"time":3,"transit":false,"is_transit":false,"i_lat":-6.14505,"i_long":106.836569},{"transit":false,"i_lat":-6.161728,"time":5,"station_id":"KMO","distance":1901,"line":11,"is_transit":false,"station_name":"Kemayoran","i_long":106.839204},{"station_id":"PSE","time":4,"station_name":"Pasar Senen","transit":false,"is_transit":false,"i_lat":-6.174784,"i_long":106.84368,"distance":1436,"line":11},{"station_id":"GST","is_transit":false,"station_name":"Gang Sentiong","transit":false,"time":8,"i_lat":-6.185975,"distance":1567,"i_long":106.850107,"line":11},{"i_lat":-6.193792,"station_id":"KMT","line":11,"time":1,"transit":false,"distance":973,"i_long":106.855437,"is_transit":false,"station_name":"Kramat"},{"station_id":"POK","is_transit":false,"time":2,"i_lat":-6.209188,"line":11,"transit":false,"i_long":106.861737,"distance":1829,"station_name":"Pondok Jati"},{"time":9,"station_name":"Jatinegara","is_transit":true,"station_id":"JNG","i_lat":-6.215091,"line":1,"i_long":106.86807400000001,"transit":true,"distance":1236},{"distance":1377,"station_id":"MTR","i_long":106.858896,"transit":false,"i_lat":-6.212485,"station_name":"Matraman","time":2,"line":1,"is_transit":false},{"is_transit":false,"distance":1275,"transit":false,"i_long":106.84912,"i_lat":-6.209883,"time":2,"line":2,"station_id":"MRI","station_name":"Manggarai"},{"distance":3186,"station_id":"SUD","transit":false,"time":4,"is_transit":false,"i_long":106.822649,"line":1,"station_name":"Sudirman","i_lat":-6.202263},{"time":1,"distance":280,"is_transit":false,"station_id":"SUDB","i_lat":-6.201433,"i_long":106.819881,"station_name":"Sudirman Baru","line":1,"transit":false},{"time":1,"station_id":"KAT","is_transit":false,"i_long":106.816351,"station_name":"Karet","distance":471,"transit":false,"line":1,"i_lat":-6.20132},{"station_name":"Tanah Abang","is_transit":true,"distance":2029,"line":1,"time":5,"i_lat":-6.185545,"i_long":106.811091,"station_id":"THB","transit":true},{"line":6,"distance":3191,"is_transit":false,"time":6,"transit":false,"i_lat":-6.207404,"station_id":"PLM","i_long":106.79689,"station_name":"Palmerah"},{"distance":3737,"time":7,"is_transit":false,"i_lat":-6.237242,"i_long":106.780334,"station_name":"Kebayoran","station_id":"KBY","transit":false,"line":6},{"is_transit":false,"time":8,"line":6,"i_lat":-6.276362,"i_long":106.74273,"distance":6218,"station_id":"PDJ","station_name":"Pondokranji","transit":false},{"station_name":"Jurangmangu","transit":false,"time":3,"distance":2179,"i_lat":-6.288927,"i_long":106.728916,"is_transit":false,"station_id":"JMU","line":6},{"time":4,"i_lat":-6.296963,"station_id":"SDM","line":6,"distance":1994,"station_name":"Sudimara","is_transit":false,"i_long":106.712277,"transit":false},{"is_transit":false,"distance":4566,"line":6,"station_name":"Rawa Buntu","transit":false,"time":6,"i_lat":-6.314823,"i_long":106.675475,"station_id":"RU"},{"i_long":106.66566,"station_id":"SRP","i_lat":-6.319871,"is_transit":false,"transit":false,"line":6,"distance":2413,"station_name":"Serpong","time":4},{"is_transit":false,"station_name":"Cisauk","i_lat":-6.32484,"time":4,"station_id":"CSK","transit":false,"i_long":106.640411,"line":3,"distance":1784},{"distance":2519,"i_lat":-6.329547,"station_id":"CC","time":4,"is_transit":false,"line":3,"station_name":"Cicayur","transit":false,"i_long":106.617853},{"distance":5968,"time":8,"transit":false,"station_name":"Parung Panjang","is_transit":false,"i_lat":-6.3441410000000005,"line":6,"station_id":"PRP","i_long":106.568863},{"i_lat":-6.354349,"station_id":"CJT","distance":7025,"transit":false,"i_long":106.508482,"is_transit":false,"time":9,"line":3,"station_name":"Cilejit"},{"station_id":"DAR","distance":2675,"line":0,"station_name":"Daru","time":6,"transit":false,"i_lat":-6.338021,"i_long":106.491338,"is_transit":false},{"station_id":"TEJ","distance":3902,"line":6,"transit":false,"time":5,"i_long":106.460812,"station_name":"Tenjo","is_transit":false,"i_lat":-6.327251},{"station_name":"Tigaraksa","time":5,"is_transit":false,"station_id":"TGS","i_lat":-6.328533,"i_long":106.425991,"line":6,"distance":2974,"transit":false},{"line":3,"time":3,"is_transit":false,"distance":2651,"i_lat":-6.33561,"transit":false,"i_long":106.411216,"station_name":"Cikoya","station_id":"CKY"},{"i_long":106.394373,"transit":false,"station_name":"Maja","time":4,"i_lat":-6.332307,"distance":1853,"station_id":"MJ","line":6,"is_transit":false},{"time":10,"is_transit":false,"i_long":106.332092,"line":3,"station_id":"CTR","transit":false,"i_lat":-6.334892,"station_name":"Citeras","distance":7293}]]}