{"data":[[{"is_transit":false,"distance":0,"station_name":"Tanah Tinggi","i_long":106.64657,"line":5,"time":0,"station_id":"TTI","transit":false,"i_lat":-6.17331},{"station_id":"BPR","station_name":"Batuceper","transit":false,"time":3,"line":0,"i_lat":-6.171811,"i_long":106.665036,"is_transit":false,"distance":2028},{"line":5,"distance":1834,"time":3,"station_id":"PI","station_name":"Poris","is_transit":false,"transit":false,"i_lat":-6.169933,"i_long":106.679458},{"line":5,"distance":2548,"station_id":"KDS","i_long":106.701612,"is_transit":false,"transit":false,"i_lat":-6.166068,"time":3,"station_name":"Kalideres"},{"station_name":"Rawa Buaya","i_long":106.723064,"transit":false,"is_transit":false,"distance":2504,"i_lat":-6.162758,"line":5,"time":3,"station_id":"RW"},{"line":0,"time":4,"i_lat":-6.159876,"station_id":"BOI","station_name":"Bojongindah","is_transit":false,"distance":1152,"transit":false,"i_long":106.737035},{"transit":false,"station_name":"Taman Kota","time":2,"i_lat":-6.1587309999999995,"distance":2334,"i_long":106.756522,"line":5,"is_transit":false,"station_id":"TKO"},{"i_lat":-6.161433,"time":2,"i_long":106.771379,"station_id":"PSG","line":5,"distance":1614,"is_transit":false,"station_name":"Pesing","transit":false},{"station_id":"GGL","line":5,"i_long":106.788277,"distance":2036,"i_lat":-6.162021,"station_name":"Grogol","transit":false,"is_transit":false,"time":2},{"time":3,"i_lat":-6.155215,"i_long":106.800832,"is_transit":true,"distance":1700,"transit":true,"station_name":"Duri","line":1,"station_id":"DU"},{"time":8,"distance":3632,"transit":false,"i_lat":-6.185545,"i_long":106.811091,"line":1,"station_name":"Tanah Abang","is_transit":true,"station_id":"THB"},{"line":1,"i_lat":-6.20132,"distance":2029,"station_id":"KAT","is_transit":false,"time":5,"station_name":"Karet","transit":false,"i_long":106.816351},{"time":1,"i_long":106.819881,"station_id":"SUDB","distance":471,"station_name":"Sudirman Baru","line":1,"i_lat":-6.201433,"transit":false,"is_transit":false},{"time":1,"station_id":"SUD","transit":false,"station_name":"Sudirman","i_lat":-6.202263,"line":1,"distance":280,"is_transit":false,"i_long":106.822649},{"time":4,"transit":false,"is_transit":true,"i_lat":-6.209883,"distance":3186,"station_id":"MRI","i_long":106.84912,"line":0,"station_name":"Manggarai"},{"line":1,"distance":1275,"i_lat":-6.212485,"station_id":"MTR","transit":false,"station_name":"Matraman","time":2,"is_transit":false,"i_long":106.858896},{"station_id":"JNG","transit":false,"time":8,"station_name":"Jatinegara","is_transit":true,"i_long":106.86807400000001,"distance":1377,"line":0,"i_lat":-6.215091},{"i_long":106.899548,"line":1,"distance":3395,"i_lat":-6.2135,"time":3,"station_id":"KLD","is_transit":false,"station_name":"Klender","transit":false},{"station_id":"BUA","i_lat":-6.215568,"line":0,"i_long":106.922662,"transit":false,"distance":3100,"is_transit":false,"time":2,"station_name":"Buaran"},{"time":1,"station_name":"Klenderbaru","is_transit":false,"distance":1305,"i_long":106.939679,"line":1,"station_id":"KLDB","transit":false,"i_lat":-6.217455},{"i_long":106.951283,"station_id":"CUK","i_lat":-6.219053,"time":8,"is_transit":false,"line":0,"transit":false,"distance":1385,"station_name":"Cakung"},{"time":3,"i_lat":-6.224515,"distance":3097,"i_long":106.977657,"line":1,"station_name":"Kranji","transit":false,"is_transit":false,"station_id":"KRI"},{"distance":2520,"time":4,"station_id":"BKS","station_name":"Bekasi","i_lat":-6.236616,"transit":false,"is_transit":false,"i_long":106.997013,"line":0},{"transit":false,"line":0,"i_lat":-6.248029,"station_id":"BKST","i_long":107.016735,"station_name":"Bekasi Timur","time":2,"distance":2368,"is_transit":false},{"transit":false,"line":1,"distance":4460,"station_name":"Tambun","is_transit":false,"i_lat":-6.258864,"station_id":"TB","i_long":107.055722,"time":7},{"is_transit":false,"station_name":"Cibitung","transit":false,"time":3,"i_lat":-6.261877,"line":0,"distance":3420,"station_id":"CIT","i_long":107.083084},{"is_transit":false,"i_long":107.093313,"line":1,"time":2,"i_lat":-6.262938,"station_name":"Metland Telaga Murni","station_id":"TLM","distance":2800,"transit":false}],[{"i_long":106.64657,"station_id":"TTI","station_name":"Tanah Tinggi","distance":0,"time":0,"i_lat":-6.17331,"line":5,"transit":false,"is_transit":false},{"station_id":"BPR","i_lat":-6.171811,"transit":false,"is_transit":false,"time":3,"distance":2028,"station_name":"Batuceper","line":0,"i_long":106.665036},{"station_name":"Poris","transit":false,"time":3,"distance":1834,"i_lat":-6.169933,"i_long":106.679458,"line":5,"station_id":"PI","is_transit":false},{"i_lat":-6.166068,"time":3,"transit":false,"station_name":"Kalideres","i_long":106.701612,"is_transit":false,"distance":2548,"station_id":"KDS","line":5},{"transit":false,"i_long":106.723064,"time":3,"station_id":"RW","line":5,"station_name":"Rawa Buaya","distance":2504,"is_transit":false,"i_lat":-6.162758},{"line":0,"distance":1152,"i_lat":-6.159876,"transit":false,"station_id":"BOI","is_transit":false,"time":4,"station_name":"Bojongindah","i_long":106.737035},{"is_transit":false,"i_lat":-6.1587309999999995,"station_id":"TKO","time":2,"i_long":106.756522,"line":5,"transit":false,"station_name":"Taman Kota","distance":2334},{"line":5,"distance":1614,"time":2,"station_id":"PSG","station_name":"Pesing","i_lat":-6.161433,"is_transit":false,"transit":false,"i_long":106.771379},{"is_transit":false,"transit":false,"station_name":"Grogol","station_id":"GGL","distance":2036,"time":2,"i_lat":-6.162021,"i_long":106.788277,"line":5},{"i_lat":-6.155215,"distance":1700,"is_transit":true,"transit":true,"time":3,"i_long":106.800832,"line":1,"station_id":"DU","station_name":"Duri"},{"distance":1230,"transit":false,"time":4,"i_long":106.79867,"line":0,"station_id":"AK","i_lat":-6.144674,"station_name":"Angke","is_transit":false},{"line":0,"distance":4102,"is_transit":true,"station_name":"Kampung Bandan","station_id":"KPB","time":9,"transit":true,"i_lat":-6.132549,"i_long":106.826365},{"time":3,"station_id":"RJW","station_name":"Rajawali","is_transit":false,"i_long":106.836569,"line":11,"distance":1444,"transit":false,"i_lat":-6.14505},{"time":5,"i_lat":-6.161728,"station_id":"KMO","line":11,"distance":1901,"i_long":106.839204,"station_name":"Kemayoran","is_transit":false,"transit":false},{"i_long":106.84368,"line":11,"station_id":"PSE","i_lat":-6.174784,"is_transit":false,"station_name":"Pasar Senen","transit":false,"distance":1436,"time":4},{"line":11,"i_lat":-6.185975,"is_transit":false,"station_name":"Gang Sentiong","transit":false,"i_long":106.850107,"station_id":"GST","distance":1567,"time":8},{"station_id":"KMT","station_name":"Kramat","transit":false,"distance":973,"time":1,"i_lat":-6.193792,"i_long":106.855437,"line":11,"is_transit":false},{"line":11,"distance":1829,"is_transit":false,"transit":false,"time":2,"station_id":"POK","i_long":106.861737,"station_name":"Pondok Jati","i_lat":-6.209188},{"i_lat":-6.215091,"is_transit":true,"line":0,"distance":1236,"station_id":"JNG","i_long":106.86807400000001,"time":9,"transit":true,"station_name":"Jatinegara"},{"i_long":106.899548,"line":1,"distance":3395,"station_name":"Klender","is_transit":false,"station_id":"KLD","transit":false,"time":3,"i_lat":-6.2135},{"i_long":106.922662,"line":0,"station_name":"Buaran","i_lat":-6.215568,"transit":false,"distance":3100,"is_transit":false,"station_id":"BUA","time":2},{"distance":1305,"transit":false,"i_long":106.939679,"is_transit":false,"station_id":"KLDB","station_name":"Klenderbaru","time":1,"i_lat":-6.217455,"line":1},{"i_lat":-6.219053,"is_transit":false,"transit":false,"station_name":"Cakung","station_id":"CUK","time":8,"i_long":106.951283,"distance":1385,"line":0},{"i_long":106.977657,"station_name":"Kranji","time":3,"distance":3097,"station_id":"KRI","transit":false,"is_transit":false,"line":1,"i_lat":-6.224515},{"station_name":"Bekasi","i_lat":-6.236616,"i_long":106.997013,"is_transit":false,"station_id":"BKS","line":0,"transit":false,"time":4,"distance":2520},{"i_lat":-6.248029,"station_name":"Bekasi Timur","line":0,"i_long":107.016735,"distance":2368,"is_transit":false,"transit":false,"station_id":"BKST","time":2},{"transit":false,"time":7,"i_lat":-6.258864,"station_id":"TB","is_transit":false,"line":1,"i_long":107.055722,"distance":4460,"station_name":"Tambun"},{"station_name":"Cibitung","i_long":107.083084,"is_transit":false,"transit":false,"line":0,"time":3,"station_id":"CIT","i_lat":-6.261877,"distance":3420},{"i_lat":-6.262938,"line":1,"station_id":"TLM","transit":false,"is_transit":false,"time":2,"distance":2800,"i_long":107.093313,"station_name":"Metland Telaga Murni"}],[{"i_long":106.64657,"line":5,"station_id":"TTI","distance":0,"time":0,"transit":false,"station_name":"Tanah Tinggi","i_lat":-6.17331,"is_transit":false},{"time":3,"transit":false,"is_transit":false,"station_id":"BPR","line":0,"distance":2028,"station_name":"Batuceper","i_long":106.665036,"i_lat":-6.171811},{"station_id":"PI","i_lat":-6.169933,"i_long":106.679458,"distance":1834,"time":3,"transit":false,"station_name":"Poris","line":5,"is_transit":false},{"transit":false,"distance":2548,"is_transit":false,"station_name":"Kalideres","line":5,"time":3,"station_id":"KDS","i_lat":-6.166068,"i_long":106.701612},{"distance":2504,"transit":false,"time":3,"station_name":"Rawa Buaya","station_id":"RW","i_long":106.723064,"line":5,"is_transit":false,"i_lat":-6.162758},{"is_transit":false,"i_long":106.737035,"station_id":"BOI","i_lat":-6.159876,"line":0,"time":4,"station_name":"Bojongindah","transit":false,"distance":1152},{"i_long":106.756522,"time":2,"station_name":"Taman Kota","i_lat":-6.1587309999999995,"distance":2334,"station_id":"TKO","is_transit":false,"transit":false,"line":5},{"station_id":"PSG","transit":false,"station_name":"Pesing","line":5,"i_long":106.771379,"i_lat":-6.161433,"distance":1614,"time":2,"is_transit":false},{"time":2,"station_id":"GGL","transit":false,"distance":2036,"is_transit":false,"i_lat":-6.162021,"station_name":"Grogol","i_long":106.788277,"line":5},{"transit":true,"is_transit":true,"i_long":106.800832,"i_lat":-6.155215,"distance":1700,"station_id":"DU","station_name":"Duri","time":3,"line":1},{"station_name":"Angke","transit":false,"line":0,"i_long":106.79867,"i_lat":-6.144674,"distance":1230,"is_transit":false,"time":4,"station_id":"AK"},{"distance":4102,"station_id":"KPB","i_lat":-6.132549,"station_name":"Kampung Bandan","line":0,"i_long":106.826365,"is_transit":true,"transit":false,"time":9},{"time":3,"i_long":106.812439,"i_lat":-6.137569,"distance":1364,"station_name":"Jakarta Kota","station_id":"JAKK","line":0,"is_transit":true,"transit":true},{"i_long":106.820901,"distance":1264,"i_lat":-6.141205,"station_id":"JAY","is_transit":false,"time":4,"line":7,"station_name":"Jayakarta","transit":false},{"i_lat":-6.149769,"i_long":106.82482,"is_transit":false,"distance":1080,"station_name":"Manggabesar","time":2,"station_id":"MGB","transit":false,"line":2},{"transit":false,"i_long":106.827103,"station_id":"SW","time":2,"i_lat":-6.160725,"line":2,"station_name":"Sawah Besar","is_transit":false,"distance":906},{"distance":1149,"transit":false,"i_long":106.828284,"line":2,"is_transit":false,"i_lat":-6.166716,"time":2,"station_id":"JUA","station_name":"Juanda"},{"i_long":106.832183,"distance":2015,"station_name":"Gondangdia","i_lat":-6.186295,"transit":false,"station_id":"GDD","time":4,"line":2,"is_transit":false},{"transit":false,"station_id":"CKI","station_name":"Cikini","is_transit":false,"i_lat":-6.198556,"distance":1750,"time":3,"i_long":106.840169,"line":0},{"time":4,"line":0,"station_id":"MRI","station_name":"Manggarai","transit":true,"i_lat":-6.209883,"is_transit":true,"i_long":106.84912,"distance":1590},{"time":2,"i_lat":-6.212485,"line":1,"i_long":106.858896,"distance":1275,"transit":false,"station_name":"Matraman","station_id":"MTR","is_transit":false},{"is_transit":true,"time":8,"i_long":106.86807400000001,"station_name":"Jatinegara","distance":1377,"station_id":"JNG","transit":false,"line":0,"i_lat":-6.215091},{"distance":3395,"station_id":"KLD","transit":false,"i_lat":-6.2135,"station_name":"Klender","time":3,"i_long":106.899548,"line":1,"is_transit":false},{"transit":false,"station_id":"BUA","time":2,"line":0,"is_transit":false,"i_lat":-6.215568,"i_long":106.922662,"station_name":"Buaran","distance":3100},{"i_lat":-6.217455,"is_transit":false,"station_name":"Klenderbaru","time":1,"station_id":"KLDB","distance":1305,"transit":false,"line":1,"i_long":106.939679},{"i_lat":-6.219053,"time":8,"station_name":"Cakung","is_transit":false,"station_id":"CUK","transit":false,"distance":1385,"line":0,"i_long":106.951283},{"time":3,"station_id":"KRI","i_long":106.977657,"is_transit":false,"line":1,"transit":false,"i_lat":-6.224515,"station_name":"Kranji","distance":3097},{"transit":false,"distance":2520,"is_transit":false,"station_name":"Bekasi","time":4,"i_lat":-6.236616,"i_long":106.997013,"line":0,"station_id":"BKS"},{"i_lat":-6.248029,"line":0,"station_id":"BKST","is_transit":false,"i_long":107.016735,"station_name":"Bekasi Timur","time":2,"transit":false,"distance":2368},{"station_name":"Tambun","i_long":107.055722,"is_transit":false,"line":1,"station_id":"TB","time":7,"distance":4460,"transit":false,"i_lat":-6.258864},{"is_transit":false,"station_name":"Cibitung","transit":false,"i_long":107.083084,"distance":3420,"time":3,"station_id":"CIT","line":0,"i_lat":-6.261877},{"line":1,"station_name":"Metland Telaga Murni","i_long":107.093313,"station_id":"TLM","distance":2800,"is_transit":false,"transit":false,"i_lat":-6.262938,"time":2}],[{"station_name":"Tanah Tinggi","i_lat":-6.17331,"is_transit":false,"transit":false,"i_long":106.64657,"line":5,"station_id":"TTI","time":0,"distance":0},{"distance":2028,"station_name":"Batuceper","transit":false,"time":3,"is_transit":false,"i_lat":-6.171811,"station_id":"BPR","i_long":106.665036,"line":0},{"line":5,"station_id":"PI","distance":1834,"is_transit":false,"transit":false,"i_lat":-6.169933,"station_name":"Poris","i_long":106.679458,"time":3},{"station_id":"KDS","is_transit":false,"transit":false,"time":3,"i_lat":-6.166068,"station_name":"Kalideres","line":5,"distance":2548,"i_long":106.701612},{"transit":false,"i_long":106.723064,"i_lat":-6.162758,"is_transit":false,"time":3,"line":5,"station_id":"RW","distance":2504,"station_name":"Rawa Buaya"},{"time":4,"is_transit":false,"station_name":"Bojongindah","i_long":106.737035,"line":0,"station_id":"BOI","distance":1152,"transit":false,"i_lat":-6.159876},{"distance":2334,"line":5,"i_lat":-6.1587309999999995,"i_long":106.756522,"station_id":"TKO","station_name":"Taman Kota","is_transit":false,"transit":false,"time":2},{"station_id":"PSG","station_name":"Pesing","time":2,"i_lat":-6.161433,"i_long":106.771379,"distance":1614,"is_transit":false,"transit":false,"line":5},{"i_lat":-6.162021,"distance":2036,"is_transit":false,"transit":false,"time":2,"i_long":106.788277,"station_name":"Grogol","line":5,"station_id":"GGL"},{"station_name":"Duri","is_transit":true,"distance":1700,"i_lat":-6.155215,"station_id":"DU","i_long":106.800832,"transit":true,"line":1,"time":3},{"distance":3632,"station_id":"THB","is_transit":true,"station_name":"Tanah Abang","time":8,"transit":false,"line":1,"i_lat":-6.185545,"i_long":106.811091},{"is_transit":false,"transit":false,"time":5,"i_lat":-6.20132,"distance":2029,"station_id":"KAT","i_long":106.816351,"station_name":"Karet","line":1},{"line":1,"time":1,"transit":false,"is_transit":false,"i_lat":-6.201433,"distance":471,"station_id":"SUDB","station_name":"Sudirman Baru","i_long":106.819881},{"distance":280,"i_long":106.822649,"i_lat":-6.202263,"station_id":"SUD","station_name":"Sudirman","line":1,"is_transit":false,"transit":false,"time":1},{"distance":3186,"is_transit":true,"station_id":"MRI","time":4,"transit":true,"i_lat":-6.209883,"station_name":"Manggarai","i_long":106.84912,"line":0},{"is_transit":false,"i_lat":-6.198556,"line":0,"i_long":106.840169,"station_name":"Cikini","time":4,"transit":false,"station_id":"CKI","distance":1590},{"transit":false,"i_lat":-6.186295,"distance":1750,"is_transit":false,"station_name":"Gondangdia","station_id":"GDD","time":3,"line":2,"i_long":106.832183},{"is_transit":false,"distance":2015,"station_name":"Juanda","transit":false,"station_id":"JUA","i_lat":-6.166716,"i_long":106.828284,"time":4,"line":2},{"i_lat":-6.160725,"station_name":"Sawah Besar","line":2,"distance":1149,"is_transit":false,"station_id":"SW","transit":false,"time":2,"i_long":106.827103},{"station_name":"Manggabesar","i_long":106.82482,"transit":false,"i_lat":-6.149769,"line":2,"time":2,"distance":906,"is_transit":false,"station_id":"MGB"},{"distance":1080,"time":2,"is_transit":false,"i_long":106.820901,"station_name":"Jayakarta","i_lat":-6.141205,"line":7,"station_id":"JAY","transit":false},{"time":4,"station_name":"Jakarta Kota","line":0,"transit":true,"distance":1264,"i_lat":-6.137569,"is_transit":true,"station_id":"JAKK","i_long":106.812439},{"time":3,"i_lat":-6.132549,"transit":true,"i_long":106.826365,"is_transit":true,"station_id":"KPB","line":0,"station_name":"Kampung Bandan","distance":1364},{"distance":1444,"is_transit":false,"station_id":"RJW","i_long":106.836569,"time":3,"transit":false,"line":11,"station_name":"Rajawali","i_lat":-6.14505},{"distance":1901,"transit":false,"station_name":"Kemayoran","is_transit":false,"line":11,"station_id":"KMO","i_long":106.839204,"i_lat":-6.161728,"time":5},{"i_long":106.84368,"distance":1436,"line":11,"time":4,"station_id":"PSE","is_transit":false,"transit":false,"i_lat":-6.174784,"station_name":"Pasar Senen"},{"station_id":"GST","i_lat":-6.185975,"station_name":"Gang Sentiong","time":8,"is_transit":false,"transit":false,"i_long":106.850107,"distance":1567,"line":11},{"i_lat":-6.193792,"time":1,"transit":false,"station_name":"Kramat","i_long":106.855437,"is_transit":false,"distance":973,"station_id":"KMT","line":11},{"time":2,"i_lat":-6.209188,"line":11,"station_name":"Pondok Jati","is_transit":false,"distance":1829,"transit":false,"i_long":106.861737,"station_id":"POK"},{"is_transit":true,"distance":1236,"station_id":"JNG","station_name":"Jatinegara","line":0,"transit":true,"i_lat":-6.215091,"time":9,"i_long":106.86807400000001},{"i_lat":-6.2135,"transit":false,"station_id":"KLD","line":1,"distance":3395,"is_transit":false,"station_name":"Klender","time":3,"i_long":106.899548},{"i_lat":-6.215568,"time":2,"line":0,"distance":3100,"transit":false,"i_long":106.922662,"is_transit":false,"station_id":"BUA","station_name":"Buaran"},{"station_name":"Klenderbaru","is_transit":false,"time":1,"distance":1305,"station_id":"KLDB","transit":false,"i_lat":-6.217455,"i_long":106.939679,"line":1},{"line":0,"station_id":"CUK","station_name":"Cakung","transit":false,"distance":1385,"is_transit":false,"time":8,"i_lat":-6.219053,"i_long":106.951283},{"transit":false,"is_transit":false,"time":3,"i_lat":-6.224515,"station_name":"Kranji","distance":3097,"station_id":"KRI","i_long":106.977657,"line":1},{"i_lat":-6.236616,"is_transit":false,"station_name":"Bekasi","line":0,"distance":2520,"i_long":106.997013,"station_id":"BKS","transit":false,"time":4},{"distance":2368,"station_id":"BKST","i_lat":-6.248029,"transit":false,"i_long":107.016735,"time":2,"station_name":"Bekasi Timur","line":0,"is_transit":false},{"distance":4460,"i_lat":-6.258864,"is_transit":false,"i_long":107.055722,"time":7,"station_id":"TB","station_name":"Tambun","line":1,"transit":false},{"is_transit":false,"line":0,"i_long":107.083084,"distance":3420,"station_name":"Cibitung","transit":false,"time":3,"i_lat":-6.261877,"station_id":"CIT"},{"line":1,"station_id":"TLM","time":2,"i_lat":-6.262938,"transit":false,"is_transit":false,"i_long":107.093313,"station_name":"Metland Telaga Murni","distance":2800}]]}