{"data":[[{"station_id":"TTI","time":0,"i_long":106.64657,"line":5,"is_transit":false,"distance":0,"i_lat":-6.17331,"transit":false,"station_name":"Tanah Tinggi"},{"is_transit":false,"i_long":106.665036,"i_lat":-6.171811,"distance":2028,"transit":false,"station_name":"Batuceper","station_id":"BPR","time":3,"line":5},{"station_name":"Poris","station_id":"PI","transit":false,"time":3,"i_lat":-6.169933,"distance":1834,"is_transit":false,"i_long":106.679458,"line":5},{"station_id":"KDS","transit":false,"line":5,"distance":2548,"is_transit":false,"station_name":"Kalideres","time":3,"i_long":106.701612,"i_lat":-6.166068},{"is_transit":false,"station_name":"Rawa Buaya","distance":2504,"transit":false,"time":3,"line":5,"i_lat":-6.162758,"i_long":106.723064,"station_id":"RW"},{"i_lat":-6.159876,"is_transit":false,"time":4,"station_name":"Bojongindah","transit":false,"i_long":106.737035,"distance":1152,"station_id":"BOI","line":5},{"i_lat":-6.1587309999999995,"distance":2334,"i_long":106.756522,"transit":false,"time":2,"line":5,"station_name":"Taman Kota","station_id":"TKO","is_transit":false},{"distance":1614,"transit":false,"station_id":"PSG","i_lat":-6.161433,"i_long":106.771379,"station_name":"Pesing","is_transit":false,"time":2,"line":5},{"distance":2036,"i_lat":-6.162021,"i_long":106.788277,"station_name":"Grogol","station_id":"GGL","is_transit":false,"transit":false,"time":2,"line":5},{"station_name":"Duri","distance":1700,"transit":true,"time":3,"is_transit":true,"line":1,"station_id":"DU","i_lat":-6.155215,"i_long":106.800832},{"transit":false,"distance":3632,"i_long":106.811091,"is_transit":false,"i_lat":-6.185545,"time":8,"station_id":"THB","line":1,"station_name":"Tanah Abang"},{"transit":false,"is_transit":false,"station_id":"KAT","station_name":"Karet","distance":2029,"time":5,"line":1,"i_long":106.816351,"i_lat":-6.20132},{"i_lat":-6.201433,"i_long":106.819881,"station_id":"SUDB","line":1,"time":1,"transit":false,"station_name":"Sudirman Baru","is_transit":false,"distance":471},{"station_id":"SUD","station_name":"Sudirman","transit":false,"distance":280,"time":1,"line":1,"i_lat":-6.202263,"is_transit":false,"i_long":106.822649},{"station_id":"MRI","line":2,"transit":false,"distance":3186,"is_transit":false,"time":4,"i_lat":-6.209883,"i_long":106.84912,"station_name":"Manggarai"},{"station_id":"MTR","station_name":"Matraman","distance":1275,"time":2,"i_long":106.858896,"i_lat":-6.212485,"line":1,"transit":false,"is_transit":false},{"i_long":106.86807400000001,"i_lat":-6.215091,"transit":false,"station_id":"JNG","is_transit":false,"station_name":"Jatinegara","time":8,"line":1,"distance":1377},{"station_id":"KLD","line":1,"distance":3395,"i_lat":-6.2135,"is_transit":false,"transit":false,"i_long":106.899548,"station_name":"Klender","time":3},{"is_transit":false,"station_name":"Buaran","transit":false,"distance":3100,"i_long":106.922662,"i_lat":-6.215568,"station_id":"BUA","time":2,"line":1},{"time":1,"i_lat":-6.217455,"station_name":"Klenderbaru","i_long":106.939679,"transit":false,"is_transit":false,"line":1,"distance":1305,"station_id":"KLDB"},{"i_lat":-6.219053,"i_long":106.951283,"line":1,"transit":false,"is_transit":false,"time":8,"station_name":"Cakung","distance":1385,"station_id":"CUK"},{"is_transit":false,"station_id":"KRI","i_lat":-6.224515,"distance":3097,"i_long":106.977657,"station_name":"Kranji","time":3,"transit":false,"line":1},{"is_transit":false,"station_name":"Bekasi","i_long":106.997013,"distance":2520,"i_lat":-6.236616,"station_id":"BKS","time":4,"line":1,"transit":false},{"time":2,"is_transit":false,"station_name":"Bekasi Timur","station_id":"BKST","i_long":107.016735,"distance":2368,"line":1,"transit":false,"i_lat":-6.248029},{"station_id":"TB","i_lat":-6.258864,"line":1,"is_transit":false,"station_name":"Tambun","i_long":107.055722,"transit":false,"time":7,"distance":4460},{"transit":false,"i_lat":-6.261877,"time":3,"station_id":"CIT","i_long":107.083084,"distance":3420,"station_name":"Cibitung","line":1,"is_transit":false},{"distance":2800,"station_id":"TLM","is_transit":false,"time":2,"station_name":"Metland Telaga Murni","i_long":107.093313,"i_lat":-6.262938,"transit":false,"line":1},{"station_name":"Cikarang","station_id":"CKR","transit":false,"line":1,"i_long":107.144613,"is_transit":false,"i_lat":-6.2553149999999995,"time":4,"distance":3689}],[{"i_lat":-6.17331,"i_long":106.64657,"line":5,"transit":false,"station_id":"TTI","distance":0,"station_name":"Tanah Tinggi","time":0,"is_transit":false},{"i_long":106.665036,"line":5,"is_transit":false,"distance":2028,"transit":false,"station_id":"BPR","time":3,"station_name":"Batuceper","i_lat":-6.171811},{"station_name":"Poris","is_transit":false,"i_lat":-6.169933,"time":3,"i_long":106.679458,"line":5,"distance":1834,"transit":false,"station_id":"PI"},{"i_long":106.701612,"is_transit":false,"transit":false,"i_lat":-6.166068,"distance":2548,"station_name":"Kalideres","line":5,"time":3,"station_id":"KDS"},{"is_transit":false,"transit":false,"line":5,"station_id":"RW","time":3,"i_lat":-6.162758,"i_long":106.723064,"station_name":"Rawa Buaya","distance":2504},{"line":5,"distance":1152,"station_id":"BOI","i_long":106.737035,"transit":false,"is_transit":false,"station_name":"Bojongindah","i_lat":-6.159876,"time":4},{"station_id":"TKO","distance":2334,"time":2,"i_lat":-6.1587309999999995,"i_long":106.756522,"transit":false,"line":5,"is_transit":false,"station_name":"Taman Kota"},{"i_lat":-6.161433,"i_long":106.771379,"line":5,"distance":1614,"station_name":"Pesing","transit":false,"is_transit":false,"station_id":"PSG","time":2},{"station_name":"Grogol","i_lat":-6.162021,"is_transit":false,"line":5,"i_long":106.788277,"distance":2036,"transit":false,"time":2,"station_id":"GGL"},{"i_lat":-6.155215,"transit":true,"time":3,"station_name":"Duri","station_id":"DU","distance":1700,"i_long":106.800832,"line":1,"is_transit":true},{"time":4,"transit":false,"line":1,"station_name":"Angke","i_long":106.79867,"i_lat":-6.144674,"station_id":"AK","distance":1230,"is_transit":false},{"transit":true,"i_lat":-6.132549,"line":4,"time":9,"station_id":"KPB","station_name":"Kampung Bandan","i_long":106.826365,"is_transit":true,"distance":4102},{"i_lat":-6.14505,"distance":1444,"station_name":"Rajawali","time":3,"is_transit":false,"station_id":"RJW","i_long":106.836569,"line":11,"transit":false},{"station_id":"KMO","i_long":106.839204,"is_transit":false,"station_name":"Kemayoran","distance":1901,"time":5,"i_lat":-6.161728,"line":11,"transit":false},{"station_id":"PSE","transit":false,"line":11,"distance":1436,"time":4,"is_transit":false,"i_long":106.84368,"station_name":"Pasar Senen","i_lat":-6.174784},{"transit":false,"station_name":"Gang Sentiong","line":11,"is_transit":false,"i_lat":-6.185975,"i_long":106.850107,"station_id":"GST","time":8,"distance":1567},{"line":11,"distance":973,"station_id":"KMT","time":1,"transit":false,"i_lat":-6.193792,"i_long":106.855437,"is_transit":false,"station_name":"Kramat"},{"line":11,"is_transit":false,"distance":1829,"i_lat":-6.209188,"station_id":"POK","i_long":106.861737,"time":2,"transit":false,"station_name":"Pondok Jati"},{"transit":true,"time":9,"i_long":106.86807400000001,"i_lat":-6.215091,"is_transit":true,"station_name":"Jatinegara","distance":1236,"station_id":"JNG","line":1},{"is_transit":false,"station_name":"Klender","transit":false,"time":3,"i_long":106.899548,"i_lat":-6.2135,"station_id":"KLD","line":1,"distance":3395},{"is_transit":false,"distance":3100,"time":2,"station_name":"Buaran","station_id":"BUA","i_lat":-6.215568,"i_long":106.922662,"line":1,"transit":false},{"i_long":106.939679,"station_id":"KLDB","is_transit":false,"transit":false,"i_lat":-6.217455,"station_name":"Klenderbaru","distance":1305,"time":1,"line":1},{"i_long":106.951283,"station_id":"CUK","i_lat":-6.219053,"time":8,"is_transit":false,"distance":1385,"station_name":"Cakung","line":1,"transit":false},{"i_long":106.977657,"line":1,"station_name":"Kranji","time":3,"distance":3097,"i_lat":-6.224515,"transit":false,"is_transit":false,"station_id":"KRI"},{"transit":false,"distance":2520,"time":4,"station_id":"BKS","i_long":106.997013,"is_transit":false,"station_name":"Bekasi","line":1,"i_lat":-6.236616},{"time":2,"line":1,"i_long":107.016735,"station_name":"Bekasi Timur","i_lat":-6.248029,"transit":false,"is_transit":false,"distance":2368,"station_id":"BKST"},{"distance":4460,"station_id":"TB","line":1,"i_lat":-6.258864,"time":7,"is_transit":false,"transit":false,"i_long":107.055722,"station_name":"Tambun"},{"line":1,"station_name":"Cibitung","i_long":107.083084,"transit":false,"is_transit":false,"distance":3420,"station_id":"CIT","time":3,"i_lat":-6.261877},{"i_long":107.093313,"time":2,"distance":2800,"line":1,"is_transit":false,"station_name":"Metland Telaga Murni","transit":false,"station_id":"TLM","i_lat":-6.262938},{"i_lat":-6.2553149999999995,"is_transit":false,"transit":false,"time":4,"station_id":"CKR","i_long":107.144613,"station_name":"Cikarang","distance":3689,"line":1}],[{"i_lat":-6.17331,"station_id":"TTI","station_name":"Tanah Tinggi","time":0,"i_long":106.64657,"line":5,"is_transit":false,"distance":0,"transit":false},{"i_long":106.665036,"distance":2028,"is_transit":false,"station_name":"Batuceper","station_id":"BPR","time":3,"line":5,"transit":false,"i_lat":-6.171811},{"line":5,"transit":false,"distance":1834,"station_id":"PI","time":3,"station_name":"Poris","is_transit":false,"i_lat":-6.169933,"i_long":106.679458},{"is_transit":false,"time":3,"i_long":106.701612,"station_name":"Kalideres","station_id":"KDS","transit":false,"distance":2548,"i_lat":-6.166068,"line":5},{"line":5,"distance":2504,"transit":false,"i_long":106.723064,"is_transit":false,"station_id":"RW","i_lat":-6.162758,"time":3,"station_name":"Rawa Buaya"},{"distance":1152,"station_id":"BOI","i_lat":-6.159876,"station_name":"Bojongindah","i_long":106.737035,"is_transit":false,"time":4,"transit":false,"line":5},{"time":2,"i_long":106.756522,"distance":2334,"line":5,"transit":false,"is_transit":false,"station_id":"TKO","i_lat":-6.1587309999999995,"station_name":"Taman Kota"},{"is_transit":false,"i_long":106.771379,"line":5,"station_name":"Pesing","i_lat":-6.161433,"distance":1614,"station_id":"PSG","transit":false,"time":2},{"distance":2036,"i_lat":-6.162021,"station_name":"Grogol","time":2,"is_transit":false,"i_long":106.788277,"station_id":"GGL","transit":false,"line":5},{"station_name":"Duri","transit":true,"station_id":"DU","is_transit":true,"distance":1700,"i_lat":-6.155215,"i_long":106.800832,"line":1,"time":3},{"distance":1230,"station_name":"Angke","i_long":106.79867,"time":4,"i_lat":-6.144674,"station_id":"AK","is_transit":false,"transit":false,"line":1},{"is_transit":true,"i_lat":-6.132549,"station_id":"KPB","distance":4102,"line":4,"transit":true,"time":9,"i_long":106.826365,"station_name":"Kampung Bandan"},{"is_transit":true,"i_long":106.812439,"i_lat":-6.137569,"station_name":"Jakarta Kota","time":3,"distance":1364,"transit":true,"line":2,"station_id":"JAKK"},{"station_id":"JAY","is_transit":false,"station_name":"Jayakarta","transit":false,"i_long":106.820901,"distance":1264,"time":4,"i_lat":-6.141205,"line":2},{"is_transit":false,"time":2,"station_name":"Manggabesar","distance":1080,"transit":false,"i_long":106.82482,"station_id":"MGB","line":2,"i_lat":-6.149769},{"is_transit":false,"station_name":"Sawah Besar","station_id":"SW","line":2,"i_long":106.827103,"distance":906,"transit":false,"time":2,"i_lat":-6.160725},{"i_lat":-6.166716,"transit":false,"is_transit":false,"station_id":"JUA","time":2,"station_name":"Juanda","i_long":106.828284,"distance":1149,"line":2},{"distance":2015,"i_lat":-6.186295,"time":4,"line":2,"is_transit":false,"station_name":"Gondangdia","transit":false,"station_id":"GDD","i_long":106.832183},{"time":3,"station_name":"Cikini","is_transit":false,"station_id":"CKI","line":2,"distance":1750,"transit":false,"i_long":106.840169,"i_lat":-6.198556},{"i_long":106.84912,"distance":1590,"i_lat":-6.209883,"line":2,"time":4,"is_transit":true,"station_name":"Manggarai","station_id":"MRI","transit":true},{"i_long":106.858896,"is_transit":false,"line":1,"distance":1275,"station_name":"Matraman","time":2,"i_lat":-6.212485,"station_id":"MTR","transit":false},{"i_long":106.86807400000001,"is_transit":false,"station_id":"JNG","transit":false,"i_lat":-6.215091,"line":1,"distance":1377,"station_name":"Jatinegara","time":8},{"transit":false,"time":3,"station_id":"KLD","is_transit":false,"station_name":"Klender","i_long":106.899548,"distance":3395,"i_lat":-6.2135,"line":1},{"station_id":"BUA","time":2,"i_long":106.922662,"line":1,"station_name":"Buaran","transit":false,"i_lat":-6.215568,"is_transit":false,"distance":3100},{"station_name":"Klenderbaru","is_transit":false,"station_id":"KLDB","time":1,"i_lat":-6.217455,"i_long":106.939679,"line":1,"transit":false,"distance":1305},{"i_lat":-6.219053,"i_long":106.951283,"transit":false,"station_name":"Cakung","time":8,"line":1,"station_id":"CUK","is_transit":false,"distance":1385},{"station_id":"KRI","line":1,"i_long":106.977657,"transit":false,"i_lat":-6.224515,"station_name":"Kranji","time":3,"is_transit":false,"distance":3097},{"transit":false,"i_lat":-6.236616,"distance":2520,"time":4,"station_name":"Bekasi","is_transit":false,"station_id":"BKS","i_long":106.997013,"line":1},{"i_lat":-6.248029,"station_name":"Bekasi Timur","is_transit":false,"line":1,"transit":false,"i_long":107.016735,"distance":2368,"time":2,"station_id":"BKST"},{"is_transit":false,"time":7,"i_lat":-6.258864,"line":1,"i_long":107.055722,"station_name":"Tambun","transit":false,"distance":4460,"station_id":"TB"},{"transit":false,"time":3,"i_lat":-6.261877,"i_long":107.083084,"line":1,"distance":3420,"is_transit":false,"station_name":"Cibitung","station_id":"CIT"},{"i_long":107.093313,"distance":2800,"time":2,"i_lat":-6.262938,"line":1,"is_transit":false,"station_id":"TLM","transit":false,"station_name":"Metland Telaga Murni"},{"distance":3689,"station_id":"CKR","station_name":"Cikarang","is_transit":false,"i_lat":-6.2553149999999995,"line":1,"i_long":107.144613,"transit":false,"time":4}],[{"station_id":"TTI","station_name":"Tanah Tinggi","line":5,"is_transit":false,"distance":0,"transit":false,"time":0,"i_lat":-6.17331,"i_long":106.64657},{"station_name":"Batuceper","distance":2028,"i_long":106.665036,"time":3,"is_transit":false,"transit":false,"line":5,"i_lat":-6.171811,"station_id":"BPR"},{"distance":1834,"transit":false,"time":3,"line":5,"i_lat":-6.169933,"is_transit":false,"station_name":"Poris","station_id":"PI","i_long":106.679458},{"line":5,"is_transit":false,"station_name":"Kalideres","time":3,"distance":2548,"transit":false,"station_id":"KDS","i_lat":-6.166068,"i_long":106.701612},{"station_name":"Rawa Buaya","distance":2504,"is_transit":false,"station_id":"RW","i_lat":-6.162758,"i_long":106.723064,"transit":false,"time":3,"line":5},{"line":5,"i_long":106.737035,"station_name":"Bojongindah","is_transit":false,"distance":1152,"transit":false,"station_id":"BOI","time":4,"i_lat":-6.159876},{"distance":2334,"time":2,"station_name":"Taman Kota","line":5,"is_transit":false,"transit":false,"i_long":106.756522,"station_id":"TKO","i_lat":-6.1587309999999995},{"i_long":106.771379,"distance":1614,"station_name":"Pesing","line":5,"time":2,"is_transit":false,"station_id":"PSG","transit":false,"i_lat":-6.161433},{"is_transit":false,"i_lat":-6.162021,"time":2,"transit":false,"station_id":"GGL","distance":2036,"i_long":106.788277,"line":5,"station_name":"Grogol"},{"distance":1700,"is_transit":true,"time":3,"i_long":106.800832,"line":1,"station_id":"DU","i_lat":-6.155215,"transit":true,"station_name":"Duri"},{"time":8,"line":1,"transit":false,"i_long":106.811091,"distance":3632,"is_transit":false,"station_id":"THB","station_name":"Tanah Abang","i_lat":-6.185545},{"station_name":"Karet","distance":2029,"station_id":"KAT","is_transit":false,"time":5,"i_lat":-6.20132,"line":1,"i_long":106.816351,"transit":false},{"line":1,"distance":471,"is_transit":false,"station_name":"Sudirman Baru","time":1,"station_id":"SUDB","i_long":106.819881,"transit":false,"i_lat":-6.201433},{"distance":280,"station_name":"Sudirman","i_long":106.822649,"transit":false,"time":1,"line":1,"is_transit":false,"i_lat":-6.202263,"station_id":"SUD"},{"time":4,"i_long":106.84912,"is_transit":true,"station_name":"Manggarai","station_id":"MRI","distance":3186,"i_lat":-6.209883,"transit":true,"line":2},{"station_id":"CKI","is_transit":false,"i_lat":-6.198556,"transit":false,"line":2,"distance":1590,"time":4,"i_long":106.840169,"station_name":"Cikini"},{"station_id":"GDD","transit":false,"time":3,"line":2,"station_name":"Gondangdia","i_lat":-6.186295,"i_long":106.832183,"distance":1750,"is_transit":false},{"is_transit":false,"time":4,"station_id":"JUA","i_long":106.828284,"i_lat":-6.166716,"line":2,"distance":2015,"transit":false,"station_name":"Juanda"},{"distance":1149,"station_name":"Sawah Besar","line":2,"station_id":"SW","transit":false,"time":2,"i_long":106.827103,"i_lat":-6.160725,"is_transit":false},{"is_transit":false,"i_long":106.82482,"line":2,"distance":906,"station_name":"Manggabesar","transit":false,"time":2,"station_id":"MGB","i_lat":-6.149769},{"distance":1080,"i_lat":-6.141205,"is_transit":false,"i_long":106.820901,"station_name":"Jayakarta","time":2,"transit":false,"station_id":"JAY","line":2},{"i_lat":-6.137569,"i_long":106.812439,"line":2,"time":4,"station_name":"Jakarta Kota","distance":1264,"is_transit":true,"station_id":"JAKK","transit":true},{"station_id":"KPB","distance":1364,"transit":true,"line":4,"time":3,"i_lat":-6.132549,"i_long":106.826365,"is_transit":true,"station_name":"Kampung Bandan"},{"is_transit":false,"time":3,"station_id":"RJW","i_long":106.836569,"i_lat":-6.14505,"distance":1444,"line":11,"transit":false,"station_name":"Rajawali"},{"distance":1901,"is_transit":false,"line":11,"station_id":"KMO","station_name":"Kemayoran","time":5,"i_lat":-6.161728,"i_long":106.839204,"transit":false},{"transit":false,"line":11,"distance":1436,"i_lat":-6.174784,"station_name":"Pasar Senen","station_id":"PSE","i_long":106.84368,"time":4,"is_transit":false},{"station_id":"GST","station_name":"Gang Sentiong","time":8,"is_transit":false,"distance":1567,"transit":false,"i_lat":-6.185975,"i_long":106.850107,"line":11},{"distance":973,"i_lat":-6.193792,"line":11,"is_transit":false,"i_long":106.855437,"station_id":"KMT","station_name":"Kramat","time":1,"transit":false},{"station_id":"POK","distance":1829,"station_name":"Pondok Jati","time":2,"i_lat":-6.209188,"line":11,"is_transit":false,"transit":false,"i_long":106.861737},{"is_transit":true,"time":9,"i_lat":-6.215091,"line":1,"i_long":106.86807400000001,"station_name":"Jatinegara","distance":1236,"transit":true,"station_id":"JNG"},{"station_name":"Klender","line":1,"transit":false,"i_long":106.899548,"distance":3395,"is_transit":false,"time":3,"i_lat":-6.2135,"station_id":"KLD"},{"i_long":106.922662,"station_name":"Buaran","distance":3100,"is_transit":false,"transit":false,"time":2,"line":1,"station_id":"BUA","i_lat":-6.215568},{"is_transit":false,"transit":false,"distance":1305,"station_name":"Klenderbaru","time":1,"line":1,"station_id":"KLDB","i_lat":-6.217455,"i_long":106.939679},{"station_id":"CUK","transit":false,"time":8,"i_lat":-6.219053,"distance":1385,"is_transit":false,"i_long":106.951283,"line":1,"station_name":"Cakung"},{"station_name":"Kranji","i_lat":-6.224515,"line":1,"is_transit":false,"distance":3097,"station_id":"KRI","transit":false,"i_long":106.977657,"time":3},{"i_long":106.997013,"station_name":"Bekasi","transit":false,"is_transit":false,"time":4,"line":1,"distance":2520,"station_id":"BKS","i_lat":-6.236616},{"time":2,"distance":2368,"i_lat":-6.248029,"i_long":107.016735,"line":1,"station_name":"Bekasi Timur","station_id":"BKST","is_transit":false,"transit":false},{"distance":4460,"i_long":107.055722,"transit":false,"time":7,"station_id":"TB","i_lat":-6.258864,"is_transit":false,"station_name":"Tambun","line":1},{"transit":false,"i_lat":-6.261877,"line":1,"distance":3420,"is_transit":false,"station_id":"CIT","i_long":107.083084,"time":3,"station_name":"Cibitung"},{"i_long":107.093313,"time":2,"distance":2800,"i_lat":-6.262938,"line":1,"station_name":"Metland Telaga Murni","transit":false,"is_transit":false,"station_id":"TLM"},{"is_transit":false,"station_name":"Cikarang","station_id":"CKR","transit":false,"i_lat":-6.2553149999999995,"line":1,"time":4,"distance":3689,"i_long":107.144613}]]}