{"data":[[{"distance":0,"is_transit":false,"station_name":"Tanah Tinggi","transit":false,"time":0,"line":5,"i_long":106.64657,"station_id":"TTI","i_lat":-6.17331},{"time":3,"station_name":"Batuceper","i_lat":-6.171811,"line":0,"station_id":"BPR","i_long":106.665036,"distance":2028,"is_transit":false,"transit":false},{"station_id":"PI","transit":false,"time":3,"station_name":"Poris","line":5,"distance":1834,"is_transit":false,"i_lat":-6.169933,"i_long":106.679458},{"station_id":"KDS","station_name":"Kalideres","line":5,"distance":2548,"transit":false,"i_lat":-6.166068,"i_long":106.701612,"time":3,"is_transit":false},{"station_id":"RW","station_name":"Rawa Buaya","is_transit":false,"distance":2504,"i_lat":-6.162758,"line":5,"time":3,"transit":false,"i_long":106.723064},{"station_id":"BOI","distance":1152,"station_name":"Bojongindah","is_transit":false,"i_lat":-6.159876,"transit":false,"i_long":106.737035,"line":0,"time":4},{"is_transit":false,"distance":2334,"transit":false,"time":2,"station_name":"Taman Kota","station_id":"TKO","i_lat":-6.1587309999999995,"line":5,"i_long":106.756522},{"station_name":"Pesing","transit":false,"line":5,"time":2,"is_transit":false,"distance":1614,"station_id":"PSG","i_lat":-6.161433,"i_long":106.771379},{"line":5,"i_lat":-6.162021,"station_name":"Grogol","distance":2036,"time":2,"i_long":106.788277,"is_transit":false,"station_id":"GGL","transit":false},{"is_transit":true,"transit":true,"i_lat":-6.155215,"distance":1700,"i_long":106.800832,"station_id":"DU","station_name":"Duri","time":3,"line":1},{"transit":false,"distance":1230,"time":4,"line":0,"is_transit":false,"station_name":"Angke","station_id":"AK","i_lat":-6.144674,"i_long":106.79867},{"transit":false,"i_long":106.826365,"station_id":"KPB","station_name":"Kampung Bandan","line":0,"distance":4102,"is_transit":true,"i_lat":-6.132549,"time":9},{"station_id":"AC","station_name":"Ancol","time":4,"i_lat":-6.128023,"transit":false,"i_long":106.84464,"line":0,"is_transit":false,"distance":2185}],[{"is_transit":false,"distance":0,"station_id":"TTI","station_name":"Tanah Tinggi","time":0,"i_long":106.64657,"i_lat":-6.17331,"transit":false,"line":5},{"i_long":106.665036,"is_transit":false,"line":0,"time":3,"station_name":"Batuceper","distance":2028,"i_lat":-6.171811,"transit":false,"station_id":"BPR"},{"station_name":"Poris","i_long":106.679458,"is_transit":false,"transit":false,"i_lat":-6.169933,"line":5,"station_id":"PI","distance":1834,"time":3},{"is_transit":false,"transit":false,"distance":2548,"station_name":"Kalideres","i_long":106.701612,"time":3,"i_lat":-6.166068,"line":5,"station_id":"KDS"},{"is_transit":false,"transit":false,"time":3,"station_name":"Rawa Buaya","station_id":"RW","i_long":106.723064,"i_lat":-6.162758,"line":5,"distance":2504},{"station_name":"Bojongindah","time":4,"station_id":"BOI","is_transit":false,"i_lat":-6.159876,"line":0,"transit":false,"distance":1152,"i_long":106.737035},{"line":5,"i_lat":-6.1587309999999995,"station_id":"TKO","distance":2334,"time":2,"transit":false,"is_transit":false,"station_name":"Taman Kota","i_long":106.756522},{"time":2,"line":5,"i_long":106.771379,"i_lat":-6.161433,"distance":1614,"transit":false,"is_transit":false,"station_id":"PSG","station_name":"Pesing"},{"i_lat":-6.162021,"station_name":"Grogol","station_id":"GGL","transit":false,"is_transit":false,"distance":2036,"line":5,"time":2,"i_long":106.788277},{"station_name":"Duri","is_transit":true,"transit":true,"time":3,"station_id":"DU","i_lat":-6.155215,"distance":1700,"i_long":106.800832,"line":1},{"station_id":"THB","time":8,"transit":false,"is_transit":true,"station_name":"Tanah Abang","distance":3632,"i_long":106.811091,"line":1,"i_lat":-6.185545},{"is_transit":false,"time":5,"distance":2029,"i_lat":-6.20132,"station_name":"Karet","i_long":106.816351,"line":1,"transit":false,"station_id":"KAT"},{"line":1,"distance":471,"time":1,"i_lat":-6.201433,"i_long":106.819881,"transit":false,"station_name":"Sudirman Baru","is_transit":false,"station_id":"SUDB"},{"i_long":106.822649,"line":1,"distance":280,"transit":false,"station_id":"SUD","time":1,"i_lat":-6.202263,"is_transit":false,"station_name":"Sudirman"},{"station_name":"Manggarai","station_id":"MRI","i_long":106.84912,"line":0,"distance":3186,"transit":true,"time":4,"is_transit":true,"i_lat":-6.209883},{"i_long":106.840169,"station_name":"Cikini","i_lat":-6.198556,"transit":false,"is_transit":false,"line":0,"distance":1590,"time":4,"station_id":"CKI"},{"station_name":"Gondangdia","distance":1750,"transit":false,"i_long":106.832183,"line":2,"time":3,"i_lat":-6.186295,"station_id":"GDD","is_transit":false},{"i_long":106.828284,"distance":2015,"station_id":"JUA","is_transit":false,"transit":false,"line":2,"time":4,"i_lat":-6.166716,"station_name":"Juanda"},{"line":2,"station_id":"SW","distance":1149,"station_name":"Sawah Besar","time":2,"i_lat":-6.160725,"is_transit":false,"i_long":106.827103,"transit":false},{"station_id":"MGB","i_long":106.82482,"line":2,"transit":false,"i_lat":-6.149769,"is_transit":false,"station_name":"Manggabesar","distance":906,"time":2},{"is_transit":false,"station_id":"JAY","i_lat":-6.141205,"i_long":106.820901,"transit":false,"station_name":"Jayakarta","distance":1080,"line":7,"time":2},{"i_lat":-6.137569,"station_id":"JAKK","station_name":"Jakarta Kota","line":0,"is_transit":true,"i_long":106.812439,"distance":1264,"time":4,"transit":true},{"transit":false,"station_id":"KPB","distance":1364,"time":3,"i_lat":-6.132549,"i_long":106.826365,"line":0,"station_name":"Kampung Bandan","is_transit":true},{"line":0,"is_transit":false,"distance":2185,"transit":false,"station_name":"Ancol","time":4,"i_long":106.84464,"station_id":"AC","i_lat":-6.128023}],[{"i_lat":-6.17331,"i_long":106.64657,"distance":0,"station_id":"TTI","station_name":"Tanah Tinggi","is_transit":false,"transit":false,"line":5,"time":0},{"transit":false,"i_long":106.665036,"station_id":"BPR","distance":2028,"line":0,"time":3,"is_transit":false,"station_name":"Batuceper","i_lat":-6.171811},{"time":3,"line":5,"station_name":"Poris","i_long":106.679458,"i_lat":-6.169933,"distance":1834,"is_transit":false,"station_id":"PI","transit":false},{"transit":false,"time":3,"i_lat":-6.166068,"station_id":"KDS","i_long":106.701612,"distance":2548,"is_transit":false,"line":5,"station_name":"Kalideres"},{"is_transit":false,"station_name":"Rawa Buaya","station_id":"RW","i_lat":-6.162758,"distance":2504,"i_long":106.723064,"line":5,"time":3,"transit":false},{"distance":1152,"is_transit":false,"line":0,"station_name":"Bojongindah","station_id":"BOI","time":4,"i_long":106.737035,"transit":false,"i_lat":-6.159876},{"distance":2334,"time":2,"i_long":106.756522,"is_transit":false,"i_lat":-6.1587309999999995,"station_name":"Taman Kota","station_id":"TKO","line":5,"transit":false},{"i_long":106.771379,"transit":false,"distance":1614,"is_transit":false,"station_id":"PSG","station_name":"Pesing","i_lat":-6.161433,"line":5,"time":2},{"station_id":"GGL","transit":false,"distance":2036,"time":2,"is_transit":false,"station_name":"Grogol","i_long":106.788277,"line":5,"i_lat":-6.162021},{"i_lat":-6.155215,"i_long":106.800832,"station_id":"DU","is_transit":true,"distance":1700,"station_name":"Duri","line":1,"transit":true,"time":3},{"distance":3632,"i_lat":-6.185545,"transit":false,"station_id":"THB","i_long":106.811091,"line":1,"station_name":"Tanah Abang","is_transit":true,"time":8},{"station_name":"Karet","i_lat":-6.20132,"transit":false,"is_transit":false,"station_id":"KAT","distance":2029,"time":5,"line":1,"i_long":106.816351},{"station_name":"Sudirman Baru","time":1,"line":1,"transit":false,"i_long":106.819881,"i_lat":-6.201433,"is_transit":false,"station_id":"SUDB","distance":471},{"station_id":"SUD","i_long":106.822649,"station_name":"Sudirman","is_transit":false,"time":1,"distance":280,"line":1,"i_lat":-6.202263,"transit":false},{"is_transit":true,"i_long":106.84912,"station_id":"MRI","time":4,"line":0,"i_lat":-6.209883,"transit":false,"station_name":"Manggarai","distance":3186},{"transit":false,"i_long":106.858896,"time":2,"line":1,"station_id":"MTR","station_name":"Matraman","is_transit":false,"i_lat":-6.212485,"distance":1275},{"station_id":"JNG","line":0,"transit":true,"is_transit":true,"station_name":"Jatinegara","i_long":106.86807400000001,"distance":1377,"i_lat":-6.215091,"time":8},{"station_id":"POK","i_lat":-6.209188,"i_long":106.861737,"time":2,"distance":1236,"line":11,"is_transit":false,"station_name":"Pondok Jati","transit":false},{"line":11,"transit":false,"station_id":"KMT","time":2,"distance":1829,"is_transit":false,"station_name":"Kramat","i_lat":-6.193792,"i_long":106.855437},{"station_id":"GST","station_name":"Gang Sentiong","i_long":106.850107,"distance":973,"time":1,"transit":false,"line":11,"is_transit":false,"i_lat":-6.185975},{"distance":1567,"is_transit":false,"transit":false,"line":11,"i_lat":-6.174784,"i_long":106.84368,"station_name":"Pasar Senen","time":8,"station_id":"PSE"},{"line":11,"transit":false,"is_transit":false,"distance":1436,"i_long":106.839204,"station_name":"Kemayoran","station_id":"KMO","i_lat":-6.161728,"time":4},{"i_long":106.836569,"i_lat":-6.14505,"station_name":"Rajawali","time":5,"station_id":"RJW","is_transit":false,"line":11,"distance":1901,"transit":false},{"distance":1444,"line":0,"station_name":"Kampung Bandan","time":3,"i_lat":-6.132549,"i_long":106.826365,"transit":true,"is_transit":true,"station_id":"KPB"},{"transit":false,"station_id":"AC","time":4,"i_lat":-6.128023,"is_transit":false,"distance":2185,"station_name":"Ancol","line":0,"i_long":106.84464}]]}