{"data":[[{"distance":0,"station_id":"TTI","station_name":"Tanah Tinggi","time":0,"is_transit":false,"transit":false,"i_lat":-6.17331,"line":5,"i_long":106.64657},{"line":0,"distance":2028,"station_name":"Batuceper","i_long":106.665036,"is_transit":false,"station_id":"BPR","i_lat":-6.171811,"time":3,"transit":false},{"transit":false,"is_transit":false,"distance":1834,"station_name":"Poris","station_id":"PI","time":3,"line":5,"i_long":106.679458,"i_lat":-6.169933},{"station_id":"KDS","time":3,"i_long":106.701612,"is_transit":false,"station_name":"Kalideres","transit":false,"line":5,"i_lat":-6.166068,"distance":2548},{"transit":false,"i_long":106.723064,"line":5,"time":3,"station_name":"Rawa Buaya","is_transit":false,"i_lat":-6.162758,"distance":2504,"station_id":"RW"},{"time":4,"i_lat":-6.159876,"i_long":106.737035,"station_name":"Bojongindah","transit":false,"is_transit":false,"station_id":"BOI","line":0,"distance":1152},{"i_lat":-6.1587309999999995,"transit":false,"distance":2334,"station_id":"TKO","station_name":"Taman Kota","i_long":106.756522,"is_transit":false,"time":2,"line":5},{"line":5,"i_long":106.771379,"station_id":"PSG","is_transit":false,"station_name":"Pesing","transit":false,"time":2,"distance":1614,"i_lat":-6.161433},{"time":2,"transit":false,"distance":2036,"is_transit":false,"i_lat":-6.162021,"line":5,"station_name":"Grogol","i_long":106.788277,"station_id":"GGL"},{"station_id":"DU","time":3,"station_name":"Duri","i_lat":-6.155215,"i_long":106.800832,"line":1,"distance":1700,"is_transit":true,"transit":true},{"distance":3632,"i_long":106.811091,"station_name":"Tanah Abang","line":1,"time":8,"is_transit":true,"station_id":"THB","transit":false,"i_lat":-6.185545},{"station_id":"KAT","i_lat":-6.20132,"time":5,"station_name":"Karet","line":1,"distance":2029,"i_long":106.816351,"is_transit":false,"transit":false},{"i_long":106.819881,"time":1,"i_lat":-6.201433,"line":1,"station_name":"Sudirman Baru","is_transit":false,"distance":471,"station_id":"SUDB","transit":false},{"station_id":"SUD","time":1,"i_long":106.822649,"distance":280,"i_lat":-6.202263,"is_transit":false,"line":1,"transit":false,"station_name":"Sudirman"},{"is_transit":true,"station_id":"MRI","transit":true,"time":4,"i_long":106.84912,"station_name":"Manggarai","line":0,"i_lat":-6.209883,"distance":3186},{"distance":2610,"is_transit":false,"station_id":"TEB","i_lat":-6.226659,"transit":false,"line":2,"i_long":106.857948,"station_name":"Tebet","time":4},{"line":0,"i_long":106.856607,"station_id":"CW","station_name":"Cawang","transit":false,"is_transit":false,"time":2,"distance":1230,"i_lat":-6.242512},{"is_transit":false,"station_id":"DRN","transit":false,"i_lat":-6.255332,"line":0,"i_long":106.85449,"station_name":"Duren Kalibata","time":3,"distance":1546},{"station_name":"Pasar Minggu Baru","line":2,"i_lat":-6.263214,"distance":824,"time":2,"is_transit":false,"station_id":"PSMB","transit":false,"i_long":106.851577},{"transit":false,"station_name":"Pasar Minggu","is_transit":false,"i_long":106.843999,"line":2,"distance":2380,"station_id":"PSM","time":2,"i_lat":-6.2842400000000005},{"station_id":"TNT","transit":false,"time":4,"i_lat":-6.3080680000000005,"i_long":106.838896,"line":2,"distance":2820,"station_name":"Tanjung Barat","is_transit":false},{"distance":2671,"line":2,"station_name":"Lenteng Agung","i_long":106.832616,"station_id":"LNA","i_lat":-6.330363,"transit":false,"is_transit":false,"time":3},{"station_name":"Univ. Pancasila","i_lat":-6.339291,"transit":false,"is_transit":false,"time":2,"line":2,"distance":1029,"station_id":"UP","i_long":106.834175},{"station_id":"UI","line":2,"distance":2264,"is_transit":false,"i_lat":-6.360749,"station_name":"Univ. Indonesia","transit":false,"time":3,"i_long":106.831474},{"distance":1109,"is_transit":false,"station_id":"POC","i_lat":-6.369073,"station_name":"Pondok Cina","transit":false,"line":2,"i_long":106.831114,"time":2},{"i_long":106.819451,"station_name":"Depokbaru","time":4,"transit":false,"station_id":"DPB","line":0,"i_lat":-6.391065,"distance":2727,"is_transit":false},{"i_lat":-6.405256,"is_transit":false,"time":3,"line":0,"i_long":106.816926,"station_id":"DP","distance":1584,"station_name":"Depok","transit":false},{"station_id":"CTA","time":6,"transit":false,"line":1,"station_name":"Citayam","i_long":106.800298,"distance":5084,"i_lat":-6.448811,"is_transit":true},{"transit":false,"distance":6740,"time":10,"station_name":"Cibinong","i_lat":-6.46424,"is_transit":false,"line":0,"i_long":106.851978,"station_id":"CBN"},{"is_transit":false,"line":21,"station_id":"NMO","i_lat":-6.466285,"time":10,"i_long":106.905196,"distance":6527,"station_name":"Nambo","transit":false}],[{"i_long":106.64657,"station_name":"Tanah Tinggi","station_id":"TTI","is_transit":false,"distance":0,"time":0,"i_lat":-6.17331,"transit":false,"line":5},{"transit":false,"station_id":"BPR","is_transit":false,"station_name":"Batuceper","distance":2028,"i_lat":-6.171811,"time":3,"i_long":106.665036,"line":0},{"i_long":106.679458,"station_name":"Poris","is_transit":false,"transit":false,"distance":1834,"line":5,"station_id":"PI","time":3,"i_lat":-6.169933},{"station_id":"KDS","transit":false,"time":3,"i_lat":-6.166068,"station_name":"Kalideres","distance":2548,"is_transit":false,"i_long":106.701612,"line":5},{"is_transit":false,"transit":false,"time":3,"line":5,"i_lat":-6.162758,"distance":2504,"i_long":106.723064,"station_name":"Rawa Buaya","station_id":"RW"},{"transit":false,"line":0,"time":4,"is_transit":false,"i_long":106.737035,"i_lat":-6.159876,"distance":1152,"station_name":"Bojongindah","station_id":"BOI"},{"line":5,"station_name":"Taman Kota","distance":2334,"station_id":"TKO","transit":false,"is_transit":false,"time":2,"i_long":106.756522,"i_lat":-6.1587309999999995},{"distance":1614,"line":5,"i_long":106.771379,"time":2,"station_id":"PSG","station_name":"Pesing","is_transit":false,"transit":false,"i_lat":-6.161433},{"transit":false,"station_id":"GGL","station_name":"Grogol","i_long":106.788277,"line":5,"time":2,"i_lat":-6.162021,"distance":2036,"is_transit":false},{"distance":1700,"i_long":106.800832,"is_transit":true,"station_name":"Duri","transit":true,"station_id":"DU","time":3,"i_lat":-6.155215,"line":1},{"station_id":"AK","time":4,"i_lat":-6.144674,"is_transit":false,"station_name":"Angke","distance":1230,"transit":false,"i_long":106.79867,"line":0},{"distance":4102,"station_name":"Kampung Bandan","i_lat":-6.132549,"i_long":106.826365,"time":9,"line":0,"station_id":"KPB","transit":false,"is_transit":true},{"time":3,"line":0,"station_id":"JAKK","transit":true,"distance":1364,"station_name":"Jakarta Kota","is_transit":true,"i_long":106.812439,"i_lat":-6.137569},{"station_name":"Jayakarta","line":7,"transit":false,"time":4,"i_lat":-6.141205,"station_id":"JAY","i_long":106.820901,"distance":1264,"is_transit":false},{"line":2,"is_transit":false,"transit":false,"i_lat":-6.149769,"station_name":"Manggabesar","station_id":"MGB","distance":1080,"time":2,"i_long":106.82482},{"station_id":"SW","time":2,"is_transit":false,"i_long":106.827103,"station_name":"Sawah Besar","transit":false,"distance":906,"i_lat":-6.160725,"line":2},{"station_id":"JUA","station_name":"Juanda","time":2,"i_lat":-6.166716,"transit":false,"line":2,"is_transit":false,"distance":1149,"i_long":106.828284},{"station_id":"GDD","station_name":"Gondangdia","is_transit":false,"transit":false,"i_long":106.832183,"line":2,"distance":2015,"time":4,"i_lat":-6.186295},{"station_id":"CKI","transit":false,"distance":1750,"i_long":106.840169,"station_name":"Cikini","i_lat":-6.198556,"is_transit":false,"line":0,"time":3},{"transit":true,"line":0,"station_name":"Manggarai","is_transit":true,"i_long":106.84912,"i_lat":-6.209883,"time":4,"distance":1590,"station_id":"MRI"},{"i_lat":-6.226659,"station_name":"Tebet","station_id":"TEB","distance":2610,"time":4,"is_transit":false,"transit":false,"line":2,"i_long":106.857948},{"time":2,"distance":1230,"i_long":106.856607,"station_name":"Cawang","is_transit":false,"i_lat":-6.242512,"line":0,"transit":false,"station_id":"CW"},{"station_id":"DRN","i_lat":-6.255332,"line":0,"station_name":"Duren Kalibata","i_long":106.85449,"time":3,"transit":false,"distance":1546,"is_transit":false},{"time":2,"i_lat":-6.263214,"distance":824,"line":2,"station_id":"PSMB","is_transit":false,"station_name":"Pasar Minggu Baru","i_long":106.851577,"transit":false},{"i_lat":-6.2842400000000005,"station_id":"PSM","i_long":106.843999,"distance":2380,"transit":false,"line":2,"time":2,"station_name":"Pasar Minggu","is_transit":false},{"distance":2820,"line":2,"is_transit":false,"station_id":"TNT","time":4,"i_lat":-6.3080680000000005,"transit":false,"i_long":106.838896,"station_name":"Tanjung Barat"},{"station_name":"Lenteng Agung","time":3,"i_lat":-6.330363,"distance":2671,"station_id":"LNA","transit":false,"i_long":106.832616,"line":2,"is_transit":false},{"transit":false,"line":2,"distance":1029,"station_name":"Univ. Pancasila","is_transit":false,"time":2,"i_long":106.834175,"i_lat":-6.339291,"station_id":"UP"},{"time":3,"distance":2264,"station_id":"UI","i_lat":-6.360749,"is_transit":false,"i_long":106.831474,"line":2,"transit":false,"station_name":"Univ. Indonesia"},{"distance":1109,"line":2,"is_transit":false,"transit":false,"time":2,"station_id":"POC","station_name":"Pondok Cina","i_lat":-6.369073,"i_long":106.831114},{"distance":2727,"i_lat":-6.391065,"transit":false,"is_transit":false,"line":0,"station_id":"DPB","i_long":106.819451,"time":4,"station_name":"Depokbaru"},{"transit":false,"i_lat":-6.405256,"line":0,"is_transit":false,"station_name":"Depok","i_long":106.816926,"distance":1584,"time":3,"station_id":"DP"},{"transit":false,"is_transit":true,"time":6,"distance":5084,"station_name":"Citayam","station_id":"CTA","i_lat":-6.448811,"line":1,"i_long":106.800298},{"distance":6740,"is_transit":false,"station_id":"CBN","station_name":"Cibinong","transit":false,"time":10,"i_lat":-6.46424,"i_long":106.851978,"line":0},{"transit":false,"distance":6527,"is_transit":false,"i_long":106.905196,"i_lat":-6.466285,"station_name":"Nambo","line":21,"station_id":"NMO","time":10}],[{"station_id":"TTI","station_name":"Tanah Tinggi","is_transit":false,"distance":0,"time":0,"i_lat":-6.17331,"i_long":106.64657,"line":5,"transit":false},{"station_name":"Batuceper","time":3,"distance":2028,"station_id":"BPR","i_lat":-6.171811,"transit":false,"line":0,"i_long":106.665036,"is_transit":false},{"station_name":"Poris","distance":1834,"time":3,"i_lat":-6.169933,"i_long":106.679458,"is_transit":false,"transit":false,"line":5,"station_id":"PI"},{"is_transit":false,"distance":2548,"transit":false,"station_name":"Kalideres","line":5,"station_id":"KDS","time":3,"i_long":106.701612,"i_lat":-6.166068},{"i_long":106.723064,"transit":false,"station_name":"Rawa Buaya","time":3,"i_lat":-6.162758,"distance":2504,"line":5,"is_transit":false,"station_id":"RW"},{"station_id":"BOI","is_transit":false,"line":0,"station_name":"Bojongindah","i_lat":-6.159876,"distance":1152,"time":4,"transit":false,"i_long":106.737035},{"station_id":"TKO","i_lat":-6.1587309999999995,"transit":false,"time":2,"line":5,"station_name":"Taman Kota","distance":2334,"i_long":106.756522,"is_transit":false},{"distance":1614,"station_id":"PSG","i_lat":-6.161433,"station_name":"Pesing","time":2,"line":5,"is_transit":false,"transit":false,"i_long":106.771379},{"i_long":106.788277,"line":5,"transit":false,"distance":2036,"time":2,"station_id":"GGL","station_name":"Grogol","is_transit":false,"i_lat":-6.162021},{"line":1,"i_lat":-6.155215,"i_long":106.800832,"is_transit":true,"distance":1700,"time":3,"station_id":"DU","station_name":"Duri","transit":true},{"i_lat":-6.144674,"time":4,"is_transit":false,"station_id":"AK","i_long":106.79867,"distance":1230,"line":0,"station_name":"Angke","transit":false},{"line":0,"transit":true,"station_id":"KPB","is_transit":true,"distance":4102,"time":9,"i_lat":-6.132549,"station_name":"Kampung Bandan","i_long":106.826365},{"transit":false,"time":3,"station_id":"RJW","station_name":"Rajawali","i_lat":-6.14505,"is_transit":false,"line":11,"distance":1444,"i_long":106.836569},{"i_lat":-6.161728,"station_name":"Kemayoran","time":5,"i_long":106.839204,"line":11,"is_transit":false,"distance":1901,"station_id":"KMO","transit":false},{"station_id":"PSE","is_transit":false,"distance":1436,"station_name":"Pasar Senen","transit":false,"i_lat":-6.174784,"line":11,"i_long":106.84368,"time":4},{"distance":1567,"station_id":"GST","line":11,"is_transit":false,"i_long":106.850107,"time":8,"i_lat":-6.185975,"station_name":"Gang Sentiong","transit":false},{"station_name":"Kramat","i_long":106.855437,"i_lat":-6.193792,"line":11,"is_transit":false,"station_id":"KMT","transit":false,"distance":973,"time":1},{"time":2,"line":11,"station_name":"Pondok Jati","is_transit":false,"i_long":106.861737,"station_id":"POK","i_lat":-6.209188,"distance":1829,"transit":false},{"i_long":106.86807400000001,"line":0,"is_transit":true,"station_id":"JNG","distance":1236,"station_name":"Jatinegara","transit":true,"time":9,"i_lat":-6.215091},{"station_id":"MTR","transit":false,"time":2,"i_lat":-6.212485,"i_long":106.858896,"line":1,"is_transit":false,"distance":1377,"station_name":"Matraman"},{"station_name":"Manggarai","time":2,"line":0,"is_transit":true,"i_lat":-6.209883,"station_id":"MRI","transit":true,"i_long":106.84912,"distance":1275},{"is_transit":false,"station_id":"TEB","i_lat":-6.226659,"i_long":106.857948,"distance":2610,"station_name":"Tebet","line":2,"transit":false,"time":4},{"station_id":"CW","i_lat":-6.242512,"time":2,"distance":1230,"line":0,"is_transit":false,"transit":false,"station_name":"Cawang","i_long":106.856607},{"line":0,"is_transit":false,"transit":false,"time":3,"distance":1546,"i_lat":-6.255332,"station_name":"Duren Kalibata","i_long":106.85449,"station_id":"DRN"},{"station_id":"PSMB","distance":824,"i_long":106.851577,"is_transit":false,"line":2,"station_name":"Pasar Minggu Baru","transit":false,"i_lat":-6.263214,"time":2},{"is_transit":false,"transit":false,"time":2,"line":2,"station_id":"PSM","i_lat":-6.2842400000000005,"i_long":106.843999,"station_name":"Pasar Minggu","distance":2380},{"time":4,"station_id":"TNT","transit":false,"i_lat":-6.3080680000000005,"distance":2820,"line":2,"station_name":"Tanjung Barat","is_transit":false,"i_long":106.838896},{"is_transit":false,"distance":2671,"transit":false,"line":2,"i_lat":-6.330363,"i_long":106.832616,"station_name":"Lenteng Agung","station_id":"LNA","time":3},{"distance":1029,"is_transit":false,"station_name":"Univ. Pancasila","transit":false,"time":2,"i_lat":-6.339291,"i_long":106.834175,"station_id":"UP","line":2},{"distance":2264,"station_name":"Univ. Indonesia","station_id":"UI","time":3,"transit":false,"line":2,"is_transit":false,"i_lat":-6.360749,"i_long":106.831474},{"station_name":"Pondok Cina","station_id":"POC","i_lat":-6.369073,"distance":1109,"transit":false,"i_long":106.831114,"line":2,"is_transit":false,"time":2},{"distance":2727,"station_id":"DPB","transit":false,"station_name":"Depokbaru","time":4,"is_transit":false,"i_lat":-6.391065,"i_long":106.819451,"line":0},{"time":3,"is_transit":false,"i_long":106.816926,"station_id":"DP","i_lat":-6.405256,"station_name":"Depok","line":0,"distance":1584,"transit":false},{"time":6,"i_long":106.800298,"station_id":"CTA","distance":5084,"i_lat":-6.448811,"transit":false,"line":1,"is_transit":true,"station_name":"Citayam"},{"is_transit":false,"station_name":"Cibinong","line":0,"distance":6740,"station_id":"CBN","transit":false,"time":10,"i_long":106.851978,"i_lat":-6.46424},{"time":10,"is_transit":false,"station_name":"Nambo","transit":false,"i_lat":-6.466285,"i_long":106.905196,"distance":6527,"station_id":"NMO","line":21}]]}