{"data":[[{"station_name":"Tanah Tinggi","time":0,"transit":false,"distance":0,"line":5,"i_lat":-6.17331,"i_long":106.64657,"is_transit":false,"station_id":"TTI"},{"time":3,"is_transit":false,"distance":2028,"transit":false,"i_long":106.665036,"i_lat":-6.171811,"line":0,"station_name":"Batuceper","station_id":"BPR"},{"i_long":106.679458,"station_name":"Poris","is_transit":false,"station_id":"PI","time":3,"distance":1834,"transit":false,"line":5,"i_lat":-6.169933},{"time":3,"station_id":"KDS","transit":false,"distance":2548,"station_name":"Kalideres","i_lat":-6.166068,"i_long":106.701612,"line":5,"is_transit":false},{"i_lat":-6.162758,"time":3,"distance":2504,"i_long":106.723064,"station_name":"Rawa Buaya","is_transit":false,"transit":false,"station_id":"RW","line":5},{"station_name":"Bojongindah","is_transit":false,"line":0,"i_lat":-6.159876,"time":4,"station_id":"BOI","transit":false,"distance":1152,"i_long":106.737035},{"i_long":106.756522,"line":5,"station_name":"Taman Kota","time":2,"distance":2334,"transit":false,"is_transit":false,"station_id":"TKO","i_lat":-6.1587309999999995},{"transit":false,"i_lat":-6.161433,"is_transit":false,"line":5,"distance":1614,"time":2,"station_name":"Pesing","station_id":"PSG","i_long":106.771379},{"distance":2036,"line":5,"station_id":"GGL","station_name":"Grogol","i_lat":-6.162021,"i_long":106.788277,"is_transit":false,"time":2,"transit":false},{"station_id":"DU","transit":true,"is_transit":true,"line":1,"time":3,"i_long":106.800832,"i_lat":-6.155215,"station_name":"Duri","distance":1700},{"transit":false,"station_name":"Tanah Abang","distance":3632,"is_transit":true,"line":1,"time":8,"i_long":106.811091,"i_lat":-6.185545,"station_id":"THB"},{"distance":2029,"i_long":106.816351,"time":5,"station_name":"Karet","transit":false,"is_transit":false,"i_lat":-6.20132,"station_id":"KAT","line":1},{"i_lat":-6.201433,"is_transit":false,"line":1,"station_name":"Sudirman Baru","transit":false,"station_id":"SUDB","distance":471,"i_long":106.819881,"time":1},{"line":1,"i_long":106.822649,"transit":false,"station_name":"Sudirman","is_transit":false,"distance":280,"station_id":"SUD","i_lat":-6.202263,"time":1},{"transit":true,"is_transit":true,"i_long":106.84912,"distance":3186,"station_name":"Manggarai","line":0,"station_id":"MRI","i_lat":-6.209883,"time":4},{"i_long":106.857948,"is_transit":false,"time":4,"distance":2610,"station_id":"TEB","station_name":"Tebet","i_lat":-6.226659,"line":2,"transit":false},{"line":0,"transit":false,"time":2,"i_long":106.856607,"station_name":"Cawang","is_transit":false,"station_id":"CW","distance":1230,"i_lat":-6.242512},{"line":0,"distance":1546,"is_transit":false,"time":3,"transit":false,"station_name":"Duren Kalibata","i_lat":-6.255332,"i_long":106.85449,"station_id":"DRN"},{"time":2,"transit":false,"is_transit":false,"station_id":"PSMB","station_name":"Pasar Minggu Baru","distance":824,"i_lat":-6.263214,"i_long":106.851577,"line":2},{"i_long":106.843999,"station_id":"PSM","time":2,"station_name":"Pasar Minggu","is_transit":false,"distance":2380,"i_lat":-6.2842400000000005,"line":2,"transit":false},{"time":4,"station_id":"TNT","line":2,"transit":false,"station_name":"Tanjung Barat","is_transit":false,"i_lat":-6.3080680000000005,"i_long":106.838896,"distance":2820},{"i_long":106.832616,"station_name":"Lenteng Agung","transit":false,"i_lat":-6.330363,"station_id":"LNA","line":2,"distance":2671,"is_transit":false,"time":3},{"distance":1029,"line":2,"station_name":"Univ. Pancasila","station_id":"UP","is_transit":false,"time":2,"i_lat":-6.339291,"transit":false,"i_long":106.834175},{"line":2,"time":3,"station_name":"Univ. Indonesia","distance":2264,"is_transit":false,"station_id":"UI","i_lat":-6.360749,"transit":false,"i_long":106.831474}],[{"station_id":"TTI","transit":false,"i_long":106.64657,"is_transit":false,"station_name":"Tanah Tinggi","time":0,"line":5,"distance":0,"i_lat":-6.17331},{"transit":false,"line":0,"time":3,"station_id":"BPR","i_long":106.665036,"distance":2028,"station_name":"Batuceper","i_lat":-6.171811,"is_transit":false},{"time":3,"i_lat":-6.169933,"is_transit":false,"transit":false,"i_long":106.679458,"line":5,"distance":1834,"station_name":"Poris","station_id":"PI"},{"i_lat":-6.166068,"distance":2548,"station_name":"Kalideres","is_transit":false,"i_long":106.701612,"station_id":"KDS","line":5,"time":3,"transit":false},{"is_transit":false,"time":3,"i_long":106.723064,"transit":false,"line":5,"station_name":"Rawa Buaya","distance":2504,"station_id":"RW","i_lat":-6.162758},{"time":4,"station_id":"BOI","distance":1152,"station_name":"Bojongindah","transit":false,"i_long":106.737035,"i_lat":-6.159876,"line":0,"is_transit":false},{"i_lat":-6.1587309999999995,"station_name":"Taman Kota","i_long":106.756522,"distance":2334,"line":5,"is_transit":false,"transit":false,"station_id":"TKO","time":2},{"transit":false,"i_long":106.771379,"i_lat":-6.161433,"is_transit":false,"line":5,"station_name":"Pesing","distance":1614,"time":2,"station_id":"PSG"},{"i_lat":-6.162021,"transit":false,"time":2,"station_id":"GGL","line":5,"is_transit":false,"distance":2036,"i_long":106.788277,"station_name":"Grogol"},{"is_transit":true,"station_id":"DU","line":1,"time":3,"station_name":"Duri","transit":true,"i_long":106.800832,"i_lat":-6.155215,"distance":1700},{"station_id":"AK","distance":1230,"time":4,"i_long":106.79867,"station_name":"Angke","line":0,"i_lat":-6.144674,"transit":false,"is_transit":false},{"distance":4102,"station_name":"Kampung Bandan","time":9,"i_long":106.826365,"line":0,"i_lat":-6.132549,"transit":false,"station_id":"KPB","is_transit":true},{"is_transit":true,"distance":1364,"i_lat":-6.137569,"line":0,"station_name":"Jakarta Kota","i_long":106.812439,"transit":true,"time":3,"station_id":"JAKK"},{"distance":1264,"i_lat":-6.141205,"station_id":"JAY","i_long":106.820901,"station_name":"Jayakarta","time":4,"is_transit":false,"line":7,"transit":false},{"line":2,"i_lat":-6.149769,"distance":1080,"station_id":"MGB","is_transit":false,"station_name":"Manggabesar","transit":false,"i_long":106.82482,"time":2},{"i_lat":-6.160725,"time":2,"i_long":106.827103,"is_transit":false,"distance":906,"station_id":"SW","station_name":"Sawah Besar","line":2,"transit":false},{"station_id":"JUA","station_name":"Juanda","transit":false,"distance":1149,"i_lat":-6.166716,"i_long":106.828284,"is_transit":false,"time":2,"line":2},{"station_id":"GDD","i_lat":-6.186295,"line":2,"station_name":"Gondangdia","time":4,"transit":false,"distance":2015,"is_transit":false,"i_long":106.832183},{"station_name":"Cikini","i_lat":-6.198556,"distance":1750,"time":3,"station_id":"CKI","i_long":106.840169,"line":0,"is_transit":false,"transit":false},{"distance":1590,"i_lat":-6.209883,"time":4,"i_long":106.84912,"transit":true,"line":0,"is_transit":true,"station_name":"Manggarai","station_id":"MRI"},{"station_name":"Tebet","station_id":"TEB","distance":2610,"transit":false,"i_lat":-6.226659,"time":4,"is_transit":false,"i_long":106.857948,"line":2},{"time":2,"i_lat":-6.242512,"station_name":"Cawang","is_transit":false,"station_id":"CW","transit":false,"i_long":106.856607,"distance":1230,"line":0},{"transit":false,"distance":1546,"is_transit":false,"time":3,"i_long":106.85449,"station_id":"DRN","line":0,"i_lat":-6.255332,"station_name":"Duren Kalibata"},{"i_lat":-6.263214,"station_id":"PSMB","i_long":106.851577,"distance":824,"line":2,"transit":false,"station_name":"Pasar Minggu Baru","is_transit":false,"time":2},{"station_id":"PSM","station_name":"Pasar Minggu","i_lat":-6.2842400000000005,"transit":false,"is_transit":false,"time":2,"line":2,"distance":2380,"i_long":106.843999},{"station_id":"TNT","station_name":"Tanjung Barat","is_transit":false,"time":4,"distance":2820,"transit":false,"i_lat":-6.3080680000000005,"i_long":106.838896,"line":2},{"line":2,"station_id":"LNA","time":3,"transit":false,"distance":2671,"i_lat":-6.330363,"i_long":106.832616,"station_name":"Lenteng Agung","is_transit":false},{"station_id":"UP","line":2,"i_long":106.834175,"is_transit":false,"station_name":"Univ. Pancasila","transit":false,"distance":1029,"i_lat":-6.339291,"time":2},{"station_name":"Univ. Indonesia","station_id":"UI","transit":false,"i_long":106.831474,"is_transit":false,"distance":2264,"i_lat":-6.360749,"time":3,"line":2}],[{"station_id":"TTI","time":0,"distance":0,"station_name":"Tanah Tinggi","line":5,"is_transit":false,"i_lat":-6.17331,"transit":false,"i_long":106.64657},{"time":3,"station_id":"BPR","distance":2028,"i_lat":-6.171811,"i_long":106.665036,"is_transit":false,"station_name":"Batuceper","transit":false,"line":0},{"distance":1834,"line":5,"time":3,"station_name":"Poris","station_id":"PI","i_lat":-6.169933,"i_long":106.679458,"is_transit":false,"transit":false},{"is_transit":false,"station_id":"KDS","time":3,"i_lat":-6.166068,"station_name":"Kalideres","transit":false,"i_long":106.701612,"distance":2548,"line":5},{"is_transit":false,"distance":2504,"i_lat":-6.162758,"station_name":"Rawa Buaya","transit":false,"line":5,"time":3,"station_id":"RW","i_long":106.723064},{"is_transit":false,"station_id":"BOI","time":4,"station_name":"Bojongindah","i_long":106.737035,"i_lat":-6.159876,"transit":false,"line":0,"distance":1152},{"i_long":106.756522,"is_transit":false,"station_id":"TKO","transit":false,"i_lat":-6.1587309999999995,"station_name":"Taman Kota","distance":2334,"line":5,"time":2},{"i_long":106.771379,"station_id":"PSG","transit":false,"distance":1614,"station_name":"Pesing","i_lat":-6.161433,"is_transit":false,"time":2,"line":5},{"line":5,"station_name":"Grogol","distance":2036,"i_long":106.788277,"time":2,"station_id":"GGL","is_transit":false,"transit":false,"i_lat":-6.162021},{"time":3,"station_id":"DU","i_long":106.800832,"line":1,"distance":1700,"i_lat":-6.155215,"is_transit":true,"transit":true,"station_name":"Duri"},{"distance":1230,"station_name":"Angke","transit":false,"time":4,"i_lat":-6.144674,"line":0,"i_long":106.79867,"station_id":"AK","is_transit":false},{"distance":4102,"station_name":"Kampung Bandan","line":0,"time":9,"is_transit":true,"i_long":106.826365,"transit":true,"i_lat":-6.132549,"station_id":"KPB"},{"line":11,"transit":false,"time":3,"is_transit":false,"i_lat":-6.14505,"station_id":"RJW","station_name":"Rajawali","distance":1444,"i_long":106.836569},{"time":5,"transit":false,"distance":1901,"is_transit":false,"i_lat":-6.161728,"i_long":106.839204,"line":11,"station_name":"Kemayoran","station_id":"KMO"},{"station_name":"Pasar Senen","i_long":106.84368,"distance":1436,"is_transit":false,"line":11,"time":4,"i_lat":-6.174784,"station_id":"PSE","transit":false},{"line":11,"transit":false,"i_long":106.850107,"time":8,"is_transit":false,"station_id":"GST","distance":1567,"i_lat":-6.185975,"station_name":"Gang Sentiong"},{"station_name":"Kramat","distance":973,"transit":false,"i_lat":-6.193792,"is_transit":false,"i_long":106.855437,"time":1,"station_id":"KMT","line":11},{"i_long":106.861737,"station_name":"Pondok Jati","line":11,"time":2,"station_id":"POK","distance":1829,"i_lat":-6.209188,"is_transit":false,"transit":false},{"time":9,"station_name":"Jatinegara","is_transit":true,"station_id":"JNG","distance":1236,"i_lat":-6.215091,"transit":true,"i_long":106.86807400000001,"line":0},{"time":2,"is_transit":false,"station_id":"MTR","i_long":106.858896,"station_name":"Matraman","transit":false,"distance":1377,"line":1,"i_lat":-6.212485},{"is_transit":true,"time":2,"station_name":"Manggarai","distance":1275,"i_lat":-6.209883,"station_id":"MRI","line":0,"i_long":106.84912,"transit":true},{"is_transit":false,"transit":false,"station_name":"Tebet","i_lat":-6.226659,"i_long":106.857948,"distance":2610,"line":2,"station_id":"TEB","time":4},{"i_lat":-6.242512,"is_transit":false,"time":2,"transit":false,"i_long":106.856607,"distance":1230,"line":0,"station_id":"CW","station_name":"Cawang"},{"station_id":"DRN","transit":false,"distance":1546,"i_long":106.85449,"station_name":"Duren Kalibata","i_lat":-6.255332,"line":0,"time":3,"is_transit":false},{"time":2,"transit":false,"station_id":"PSMB","i_long":106.851577,"line":2,"distance":824,"i_lat":-6.263214,"is_transit":false,"station_name":"Pasar Minggu Baru"},{"station_name":"Pasar Minggu","station_id":"PSM","is_transit":false,"distance":2380,"time":2,"transit":false,"i_lat":-6.2842400000000005,"line":2,"i_long":106.843999},{"i_lat":-6.3080680000000005,"is_transit":false,"transit":false,"time":4,"distance":2820,"i_long":106.838896,"line":2,"station_id":"TNT","station_name":"Tanjung Barat"},{"i_lat":-6.330363,"time":3,"is_transit":false,"station_id":"LNA","transit":false,"line":2,"station_name":"Lenteng Agung","distance":2671,"i_long":106.832616},{"i_lat":-6.339291,"time":2,"transit":false,"is_transit":false,"station_id":"UP","distance":1029,"station_name":"Univ. Pancasila","i_long":106.834175,"line":2},{"transit":false,"station_name":"Univ. Indonesia","is_transit":false,"distance":2264,"i_lat":-6.360749,"i_long":106.831474,"station_id":"UI","line":2,"time":3}]]}