{"data":[[{"distance":0,"i_lat":-6.17331,"time":0,"is_transit":false,"line":5,"transit":false,"station_name":"Tanah Tinggi","station_id":"TTI","i_long":106.64657},{"time":3,"i_lat":-6.171811,"i_long":106.665036,"is_transit":false,"distance":2028,"transit":false,"station_name":"Batuceper","line":5,"station_id":"BPR"},{"station_id":"PI","station_name":"Poris","is_transit":false,"time":3,"transit":false,"distance":1834,"i_lat":-6.169933,"line":5,"i_long":106.679458},{"station_name":"Kalideres","station_id":"KDS","transit":false,"is_transit":false,"time":3,"i_long":106.701612,"distance":2548,"line":5,"i_lat":-6.166068},{"distance":2504,"line":5,"is_transit":false,"station_id":"RW","station_name":"Rawa Buaya","transit":false,"i_lat":-6.162758,"i_long":106.723064,"time":3},{"time":4,"distance":1152,"i_lat":-6.159876,"i_long":106.737035,"is_transit":false,"station_id":"BOI","line":5,"transit":false,"station_name":"Bojongindah"},{"transit":false,"station_id":"TKO","line":5,"station_name":"Taman Kota","i_long":106.756522,"i_lat":-6.1587309999999995,"distance":2334,"is_transit":false,"time":2},{"i_lat":-6.161433,"line":5,"station_name":"Pesing","transit":false,"time":2,"is_transit":false,"distance":1614,"station_id":"PSG","i_long":106.771379},{"line":5,"i_lat":-6.162021,"i_long":106.788277,"transit":false,"station_id":"GGL","distance":2036,"station_name":"Grogol","is_transit":false,"time":2},{"is_transit":true,"time":3,"station_id":"DU","i_long":106.800832,"line":1,"transit":true,"station_name":"Duri","distance":1700,"i_lat":-6.155215},{"station_id":"THB","time":8,"transit":false,"is_transit":false,"station_name":"Tanah Abang","distance":3632,"line":1,"i_lat":-6.185545,"i_long":106.811091},{"distance":2029,"line":1,"i_long":106.816351,"is_transit":false,"station_name":"Karet","time":5,"station_id":"KAT","i_lat":-6.20132,"transit":false},{"station_id":"SUDB","is_transit":false,"i_long":106.819881,"transit":false,"distance":471,"line":1,"time":1,"i_lat":-6.201433,"station_name":"Sudirman Baru"},{"time":1,"i_lat":-6.202263,"transit":false,"station_id":"SUD","distance":280,"i_long":106.822649,"station_name":"Sudirman","is_transit":false,"line":1},{"station_name":"Manggarai","is_transit":true,"i_lat":-6.209883,"time":4,"distance":3186,"station_id":"MRI","transit":true,"i_long":106.84912,"line":2},{"line":2,"i_lat":-6.226659,"i_long":106.857948,"is_transit":false,"time":4,"station_name":"Tebet","transit":false,"station_id":"TEB","distance":2610},{"i_long":106.856607,"transit":false,"station_name":"Cawang","distance":1230,"line":2,"station_id":"CW","is_transit":false,"i_lat":-6.242512,"time":2},{"time":3,"i_long":106.85449,"transit":false,"is_transit":false,"line":2,"distance":1546,"i_lat":-6.255332,"station_name":"Duren Kalibata","station_id":"DRN"},{"i_long":106.851577,"distance":824,"station_id":"PSMB","station_name":"Pasar Minggu Baru","time":2,"transit":false,"i_lat":-6.263214,"line":2,"is_transit":false},{"station_id":"PSM","time":2,"transit":false,"line":2,"station_name":"Pasar Minggu","is_transit":false,"distance":2380,"i_long":106.843999,"i_lat":-6.2842400000000005},{"station_name":"Tanjung Barat","distance":2820,"time":4,"line":2,"is_transit":false,"station_id":"TNT","i_lat":-6.3080680000000005,"i_long":106.838896,"transit":false},{"distance":2671,"station_id":"LNA","i_lat":-6.330363,"is_transit":false,"i_long":106.832616,"time":3,"transit":false,"line":2,"station_name":"Lenteng Agung"},{"station_id":"UP","station_name":"Univ. Pancasila","i_long":106.834175,"distance":1029,"line":2,"i_lat":-6.339291,"transit":false,"is_transit":false,"time":2},{"time":3,"i_long":106.831474,"transit":false,"distance":2264,"station_name":"Univ. Indonesia","i_lat":-6.360749,"line":2,"station_id":"UI","is_transit":false},{"station_name":"Pondok Cina","distance":1109,"i_long":106.831114,"time":2,"i_lat":-6.369073,"transit":false,"station_id":"POC","is_transit":false,"line":2},{"station_name":"Depokbaru","i_long":106.819451,"i_lat":-6.391065,"station_id":"DPB","is_transit":false,"distance":2727,"line":2,"transit":false,"time":4},{"station_id":"DP","is_transit":false,"station_name":"Depok","i_long":106.816926,"time":3,"distance":1584,"transit":false,"i_lat":-6.405256,"line":2},{"line":2,"station_id":"CTA","distance":5084,"i_lat":-6.448811,"is_transit":true,"transit":true,"time":6,"i_long":106.800298,"station_name":"Citayam"},{"i_lat":-6.460735,"i_long":106.824374,"station_id":"PDRG","time":0,"transit":false,"is_transit":false,"distance":0,"line":21,"station_name":"Pondok Rajeg"},{"station_name":"Cibinong","station_id":"CBN","i_long":106.851978,"transit":false,"time":0,"distance":0,"i_lat":-6.46424,"line":21,"is_transit":false},{"distance":6527,"i_long":106.905196,"transit":false,"station_id":"NMO","station_name":"Nambo","is_transit":false,"time":10,"i_lat":-6.466285,"line":21}],[{"time":0,"i_lat":-6.17331,"i_long":106.64657,"distance":0,"line":5,"is_transit":false,"station_name":"Tanah Tinggi","station_id":"TTI","transit":false},{"station_id":"BPR","is_transit":false,"line":5,"i_lat":-6.171811,"station_name":"Batuceper","time":3,"distance":2028,"i_long":106.665036,"transit":false},{"i_long":106.679458,"is_transit":false,"distance":1834,"station_id":"PI","i_lat":-6.169933,"transit":false,"line":5,"time":3,"station_name":"Poris"},{"transit":false,"distance":2548,"station_name":"Kalideres","is_transit":false,"line":5,"station_id":"KDS","i_lat":-6.166068,"i_long":106.701612,"time":3},{"station_id":"RW","i_lat":-6.162758,"is_transit":false,"transit":false,"time":3,"i_long":106.723064,"station_name":"Rawa Buaya","line":5,"distance":2504},{"line":5,"is_transit":false,"transit":false,"distance":1152,"i_long":106.737035,"station_name":"Bojongindah","station_id":"BOI","time":4,"i_lat":-6.159876},{"distance":2334,"line":5,"transit":false,"station_name":"Taman Kota","is_transit":false,"station_id":"TKO","time":2,"i_lat":-6.1587309999999995,"i_long":106.756522},{"station_name":"Pesing","i_lat":-6.161433,"distance":1614,"time":2,"line":5,"is_transit":false,"i_long":106.771379,"transit":false,"station_id":"PSG"},{"station_name":"Grogol","is_transit":false,"i_lat":-6.162021,"line":5,"transit":false,"time":2,"distance":2036,"station_id":"GGL","i_long":106.788277},{"distance":1700,"transit":true,"is_transit":true,"i_lat":-6.155215,"time":3,"station_name":"Duri","line":1,"i_long":106.800832,"station_id":"DU"},{"is_transit":false,"i_lat":-6.144674,"i_long":106.79867,"distance":1230,"time":4,"transit":false,"line":1,"station_name":"Angke","station_id":"AK"},{"distance":4102,"is_transit":true,"line":4,"i_lat":-6.132549,"station_name":"Kampung Bandan","station_id":"KPB","transit":true,"i_long":106.826365,"time":9},{"station_id":"JAKK","transit":true,"i_lat":-6.137569,"station_name":"Jakarta Kota","time":3,"is_transit":true,"distance":1364,"i_long":106.812439,"line":2},{"distance":1264,"line":2,"is_transit":false,"i_lat":-6.141205,"station_id":"JAY","i_long":106.820901,"time":4,"station_name":"Jayakarta","transit":false},{"line":2,"station_id":"MGB","i_long":106.82482,"time":2,"transit":false,"station_name":"Manggabesar","distance":1080,"i_lat":-6.149769,"is_transit":false},{"station_id":"SW","distance":906,"transit":false,"is_transit":false,"station_name":"Sawah Besar","i_lat":-6.160725,"line":2,"time":2,"i_long":106.827103},{"station_name":"Juanda","transit":false,"time":2,"i_lat":-6.166716,"distance":1149,"i_long":106.828284,"is_transit":false,"station_id":"JUA","line":2},{"time":4,"station_id":"GDD","distance":2015,"i_long":106.832183,"is_transit":false,"i_lat":-6.186295,"transit":false,"line":2,"station_name":"Gondangdia"},{"is_transit":false,"distance":1750,"line":2,"station_id":"CKI","i_lat":-6.198556,"i_long":106.840169,"station_name":"Cikini","transit":false,"time":3},{"station_name":"Manggarai","transit":false,"distance":1590,"i_long":106.84912,"is_transit":false,"time":4,"i_lat":-6.209883,"station_id":"MRI","line":2},{"is_transit":false,"station_name":"Tebet","line":2,"distance":2610,"transit":false,"i_long":106.857948,"time":4,"i_lat":-6.226659,"station_id":"TEB"},{"is_transit":false,"station_id":"CW","i_lat":-6.242512,"i_long":106.856607,"time":2,"line":2,"transit":false,"distance":1230,"station_name":"Cawang"},{"is_transit":false,"station_name":"Duren Kalibata","transit":false,"i_long":106.85449,"line":2,"time":3,"i_lat":-6.255332,"distance":1546,"station_id":"DRN"},{"transit":false,"i_lat":-6.263214,"distance":824,"station_id":"PSMB","is_transit":false,"station_name":"Pasar Minggu Baru","time":2,"line":2,"i_long":106.851577},{"distance":2380,"i_long":106.843999,"line":2,"time":2,"i_lat":-6.2842400000000005,"transit":false,"station_id":"PSM","is_transit":false,"station_name":"Pasar Minggu"},{"distance":2820,"station_name":"Tanjung Barat","time":4,"transit":false,"is_transit":false,"i_long":106.838896,"i_lat":-6.3080680000000005,"line":2,"station_id":"TNT"},{"distance":2671,"station_name":"Lenteng Agung","time":3,"is_transit":false,"transit":false,"line":2,"station_id":"LNA","i_long":106.832616,"i_lat":-6.330363},{"line":2,"i_long":106.834175,"transit":false,"station_id":"UP","station_name":"Univ. Pancasila","distance":1029,"i_lat":-6.339291,"is_transit":false,"time":2},{"time":3,"transit":false,"station_name":"Univ. Indonesia","i_long":106.831474,"line":2,"station_id":"UI","i_lat":-6.360749,"is_transit":false,"distance":2264},{"station_name":"Pondok Cina","station_id":"POC","line":2,"i_long":106.831114,"is_transit":false,"distance":1109,"time":2,"transit":false,"i_lat":-6.369073},{"line":2,"station_id":"DPB","distance":2727,"station_name":"Depokbaru","transit":false,"time":4,"i_lat":-6.391065,"is_transit":false,"i_long":106.819451},{"line":2,"station_id":"DP","time":3,"i_lat":-6.405256,"transit":false,"station_name":"Depok","is_transit":false,"distance":1584,"i_long":106.816926},{"station_id":"CTA","distance":5084,"i_lat":-6.448811,"i_long":106.800298,"time":6,"transit":true,"is_transit":true,"station_name":"Citayam","line":2},{"distance":0,"station_name":"Pondok Rajeg","is_transit":false,"i_lat":-6.460735,"transit":false,"line":21,"i_long":106.824374,"time":0,"station_id":"PDRG"},{"station_id":"CBN","is_transit":false,"time":0,"line":21,"station_name":"Cibinong","distance":0,"i_long":106.851978,"i_lat":-6.46424,"transit":false},{"i_lat":-6.466285,"line":21,"transit":false,"distance":6527,"is_transit":false,"station_id":"NMO","time":10,"station_name":"Nambo","i_long":106.905196}],[{"transit":false,"time":0,"distance":0,"i_long":106.64657,"line":5,"is_transit":false,"i_lat":-6.17331,"station_id":"TTI","station_name":"Tanah Tinggi"},{"is_transit":false,"i_lat":-6.171811,"station_name":"Batuceper","time":3,"station_id":"BPR","line":5,"distance":2028,"transit":false,"i_long":106.665036},{"station_name":"Poris","line":5,"i_lat":-6.169933,"distance":1834,"i_long":106.679458,"station_id":"PI","is_transit":false,"transit":false,"time":3},{"is_transit":false,"time":3,"line":5,"station_id":"KDS","distance":2548,"transit":false,"i_long":106.701612,"station_name":"Kalideres","i_lat":-6.166068},{"transit":false,"station_name":"Rawa Buaya","is_transit":false,"i_lat":-6.162758,"station_id":"RW","i_long":106.723064,"time":3,"distance":2504,"line":5},{"i_lat":-6.159876,"station_name":"Bojongindah","i_long":106.737035,"line":5,"time":4,"transit":false,"station_id":"BOI","is_transit":false,"distance":1152},{"transit":false,"station_name":"Taman Kota","is_transit":false,"distance":2334,"line":5,"i_lat":-6.1587309999999995,"station_id":"TKO","time":2,"i_long":106.756522},{"distance":1614,"is_transit":false,"i_lat":-6.161433,"transit":false,"line":5,"station_name":"Pesing","i_long":106.771379,"station_id":"PSG","time":2},{"line":5,"station_id":"GGL","is_transit":false,"i_lat":-6.162021,"distance":2036,"i_long":106.788277,"station_name":"Grogol","time":2,"transit":false},{"line":1,"i_lat":-6.155215,"i_long":106.800832,"is_transit":true,"station_name":"Duri","time":3,"distance":1700,"transit":true,"station_id":"DU"},{"station_name":"Angke","station_id":"AK","is_transit":false,"time":4,"line":1,"i_long":106.79867,"transit":false,"i_lat":-6.144674,"distance":1230},{"transit":true,"is_transit":true,"station_id":"KPB","distance":4102,"line":4,"time":9,"i_lat":-6.132549,"station_name":"Kampung Bandan","i_long":106.826365},{"station_name":"Rajawali","is_transit":false,"line":11,"station_id":"RJW","transit":false,"i_lat":-6.14505,"i_long":106.836569,"distance":1444,"time":3},{"time":5,"station_id":"KMO","i_long":106.839204,"i_lat":-6.161728,"line":11,"station_name":"Kemayoran","is_transit":false,"transit":false,"distance":1901},{"time":4,"line":11,"i_long":106.84368,"station_id":"PSE","transit":false,"is_transit":false,"distance":1436,"i_lat":-6.174784,"station_name":"Pasar Senen"},{"i_long":106.850107,"station_name":"Gang Sentiong","station_id":"GST","transit":false,"time":8,"line":11,"distance":1567,"i_lat":-6.185975,"is_transit":false},{"line":11,"transit":false,"station_id":"KMT","time":1,"station_name":"Kramat","i_lat":-6.193792,"is_transit":false,"distance":973,"i_long":106.855437},{"distance":1829,"station_name":"Pondok Jati","station_id":"POK","i_lat":-6.209188,"i_long":106.861737,"time":2,"line":11,"is_transit":false,"transit":false},{"station_name":"Jatinegara","is_transit":true,"i_long":106.86807400000001,"line":1,"transit":true,"time":9,"station_id":"JNG","distance":1236,"i_lat":-6.215091},{"station_id":"MTR","distance":1377,"line":1,"is_transit":false,"i_lat":-6.212485,"station_name":"Matraman","time":2,"transit":false,"i_long":106.858896},{"time":2,"transit":true,"i_lat":-6.209883,"station_name":"Manggarai","line":2,"station_id":"MRI","i_long":106.84912,"is_transit":true,"distance":1275},{"distance":2610,"station_name":"Tebet","station_id":"TEB","is_transit":false,"time":4,"line":2,"transit":false,"i_long":106.857948,"i_lat":-6.226659},{"transit":false,"i_long":106.856607,"i_lat":-6.242512,"station_id":"CW","is_transit":false,"station_name":"Cawang","time":2,"line":2,"distance":1230},{"i_lat":-6.255332,"is_transit":false,"time":3,"station_id":"DRN","i_long":106.85449,"station_name":"Duren Kalibata","distance":1546,"line":2,"transit":false},{"station_name":"Pasar Minggu Baru","i_lat":-6.263214,"station_id":"PSMB","is_transit":false,"i_long":106.851577,"transit":false,"time":2,"line":2,"distance":824},{"i_long":106.843999,"station_name":"Pasar Minggu","distance":2380,"line":2,"i_lat":-6.2842400000000005,"station_id":"PSM","transit":false,"is_transit":false,"time":2},{"station_id":"TNT","distance":2820,"station_name":"Tanjung Barat","time":4,"transit":false,"is_transit":false,"line":2,"i_long":106.838896,"i_lat":-6.3080680000000005},{"station_name":"Lenteng Agung","time":3,"distance":2671,"line":2,"i_lat":-6.330363,"transit":false,"is_transit":false,"i_long":106.832616,"station_id":"LNA"},{"distance":1029,"is_transit":false,"i_lat":-6.339291,"i_long":106.834175,"station_id":"UP","time":2,"transit":false,"line":2,"station_name":"Univ. Pancasila"},{"station_id":"UI","is_transit":false,"i_lat":-6.360749,"i_long":106.831474,"station_name":"Univ. Indonesia","transit":false,"time":3,"line":2,"distance":2264},{"station_id":"POC","is_transit":false,"distance":1109,"i_long":106.831114,"line":2,"transit":false,"i_lat":-6.369073,"time":2,"station_name":"Pondok Cina"},{"station_name":"Depokbaru","i_lat":-6.391065,"is_transit":false,"distance":2727,"station_id":"DPB","line":2,"i_long":106.819451,"transit":false,"time":4},{"time":3,"distance":1584,"i_lat":-6.405256,"station_id":"DP","line":2,"station_name":"Depok","is_transit":false,"transit":false,"i_long":106.816926},{"station_name":"Citayam","transit":true,"distance":5084,"station_id":"CTA","is_transit":true,"time":6,"i_lat":-6.448811,"i_long":106.800298,"line":2},{"time":0,"distance":0,"i_long":106.824374,"station_id":"PDRG","i_lat":-6.460735,"line":21,"station_name":"Pondok Rajeg","transit":false,"is_transit":false},{"is_transit":false,"distance":0,"i_long":106.851978,"station_name":"Cibinong","station_id":"CBN","time":0,"i_lat":-6.46424,"line":21,"transit":false},{"i_lat":-6.466285,"station_id":"NMO","is_transit":false,"distance":6527,"line":21,"transit":false,"time":10,"i_long":106.905196,"station_name":"Nambo"}]]}