{"data":[[{"i_lat":-6.17331,"distance":0,"station_name":"Tanah Tinggi","i_long":106.64657,"line":5,"is_transit":false,"time":0,"station_id":"TTI","transit":false},{"station_id":"BPR","distance":2028,"station_name":"Batuceper","i_long":106.665036,"is_transit":false,"line":5,"transit":false,"i_lat":-6.171811,"time":3},{"line":5,"station_id":"PI","transit":false,"station_name":"Poris","i_lat":-6.169933,"i_long":106.679458,"time":3,"distance":1834,"is_transit":false},{"transit":false,"i_long":106.701612,"is_transit":false,"line":5,"station_id":"KDS","i_lat":-6.166068,"time":3,"station_name":"Kalideres","distance":2548},{"distance":2504,"time":3,"station_id":"RW","transit":false,"station_name":"Rawa Buaya","i_long":106.723064,"line":5,"i_lat":-6.162758,"is_transit":false},{"time":4,"transit":false,"i_lat":-6.159876,"line":5,"distance":1152,"station_name":"Bojongindah","i_long":106.737035,"is_transit":false,"station_id":"BOI"},{"station_id":"TKO","time":2,"station_name":"Taman Kota","i_lat":-6.1587309999999995,"line":5,"is_transit":false,"i_long":106.756522,"transit":false,"distance":2334},{"i_lat":-6.161433,"distance":1614,"line":5,"i_long":106.771379,"station_id":"PSG","is_transit":false,"time":2,"transit":false,"station_name":"Pesing"},{"i_long":106.788277,"station_id":"GGL","is_transit":false,"distance":2036,"transit":false,"i_lat":-6.162021,"station_name":"Grogol","line":5,"time":2},{"i_lat":-6.155215,"is_transit":true,"i_long":106.800832,"transit":true,"station_name":"Duri","time":3,"station_id":"DU","line":1,"distance":1700},{"station_name":"Tanah Abang","i_lat":-6.185545,"i_long":106.811091,"station_id":"THB","transit":true,"line":1,"distance":3632,"time":8,"is_transit":true},{"transit":false,"i_lat":-6.207404,"station_id":"PLM","line":6,"time":6,"distance":3191,"i_long":106.79689,"station_name":"Palmerah","is_transit":false},{"time":7,"i_long":106.780334,"distance":3737,"i_lat":-6.237242,"station_name":"Kebayoran","transit":false,"station_id":"KBY","line":6,"is_transit":false},{"station_id":"PDJ","i_lat":-6.276362,"distance":6218,"transit":false,"i_long":106.74273,"time":8,"is_transit":false,"line":6,"station_name":"Pondokranji"},{"time":3,"station_name":"Jurangmangu","i_long":106.728916,"station_id":"JMU","transit":false,"is_transit":false,"i_lat":-6.288927,"distance":2179,"line":6},{"transit":false,"station_name":"Sudimara","is_transit":false,"i_long":106.712277,"i_lat":-6.296963,"distance":1994,"line":6,"time":4,"station_id":"SDM"},{"i_long":106.675475,"is_transit":false,"distance":4566,"i_lat":-6.314823,"time":6,"station_name":"Rawa Buntu","line":6,"station_id":"RU","transit":false},{"is_transit":false,"distance":2413,"i_long":106.66566,"i_lat":-6.319871,"station_name":"Serpong","transit":false,"time":4,"line":6,"station_id":"SRP"},{"is_transit":false,"time":4,"distance":1784,"line":3,"i_lat":-6.32484,"station_name":"Cisauk","transit":false,"i_long":106.640411,"station_id":"CSK"},{"line":3,"transit":false,"i_lat":-6.329547,"time":4,"distance":2519,"i_long":106.617853,"station_name":"Cicayur","station_id":"CC","is_transit":false},{"distance":5968,"line":6,"i_lat":-6.3441410000000005,"time":8,"transit":false,"is_transit":false,"station_id":"PRP","station_name":"Parung Panjang","i_long":106.568863},{"i_lat":-6.354349,"station_name":"Cilejit","is_transit":false,"time":9,"station_id":"CJT","transit":false,"i_long":106.508482,"line":3,"distance":7025},{"station_name":"Daru","time":6,"distance":2675,"i_long":106.491338,"is_transit":false,"transit":false,"i_lat":-6.338021,"line":0,"station_id":"DAR"},{"is_transit":false,"transit":false,"time":5,"distance":3902,"i_lat":-6.327251,"station_id":"TEJ","station_name":"Tenjo","line":6,"i_long":106.460812},{"station_name":"Tigaraksa","station_id":"TGS","transit":false,"i_lat":-6.328533,"line":6,"is_transit":false,"i_long":106.425991,"distance":2974,"time":5},{"time":3,"i_lat":-6.33561,"i_long":106.411216,"distance":2651,"station_id":"CKY","is_transit":false,"transit":false,"line":3,"station_name":"Cikoya"},{"line":6,"i_lat":-6.332307,"distance":1853,"i_long":106.394373,"station_id":"MJ","is_transit":false,"time":4,"station_name":"Maja","transit":false},{"i_long":106.332092,"is_transit":false,"line":3,"i_lat":-6.334892,"station_id":"CTR","transit":false,"time":10,"distance":7293,"station_name":"Citeras"}],[{"time":0,"transit":false,"station_id":"TTI","i_long":106.64657,"line":5,"distance":0,"is_transit":false,"i_lat":-6.17331,"station_name":"Tanah Tinggi"},{"i_long":106.665036,"station_name":"Batuceper","i_lat":-6.171811,"station_id":"BPR","is_transit":false,"time":3,"distance":2028,"line":5,"transit":false},{"distance":1834,"time":3,"station_name":"Poris","is_transit":false,"i_long":106.679458,"line":5,"station_id":"PI","i_lat":-6.169933,"transit":false},{"is_transit":false,"time":3,"distance":2548,"i_lat":-6.166068,"line":5,"transit":false,"i_long":106.701612,"station_id":"KDS","station_name":"Kalideres"},{"is_transit":false,"distance":2504,"i_lat":-6.162758,"station_id":"RW","line":5,"time":3,"station_name":"Rawa Buaya","transit":false,"i_long":106.723064},{"distance":1152,"time":4,"is_transit":false,"station_name":"Bojongindah","station_id":"BOI","i_long":106.737035,"i_lat":-6.159876,"line":5,"transit":false},{"distance":2334,"station_name":"Taman Kota","station_id":"TKO","is_transit":false,"time":2,"transit":false,"i_lat":-6.1587309999999995,"i_long":106.756522,"line":5},{"time":2,"transit":false,"station_id":"PSG","station_name":"Pesing","i_long":106.771379,"is_transit":false,"line":5,"i_lat":-6.161433,"distance":1614},{"is_transit":false,"station_name":"Grogol","station_id":"GGL","distance":2036,"i_lat":-6.162021,"line":5,"i_long":106.788277,"time":2,"transit":false},{"transit":true,"station_id":"DU","line":1,"is_transit":true,"station_name":"Duri","i_lat":-6.155215,"time":3,"i_long":106.800832,"distance":1700},{"line":1,"distance":1230,"station_name":"Angke","i_lat":-6.144674,"station_id":"AK","i_long":106.79867,"transit":false,"time":4,"is_transit":false},{"is_transit":true,"time":9,"transit":true,"i_long":106.826365,"line":4,"station_id":"KPB","distance":4102,"station_name":"Kampung Bandan","i_lat":-6.132549},{"line":2,"i_long":106.812439,"station_name":"Jakarta Kota","station_id":"JAKK","is_transit":true,"distance":1364,"transit":true,"i_lat":-6.137569,"time":3},{"station_id":"JAY","i_lat":-6.141205,"transit":false,"i_long":106.820901,"time":4,"line":2,"distance":1264,"station_name":"Jayakarta","is_transit":false},{"transit":false,"line":2,"time":2,"distance":1080,"i_lat":-6.149769,"station_id":"MGB","station_name":"Manggabesar","i_long":106.82482,"is_transit":false},{"line":2,"station_name":"Sawah Besar","time":2,"is_transit":false,"transit":false,"i_lat":-6.160725,"station_id":"SW","distance":906,"i_long":106.827103},{"time":2,"is_transit":false,"distance":1149,"line":2,"station_id":"JUA","i_long":106.828284,"transit":false,"i_lat":-6.166716,"station_name":"Juanda"},{"time":4,"i_long":106.832183,"line":2,"station_name":"Gondangdia","station_id":"GDD","is_transit":false,"distance":2015,"transit":false,"i_lat":-6.186295},{"station_name":"Cikini","transit":false,"line":2,"i_long":106.840169,"distance":1750,"time":3,"is_transit":false,"station_id":"CKI","i_lat":-6.198556},{"line":2,"distance":1590,"i_lat":-6.209883,"time":4,"transit":true,"station_id":"MRI","i_long":106.84912,"is_transit":true,"station_name":"Manggarai"},{"station_name":"Sudirman","transit":false,"time":4,"i_lat":-6.202263,"i_long":106.822649,"line":1,"is_transit":false,"station_id":"SUD","distance":3186},{"station_id":"SUDB","station_name":"Sudirman Baru","is_transit":false,"line":1,"time":1,"distance":280,"i_long":106.819881,"transit":false,"i_lat":-6.201433},{"line":1,"distance":471,"i_long":106.816351,"station_name":"Karet","transit":false,"station_id":"KAT","is_transit":false,"time":1,"i_lat":-6.20132},{"distance":2029,"i_lat":-6.185545,"is_transit":true,"station_name":"Tanah Abang","line":1,"time":5,"i_long":106.811091,"transit":true,"station_id":"THB"},{"i_long":106.79689,"station_id":"PLM","time":6,"i_lat":-6.207404,"distance":3191,"station_name":"Palmerah","line":6,"transit":false,"is_transit":false},{"station_id":"KBY","station_name":"Kebayoran","i_long":106.780334,"i_lat":-6.237242,"is_transit":false,"line":6,"transit":false,"time":7,"distance":3737},{"line":6,"time":8,"i_lat":-6.276362,"is_transit":false,"transit":false,"i_long":106.74273,"station_id":"PDJ","distance":6218,"station_name":"Pondokranji"},{"station_id":"JMU","i_lat":-6.288927,"i_long":106.728916,"line":6,"time":3,"station_name":"Jurangmangu","distance":2179,"transit":false,"is_transit":false},{"station_id":"SDM","distance":1994,"time":4,"i_long":106.712277,"transit":false,"i_lat":-6.296963,"line":6,"station_name":"Sudimara","is_transit":false},{"station_id":"RU","is_transit":false,"line":6,"station_name":"Rawa Buntu","time":6,"i_lat":-6.314823,"transit":false,"distance":4566,"i_long":106.675475},{"is_transit":false,"distance":2413,"transit":false,"line":6,"i_lat":-6.319871,"time":4,"station_id":"SRP","station_name":"Serpong","i_long":106.66566},{"distance":1784,"line":3,"station_id":"CSK","i_lat":-6.32484,"is_transit":false,"time":4,"transit":false,"i_long":106.640411,"station_name":"Cisauk"},{"line":3,"distance":2519,"transit":false,"i_lat":-6.329547,"is_transit":false,"station_name":"Cicayur","time":4,"i_long":106.617853,"station_id":"CC"},{"i_long":106.568863,"transit":false,"i_lat":-6.3441410000000005,"station_id":"PRP","line":6,"is_transit":false,"time":8,"distance":5968,"station_name":"Parung Panjang"},{"station_name":"Cilejit","distance":7025,"line":3,"station_id":"CJT","time":9,"i_lat":-6.354349,"transit":false,"is_transit":false,"i_long":106.508482},{"is_transit":false,"transit":false,"station_name":"Daru","i_lat":-6.338021,"distance":2675,"station_id":"DAR","i_long":106.491338,"line":0,"time":6},{"distance":3902,"station_name":"Tenjo","station_id":"TEJ","is_transit":false,"time":5,"i_lat":-6.327251,"i_long":106.460812,"line":6,"transit":false},{"station_id":"TGS","is_transit":false,"i_long":106.425991,"time":5,"distance":2974,"station_name":"Tigaraksa","i_lat":-6.328533,"line":6,"transit":false},{"station_id":"CKY","station_name":"Cikoya","distance":2651,"i_long":106.411216,"time":3,"i_lat":-6.33561,"transit":false,"line":3,"is_transit":false},{"transit":false,"station_id":"MJ","i_long":106.394373,"line":6,"station_name":"Maja","distance":1853,"is_transit":false,"time":4,"i_lat":-6.332307},{"distance":7293,"i_long":106.332092,"station_id":"CTR","time":10,"i_lat":-6.334892,"station_name":"Citeras","transit":false,"is_transit":false,"line":3}],[{"line":5,"distance":0,"i_lat":-6.17331,"is_transit":false,"station_name":"Tanah Tinggi","transit":false,"station_id":"TTI","i_long":106.64657,"time":0},{"time":3,"line":5,"i_lat":-6.171811,"station_name":"Batuceper","distance":2028,"transit":false,"is_transit":false,"station_id":"BPR","i_long":106.665036},{"time":3,"line":5,"distance":1834,"transit":false,"i_lat":-6.169933,"i_long":106.679458,"station_id":"PI","station_name":"Poris","is_transit":false},{"is_transit":false,"distance":2548,"line":5,"transit":false,"i_lat":-6.166068,"station_name":"Kalideres","station_id":"KDS","time":3,"i_long":106.701612},{"line":5,"station_id":"RW","time":3,"station_name":"Rawa Buaya","is_transit":false,"distance":2504,"transit":false,"i_lat":-6.162758,"i_long":106.723064},{"distance":1152,"station_id":"BOI","line":5,"i_long":106.737035,"i_lat":-6.159876,"is_transit":false,"transit":false,"time":4,"station_name":"Bojongindah"},{"i_lat":-6.1587309999999995,"line":5,"distance":2334,"station_name":"Taman Kota","time":2,"transit":false,"station_id":"TKO","is_transit":false,"i_long":106.756522},{"station_name":"Pesing","is_transit":false,"i_lat":-6.161433,"distance":1614,"transit":false,"line":5,"i_long":106.771379,"station_id":"PSG","time":2},{"i_lat":-6.162021,"station_name":"Grogol","time":2,"transit":false,"distance":2036,"line":5,"i_long":106.788277,"station_id":"GGL","is_transit":false},{"station_name":"Duri","is_transit":true,"transit":true,"distance":1700,"station_id":"DU","i_lat":-6.155215,"time":3,"i_long":106.800832,"line":1},{"line":1,"station_name":"Angke","i_lat":-6.144674,"distance":1230,"i_long":106.79867,"transit":false,"time":4,"station_id":"AK","is_transit":false},{"station_name":"Kampung Bandan","distance":4102,"station_id":"KPB","is_transit":true,"time":9,"i_long":106.826365,"i_lat":-6.132549,"transit":true,"line":4},{"is_transit":false,"station_name":"Rajawali","distance":1444,"i_long":106.836569,"time":3,"i_lat":-6.14505,"line":11,"station_id":"RJW","transit":false},{"time":5,"line":11,"station_id":"KMO","transit":false,"i_long":106.839204,"is_transit":false,"station_name":"Kemayoran","i_lat":-6.161728,"distance":1901},{"station_id":"PSE","is_transit":false,"distance":1436,"time":4,"transit":false,"i_lat":-6.174784,"line":11,"i_long":106.84368,"station_name":"Pasar Senen"},{"line":11,"i_lat":-6.185975,"is_transit":false,"transit":false,"i_long":106.850107,"station_id":"GST","time":8,"station_name":"Gang Sentiong","distance":1567},{"i_long":106.855437,"station_name":"Kramat","time":1,"distance":973,"transit":false,"line":11,"station_id":"KMT","i_lat":-6.193792,"is_transit":false},{"station_id":"POK","time":2,"line":11,"station_name":"Pondok Jati","is_transit":false,"distance":1829,"transit":false,"i_lat":-6.209188,"i_long":106.861737},{"distance":1236,"station_name":"Jatinegara","time":9,"i_lat":-6.215091,"is_transit":true,"station_id":"JNG","i_long":106.86807400000001,"transit":true,"line":1},{"is_transit":false,"i_long":106.858896,"line":1,"station_name":"Matraman","distance":1377,"time":2,"transit":false,"i_lat":-6.212485,"station_id":"MTR"},{"transit":false,"i_lat":-6.209883,"station_id":"MRI","time":2,"distance":1275,"i_long":106.84912,"line":2,"is_transit":false,"station_name":"Manggarai"},{"transit":false,"i_lat":-6.202263,"line":1,"time":4,"station_name":"Sudirman","i_long":106.822649,"is_transit":false,"station_id":"SUD","distance":3186},{"is_transit":false,"distance":280,"time":1,"station_name":"Sudirman Baru","station_id":"SUDB","i_long":106.819881,"i_lat":-6.201433,"line":1,"transit":false},{"i_long":106.816351,"line":1,"transit":false,"distance":471,"station_name":"Karet","station_id":"KAT","is_transit":false,"i_lat":-6.20132,"time":1},{"distance":2029,"i_lat":-6.185545,"line":1,"is_transit":true,"station_id":"THB","transit":true,"i_long":106.811091,"station_name":"Tanah Abang","time":5},{"i_lat":-6.207404,"is_transit":false,"distance":3191,"time":6,"i_long":106.79689,"line":6,"station_id":"PLM","station_name":"Palmerah","transit":false},{"transit":false,"time":7,"station_id":"KBY","is_transit":false,"line":6,"station_name":"Kebayoran","distance":3737,"i_lat":-6.237242,"i_long":106.780334},{"i_long":106.74273,"i_lat":-6.276362,"line":6,"transit":false,"is_transit":false,"station_id":"PDJ","station_name":"Pondokranji","distance":6218,"time":8},{"i_long":106.728916,"distance":2179,"i_lat":-6.288927,"time":3,"station_id":"JMU","transit":false,"station_name":"Jurangmangu","line":6,"is_transit":false},{"is_transit":false,"time":4,"i_lat":-6.296963,"i_long":106.712277,"line":6,"distance":1994,"transit":false,"station_id":"SDM","station_name":"Sudimara"},{"is_transit":false,"line":6,"time":6,"distance":4566,"transit":false,"station_id":"RU","i_lat":-6.314823,"i_long":106.675475,"station_name":"Rawa Buntu"},{"transit":false,"station_name":"Serpong","i_lat":-6.319871,"i_long":106.66566,"line":6,"station_id":"SRP","is_transit":false,"distance":2413,"time":4},{"station_id":"CSK","i_long":106.640411,"line":3,"is_transit":false,"distance":1784,"time":4,"transit":false,"i_lat":-6.32484,"station_name":"Cisauk"},{"i_long":106.617853,"station_name":"Cicayur","i_lat":-6.329547,"station_id":"CC","distance":2519,"transit":false,"time":4,"line":3,"is_transit":false},{"time":8,"station_name":"Parung Panjang","is_transit":false,"line":6,"i_lat":-6.3441410000000005,"i_long":106.568863,"distance":5968,"station_id":"PRP","transit":false},{"i_long":106.508482,"time":9,"line":3,"station_id":"CJT","distance":7025,"i_lat":-6.354349,"transit":false,"is_transit":false,"station_name":"Cilejit"},{"station_name":"Daru","time":6,"distance":2675,"i_long":106.491338,"is_transit":false,"i_lat":-6.338021,"transit":false,"station_id":"DAR","line":0},{"station_id":"TEJ","transit":false,"is_transit":false,"i_long":106.460812,"station_name":"Tenjo","distance":3902,"time":5,"i_lat":-6.327251,"line":6},{"station_name":"Tigaraksa","transit":false,"i_long":106.425991,"distance":2974,"time":5,"line":6,"i_lat":-6.328533,"station_id":"TGS","is_transit":false},{"i_lat":-6.33561,"station_name":"Cikoya","station_id":"CKY","time":3,"line":3,"transit":false,"is_transit":false,"i_long":106.411216,"distance":2651},{"i_long":106.394373,"line":6,"is_transit":false,"time":4,"transit":false,"distance":1853,"station_id":"MJ","station_name":"Maja","i_lat":-6.332307},{"station_id":"CTR","time":10,"i_lat":-6.334892,"is_transit":false,"station_name":"Citeras","distance":7293,"transit":false,"i_long":106.332092,"line":3}]]}