{"data":[[{"time":0,"station_name":"Tanah Tinggi","transit":false,"station_id":"TTI","i_lat":-6.17331,"i_long":106.64657,"distance":0,"is_transit":false,"line":5},{"line":0,"transit":false,"time":3,"station_id":"BPR","i_lat":-6.171811,"station_name":"Batuceper","i_long":106.665036,"distance":2028,"is_transit":false},{"is_transit":false,"transit":false,"station_name":"Poris","i_long":106.679458,"line":5,"time":3,"distance":1834,"station_id":"PI","i_lat":-6.169933},{"station_id":"KDS","i_long":106.701612,"station_name":"Kalideres","time":3,"is_transit":false,"i_lat":-6.166068,"line":5,"transit":false,"distance":2548},{"time":3,"i_long":106.723064,"station_id":"RW","transit":false,"distance":2504,"i_lat":-6.162758,"station_name":"Rawa Buaya","is_transit":false,"line":5},{"i_lat":-6.159876,"i_long":106.737035,"station_name":"Bojongindah","line":0,"distance":1152,"time":4,"transit":false,"is_transit":false,"station_id":"BOI"},{"station_name":"Taman Kota","station_id":"TKO","is_transit":false,"i_lat":-6.1587309999999995,"transit":false,"i_long":106.756522,"distance":2334,"line":5,"time":2},{"transit":false,"time":2,"distance":1614,"line":5,"is_transit":false,"station_name":"Pesing","station_id":"PSG","i_long":106.771379,"i_lat":-6.161433},{"station_id":"GGL","distance":2036,"station_name":"Grogol","i_lat":-6.162021,"line":5,"is_transit":false,"transit":false,"time":2,"i_long":106.788277},{"i_long":106.800832,"i_lat":-6.155215,"line":1,"station_name":"Duri","transit":true,"is_transit":true,"station_id":"DU","time":3,"distance":1700},{"is_transit":true,"station_name":"Tanah Abang","time":8,"station_id":"THB","transit":false,"i_long":106.811091,"line":1,"distance":3632,"i_lat":-6.185545},{"line":1,"distance":2029,"station_id":"KAT","station_name":"Karet","is_transit":false,"time":5,"i_lat":-6.20132,"i_long":106.816351,"transit":false},{"distance":471,"is_transit":false,"station_id":"SUDB","time":1,"transit":false,"i_lat":-6.201433,"i_long":106.819881,"station_name":"Sudirman Baru","line":1},{"line":1,"is_transit":false,"transit":false,"station_id":"SUD","time":1,"distance":280,"i_long":106.822649,"station_name":"Sudirman","i_lat":-6.202263},{"line":0,"is_transit":true,"station_id":"MRI","station_name":"Manggarai","i_long":106.84912,"distance":3186,"i_lat":-6.209883,"transit":false,"time":4},{"time":2,"transit":false,"is_transit":false,"distance":1275,"i_lat":-6.212485,"station_name":"Matraman","i_long":106.858896,"station_id":"MTR","line":1},{"i_long":106.86807400000001,"transit":false,"time":8,"station_id":"JNG","i_lat":-6.215091,"is_transit":true,"distance":1377,"station_name":"Jatinegara","line":0},{"station_id":"KLD","i_lat":-6.2135,"distance":3395,"is_transit":false,"time":3,"i_long":106.899548,"transit":false,"station_name":"Klender","line":1},{"distance":3100,"station_name":"Buaran","is_transit":false,"station_id":"BUA","transit":false,"time":2,"i_long":106.922662,"line":0,"i_lat":-6.215568},{"transit":false,"distance":1305,"station_id":"KLDB","time":1,"i_long":106.939679,"i_lat":-6.217455,"line":1,"station_name":"Klenderbaru","is_transit":false},{"station_id":"CUK","i_long":106.951283,"transit":false,"is_transit":false,"time":8,"i_lat":-6.219053,"line":0,"distance":1385,"station_name":"Cakung"},{"is_transit":false,"line":1,"distance":3097,"station_id":"KRI","transit":false,"i_lat":-6.224515,"station_name":"Kranji","time":3,"i_long":106.977657},{"transit":false,"i_long":106.997013,"line":0,"is_transit":false,"station_id":"BKS","time":4,"distance":2520,"station_name":"Bekasi","i_lat":-6.236616},{"i_lat":-6.248029,"is_transit":false,"distance":2368,"station_name":"Bekasi Timur","time":2,"station_id":"BKST","line":0,"transit":false,"i_long":107.016735},{"time":7,"distance":4460,"is_transit":false,"i_long":107.055722,"line":1,"station_name":"Tambun","station_id":"TB","transit":false,"i_lat":-6.258864},{"station_name":"Cibitung","time":3,"i_long":107.083084,"station_id":"CIT","distance":3420,"is_transit":false,"transit":false,"i_lat":-6.261877,"line":0},{"is_transit":false,"line":1,"distance":2800,"station_id":"TLM","transit":false,"station_name":"Metland Telaga Murni","i_lat":-6.262938,"i_long":107.093313,"time":2},{"line":0,"time":4,"transit":false,"station_id":"CKR","i_lat":-6.2553149999999995,"distance":3689,"is_transit":false,"station_name":"Cikarang","i_long":107.144613}],[{"is_transit":false,"time":0,"line":5,"station_name":"Tanah Tinggi","transit":false,"station_id":"TTI","i_lat":-6.17331,"i_long":106.64657,"distance":0},{"distance":2028,"is_transit":false,"line":0,"station_name":"Batuceper","i_long":106.665036,"station_id":"BPR","time":3,"transit":false,"i_lat":-6.171811},{"station_id":"PI","distance":1834,"transit":false,"is_transit":false,"line":5,"i_lat":-6.169933,"i_long":106.679458,"station_name":"Poris","time":3},{"line":5,"distance":2548,"is_transit":false,"station_id":"KDS","time":3,"station_name":"Kalideres","i_lat":-6.166068,"transit":false,"i_long":106.701612},{"i_lat":-6.162758,"line":5,"is_transit":false,"distance":2504,"station_name":"Rawa Buaya","station_id":"RW","transit":false,"time":3,"i_long":106.723064},{"i_lat":-6.159876,"time":4,"distance":1152,"station_name":"Bojongindah","is_transit":false,"i_long":106.737035,"line":0,"station_id":"BOI","transit":false},{"i_lat":-6.1587309999999995,"i_long":106.756522,"distance":2334,"is_transit":false,"time":2,"line":5,"station_name":"Taman Kota","station_id":"TKO","transit":false},{"transit":false,"time":2,"i_long":106.771379,"i_lat":-6.161433,"station_name":"Pesing","is_transit":false,"line":5,"station_id":"PSG","distance":1614},{"transit":false,"station_name":"Grogol","distance":2036,"station_id":"GGL","i_long":106.788277,"time":2,"i_lat":-6.162021,"is_transit":false,"line":5},{"distance":1700,"station_id":"DU","time":3,"i_long":106.800832,"transit":true,"is_transit":true,"station_name":"Duri","i_lat":-6.155215,"line":1},{"is_transit":false,"line":0,"i_long":106.79867,"i_lat":-6.144674,"station_name":"Angke","station_id":"AK","time":4,"transit":false,"distance":1230},{"time":9,"is_transit":true,"transit":true,"i_lat":-6.132549,"i_long":106.826365,"distance":4102,"line":0,"station_name":"Kampung Bandan","station_id":"KPB"},{"station_id":"RJW","station_name":"Rajawali","i_long":106.836569,"transit":false,"line":11,"is_transit":false,"distance":1444,"i_lat":-6.14505,"time":3},{"distance":1901,"station_name":"Kemayoran","transit":false,"i_lat":-6.161728,"is_transit":false,"station_id":"KMO","time":5,"line":11,"i_long":106.839204},{"station_name":"Pasar Senen","i_lat":-6.174784,"is_transit":false,"i_long":106.84368,"distance":1436,"line":11,"time":4,"station_id":"PSE","transit":false},{"i_long":106.850107,"transit":false,"distance":1567,"station_id":"GST","is_transit":false,"line":11,"station_name":"Gang Sentiong","i_lat":-6.185975,"time":8},{"station_name":"Kramat","distance":973,"time":1,"i_long":106.855437,"transit":false,"station_id":"KMT","is_transit":false,"line":11,"i_lat":-6.193792},{"time":2,"station_id":"POK","i_long":106.861737,"distance":1829,"i_lat":-6.209188,"station_name":"Pondok Jati","is_transit":false,"line":11,"transit":false},{"line":0,"station_name":"Jatinegara","i_long":106.86807400000001,"i_lat":-6.215091,"time":9,"station_id":"JNG","transit":true,"distance":1236,"is_transit":true},{"time":3,"distance":3395,"line":1,"transit":false,"is_transit":false,"station_name":"Klender","i_long":106.899548,"station_id":"KLD","i_lat":-6.2135},{"transit":false,"is_transit":false,"i_lat":-6.215568,"station_id":"BUA","time":2,"i_long":106.922662,"line":0,"distance":3100,"station_name":"Buaran"},{"i_lat":-6.217455,"line":1,"transit":false,"station_name":"Klenderbaru","i_long":106.939679,"is_transit":false,"station_id":"KLDB","distance":1305,"time":1},{"time":8,"i_long":106.951283,"line":0,"transit":false,"station_id":"CUK","i_lat":-6.219053,"distance":1385,"station_name":"Cakung","is_transit":false},{"transit":false,"distance":3097,"station_name":"Kranji","time":3,"station_id":"KRI","is_transit":false,"i_lat":-6.224515,"i_long":106.977657,"line":1},{"i_long":106.997013,"transit":false,"i_lat":-6.236616,"station_name":"Bekasi","distance":2520,"station_id":"BKS","time":4,"line":0,"is_transit":false},{"station_id":"BKST","i_lat":-6.248029,"i_long":107.016735,"is_transit":false,"time":2,"line":0,"station_name":"Bekasi Timur","transit":false,"distance":2368},{"is_transit":false,"station_id":"TB","transit":false,"time":7,"i_long":107.055722,"line":1,"i_lat":-6.258864,"station_name":"Tambun","distance":4460},{"transit":false,"line":0,"distance":3420,"time":3,"i_lat":-6.261877,"i_long":107.083084,"station_id":"CIT","is_transit":false,"station_name":"Cibitung"},{"transit":false,"station_id":"TLM","i_long":107.093313,"distance":2800,"is_transit":false,"station_name":"Metland Telaga Murni","i_lat":-6.262938,"time":2,"line":1},{"station_id":"CKR","i_long":107.144613,"line":0,"time":4,"transit":false,"station_name":"Cikarang","distance":3689,"i_lat":-6.2553149999999995,"is_transit":false}],[{"station_name":"Tanah Tinggi","time":0,"is_transit":false,"i_long":106.64657,"station_id":"TTI","transit":false,"distance":0,"i_lat":-6.17331,"line":5},{"i_lat":-6.171811,"is_transit":false,"station_id":"BPR","i_long":106.665036,"time":3,"distance":2028,"transit":false,"line":0,"station_name":"Batuceper"},{"transit":false,"line":5,"station_id":"PI","distance":1834,"is_transit":false,"i_lat":-6.169933,"i_long":106.679458,"time":3,"station_name":"Poris"},{"transit":false,"line":5,"i_lat":-6.166068,"i_long":106.701612,"distance":2548,"time":3,"station_id":"KDS","is_transit":false,"station_name":"Kalideres"},{"i_lat":-6.162758,"distance":2504,"time":3,"i_long":106.723064,"station_name":"Rawa Buaya","line":5,"is_transit":false,"station_id":"RW","transit":false},{"line":0,"transit":false,"time":4,"station_id":"BOI","distance":1152,"station_name":"Bojongindah","is_transit":false,"i_lat":-6.159876,"i_long":106.737035},{"is_transit":false,"line":5,"station_id":"TKO","station_name":"Taman Kota","distance":2334,"transit":false,"i_lat":-6.1587309999999995,"time":2,"i_long":106.756522},{"distance":1614,"transit":false,"i_long":106.771379,"station_name":"Pesing","station_id":"PSG","time":2,"i_lat":-6.161433,"is_transit":false,"line":5},{"time":2,"transit":false,"distance":2036,"line":5,"i_long":106.788277,"i_lat":-6.162021,"station_id":"GGL","is_transit":false,"station_name":"Grogol"},{"distance":1700,"transit":true,"station_id":"DU","is_transit":true,"station_name":"Duri","i_long":106.800832,"line":1,"time":3,"i_lat":-6.155215},{"station_id":"AK","line":0,"transit":false,"distance":1230,"station_name":"Angke","i_lat":-6.144674,"time":4,"i_long":106.79867,"is_transit":false},{"i_lat":-6.132549,"distance":4102,"transit":false,"line":0,"time":9,"i_long":106.826365,"station_id":"KPB","station_name":"Kampung Bandan","is_transit":true},{"is_transit":true,"time":3,"station_id":"JAKK","transit":true,"i_lat":-6.137569,"distance":1364,"station_name":"Jakarta Kota","i_long":106.812439,"line":0},{"line":7,"i_lat":-6.141205,"station_name":"Jayakarta","time":4,"distance":1264,"is_transit":false,"transit":false,"i_long":106.820901,"station_id":"JAY"},{"i_long":106.82482,"line":2,"transit":false,"time":2,"i_lat":-6.149769,"station_name":"Manggabesar","distance":1080,"is_transit":false,"station_id":"MGB"},{"time":2,"i_lat":-6.160725,"is_transit":false,"station_name":"Sawah Besar","i_long":106.827103,"line":2,"transit":false,"station_id":"SW","distance":906},{"station_id":"JUA","is_transit":false,"transit":false,"station_name":"Juanda","time":2,"i_lat":-6.166716,"i_long":106.828284,"line":2,"distance":1149},{"is_transit":false,"transit":false,"i_long":106.832183,"line":2,"distance":2015,"station_id":"GDD","time":4,"station_name":"Gondangdia","i_lat":-6.186295},{"i_long":106.840169,"line":0,"is_transit":false,"station_id":"CKI","transit":false,"distance":1750,"station_name":"Cikini","time":3,"i_lat":-6.198556},{"station_id":"MRI","transit":true,"i_lat":-6.209883,"line":0,"is_transit":true,"i_long":106.84912,"time":4,"distance":1590,"station_name":"Manggarai"},{"is_transit":false,"station_id":"MTR","i_long":106.858896,"station_name":"Matraman","distance":1275,"time":2,"i_lat":-6.212485,"line":1,"transit":false},{"station_name":"Jatinegara","line":0,"time":8,"transit":false,"distance":1377,"i_lat":-6.215091,"i_long":106.86807400000001,"is_transit":true,"station_id":"JNG"},{"station_id":"KLD","i_lat":-6.2135,"i_long":106.899548,"distance":3395,"time":3,"station_name":"Klender","is_transit":false,"transit":false,"line":1},{"i_long":106.922662,"transit":false,"is_transit":false,"line":0,"distance":3100,"station_id":"BUA","station_name":"Buaran","time":2,"i_lat":-6.215568},{"i_lat":-6.217455,"i_long":106.939679,"distance":1305,"station_name":"Klenderbaru","is_transit":false,"time":1,"line":1,"transit":false,"station_id":"KLDB"},{"is_transit":false,"station_name":"Cakung","time":8,"station_id":"CUK","transit":false,"i_lat":-6.219053,"i_long":106.951283,"line":0,"distance":1385},{"station_name":"Kranji","is_transit":false,"station_id":"KRI","i_long":106.977657,"line":1,"transit":false,"i_lat":-6.224515,"distance":3097,"time":3},{"line":0,"distance":2520,"transit":false,"is_transit":false,"station_id":"BKS","station_name":"Bekasi","time":4,"i_lat":-6.236616,"i_long":106.997013},{"i_lat":-6.248029,"is_transit":false,"station_id":"BKST","time":2,"station_name":"Bekasi Timur","transit":false,"line":0,"distance":2368,"i_long":107.016735},{"station_id":"TB","transit":false,"line":1,"is_transit":false,"station_name":"Tambun","time":7,"i_lat":-6.258864,"i_long":107.055722,"distance":4460},{"time":3,"line":0,"i_long":107.083084,"station_id":"CIT","i_lat":-6.261877,"transit":false,"distance":3420,"station_name":"Cibitung","is_transit":false},{"i_long":107.093313,"is_transit":false,"line":1,"transit":false,"distance":2800,"station_id":"TLM","time":2,"station_name":"Metland Telaga Murni","i_lat":-6.262938},{"i_long":107.144613,"station_name":"Cikarang","transit":false,"distance":3689,"line":0,"station_id":"CKR","time":4,"is_transit":false,"i_lat":-6.2553149999999995}],[{"station_id":"TTI","i_long":106.64657,"i_lat":-6.17331,"transit":false,"station_name":"Tanah Tinggi","distance":0,"is_transit":false,"time":0,"line":5},{"time":3,"distance":2028,"line":0,"station_name":"Batuceper","is_transit":false,"station_id":"BPR","transit":false,"i_lat":-6.171811,"i_long":106.665036},{"time":3,"distance":1834,"station_name":"Poris","is_transit":false,"i_lat":-6.169933,"station_id":"PI","transit":false,"line":5,"i_long":106.679458},{"i_lat":-6.166068,"station_id":"KDS","transit":false,"station_name":"Kalideres","distance":2548,"is_transit":false,"time":3,"i_long":106.701612,"line":5},{"distance":2504,"transit":false,"time":3,"line":5,"is_transit":false,"station_name":"Rawa Buaya","i_lat":-6.162758,"i_long":106.723064,"station_id":"RW"},{"is_transit":false,"station_id":"BOI","i_lat":-6.159876,"distance":1152,"station_name":"Bojongindah","transit":false,"line":0,"time":4,"i_long":106.737035},{"line":5,"station_id":"TKO","distance":2334,"transit":false,"i_lat":-6.1587309999999995,"time":2,"is_transit":false,"i_long":106.756522,"station_name":"Taman Kota"},{"line":5,"distance":1614,"i_long":106.771379,"is_transit":false,"station_name":"Pesing","time":2,"transit":false,"i_lat":-6.161433,"station_id":"PSG"},{"station_name":"Grogol","transit":false,"time":2,"i_lat":-6.162021,"is_transit":false,"station_id":"GGL","line":5,"i_long":106.788277,"distance":2036},{"i_long":106.800832,"station_id":"DU","line":1,"distance":1700,"i_lat":-6.155215,"station_name":"Duri","is_transit":true,"transit":true,"time":3},{"i_long":106.811091,"distance":3632,"line":1,"station_name":"Tanah Abang","time":8,"i_lat":-6.185545,"station_id":"THB","is_transit":true,"transit":false},{"is_transit":false,"station_name":"Karet","transit":false,"distance":2029,"i_long":106.816351,"time":5,"i_lat":-6.20132,"station_id":"KAT","line":1},{"i_lat":-6.201433,"station_name":"Sudirman Baru","station_id":"SUDB","time":1,"i_long":106.819881,"line":1,"transit":false,"distance":471,"is_transit":false},{"station_name":"Sudirman","i_long":106.822649,"i_lat":-6.202263,"line":1,"is_transit":false,"distance":280,"station_id":"SUD","time":1,"transit":false},{"transit":true,"station_name":"Manggarai","i_lat":-6.209883,"i_long":106.84912,"distance":3186,"station_id":"MRI","time":4,"line":0,"is_transit":true},{"i_long":106.840169,"time":4,"is_transit":false,"line":0,"station_name":"Cikini","station_id":"CKI","i_lat":-6.198556,"distance":1590,"transit":false},{"station_name":"Gondangdia","line":2,"distance":1750,"time":3,"station_id":"GDD","transit":false,"is_transit":false,"i_long":106.832183,"i_lat":-6.186295},{"is_transit":false,"transit":false,"i_lat":-6.166716,"i_long":106.828284,"distance":2015,"time":4,"station_name":"Juanda","line":2,"station_id":"JUA"},{"transit":false,"line":2,"distance":1149,"station_id":"SW","time":2,"i_long":106.827103,"i_lat":-6.160725,"is_transit":false,"station_name":"Sawah Besar"},{"i_long":106.82482,"station_id":"MGB","distance":906,"line":2,"is_transit":false,"transit":false,"station_name":"Manggabesar","time":2,"i_lat":-6.149769},{"i_long":106.820901,"distance":1080,"station_id":"JAY","station_name":"Jayakarta","i_lat":-6.141205,"time":2,"is_transit":false,"transit":false,"line":7},{"is_transit":true,"station_id":"JAKK","transit":true,"i_long":106.812439,"distance":1264,"station_name":"Jakarta Kota","i_lat":-6.137569,"line":0,"time":4},{"i_lat":-6.132549,"line":0,"is_transit":true,"i_long":106.826365,"distance":1364,"time":3,"station_id":"KPB","transit":true,"station_name":"Kampung Bandan"},{"transit":false,"station_id":"RJW","line":11,"distance":1444,"station_name":"Rajawali","time":3,"i_long":106.836569,"i_lat":-6.14505,"is_transit":false},{"line":11,"distance":1901,"is_transit":false,"station_id":"KMO","station_name":"Kemayoran","time":5,"i_lat":-6.161728,"transit":false,"i_long":106.839204},{"station_name":"Pasar Senen","transit":false,"line":11,"is_transit":false,"distance":1436,"station_id":"PSE","time":4,"i_long":106.84368,"i_lat":-6.174784},{"transit":false,"i_long":106.850107,"i_lat":-6.185975,"distance":1567,"station_id":"GST","time":8,"station_name":"Gang Sentiong","is_transit":false,"line":11},{"station_id":"KMT","is_transit":false,"transit":false,"station_name":"Kramat","time":1,"i_lat":-6.193792,"line":11,"distance":973,"i_long":106.855437},{"transit":false,"i_lat":-6.209188,"line":11,"distance":1829,"is_transit":false,"station_id":"POK","time":2,"station_name":"Pondok Jati","i_long":106.861737},{"i_long":106.86807400000001,"line":0,"distance":1236,"transit":true,"station_name":"Jatinegara","is_transit":true,"i_lat":-6.215091,"time":9,"station_id":"JNG"},{"distance":3395,"is_transit":false,"station_id":"KLD","station_name":"Klender","time":3,"transit":false,"line":1,"i_long":106.899548,"i_lat":-6.2135},{"i_long":106.922662,"line":0,"distance":3100,"is_transit":false,"transit":false,"station_id":"BUA","i_lat":-6.215568,"station_name":"Buaran","time":2},{"i_long":106.939679,"station_name":"Klenderbaru","line":1,"transit":false,"time":1,"distance":1305,"is_transit":false,"i_lat":-6.217455,"station_id":"KLDB"},{"time":8,"station_id":"CUK","station_name":"Cakung","i_long":106.951283,"line":0,"transit":false,"i_lat":-6.219053,"distance":1385,"is_transit":false},{"station_name":"Kranji","i_lat":-6.224515,"station_id":"KRI","time":3,"line":1,"i_long":106.977657,"transit":false,"distance":3097,"is_transit":false},{"transit":false,"station_name":"Bekasi","i_lat":-6.236616,"time":4,"is_transit":false,"i_long":106.997013,"distance":2520,"station_id":"BKS","line":0},{"distance":2368,"time":2,"i_long":107.016735,"line":0,"is_transit":false,"station_name":"Bekasi Timur","transit":false,"station_id":"BKST","i_lat":-6.248029},{"i_long":107.055722,"is_transit":false,"distance":4460,"station_id":"TB","time":7,"i_lat":-6.258864,"transit":false,"line":1,"station_name":"Tambun"},{"is_transit":false,"time":3,"i_lat":-6.261877,"line":0,"station_id":"CIT","station_name":"Cibitung","i_long":107.083084,"transit":false,"distance":3420},{"station_id":"TLM","station_name":"Metland Telaga Murni","transit":false,"time":2,"i_lat":-6.262938,"i_long":107.093313,"is_transit":false,"distance":2800,"line":1},{"i_long":107.144613,"distance":3689,"station_id":"CKR","transit":false,"time":4,"i_lat":-6.2553149999999995,"station_name":"Cikarang","line":0,"is_transit":false}]]}