{"data":[[{"line":5,"distance":0,"time":0,"station_id":"TTI","is_transit":false,"transit":false,"i_lat":-6.17331,"i_long":106.64657,"station_name":"Tanah Tinggi"},{"is_transit":false,"time":3,"station_name":"Batuceper","transit":false,"station_id":"BPR","i_lat":-6.171811,"distance":2028,"i_long":106.665036,"line":5},{"time":3,"station_name":"Poris","line":5,"i_long":106.679458,"distance":1834,"station_id":"PI","is_transit":false,"transit":false,"i_lat":-6.169933},{"line":5,"distance":2548,"i_long":106.701612,"station_name":"Kalideres","station_id":"KDS","is_transit":false,"time":3,"transit":false,"i_lat":-6.166068},{"line":5,"i_lat":-6.162758,"distance":2504,"transit":false,"is_transit":false,"station_name":"Rawa Buaya","i_long":106.723064,"time":3,"station_id":"RW"},{"time":4,"station_name":"Bojongindah","station_id":"BOI","distance":1152,"i_long":106.737035,"i_lat":-6.159876,"transit":false,"line":5,"is_transit":false},{"station_id":"TKO","i_lat":-6.1587309999999995,"time":2,"line":5,"station_name":"Taman Kota","transit":false,"distance":2334,"is_transit":false,"i_long":106.756522},{"time":2,"line":5,"is_transit":false,"transit":false,"station_name":"Pesing","i_lat":-6.161433,"station_id":"PSG","distance":1614,"i_long":106.771379},{"i_long":106.788277,"distance":2036,"station_name":"Grogol","time":2,"transit":false,"is_transit":false,"station_id":"GRG","i_lat":-6.162021,"line":5},{"i_lat":-6.155215,"is_transit":true,"time":3,"i_long":106.800832,"transit":true,"line":1,"distance":1700,"station_name":"Duri","station_id":"DU"},{"line":1,"time":8,"station_id":"THB","is_transit":true,"i_long":106.811091,"station_name":"Tanah Abang","i_lat":-6.185545,"distance":3632,"transit":true},{"transit":false,"time":6,"i_lat":-6.207404,"distance":3191,"line":6,"is_transit":false,"i_long":106.79689,"station_name":"Palmerah","station_id":"PLM"},{"distance":3737,"i_long":106.780334,"station_id":"KBY","station_name":"Kebayoran","is_transit":false,"time":7,"transit":false,"line":6,"i_lat":-6.237242},{"line":6,"i_long":106.74273,"is_transit":false,"transit":false,"i_lat":-6.276362,"station_id":"PDJ","station_name":"Pondokranji","time":8,"distance":6218},{"distance":2179,"station_id":"JMU","transit":false,"time":3,"i_lat":-6.288927,"i_long":106.728916,"line":6,"is_transit":false,"station_name":"Jurangmangu"}],[{"is_transit":false,"station_id":"TTI","line":5,"distance":0,"transit":false,"station_name":"Tanah Tinggi","i_lat":-6.17331,"time":0,"i_long":106.64657},{"is_transit":false,"time":3,"station_name":"Batuceper","transit":false,"i_long":106.665036,"line":5,"i_lat":-6.171811,"station_id":"BPR","distance":2028},{"is_transit":false,"transit":false,"i_long":106.679458,"station_name":"Poris","i_lat":-6.169933,"time":3,"distance":1834,"station_id":"PI","line":5},{"station_id":"KDS","station_name":"Kalideres","transit":false,"is_transit":false,"line":5,"distance":2548,"i_lat":-6.166068,"time":3,"i_long":106.701612},{"i_lat":-6.162758,"station_name":"Rawa Buaya","transit":false,"station_id":"RW","distance":2504,"i_long":106.723064,"time":3,"is_transit":false,"line":5},{"time":4,"distance":1152,"i_long":106.737035,"line":5,"i_lat":-6.159876,"station_id":"BOI","is_transit":false,"transit":false,"station_name":"Bojongindah"},{"time":2,"station_id":"TKO","i_lat":-6.1587309999999995,"line":5,"i_long":106.756522,"station_name":"Taman Kota","distance":2334,"transit":false,"is_transit":false},{"transit":false,"i_long":106.771379,"time":2,"distance":1614,"station_id":"PSG","station_name":"Pesing","line":5,"is_transit":false,"i_lat":-6.161433},{"station_id":"GRG","transit":false,"station_name":"Grogol","line":5,"i_lat":-6.162021,"distance":2036,"i_long":106.788277,"time":2,"is_transit":false},{"station_name":"Duri","distance":1700,"station_id":"DU","is_transit":true,"transit":true,"i_lat":-6.155215,"line":1,"i_long":106.800832,"time":3},{"i_lat":-6.144674,"i_long":106.79867,"line":1,"transit":false,"station_id":"AK","distance":1230,"station_name":"Angke","is_transit":false,"time":4},{"distance":4102,"is_transit":true,"station_name":"Kampung Bandan","time":9,"station_id":"KPB","transit":true,"i_lat":-6.132549,"line":4,"i_long":106.826365},{"distance":1364,"is_transit":true,"i_lat":-6.137569,"i_long":106.812439,"line":2,"time":3,"transit":true,"station_id":"JAKK","station_name":"Jakarta Kota"},{"distance":1264,"station_name":"Jayakarta","i_long":106.820901,"transit":false,"time":4,"i_lat":-6.141205,"is_transit":false,"line":2,"station_id":"JAY"},{"time":2,"line":2,"i_lat":-6.149769,"station_id":"MGB","distance":1080,"i_long":106.82482,"is_transit":false,"transit":false,"station_name":"Manggabesar"},{"distance":906,"time":2,"station_id":"SW","i_long":106.827103,"line":2,"station_name":"Sawah Besar","is_transit":false,"transit":false,"i_lat":-6.160725},{"time":2,"station_name":"Juanda","is_transit":false,"i_lat":-6.166716,"i_long":106.828284,"line":2,"distance":1149,"transit":false,"station_id":"JUA"},{"i_long":106.832183,"i_lat":-6.186295,"time":4,"station_name":"Gondangdia","transit":false,"distance":2015,"is_transit":false,"station_id":"GDD","line":2},{"is_transit":false,"station_name":"Cikini","i_long":106.840169,"distance":1750,"time":3,"station_id":"CKI","line":2,"transit":false,"i_lat":-6.198556},{"distance":1590,"line":2,"station_name":"Manggarai","is_transit":true,"transit":true,"time":4,"i_lat":-6.209883,"i_long":106.84912,"station_id":"MRI"},{"station_id":"SUD","i_lat":-6.202263,"i_long":106.822649,"line":1,"time":4,"distance":3186,"is_transit":false,"transit":false,"station_name":"Sudirman"},{"is_transit":false,"i_lat":-6.201433,"distance":280,"station_name":"Sudirman Baru","i_long":106.819881,"line":1,"transit":false,"time":1,"station_id":"SUDB"},{"station_name":"Karet","transit":false,"station_id":"KAT","is_transit":false,"time":1,"i_lat":-6.20132,"i_long":106.816351,"line":1,"distance":471},{"line":1,"distance":2029,"is_transit":true,"station_id":"THB","station_name":"Tanah Abang","time":5,"transit":true,"i_long":106.811091,"i_lat":-6.185545},{"distance":3191,"station_id":"PLM","time":6,"is_transit":false,"station_name":"Palmerah","line":6,"i_lat":-6.207404,"transit":false,"i_long":106.79689},{"distance":3737,"station_id":"KBY","station_name":"Kebayoran","time":7,"transit":false,"i_lat":-6.237242,"is_transit":false,"i_long":106.780334,"line":6},{"i_long":106.74273,"transit":false,"i_lat":-6.276362,"line":6,"station_id":"PDJ","station_name":"Pondokranji","time":8,"distance":6218,"is_transit":false},{"line":6,"i_lat":-6.288927,"time":3,"station_name":"Jurangmangu","station_id":"JMU","i_long":106.728916,"transit":false,"is_transit":false,"distance":2179}],[{"station_name":"Tanah Tinggi","station_id":"TTI","distance":0,"i_lat":-6.17331,"transit":false,"i_long":106.64657,"time":0,"is_transit":false,"line":5},{"time":3,"is_transit":false,"station_name":"Batuceper","line":5,"transit":false,"distance":2028,"station_id":"BPR","i_lat":-6.171811,"i_long":106.665036},{"i_long":106.679458,"distance":1834,"i_lat":-6.169933,"is_transit":false,"station_name":"Poris","line":5,"transit":false,"time":3,"station_id":"PI"},{"i_long":106.701612,"distance":2548,"station_id":"KDS","transit":false,"station_name":"Kalideres","line":5,"is_transit":false,"time":3,"i_lat":-6.166068},{"station_name":"Rawa Buaya","is_transit":false,"i_long":106.723064,"distance":2504,"time":3,"i_lat":-6.162758,"station_id":"RW","transit":false,"line":5},{"line":5,"distance":1152,"is_transit":false,"i_long":106.737035,"transit":false,"time":4,"station_id":"BOI","station_name":"Bojongindah","i_lat":-6.159876},{"station_name":"Taman Kota","transit":false,"station_id":"TKO","distance":2334,"is_transit":false,"time":2,"i_long":106.756522,"line":5,"i_lat":-6.1587309999999995},{"line":5,"i_lat":-6.161433,"distance":1614,"time":2,"transit":false,"station_name":"Pesing","is_transit":false,"station_id":"PSG","i_long":106.771379},{"i_long":106.788277,"time":2,"i_lat":-6.162021,"distance":2036,"line":5,"station_name":"Grogol","is_transit":false,"transit":false,"station_id":"GRG"},{"i_lat":-6.155215,"transit":true,"is_transit":true,"line":1,"time":3,"station_name":"Duri","distance":1700,"i_long":106.800832,"station_id":"DU"},{"station_name":"Angke","time":4,"is_transit":false,"i_long":106.79867,"station_id":"AK","distance":1230,"transit":false,"i_lat":-6.144674,"line":1},{"station_id":"KPB","station_name":"Kampung Bandan","i_long":106.826365,"time":9,"i_lat":-6.132549,"line":4,"transit":true,"distance":4102,"is_transit":true},{"i_long":106.836569,"time":3,"is_transit":false,"line":11,"distance":1444,"station_name":"Rajawali","station_id":"RJW","transit":false,"i_lat":-6.14505},{"i_long":106.839204,"time":5,"transit":false,"station_name":"Kemayoran","line":11,"is_transit":false,"station_id":"KMO","i_lat":-6.161728,"distance":1901},{"line":11,"station_name":"Pasar Senen","time":4,"station_id":"PSE","i_long":106.84368,"transit":false,"distance":1436,"is_transit":false,"i_lat":-6.174784},{"i_lat":-6.185975,"station_id":"GST","time":8,"line":11,"transit":false,"distance":1567,"is_transit":false,"station_name":"Gang Sentiong","i_long":106.850107},{"time":1,"distance":973,"station_name":"Kramat","i_long":106.855437,"i_lat":-6.193792,"station_id":"KMT","line":11,"is_transit":false,"transit":false},{"transit":false,"i_long":106.861737,"station_id":"POK","distance":1829,"station_name":"Pondok Jati","is_transit":false,"i_lat":-6.209188,"line":11,"time":2},{"distance":1236,"time":9,"station_id":"JNG","i_lat":-6.215091,"station_name":"Jatinegara","i_long":106.86807400000001,"is_transit":true,"transit":true,"line":1},{"station_name":"Matraman","station_id":"MTR","line":1,"time":2,"distance":1377,"transit":false,"is_transit":false,"i_lat":-6.212485,"i_long":106.858896},{"transit":false,"i_lat":-6.209883,"time":2,"station_id":"MRI","distance":1275,"line":2,"is_transit":false,"station_name":"Manggarai","i_long":106.84912},{"station_id":"SUD","time":4,"station_name":"Sudirman","transit":false,"is_transit":false,"i_lat":-6.202263,"i_long":106.822649,"distance":3186,"line":1},{"station_id":"SUDB","is_transit":false,"station_name":"Sudirman Baru","transit":false,"time":1,"i_lat":-6.201433,"distance":280,"i_long":106.819881,"line":1},{"i_lat":-6.20132,"station_id":"KAT","line":1,"time":1,"transit":false,"distance":471,"i_long":106.816351,"is_transit":false,"station_name":"Karet"},{"station_id":"THB","is_transit":true,"time":5,"i_lat":-6.185545,"line":1,"transit":true,"i_long":106.811091,"distance":2029,"station_name":"Tanah Abang"},{"time":6,"station_name":"Palmerah","is_transit":false,"station_id":"PLM","i_lat":-6.207404,"line":6,"i_long":106.79689,"transit":false,"distance":3191},{"distance":3737,"station_id":"KBY","i_long":106.780334,"transit":false,"i_lat":-6.237242,"station_name":"Kebayoran","time":7,"line":6,"is_transit":false},{"is_transit":false,"distance":6218,"transit":false,"i_long":106.74273,"i_lat":-6.276362,"time":8,"line":6,"station_id":"PDJ","station_name":"Pondokranji"},{"distance":2179,"station_id":"JMU","transit":false,"time":3,"is_transit":false,"i_long":106.728916,"line":6,"station_name":"Jurangmangu","i_lat":-6.288927}]]}