{"data":[[{"distance":0,"i_lat":-6.17331,"station_name":"Tanah Tinggi","i_long":106.64657,"station_id":"TTI","time":0,"line":5,"is_transit":false,"transit":false},{"i_long":106.665036,"station_name":"Batuceper","i_lat":-6.171811,"is_transit":false,"distance":2028,"line":5,"transit":false,"station_id":"BPR","time":3},{"transit":false,"line":5,"i_long":106.679458,"station_id":"PI","is_transit":false,"distance":1834,"station_name":"Poris","time":3,"i_lat":-6.169933},{"i_lat":-6.166068,"station_id":"KDS","i_long":106.701612,"time":3,"distance":2548,"station_name":"Kalideres","transit":false,"is_transit":false,"line":5},{"is_transit":false,"i_long":106.723064,"station_name":"Rawa Buaya","i_lat":-6.162758,"line":5,"distance":2504,"transit":false,"station_id":"RW","time":3},{"transit":false,"distance":1152,"is_transit":false,"time":4,"station_name":"Bojongindah","i_long":106.737035,"i_lat":-6.159876,"line":5,"station_id":"BOI"},{"i_lat":-6.1587309999999995,"transit":false,"line":5,"is_transit":false,"station_name":"Taman Kota","station_id":"TKO","distance":2334,"i_long":106.756522,"time":2},{"line":5,"station_name":"Pesing","transit":false,"station_id":"PSG","is_transit":false,"time":2,"distance":1614,"i_lat":-6.161433,"i_long":106.771379},{"is_transit":false,"i_long":106.788277,"station_id":"GGL","time":2,"distance":2036,"line":5,"station_name":"Grogol","i_lat":-6.162021,"transit":false},{"time":3,"is_transit":true,"i_long":106.800832,"line":1,"distance":1700,"station_id":"DU","transit":true,"station_name":"Duri","i_lat":-6.155215},{"transit":false,"is_transit":false,"i_lat":-6.185545,"line":1,"time":8,"distance":3632,"i_long":106.811091,"station_name":"Tanah Abang","station_id":"THB"},{"is_transit":false,"transit":false,"station_name":"Karet","station_id":"KAT","distance":2029,"i_long":106.816351,"line":1,"time":5,"i_lat":-6.20132},{"line":1,"i_lat":-6.201433,"time":1,"is_transit":false,"transit":false,"station_id":"SUDB","station_name":"Sudirman Baru","i_long":106.819881,"distance":471},{"distance":280,"transit":false,"station_name":"Sudirman","line":1,"i_lat":-6.202263,"is_transit":false,"i_long":106.822649,"time":1,"station_id":"SUD"},{"transit":false,"station_name":"Manggarai","is_transit":false,"line":2,"distance":3186,"time":4,"i_lat":-6.209883,"i_long":106.84912,"station_id":"MRI"},{"is_transit":false,"i_lat":-6.212485,"transit":false,"line":1,"station_id":"MTR","time":2,"station_name":"Matraman","distance":1275,"i_long":106.858896},{"i_lat":-6.215091,"station_id":"JNG","line":1,"station_name":"Jatinegara","is_transit":false,"distance":1377,"time":8,"transit":false,"i_long":106.86807400000001},{"station_name":"Klender","is_transit":false,"station_id":"KLD","i_lat":-6.2135,"distance":3395,"transit":false,"time":3,"i_long":106.899548,"line":1},{"transit":false,"i_long":106.922662,"station_name":"Buaran","time":2,"line":1,"distance":3100,"is_transit":false,"station_id":"BUA","i_lat":-6.215568},{"time":1,"is_transit":false,"station_id":"KLDB","station_name":"Klenderbaru","i_lat":-6.217455,"i_long":106.939679,"transit":false,"distance":1305,"line":1},{"station_id":"CUK","line":1,"station_name":"Cakung","transit":false,"is_transit":false,"distance":1385,"i_long":106.951283,"i_lat":-6.219053,"time":8},{"is_transit":false,"station_name":"Kranji","distance":3097,"transit":false,"i_lat":-6.224515,"i_long":106.977657,"station_id":"KRI","time":3,"line":1},{"i_long":106.997013,"i_lat":-6.236616,"station_id":"BKS","distance":2520,"transit":false,"line":1,"station_name":"Bekasi","is_transit":false,"time":4},{"distance":2368,"station_name":"Bekasi Timur","i_long":107.016735,"is_transit":false,"line":1,"transit":false,"time":2,"i_lat":-6.248029,"station_id":"BKST"},{"distance":4460,"is_transit":false,"transit":false,"station_id":"TB","time":7,"i_long":107.055722,"line":1,"i_lat":-6.258864,"station_name":"Tambun"},{"station_name":"Cibitung","i_long":107.083084,"station_id":"CIT","distance":3420,"line":1,"transit":false,"i_lat":-6.261877,"is_transit":false,"time":3},{"time":2,"is_transit":false,"distance":2800,"i_lat":-6.262938,"i_long":107.093313,"station_name":"Metland Telaga Murni","station_id":"TLM","transit":false,"line":1}],[{"station_id":"TTI","is_transit":false,"distance":0,"i_lat":-6.17331,"line":5,"i_long":106.64657,"time":0,"station_name":"Tanah Tinggi","transit":false},{"time":3,"station_name":"Batuceper","i_lat":-6.171811,"is_transit":false,"distance":2028,"i_long":106.665036,"line":5,"station_id":"BPR","transit":false},{"transit":false,"i_lat":-6.169933,"i_long":106.679458,"is_transit":false,"distance":1834,"line":5,"station_id":"PI","time":3,"station_name":"Poris"},{"is_transit":false,"time":3,"distance":2548,"i_lat":-6.166068,"station_id":"KDS","station_name":"Kalideres","i_long":106.701612,"line":5,"transit":false},{"station_name":"Rawa Buaya","time":3,"i_lat":-6.162758,"distance":2504,"transit":false,"is_transit":false,"i_long":106.723064,"line":5,"station_id":"RW"},{"station_id":"BOI","is_transit":false,"time":4,"transit":false,"i_long":106.737035,"line":5,"i_lat":-6.159876,"station_name":"Bojongindah","distance":1152},{"station_id":"TKO","distance":2334,"i_long":106.756522,"line":5,"i_lat":-6.1587309999999995,"transit":false,"station_name":"Taman Kota","is_transit":false,"time":2},{"station_name":"Pesing","station_id":"PSG","distance":1614,"i_lat":-6.161433,"transit":false,"i_long":106.771379,"time":2,"line":5,"is_transit":false},{"transit":false,"is_transit":false,"i_lat":-6.162021,"station_name":"Grogol","station_id":"GGL","time":2,"i_long":106.788277,"line":5,"distance":2036},{"distance":1700,"line":1,"is_transit":true,"transit":true,"station_name":"Duri","station_id":"DU","time":3,"i_lat":-6.155215,"i_long":106.800832},{"i_lat":-6.144674,"station_name":"Angke","i_long":106.79867,"is_transit":false,"time":4,"line":1,"station_id":"AK","transit":false,"distance":1230},{"i_long":106.826365,"is_transit":true,"i_lat":-6.132549,"line":4,"station_id":"KPB","station_name":"Kampung Bandan","distance":4102,"transit":true,"time":9},{"station_name":"Rajawali","line":11,"is_transit":false,"time":3,"station_id":"RJW","i_long":106.836569,"i_lat":-6.14505,"distance":1444,"transit":false},{"is_transit":false,"distance":1901,"transit":false,"station_id":"KMO","time":5,"i_lat":-6.161728,"line":11,"station_name":"Kemayoran","i_long":106.839204},{"distance":1436,"station_id":"PSE","i_long":106.84368,"station_name":"Pasar Senen","i_lat":-6.174784,"line":11,"transit":false,"is_transit":false,"time":4},{"station_id":"GST","station_name":"Gang Sentiong","is_transit":false,"i_lat":-6.185975,"i_long":106.850107,"line":11,"transit":false,"distance":1567,"time":8},{"time":1,"i_lat":-6.193792,"line":11,"distance":973,"station_id":"KMT","is_transit":false,"station_name":"Kramat","i_long":106.855437,"transit":false},{"transit":false,"station_name":"Pondok Jati","distance":1829,"line":11,"i_lat":-6.209188,"station_id":"POK","i_long":106.861737,"is_transit":false,"time":2},{"line":1,"i_lat":-6.215091,"is_transit":true,"time":9,"station_id":"JNG","station_name":"Jatinegara","distance":1236,"transit":true,"i_long":106.86807400000001},{"is_transit":false,"i_lat":-6.2135,"distance":3395,"station_name":"Klender","station_id":"KLD","i_long":106.899548,"transit":false,"time":3,"line":1},{"distance":3100,"station_id":"BUA","time":2,"station_name":"Buaran","is_transit":false,"i_lat":-6.215568,"transit":false,"i_long":106.922662,"line":1},{"station_name":"Klenderbaru","time":1,"i_long":106.939679,"station_id":"KLDB","transit":false,"i_lat":-6.217455,"line":1,"distance":1305,"is_transit":false},{"line":1,"distance":1385,"i_lat":-6.219053,"transit":false,"station_name":"Cakung","station_id":"CUK","is_transit":false,"time":8,"i_long":106.951283},{"i_lat":-6.224515,"distance":3097,"transit":false,"line":1,"i_long":106.977657,"station_name":"Kranji","time":3,"station_id":"KRI","is_transit":false},{"i_long":106.997013,"distance":2520,"station_name":"Bekasi","transit":false,"i_lat":-6.236616,"is_transit":false,"line":1,"station_id":"BKS","time":4},{"is_transit":false,"transit":false,"distance":2368,"station_name":"Bekasi Timur","time":2,"station_id":"BKST","line":1,"i_lat":-6.248029,"i_long":107.016735},{"station_id":"TB","station_name":"Tambun","is_transit":false,"distance":4460,"time":7,"i_lat":-6.258864,"i_long":107.055722,"line":1,"transit":false},{"station_name":"Cibitung","is_transit":false,"i_long":107.083084,"time":3,"i_lat":-6.261877,"station_id":"CIT","line":1,"transit":false,"distance":3420},{"station_id":"TLM","i_lat":-6.262938,"distance":2800,"line":1,"is_transit":false,"i_long":107.093313,"station_name":"Metland Telaga Murni","time":2,"transit":false}],[{"station_name":"Tanah Tinggi","line":5,"i_lat":-6.17331,"station_id":"TTI","transit":false,"is_transit":false,"time":0,"distance":0,"i_long":106.64657},{"station_id":"BPR","line":5,"time":3,"distance":2028,"is_transit":false,"i_long":106.665036,"transit":false,"station_name":"Batuceper","i_lat":-6.171811},{"i_lat":-6.169933,"is_transit":false,"station_name":"Poris","station_id":"PI","i_long":106.679458,"transit":false,"line":5,"time":3,"distance":1834},{"is_transit":false,"distance":2548,"transit":false,"station_id":"KDS","i_lat":-6.166068,"time":3,"station_name":"Kalideres","i_long":106.701612,"line":5},{"i_lat":-6.162758,"line":5,"transit":false,"is_transit":false,"i_long":106.723064,"station_id":"RW","time":3,"station_name":"Rawa Buaya","distance":2504},{"time":4,"i_lat":-6.159876,"line":5,"transit":false,"station_name":"Bojongindah","i_long":106.737035,"distance":1152,"station_id":"BOI","is_transit":false},{"i_long":106.756522,"station_name":"Taman Kota","transit":false,"time":2,"station_id":"TKO","is_transit":false,"distance":2334,"i_lat":-6.1587309999999995,"line":5},{"is_transit":false,"distance":1614,"i_lat":-6.161433,"line":5,"station_id":"PSG","station_name":"Pesing","time":2,"transit":false,"i_long":106.771379},{"station_id":"GGL","transit":false,"i_lat":-6.162021,"line":5,"time":2,"distance":2036,"i_long":106.788277,"is_transit":false,"station_name":"Grogol"},{"station_name":"Duri","i_long":106.800832,"transit":true,"i_lat":-6.155215,"time":3,"is_transit":true,"station_id":"DU","line":1,"distance":1700},{"i_long":106.79867,"station_name":"Angke","time":4,"line":1,"transit":false,"distance":1230,"station_id":"AK","is_transit":false,"i_lat":-6.144674},{"line":4,"time":9,"i_lat":-6.132549,"i_long":106.826365,"transit":true,"station_id":"KPB","is_transit":true,"distance":4102,"station_name":"Kampung Bandan"},{"station_name":"Jakarta Kota","station_id":"JAKK","is_transit":true,"line":2,"transit":true,"time":3,"distance":1364,"i_long":106.812439,"i_lat":-6.137569},{"station_name":"Jayakarta","line":2,"transit":false,"time":4,"i_lat":-6.141205,"station_id":"JAY","is_transit":false,"distance":1264,"i_long":106.820901},{"line":2,"station_id":"MGB","station_name":"Manggabesar","time":2,"transit":false,"distance":1080,"i_long":106.82482,"is_transit":false,"i_lat":-6.149769},{"i_long":106.827103,"line":2,"station_id":"SW","transit":false,"is_transit":false,"distance":906,"station_name":"Sawah Besar","i_lat":-6.160725,"time":2},{"station_name":"Juanda","is_transit":false,"line":2,"i_lat":-6.166716,"time":2,"distance":1149,"transit":false,"i_long":106.828284,"station_id":"JUA"},{"transit":false,"time":4,"i_lat":-6.186295,"station_name":"Gondangdia","station_id":"GDD","i_long":106.832183,"line":2,"distance":2015,"is_transit":false},{"station_id":"CKI","transit":false,"is_transit":false,"i_lat":-6.198556,"i_long":106.840169,"station_name":"Cikini","distance":1750,"line":2,"time":3},{"distance":1590,"station_id":"MRI","time":4,"line":2,"station_name":"Manggarai","i_long":106.84912,"is_transit":true,"transit":true,"i_lat":-6.209883},{"line":1,"is_transit":false,"i_lat":-6.212485,"i_long":106.858896,"station_id":"MTR","time":2,"distance":1275,"transit":false,"station_name":"Matraman"},{"i_lat":-6.215091,"line":1,"station_id":"JNG","time":8,"distance":1377,"i_long":106.86807400000001,"is_transit":false,"transit":false,"station_name":"Jatinegara"},{"station_id":"KLD","i_long":106.899548,"time":3,"line":1,"i_lat":-6.2135,"distance":3395,"is_transit":false,"station_name":"Klender","transit":false},{"station_name":"Buaran","distance":3100,"station_id":"BUA","line":1,"transit":false,"is_transit":false,"time":2,"i_long":106.922662,"i_lat":-6.215568},{"station_name":"Klenderbaru","station_id":"KLDB","is_transit":false,"line":1,"transit":false,"i_long":106.939679,"time":1,"i_lat":-6.217455,"distance":1305},{"station_name":"Cakung","distance":1385,"line":1,"station_id":"CUK","transit":false,"is_transit":false,"time":8,"i_long":106.951283,"i_lat":-6.219053},{"i_lat":-6.224515,"transit":false,"station_id":"KRI","distance":3097,"i_long":106.977657,"time":3,"station_name":"Kranji","line":1,"is_transit":false},{"station_name":"Bekasi","station_id":"BKS","distance":2520,"line":1,"is_transit":false,"time":4,"i_lat":-6.236616,"i_long":106.997013,"transit":false},{"i_long":107.016735,"station_id":"BKST","distance":2368,"i_lat":-6.248029,"station_name":"Bekasi Timur","is_transit":false,"time":2,"line":1,"transit":false},{"time":7,"distance":4460,"line":1,"i_lat":-6.258864,"station_name":"Tambun","i_long":107.055722,"transit":false,"is_transit":false,"station_id":"TB"},{"transit":false,"is_transit":false,"station_id":"CIT","line":1,"station_name":"Cibitung","distance":3420,"time":3,"i_long":107.083084,"i_lat":-6.261877},{"time":2,"i_lat":-6.262938,"distance":2800,"i_long":107.093313,"line":1,"station_name":"Metland Telaga Murni","transit":false,"station_id":"TLM","is_transit":false}],[{"time":0,"station_id":"TTI","is_transit":false,"station_name":"Tanah Tinggi","distance":0,"i_long":106.64657,"line":5,"transit":false,"i_lat":-6.17331},{"station_id":"BPR","time":3,"distance":2028,"i_long":106.665036,"transit":false,"is_transit":false,"station_name":"Batuceper","line":5,"i_lat":-6.171811},{"time":3,"station_name":"Poris","transit":false,"i_long":106.679458,"station_id":"PI","distance":1834,"is_transit":false,"i_lat":-6.169933,"line":5},{"i_lat":-6.166068,"transit":false,"time":3,"is_transit":false,"distance":2548,"station_name":"Kalideres","line":5,"i_long":106.701612,"station_id":"KDS"},{"i_long":106.723064,"line":5,"station_id":"RW","distance":2504,"is_transit":false,"transit":false,"time":3,"station_name":"Rawa Buaya","i_lat":-6.162758},{"transit":false,"line":5,"distance":1152,"time":4,"i_long":106.737035,"station_name":"Bojongindah","i_lat":-6.159876,"station_id":"BOI","is_transit":false},{"transit":false,"distance":2334,"is_transit":false,"line":5,"time":2,"i_long":106.756522,"station_id":"TKO","station_name":"Taman Kota","i_lat":-6.1587309999999995},{"is_transit":false,"i_long":106.771379,"i_lat":-6.161433,"time":2,"station_id":"PSG","line":5,"distance":1614,"transit":false,"station_name":"Pesing"},{"distance":2036,"time":2,"i_long":106.788277,"is_transit":false,"station_name":"Grogol","transit":false,"station_id":"GGL","i_lat":-6.162021,"line":5},{"is_transit":true,"transit":true,"time":3,"i_lat":-6.155215,"station_id":"DU","distance":1700,"i_long":106.800832,"station_name":"Duri","line":1},{"station_id":"THB","is_transit":false,"time":8,"i_long":106.811091,"distance":3632,"line":1,"station_name":"Tanah Abang","transit":false,"i_lat":-6.185545},{"station_id":"KAT","station_name":"Karet","time":5,"is_transit":false,"distance":2029,"line":1,"transit":false,"i_long":106.816351,"i_lat":-6.20132},{"transit":false,"distance":471,"is_transit":false,"time":1,"i_lat":-6.201433,"line":1,"station_name":"Sudirman Baru","station_id":"SUDB","i_long":106.819881},{"i_long":106.822649,"transit":false,"is_transit":false,"time":1,"i_lat":-6.202263,"station_name":"Sudirman","station_id":"SUD","distance":280,"line":1},{"transit":true,"line":2,"station_id":"MRI","time":4,"is_transit":true,"station_name":"Manggarai","distance":3186,"i_long":106.84912,"i_lat":-6.209883},{"i_long":106.840169,"transit":false,"station_name":"Cikini","line":2,"station_id":"CKI","is_transit":false,"time":4,"distance":1590,"i_lat":-6.198556},{"is_transit":false,"station_id":"GDD","station_name":"Gondangdia","time":3,"line":2,"i_long":106.832183,"i_lat":-6.186295,"transit":false,"distance":1750},{"is_transit":false,"i_long":106.828284,"distance":2015,"line":2,"station_id":"JUA","station_name":"Juanda","transit":false,"time":4,"i_lat":-6.166716},{"time":2,"i_long":106.827103,"station_id":"SW","is_transit":false,"distance":1149,"i_lat":-6.160725,"transit":false,"line":2,"station_name":"Sawah Besar"},{"time":2,"is_transit":false,"i_long":106.82482,"line":2,"station_name":"Manggabesar","station_id":"MGB","distance":906,"i_lat":-6.149769,"transit":false},{"is_transit":false,"i_lat":-6.141205,"time":2,"station_name":"Jayakarta","i_long":106.820901,"line":2,"station_id":"JAY","distance":1080,"transit":false},{"i_lat":-6.137569,"line":2,"distance":1264,"transit":true,"station_name":"Jakarta Kota","i_long":106.812439,"is_transit":true,"time":4,"station_id":"JAKK"},{"transit":true,"line":4,"station_id":"KPB","is_transit":true,"i_long":106.826365,"i_lat":-6.132549,"time":3,"distance":1364,"station_name":"Kampung Bandan"},{"i_long":106.836569,"time":3,"transit":false,"line":11,"station_name":"Rajawali","station_id":"RJW","is_transit":false,"i_lat":-6.14505,"distance":1444},{"i_long":106.839204,"station_name":"Kemayoran","time":5,"line":11,"distance":1901,"transit":false,"station_id":"KMO","is_transit":false,"i_lat":-6.161728},{"i_lat":-6.174784,"station_id":"PSE","time":4,"i_long":106.84368,"station_name":"Pasar Senen","transit":false,"distance":1436,"is_transit":false,"line":11},{"distance":1567,"transit":false,"station_id":"GST","time":8,"i_long":106.850107,"is_transit":false,"i_lat":-6.185975,"line":11,"station_name":"Gang Sentiong"},{"line":11,"station_id":"KMT","i_lat":-6.193792,"station_name":"Kramat","distance":973,"i_long":106.855437,"time":1,"transit":false,"is_transit":false},{"is_transit":false,"distance":1829,"transit":false,"line":11,"time":2,"i_long":106.861737,"i_lat":-6.209188,"station_id":"POK","station_name":"Pondok Jati"},{"transit":true,"i_long":106.86807400000001,"time":9,"station_id":"JNG","station_name":"Jatinegara","is_transit":true,"distance":1236,"i_lat":-6.215091,"line":1},{"station_name":"Klender","time":3,"line":1,"i_lat":-6.2135,"transit":false,"i_long":106.899548,"station_id":"KLD","distance":3395,"is_transit":false},{"is_transit":false,"i_lat":-6.215568,"transit":false,"station_id":"BUA","line":1,"distance":3100,"station_name":"Buaran","i_long":106.922662,"time":2},{"i_long":106.939679,"station_name":"Klenderbaru","is_transit":false,"transit":false,"station_id":"KLDB","time":1,"distance":1305,"i_lat":-6.217455,"line":1},{"transit":false,"is_transit":false,"distance":1385,"i_long":106.951283,"station_id":"CUK","station_name":"Cakung","line":1,"i_lat":-6.219053,"time":8},{"distance":3097,"is_transit":false,"time":3,"transit":false,"i_long":106.977657,"station_id":"KRI","line":1,"i_lat":-6.224515,"station_name":"Kranji"},{"transit":false,"station_id":"BKS","i_lat":-6.236616,"distance":2520,"time":4,"station_name":"Bekasi","i_long":106.997013,"is_transit":false,"line":1},{"station_id":"BKST","distance":2368,"time":2,"i_lat":-6.248029,"station_name":"Bekasi Timur","i_long":107.016735,"is_transit":false,"line":1,"transit":false},{"station_id":"TB","line":1,"station_name":"Tambun","distance":4460,"i_long":107.055722,"time":7,"is_transit":false,"transit":false,"i_lat":-6.258864},{"station_name":"Cibitung","is_transit":false,"i_lat":-6.261877,"station_id":"CIT","line":1,"transit":false,"distance":3420,"i_long":107.083084,"time":3},{"i_long":107.093313,"is_transit":false,"i_lat":-6.262938,"station_name":"Metland Telaga Murni","station_id":"TLM","transit":false,"distance":2800,"line":1,"time":2}]]}