{"data":[[{"is_transit":false,"station_id":"TTI","i_lat":-6.17331,"time":0,"line":5,"distance":0,"station_name":"Tanah Tinggi","transit":false,"i_long":106.64657},{"distance":2028,"i_long":106.665036,"station_id":"BPR","transit":false,"station_name":"Batuceper","line":5,"time":3,"is_transit":false,"i_lat":-6.171811},{"distance":1834,"is_transit":false,"i_long":106.679458,"time":3,"line":5,"i_lat":-6.169933,"transit":false,"station_id":"PI","station_name":"Poris"},{"transit":false,"distance":2548,"is_transit":false,"time":3,"station_name":"Kalideres","station_id":"KDS","i_long":106.701612,"line":5,"i_lat":-6.166068},{"transit":false,"distance":2504,"i_long":106.723064,"time":3,"station_id":"RW","i_lat":-6.162758,"line":5,"is_transit":false,"station_name":"Rawa Buaya"},{"is_transit":false,"time":4,"line":5,"station_id":"BOI","transit":false,"i_lat":-6.159876,"distance":1152,"station_name":"Bojongindah","i_long":106.737035},{"station_id":"TKO","distance":2334,"i_long":106.756522,"line":5,"is_transit":false,"time":2,"transit":false,"station_name":"Taman Kota","i_lat":-6.1587309999999995},{"i_long":106.771379,"time":2,"i_lat":-6.161433,"is_transit":false,"station_id":"PSG","station_name":"Pesing","line":5,"distance":1614,"transit":false},{"is_transit":false,"transit":false,"station_name":"Grogol","i_lat":-6.162021,"station_id":"GGL","line":5,"i_long":106.788277,"time":2,"distance":2036},{"line":1,"station_name":"Duri","transit":true,"i_lat":-6.155215,"i_long":106.800832,"distance":1700,"station_id":"DU","time":3,"is_transit":true},{"i_long":106.811091,"line":1,"station_id":"THB","is_transit":false,"time":8,"transit":false,"distance":3632,"station_name":"Tanah Abang","i_lat":-6.185545},{"station_name":"Karet","transit":false,"i_long":106.816351,"station_id":"KAT","i_lat":-6.20132,"line":1,"time":5,"is_transit":false,"distance":2029},{"time":1,"station_id":"SUDB","i_lat":-6.201433,"distance":471,"transit":false,"station_name":"Sudirman Baru","is_transit":false,"i_long":106.819881,"line":1},{"i_lat":-6.202263,"distance":280,"time":1,"station_id":"SUD","transit":false,"is_transit":false,"station_name":"Sudirman","i_long":106.822649,"line":1},{"transit":false,"i_long":106.84912,"station_id":"MRI","line":2,"time":4,"is_transit":false,"i_lat":-6.209883,"distance":3186,"station_name":"Manggarai"},{"i_long":106.858896,"line":1,"station_name":"Matraman","transit":false,"time":2,"i_lat":-6.212485,"distance":1275,"is_transit":false,"station_id":"MTR"},{"station_id":"JNG","transit":false,"i_long":106.86807400000001,"i_lat":-6.215091,"station_name":"Jatinegara","distance":1377,"time":8,"is_transit":false,"line":1},{"i_lat":-6.2135,"i_long":106.899548,"station_name":"Klender","time":3,"distance":3395,"transit":false,"station_id":"KLD","is_transit":false,"line":1},{"time":2,"transit":false,"station_id":"BUA","i_lat":-6.215568,"is_transit":false,"station_name":"Buaran","distance":3100,"i_long":106.922662,"line":1},{"i_lat":-6.217455,"i_long":106.939679,"time":1,"is_transit":false,"station_id":"KLDB","line":1,"distance":1305,"station_name":"Klenderbaru","transit":false},{"i_lat":-6.219053,"station_name":"Cakung","time":8,"i_long":106.951283,"transit":false,"is_transit":false,"station_id":"CUK","line":1,"distance":1385}],[{"station_name":"Tanah Tinggi","i_lat":-6.17331,"transit":false,"station_id":"TTI","line":5,"distance":0,"is_transit":false,"i_long":106.64657,"time":0},{"line":5,"i_long":106.665036,"i_lat":-6.171811,"station_id":"BPR","is_transit":false,"station_name":"Batuceper","transit":false,"time":3,"distance":2028},{"station_id":"PI","i_long":106.679458,"station_name":"Poris","i_lat":-6.169933,"transit":false,"line":5,"distance":1834,"is_transit":false,"time":3},{"i_long":106.701612,"line":5,"distance":2548,"time":3,"i_lat":-6.166068,"station_name":"Kalideres","transit":false,"is_transit":false,"station_id":"KDS"},{"is_transit":false,"time":3,"transit":false,"i_lat":-6.162758,"station_name":"Rawa Buaya","line":5,"i_long":106.723064,"station_id":"RW","distance":2504},{"transit":false,"is_transit":false,"line":5,"station_name":"Bojongindah","time":4,"station_id":"BOI","i_lat":-6.159876,"distance":1152,"i_long":106.737035},{"time":2,"i_lat":-6.1587309999999995,"transit":false,"is_transit":false,"i_long":106.756522,"station_name":"Taman Kota","line":5,"station_id":"TKO","distance":2334},{"transit":false,"is_transit":false,"station_name":"Pesing","i_long":106.771379,"line":5,"distance":1614,"station_id":"PSG","i_lat":-6.161433,"time":2},{"station_id":"GGL","i_long":106.788277,"station_name":"Grogol","time":2,"distance":2036,"transit":false,"is_transit":false,"line":5,"i_lat":-6.162021},{"distance":1700,"station_id":"DU","transit":true,"line":1,"i_lat":-6.155215,"station_name":"Duri","time":3,"is_transit":true,"i_long":106.800832},{"transit":false,"distance":1230,"station_id":"AK","i_lat":-6.144674,"line":1,"station_name":"Angke","is_transit":false,"time":4,"i_long":106.79867},{"line":4,"i_lat":-6.132549,"station_name":"Kampung Bandan","distance":4102,"time":9,"station_id":"KPB","transit":true,"is_transit":true,"i_long":106.826365},{"station_id":"RJW","distance":1444,"is_transit":false,"i_lat":-6.14505,"line":11,"station_name":"Rajawali","transit":false,"time":3,"i_long":106.836569},{"line":11,"station_id":"KMO","i_long":106.839204,"time":5,"transit":false,"distance":1901,"is_transit":false,"i_lat":-6.161728,"station_name":"Kemayoran"},{"transit":false,"station_name":"Pasar Senen","time":4,"i_lat":-6.174784,"line":11,"distance":1436,"is_transit":false,"station_id":"PSE","i_long":106.84368},{"station_id":"GST","i_lat":-6.185975,"is_transit":false,"distance":1567,"time":8,"line":11,"i_long":106.850107,"station_name":"Gang Sentiong","transit":false},{"station_id":"KMT","line":11,"transit":false,"is_transit":false,"station_name":"Kramat","i_lat":-6.193792,"i_long":106.855437,"time":1,"distance":973},{"i_long":106.861737,"station_name":"Pondok Jati","station_id":"POK","transit":false,"line":11,"distance":1829,"time":2,"is_transit":false,"i_lat":-6.209188},{"i_long":106.86807400000001,"station_name":"Jatinegara","line":1,"distance":1236,"time":9,"transit":true,"i_lat":-6.215091,"is_transit":true,"station_id":"JNG"},{"is_transit":false,"i_lat":-6.2135,"station_id":"KLD","i_long":106.899548,"line":1,"station_name":"Klender","time":3,"distance":3395,"transit":false},{"time":2,"line":1,"distance":3100,"i_lat":-6.215568,"transit":false,"station_id":"BUA","station_name":"Buaran","is_transit":false,"i_long":106.922662},{"i_lat":-6.217455,"transit":false,"is_transit":false,"station_id":"KLDB","time":1,"line":1,"distance":1305,"i_long":106.939679,"station_name":"Klenderbaru"},{"i_long":106.951283,"transit":false,"time":8,"is_transit":false,"line":1,"i_lat":-6.219053,"station_name":"Cakung","distance":1385,"station_id":"CUK"}],[{"time":0,"distance":0,"station_id":"TTI","i_lat":-6.17331,"station_name":"Tanah Tinggi","transit":false,"line":5,"i_long":106.64657,"is_transit":false},{"i_long":106.665036,"i_lat":-6.171811,"line":5,"transit":false,"station_id":"BPR","is_transit":false,"station_name":"Batuceper","time":3,"distance":2028},{"transit":false,"station_id":"PI","i_lat":-6.169933,"distance":1834,"station_name":"Poris","time":3,"is_transit":false,"line":5,"i_long":106.679458},{"time":3,"i_lat":-6.166068,"line":5,"is_transit":false,"station_id":"KDS","station_name":"Kalideres","i_long":106.701612,"distance":2548,"transit":false},{"time":3,"distance":2504,"is_transit":false,"line":5,"transit":false,"i_lat":-6.162758,"station_name":"Rawa Buaya","i_long":106.723064,"station_id":"RW"},{"is_transit":false,"distance":1152,"station_id":"BOI","i_long":106.737035,"transit":false,"i_lat":-6.159876,"station_name":"Bojongindah","time":4,"line":5},{"time":2,"distance":2334,"is_transit":false,"line":5,"i_long":106.756522,"transit":false,"i_lat":-6.1587309999999995,"station_id":"TKO","station_name":"Taman Kota"},{"distance":1614,"i_long":106.771379,"transit":false,"time":2,"is_transit":false,"station_id":"PSG","station_name":"Pesing","line":5,"i_lat":-6.161433},{"station_name":"Grogol","is_transit":false,"station_id":"GGL","transit":false,"time":2,"i_lat":-6.162021,"i_long":106.788277,"distance":2036,"line":5},{"line":1,"distance":1700,"i_lat":-6.155215,"station_id":"DU","time":3,"i_long":106.800832,"transit":true,"is_transit":true,"station_name":"Duri"},{"transit":false,"distance":1230,"station_name":"Angke","i_lat":-6.144674,"i_long":106.79867,"line":1,"is_transit":false,"station_id":"AK","time":4},{"time":9,"distance":4102,"station_name":"Kampung Bandan","transit":true,"is_transit":true,"i_long":106.826365,"station_id":"KPB","i_lat":-6.132549,"line":4},{"i_long":106.812439,"station_id":"JAKK","line":2,"distance":1364,"time":3,"station_name":"Jakarta Kota","i_lat":-6.137569,"transit":true,"is_transit":true},{"i_lat":-6.141205,"transit":false,"station_id":"JAY","is_transit":false,"distance":1264,"line":2,"i_long":106.820901,"station_name":"Jayakarta","time":4},{"station_name":"Manggabesar","station_id":"MGB","i_lat":-6.149769,"time":2,"transit":false,"i_long":106.82482,"distance":1080,"is_transit":false,"line":2},{"transit":false,"station_id":"SW","is_transit":false,"i_lat":-6.160725,"i_long":106.827103,"line":2,"station_name":"Sawah Besar","time":2,"distance":906},{"station_name":"Juanda","time":2,"distance":1149,"i_lat":-6.166716,"line":2,"transit":false,"station_id":"JUA","i_long":106.828284,"is_transit":false},{"transit":false,"time":4,"station_id":"GDD","i_lat":-6.186295,"station_name":"Gondangdia","line":2,"is_transit":false,"distance":2015,"i_long":106.832183},{"transit":false,"station_id":"CKI","i_lat":-6.198556,"is_transit":false,"time":3,"distance":1750,"line":2,"station_name":"Cikini","i_long":106.840169},{"station_id":"MRI","time":4,"distance":1590,"transit":true,"i_long":106.84912,"line":2,"i_lat":-6.209883,"station_name":"Manggarai","is_transit":true},{"time":2,"distance":1275,"transit":false,"is_transit":false,"i_lat":-6.212485,"i_long":106.858896,"station_id":"MTR","line":1,"station_name":"Matraman"},{"i_long":106.86807400000001,"distance":1377,"station_id":"JNG","time":8,"line":1,"i_lat":-6.215091,"transit":false,"is_transit":false,"station_name":"Jatinegara"},{"station_id":"KLD","is_transit":false,"i_long":106.899548,"i_lat":-6.2135,"station_name":"Klender","distance":3395,"time":3,"transit":false,"line":1},{"station_name":"Buaran","is_transit":false,"i_long":106.922662,"time":2,"distance":3100,"transit":false,"line":1,"station_id":"BUA","i_lat":-6.215568},{"is_transit":false,"line":1,"station_name":"Klenderbaru","time":1,"i_lat":-6.217455,"distance":1305,"station_id":"KLDB","transit":false,"i_long":106.939679},{"line":1,"i_lat":-6.219053,"station_id":"CUK","i_long":106.951283,"distance":1385,"time":8,"transit":false,"is_transit":false,"station_name":"Cakung"}],[{"transit":false,"is_transit":false,"line":5,"station_name":"Tanah Tinggi","i_long":106.64657,"station_id":"TTI","time":0,"distance":0,"i_lat":-6.17331},{"is_transit":false,"station_id":"BPR","time":3,"transit":false,"i_long":106.665036,"i_lat":-6.171811,"station_name":"Batuceper","line":5,"distance":2028},{"time":3,"distance":1834,"transit":false,"i_lat":-6.169933,"station_id":"PI","station_name":"Poris","is_transit":false,"i_long":106.679458,"line":5},{"time":3,"distance":2548,"station_name":"Kalideres","is_transit":false,"i_lat":-6.166068,"i_long":106.701612,"station_id":"KDS","line":5,"transit":false},{"time":3,"line":5,"station_name":"Rawa Buaya","i_lat":-6.162758,"is_transit":false,"transit":false,"i_long":106.723064,"distance":2504,"station_id":"RW"},{"distance":1152,"time":4,"i_long":106.737035,"is_transit":false,"line":5,"transit":false,"station_id":"BOI","station_name":"Bojongindah","i_lat":-6.159876},{"station_name":"Taman Kota","transit":false,"i_long":106.756522,"is_transit":false,"i_lat":-6.1587309999999995,"time":2,"distance":2334,"line":5,"station_id":"TKO"},{"time":2,"station_id":"PSG","i_lat":-6.161433,"transit":false,"i_long":106.771379,"distance":1614,"line":5,"is_transit":false,"station_name":"Pesing"},{"i_long":106.788277,"line":5,"time":2,"distance":2036,"transit":false,"station_name":"Grogol","i_lat":-6.162021,"station_id":"GGL","is_transit":false},{"distance":1700,"is_transit":true,"line":1,"transit":true,"station_name":"Duri","time":3,"station_id":"DU","i_long":106.800832,"i_lat":-6.155215},{"line":1,"transit":false,"station_name":"Tanah Abang","distance":3632,"station_id":"THB","i_long":106.811091,"time":8,"is_transit":false,"i_lat":-6.185545},{"station_id":"KAT","line":1,"time":5,"distance":2029,"i_lat":-6.20132,"transit":false,"station_name":"Karet","is_transit":false,"i_long":106.816351},{"transit":false,"time":1,"station_id":"SUDB","is_transit":false,"station_name":"Sudirman Baru","distance":471,"i_long":106.819881,"i_lat":-6.201433,"line":1},{"line":1,"time":1,"station_id":"SUD","i_lat":-6.202263,"is_transit":false,"transit":false,"distance":280,"station_name":"Sudirman","i_long":106.822649},{"station_name":"Manggarai","time":4,"transit":true,"i_long":106.84912,"station_id":"MRI","distance":3186,"i_lat":-6.209883,"line":2,"is_transit":true},{"time":4,"distance":1590,"is_transit":false,"station_name":"Cikini","station_id":"CKI","i_long":106.840169,"i_lat":-6.198556,"transit":false,"line":2},{"i_long":106.832183,"time":3,"station_name":"Gondangdia","distance":1750,"i_lat":-6.186295,"is_transit":false,"station_id":"GDD","transit":false,"line":2},{"i_lat":-6.166716,"transit":false,"time":4,"distance":2015,"station_name":"Juanda","station_id":"JUA","i_long":106.828284,"is_transit":false,"line":2},{"station_id":"SW","i_long":106.827103,"station_name":"Sawah Besar","time":2,"distance":1149,"is_transit":false,"line":2,"transit":false,"i_lat":-6.160725},{"i_long":106.82482,"distance":906,"transit":false,"is_transit":false,"station_id":"MGB","station_name":"Manggabesar","line":2,"time":2,"i_lat":-6.149769},{"line":2,"distance":1080,"transit":false,"is_transit":false,"i_long":106.820901,"time":2,"station_id":"JAY","station_name":"Jayakarta","i_lat":-6.141205},{"line":2,"station_name":"Jakarta Kota","transit":true,"time":4,"i_lat":-6.137569,"i_long":106.812439,"is_transit":true,"distance":1264,"station_id":"JAKK"},{"distance":1364,"i_long":106.826365,"station_id":"KPB","line":4,"transit":true,"i_lat":-6.132549,"station_name":"Kampung Bandan","is_transit":true,"time":3},{"line":11,"station_name":"Rajawali","time":3,"distance":1444,"transit":false,"is_transit":false,"station_id":"RJW","i_long":106.836569,"i_lat":-6.14505},{"station_id":"KMO","i_long":106.839204,"transit":false,"station_name":"Kemayoran","i_lat":-6.161728,"line":11,"time":5,"is_transit":false,"distance":1901},{"time":4,"station_id":"PSE","line":11,"station_name":"Pasar Senen","distance":1436,"is_transit":false,"i_long":106.84368,"transit":false,"i_lat":-6.174784},{"transit":false,"station_name":"Gang Sentiong","is_transit":false,"i_lat":-6.185975,"station_id":"GST","time":8,"distance":1567,"i_long":106.850107,"line":11},{"transit":false,"i_long":106.855437,"i_lat":-6.193792,"time":1,"distance":973,"station_name":"Kramat","station_id":"KMT","line":11,"is_transit":false},{"i_lat":-6.209188,"distance":1829,"station_name":"Pondok Jati","is_transit":false,"transit":false,"station_id":"POK","time":2,"i_long":106.861737,"line":11},{"station_id":"JNG","time":9,"is_transit":true,"distance":1236,"line":1,"station_name":"Jatinegara","transit":true,"i_lat":-6.215091,"i_long":106.86807400000001},{"i_lat":-6.2135,"distance":3395,"station_id":"KLD","time":3,"station_name":"Klender","transit":false,"i_long":106.899548,"line":1,"is_transit":false},{"transit":false,"i_lat":-6.215568,"time":2,"distance":3100,"station_id":"BUA","station_name":"Buaran","is_transit":false,"i_long":106.922662,"line":1},{"time":1,"is_transit":false,"line":1,"transit":false,"i_lat":-6.217455,"station_id":"KLDB","station_name":"Klenderbaru","i_long":106.939679,"distance":1305},{"transit":false,"i_lat":-6.219053,"station_id":"CUK","i_long":106.951283,"station_name":"Cakung","time":8,"distance":1385,"line":1,"is_transit":false}]]}