{"data":[[{"i_lat":-6.17331,"line":5,"transit":false,"station_name":"Tanah Tinggi","station_id":"TTI","distance":0,"is_transit":false,"time":0,"i_long":106.64657},{"station_id":"BPR","transit":false,"is_transit":false,"line":0,"time":3,"i_long":106.665036,"distance":2028,"i_lat":-6.171811,"station_name":"Batuceper"},{"transit":false,"station_name":"Poris","station_id":"PI","line":5,"distance":1834,"i_lat":-6.169933,"i_long":106.679458,"time":3,"is_transit":false},{"transit":false,"line":5,"station_id":"KDS","distance":2548,"i_long":106.701612,"is_transit":false,"time":3,"station_name":"Kalideres","i_lat":-6.166068},{"line":5,"station_id":"RW","station_name":"Rawa Buaya","time":3,"i_long":106.723064,"is_transit":false,"transit":false,"i_lat":-6.162758,"distance":2504},{"is_transit":false,"station_name":"Bojongindah","transit":false,"time":4,"i_long":106.737035,"i_lat":-6.159876,"line":0,"station_id":"BOI","distance":1152},{"line":5,"distance":2334,"station_name":"Taman Kota","is_transit":false,"i_long":106.756522,"i_lat":-6.1587309999999995,"transit":false,"station_id":"TKO","time":2},{"transit":false,"station_id":"PSG","time":2,"i_lat":-6.161433,"station_name":"Pesing","line":5,"distance":1614,"i_long":106.771379,"is_transit":false},{"line":5,"time":2,"i_long":106.788277,"distance":2036,"i_lat":-6.162021,"station_name":"Grogol","is_transit":false,"station_id":"GGL","transit":false},{"i_lat":-6.155215,"station_id":"DU","transit":true,"distance":1700,"line":1,"is_transit":true,"time":3,"station_name":"Duri","i_long":106.800832},{"transit":false,"station_id":"THB","distance":3632,"i_lat":-6.185545,"is_transit":true,"station_name":"Tanah Abang","i_long":106.811091,"time":8,"line":1},{"distance":2029,"time":5,"i_lat":-6.20132,"line":1,"transit":false,"is_transit":false,"i_long":106.816351,"station_name":"Karet","station_id":"KAT"},{"is_transit":false,"distance":471,"i_lat":-6.201433,"i_long":106.819881,"time":1,"station_id":"SUDB","line":1,"transit":false,"station_name":"Sudirman Baru"},{"i_lat":-6.202263,"station_id":"SUD","transit":false,"distance":280,"is_transit":false,"time":1,"station_name":"Sudirman","i_long":106.822649,"line":1},{"i_long":106.84912,"station_id":"MRI","i_lat":-6.209883,"transit":true,"line":0,"is_transit":true,"time":4,"distance":3186,"station_name":"Manggarai"},{"line":2,"time":4,"is_transit":false,"station_name":"Tebet","distance":2610,"i_long":106.857948,"i_lat":-6.226659,"station_id":"TEB","transit":false},{"station_name":"Cawang","distance":1230,"transit":false,"is_transit":false,"i_lat":-6.242512,"i_long":106.856607,"line":0,"time":2,"station_id":"CW"}],[{"time":0,"line":5,"transit":false,"station_id":"TTI","distance":0,"is_transit":false,"i_long":106.64657,"station_name":"Tanah Tinggi","i_lat":-6.17331},{"line":0,"station_name":"Batuceper","is_transit":false,"i_lat":-6.171811,"i_long":106.665036,"distance":2028,"station_id":"BPR","transit":false,"time":3},{"distance":1834,"station_id":"PI","is_transit":false,"time":3,"transit":false,"line":5,"station_name":"Poris","i_lat":-6.169933,"i_long":106.679458},{"line":5,"i_lat":-6.166068,"transit":false,"i_long":106.701612,"station_id":"KDS","is_transit":false,"station_name":"Kalideres","time":3,"distance":2548},{"transit":false,"i_long":106.723064,"station_id":"RW","time":3,"is_transit":false,"station_name":"Rawa Buaya","i_lat":-6.162758,"distance":2504,"line":5},{"line":0,"distance":1152,"transit":false,"is_transit":false,"i_long":106.737035,"station_name":"Bojongindah","station_id":"BOI","time":4,"i_lat":-6.159876},{"line":5,"time":2,"distance":2334,"i_long":106.756522,"station_id":"TKO","is_transit":false,"i_lat":-6.1587309999999995,"transit":false,"station_name":"Taman Kota"},{"station_id":"PSG","i_long":106.771379,"time":2,"station_name":"Pesing","transit":false,"distance":1614,"is_transit":false,"i_lat":-6.161433,"line":5},{"station_id":"GGL","distance":2036,"is_transit":false,"i_long":106.788277,"i_lat":-6.162021,"time":2,"line":5,"station_name":"Grogol","transit":false},{"i_lat":-6.155215,"distance":1700,"line":1,"time":3,"station_id":"DU","is_transit":true,"station_name":"Duri","i_long":106.800832,"transit":true},{"distance":1230,"transit":false,"line":0,"station_name":"Angke","i_long":106.79867,"is_transit":false,"time":4,"i_lat":-6.144674,"station_id":"AK"},{"i_long":106.826365,"time":9,"line":0,"is_transit":true,"station_id":"KPB","station_name":"Kampung Bandan","i_lat":-6.132549,"transit":false,"distance":4102},{"station_id":"JAKK","i_lat":-6.137569,"station_name":"Jakarta Kota","distance":1364,"transit":true,"line":0,"time":3,"i_long":106.812439,"is_transit":true},{"distance":1264,"time":4,"line":7,"station_name":"Jayakarta","station_id":"JAY","transit":false,"i_lat":-6.141205,"is_transit":false,"i_long":106.820901},{"is_transit":false,"i_lat":-6.149769,"time":2,"line":2,"station_id":"MGB","transit":false,"i_long":106.82482,"distance":1080,"station_name":"Manggabesar"},{"distance":906,"i_lat":-6.160725,"station_id":"SW","station_name":"Sawah Besar","i_long":106.827103,"line":2,"time":2,"transit":false,"is_transit":false},{"transit":false,"line":2,"is_transit":false,"distance":1149,"time":2,"i_lat":-6.166716,"station_id":"JUA","station_name":"Juanda","i_long":106.828284},{"line":2,"i_lat":-6.186295,"i_long":106.832183,"station_name":"Gondangdia","distance":2015,"is_transit":false,"time":4,"station_id":"GDD","transit":false},{"transit":false,"time":3,"i_lat":-6.198556,"line":0,"station_name":"Cikini","i_long":106.840169,"distance":1750,"is_transit":false,"station_id":"CKI"},{"station_id":"MRI","time":4,"station_name":"Manggarai","is_transit":true,"i_lat":-6.209883,"transit":true,"distance":1590,"i_long":106.84912,"line":0},{"i_long":106.857948,"line":2,"station_id":"TEB","i_lat":-6.226659,"distance":2610,"transit":false,"time":4,"is_transit":false,"station_name":"Tebet"},{"station_name":"Cawang","station_id":"CW","i_lat":-6.242512,"time":2,"line":0,"is_transit":false,"i_long":106.856607,"distance":1230,"transit":false}],[{"station_name":"Tanah Tinggi","distance":0,"time":0,"transit":false,"i_lat":-6.17331,"i_long":106.64657,"line":5,"is_transit":false,"station_id":"TTI"},{"i_lat":-6.171811,"station_id":"BPR","time":3,"is_transit":false,"line":0,"station_name":"Batuceper","i_long":106.665036,"transit":false,"distance":2028},{"is_transit":false,"line":5,"station_id":"PI","time":3,"transit":false,"i_lat":-6.169933,"station_name":"Poris","i_long":106.679458,"distance":1834},{"distance":2548,"station_id":"KDS","time":3,"i_lat":-6.166068,"i_long":106.701612,"line":5,"transit":false,"station_name":"Kalideres","is_transit":false},{"station_id":"RW","i_lat":-6.162758,"i_long":106.723064,"station_name":"Rawa Buaya","time":3,"distance":2504,"is_transit":false,"transit":false,"line":5},{"station_name":"Bojongindah","is_transit":false,"transit":false,"i_lat":-6.159876,"station_id":"BOI","time":4,"i_long":106.737035,"line":0,"distance":1152},{"time":2,"transit":false,"i_lat":-6.1587309999999995,"line":5,"station_name":"Taman Kota","distance":2334,"station_id":"TKO","is_transit":false,"i_long":106.756522},{"station_id":"PSG","transit":false,"station_name":"Pesing","i_lat":-6.161433,"time":2,"i_long":106.771379,"distance":1614,"is_transit":false,"line":5},{"station_name":"Grogol","transit":false,"line":5,"station_id":"GGL","time":2,"distance":2036,"is_transit":false,"i_lat":-6.162021,"i_long":106.788277},{"is_transit":true,"station_id":"DU","transit":true,"line":1,"i_long":106.800832,"station_name":"Duri","distance":1700,"time":3,"i_lat":-6.155215},{"i_long":106.79867,"time":4,"station_id":"AK","distance":1230,"i_lat":-6.144674,"line":0,"is_transit":false,"station_name":"Angke","transit":false},{"i_lat":-6.132549,"i_long":106.826365,"line":0,"station_name":"Kampung Bandan","transit":true,"is_transit":true,"station_id":"KPB","time":9,"distance":4102},{"time":3,"line":11,"station_id":"RJW","distance":1444,"transit":false,"i_long":106.836569,"i_lat":-6.14505,"is_transit":false,"station_name":"Rajawali"},{"i_long":106.839204,"line":11,"station_id":"KMO","distance":1901,"transit":false,"is_transit":false,"time":5,"station_name":"Kemayoran","i_lat":-6.161728},{"station_id":"PSE","transit":false,"i_lat":-6.174784,"distance":1436,"line":11,"i_long":106.84368,"station_name":"Pasar Senen","is_transit":false,"time":4},{"is_transit":false,"time":8,"line":11,"i_lat":-6.185975,"station_id":"GST","i_long":106.850107,"station_name":"Gang Sentiong","transit":false,"distance":1567},{"i_long":106.855437,"line":11,"is_transit":false,"station_name":"Kramat","time":1,"transit":false,"i_lat":-6.193792,"station_id":"KMT","distance":973},{"station_id":"POK","station_name":"Pondok Jati","time":2,"transit":false,"is_transit":false,"i_lat":-6.209188,"line":11,"distance":1829,"i_long":106.861737},{"station_id":"JNG","distance":1236,"station_name":"Jatinegara","i_long":106.86807400000001,"i_lat":-6.215091,"time":9,"transit":true,"is_transit":true,"line":0},{"distance":1377,"line":1,"time":2,"transit":false,"i_long":106.858896,"station_name":"Matraman","station_id":"MTR","is_transit":false,"i_lat":-6.212485},{"is_transit":true,"line":0,"i_lat":-6.209883,"i_long":106.84912,"transit":true,"station_name":"Manggarai","station_id":"MRI","time":2,"distance":1275},{"line":2,"time":4,"station_name":"Tebet","i_long":106.857948,"distance":2610,"station_id":"TEB","transit":false,"is_transit":false,"i_lat":-6.226659},{"i_long":106.856607,"station_name":"Cawang","transit":false,"is_transit":false,"station_id":"CW","i_lat":-6.242512,"time":2,"line":0,"distance":1230}]]}