{"data":[[{"time":0,"distance":0,"transit":false,"station_name":"Tanah Tinggi","i_lat":-6.17331,"i_long":106.64657,"station_id":"TTI","line":5,"is_transit":false},{"i_lat":-6.171811,"station_name":"Batuceper","distance":2028,"line":5,"transit":false,"time":3,"is_transit":false,"station_id":"BPR","i_long":106.665036},{"line":5,"station_id":"PI","i_long":106.679458,"distance":1834,"transit":false,"is_transit":false,"time":3,"station_name":"Poris","i_lat":-6.169933},{"is_transit":false,"line":5,"transit":false,"station_id":"KDS","time":3,"station_name":"Kalideres","i_lat":-6.166068,"distance":2548,"i_long":106.701612},{"transit":false,"station_id":"RW","i_lat":-6.162758,"i_long":106.723064,"is_transit":false,"time":3,"line":5,"station_name":"Rawa Buaya","distance":2504},{"i_lat":-6.159876,"i_long":106.737035,"line":5,"station_id":"BOI","transit":false,"time":4,"distance":1152,"is_transit":false,"station_name":"Bojongindah"},{"transit":false,"line":5,"station_id":"TKO","station_name":"Taman Kota","i_long":106.756522,"distance":2334,"time":2,"i_lat":-6.1587309999999995,"is_transit":false},{"transit":false,"is_transit":false,"time":2,"i_lat":-6.161433,"i_long":106.771379,"distance":1614,"station_name":"Pesing","station_id":"PSG","line":5},{"line":5,"is_transit":false,"station_id":"GGL","i_lat":-6.162021,"distance":2036,"time":2,"station_name":"Grogol","transit":false,"i_long":106.788277},{"time":3,"i_long":106.800832,"is_transit":true,"station_name":"Duri","transit":true,"station_id":"DU","line":1,"distance":1700,"i_lat":-6.155215},{"is_transit":false,"i_lat":-6.185545,"distance":3632,"transit":false,"station_id":"THB","station_name":"Tanah Abang","line":1,"time":8,"i_long":106.811091},{"transit":false,"distance":2029,"is_transit":false,"i_long":106.816351,"time":5,"station_name":"Karet","station_id":"KAT","line":1,"i_lat":-6.20132}],[{"i_long":106.64657,"is_transit":false,"line":5,"station_id":"TTI","i_lat":-6.17331,"distance":0,"transit":false,"station_name":"Tanah Tinggi","time":0},{"i_long":106.665036,"distance":2028,"transit":false,"station_name":"Batuceper","station_id":"BPR","is_transit":false,"i_lat":-6.171811,"time":3,"line":5},{"distance":1834,"time":3,"station_id":"PI","i_lat":-6.169933,"is_transit":false,"i_long":106.679458,"line":5,"transit":false,"station_name":"Poris"},{"distance":2548,"i_lat":-6.166068,"station_id":"KDS","time":3,"i_long":106.701612,"transit":false,"line":5,"is_transit":false,"station_name":"Kalideres"},{"is_transit":false,"time":3,"i_lat":-6.162758,"line":5,"distance":2504,"station_id":"RW","station_name":"Rawa Buaya","i_long":106.723064,"transit":false},{"is_transit":false,"transit":false,"i_lat":-6.159876,"time":4,"station_name":"Bojongindah","line":5,"distance":1152,"station_id":"BOI","i_long":106.737035},{"distance":2334,"line":5,"i_long":106.756522,"station_name":"Taman Kota","station_id":"TKO","i_lat":-6.1587309999999995,"transit":false,"is_transit":false,"time":2},{"is_transit":false,"line":5,"transit":false,"i_lat":-6.161433,"distance":1614,"i_long":106.771379,"time":2,"station_id":"PSG","station_name":"Pesing"},{"line":5,"is_transit":false,"station_id":"GGL","time":2,"i_lat":-6.162021,"i_long":106.788277,"transit":false,"distance":2036,"station_name":"Grogol"},{"line":1,"is_transit":true,"i_long":106.800832,"time":3,"station_name":"Duri","transit":true,"distance":1700,"station_id":"DU","i_lat":-6.155215},{"i_long":106.79867,"line":1,"station_name":"Angke","is_transit":false,"time":4,"distance":1230,"transit":false,"station_id":"AK","i_lat":-6.144674},{"transit":true,"is_transit":true,"i_long":106.826365,"distance":4102,"station_name":"Kampung Bandan","i_lat":-6.132549,"line":4,"time":9,"station_id":"KPB"},{"transit":true,"time":3,"station_name":"Jakarta Kota","station_id":"JAKK","line":2,"i_lat":-6.137569,"i_long":106.812439,"is_transit":true,"distance":1364},{"distance":1264,"station_name":"Jayakarta","i_long":106.820901,"i_lat":-6.141205,"time":4,"station_id":"JAY","line":2,"is_transit":false,"transit":false},{"station_name":"Manggabesar","transit":false,"i_long":106.82482,"line":2,"distance":1080,"is_transit":false,"station_id":"MGB","i_lat":-6.149769,"time":2},{"i_lat":-6.160725,"line":2,"transit":false,"time":2,"station_name":"Sawah Besar","i_long":106.827103,"is_transit":false,"distance":906,"station_id":"SW"},{"distance":1149,"i_long":106.828284,"is_transit":false,"station_id":"JUA","time":2,"station_name":"Juanda","transit":false,"i_lat":-6.166716,"line":2},{"i_long":106.832183,"time":4,"i_lat":-6.186295,"transit":false,"is_transit":false,"line":2,"distance":2015,"station_name":"Gondangdia","station_id":"GDD"},{"i_lat":-6.198556,"line":2,"distance":1750,"station_id":"CKI","i_long":106.840169,"station_name":"Cikini","transit":false,"time":3,"is_transit":false},{"station_id":"MRI","time":4,"i_lat":-6.209883,"transit":true,"is_transit":true,"station_name":"Manggarai","line":2,"i_long":106.84912,"distance":1590},{"is_transit":false,"distance":3186,"transit":false,"time":4,"station_name":"Sudirman","i_long":106.822649,"station_id":"SUD","line":1,"i_lat":-6.202263},{"time":1,"station_name":"Sudirman Baru","i_long":106.819881,"i_lat":-6.201433,"station_id":"SUDB","is_transit":false,"distance":280,"line":1,"transit":false},{"i_long":106.816351,"distance":471,"station_name":"Karet","is_transit":false,"time":1,"line":1,"station_id":"KAT","transit":false,"i_lat":-6.20132}],[{"station_name":"Tanah Tinggi","distance":0,"time":0,"i_long":106.64657,"transit":false,"line":5,"is_transit":false,"station_id":"TTI","i_lat":-6.17331},{"i_lat":-6.171811,"time":3,"station_name":"Batuceper","station_id":"BPR","line":5,"distance":2028,"transit":false,"i_long":106.665036,"is_transit":false},{"transit":false,"is_transit":false,"time":3,"i_long":106.679458,"line":5,"distance":1834,"i_lat":-6.169933,"station_id":"PI","station_name":"Poris"},{"line":5,"distance":2548,"i_lat":-6.166068,"time":3,"station_id":"KDS","station_name":"Kalideres","transit":false,"is_transit":false,"i_long":106.701612},{"distance":2504,"station_id":"RW","transit":false,"line":5,"station_name":"Rawa Buaya","i_long":106.723064,"is_transit":false,"i_lat":-6.162758,"time":3},{"time":4,"distance":1152,"line":5,"i_lat":-6.159876,"station_name":"Bojongindah","i_long":106.737035,"transit":false,"is_transit":false,"station_id":"BOI"},{"is_transit":false,"distance":2334,"time":2,"transit":false,"station_name":"Taman Kota","i_long":106.756522,"line":5,"station_id":"TKO","i_lat":-6.1587309999999995},{"station_id":"PSG","is_transit":false,"i_long":106.771379,"i_lat":-6.161433,"line":5,"time":2,"distance":1614,"transit":false,"station_name":"Pesing"},{"i_long":106.788277,"transit":false,"i_lat":-6.162021,"line":5,"time":2,"station_name":"Grogol","distance":2036,"station_id":"GGL","is_transit":false},{"line":1,"i_long":106.800832,"transit":true,"distance":1700,"is_transit":true,"station_name":"Duri","station_id":"DU","i_lat":-6.155215,"time":3},{"station_name":"Angke","i_lat":-6.144674,"is_transit":false,"line":1,"i_long":106.79867,"time":4,"station_id":"AK","transit":false,"distance":1230},{"time":9,"station_id":"KPB","i_long":106.826365,"distance":4102,"station_name":"Kampung Bandan","i_lat":-6.132549,"is_transit":true,"line":4,"transit":true},{"i_long":106.836569,"distance":1444,"transit":false,"line":11,"is_transit":false,"station_name":"Rajawali","station_id":"RJW","time":3,"i_lat":-6.14505},{"transit":false,"is_transit":false,"i_lat":-6.161728,"time":5,"station_name":"Kemayoran","station_id":"KMO","line":11,"distance":1901,"i_long":106.839204},{"station_id":"PSE","i_lat":-6.174784,"i_long":106.84368,"line":11,"time":4,"is_transit":false,"distance":1436,"transit":false,"station_name":"Pasar Senen"},{"line":11,"i_lat":-6.185975,"transit":false,"station_id":"GST","is_transit":false,"time":8,"i_long":106.850107,"distance":1567,"station_name":"Gang Sentiong"},{"distance":973,"time":1,"station_id":"KMT","i_lat":-6.193792,"i_long":106.855437,"station_name":"Kramat","line":11,"is_transit":false,"transit":false},{"time":2,"is_transit":false,"transit":false,"i_lat":-6.209188,"i_long":106.861737,"line":11,"station_id":"POK","station_name":"Pondok Jati","distance":1829},{"transit":true,"station_id":"JNG","station_name":"Jatinegara","distance":1236,"i_lat":-6.215091,"i_long":106.86807400000001,"line":1,"time":9,"is_transit":true},{"distance":1377,"station_name":"Matraman","transit":false,"station_id":"MTR","i_lat":-6.212485,"i_long":106.858896,"is_transit":false,"line":1,"time":2},{"line":2,"distance":1275,"time":2,"station_name":"Manggarai","transit":false,"station_id":"MRI","i_lat":-6.209883,"is_transit":false,"i_long":106.84912},{"is_transit":false,"transit":false,"line":1,"distance":3186,"station_id":"SUD","i_lat":-6.202263,"time":4,"station_name":"Sudirman","i_long":106.822649},{"distance":280,"time":1,"i_long":106.819881,"is_transit":false,"transit":false,"i_lat":-6.201433,"station_name":"Sudirman Baru","station_id":"SUDB","line":1},{"transit":false,"time":1,"station_id":"KAT","i_lat":-6.20132,"line":1,"i_long":106.816351,"station_name":"Karet","is_transit":false,"distance":471}]]}