{"data":[[{"i_long":106.64657,"station_id":"TTI","distance":0,"i_lat":-6.17331,"transit":false,"station_name":"Tanah Tinggi","line":5,"time":0,"is_transit":false},{"transit":false,"time":3,"station_name":"Batuceper","i_lat":-6.171811,"i_long":106.665036,"distance":2028,"is_transit":false,"station_id":"BPR","line":5},{"is_transit":false,"transit":false,"station_id":"PI","time":3,"line":5,"i_long":106.679458,"distance":1834,"i_lat":-6.169933,"station_name":"Poris"},{"distance":2548,"time":3,"i_lat":-6.166068,"station_id":"KDS","is_transit":false,"i_long":106.701612,"transit":false,"line":5,"station_name":"Kalideres"},{"transit":false,"time":3,"station_id":"RW","i_lat":-6.162758,"is_transit":false,"distance":2504,"station_name":"Rawa Buaya","line":5,"i_long":106.723064},{"time":4,"transit":false,"i_long":106.737035,"station_name":"Bojongindah","i_lat":-6.159876,"station_id":"BOI","line":5,"distance":1152,"is_transit":false},{"i_long":106.756522,"time":2,"line":5,"station_id":"TKO","distance":2334,"transit":false,"is_transit":false,"station_name":"Taman Kota","i_lat":-6.1587309999999995},{"i_long":106.771379,"line":5,"time":2,"is_transit":false,"i_lat":-6.161433,"distance":1614,"transit":false,"station_id":"PSG","station_name":"Pesing"},{"i_long":106.788277,"transit":false,"time":2,"is_transit":false,"i_lat":-6.162021,"distance":2036,"station_name":"Grogol","station_id":"GGL","line":5},{"transit":true,"line":1,"is_transit":true,"i_long":106.800832,"i_lat":-6.155215,"distance":1700,"time":3,"station_id":"DU","station_name":"Duri"},{"i_lat":-6.185545,"time":8,"transit":false,"i_long":106.811091,"line":1,"station_id":"THB","is_transit":false,"distance":3632,"station_name":"Tanah Abang"},{"distance":2029,"transit":false,"is_transit":false,"station_name":"Karet","i_lat":-6.20132,"i_long":106.816351,"time":5,"line":1,"station_id":"KAT"},{"distance":471,"station_id":"SUDB","station_name":"Sudirman Baru","i_lat":-6.201433,"time":1,"is_transit":false,"i_long":106.819881,"line":1,"transit":false},{"distance":280,"station_id":"SUD","transit":false,"station_name":"Sudirman","time":1,"is_transit":false,"i_lat":-6.202263,"i_long":106.822649,"line":1},{"is_transit":false,"line":2,"i_lat":-6.209883,"i_long":106.84912,"distance":3186,"station_id":"MRI","time":4,"station_name":"Manggarai","transit":false},{"transit":false,"station_id":"MTR","i_long":106.858896,"distance":1275,"station_name":"Matraman","time":2,"is_transit":false,"i_lat":-6.212485,"line":1},{"station_id":"JNG","transit":false,"i_long":106.86807400000001,"station_name":"Jatinegara","distance":1377,"time":8,"i_lat":-6.215091,"is_transit":false,"line":1},{"station_id":"KLD","i_lat":-6.2135,"i_long":106.899548,"time":3,"line":1,"distance":3395,"station_name":"Klender","is_transit":false,"transit":false},{"is_transit":false,"i_long":106.922662,"line":1,"station_id":"BUA","transit":false,"time":2,"i_lat":-6.215568,"station_name":"Buaran","distance":3100},{"station_name":"Klenderbaru","station_id":"KLDB","line":1,"transit":false,"is_transit":false,"i_long":106.939679,"time":1,"i_lat":-6.217455,"distance":1305},{"distance":1385,"time":8,"is_transit":false,"station_id":"CUK","line":1,"i_lat":-6.219053,"transit":false,"i_long":106.951283,"station_name":"Cakung"},{"is_transit":false,"time":3,"transit":false,"i_long":106.977657,"station_name":"Kranji","station_id":"KRI","line":1,"distance":3097,"i_lat":-6.224515},{"is_transit":false,"i_long":106.997013,"station_id":"BKS","station_name":"Bekasi","line":1,"transit":false,"time":4,"i_lat":-6.236616,"distance":2520},{"i_long":107.016735,"i_lat":-6.248029,"distance":2368,"line":1,"transit":false,"time":2,"station_name":"Bekasi Timur","is_transit":false,"station_id":"BKST"},{"time":7,"is_transit":false,"station_id":"TB","transit":false,"distance":4460,"i_lat":-6.258864,"station_name":"Tambun","i_long":107.055722,"line":1},{"station_name":"Cibitung","is_transit":false,"distance":3420,"station_id":"CIT","i_lat":-6.261877,"line":1,"i_long":107.083084,"time":3,"transit":false},{"is_transit":false,"i_lat":-6.262938,"station_name":"Metland Telaga Murni","line":1,"distance":2800,"transit":false,"station_id":"TLM","i_long":107.093313,"time":2},{"time":4,"distance":3689,"transit":false,"i_lat":-6.2553149999999995,"is_transit":false,"station_id":"CKR","i_long":107.144613,"line":1,"station_name":"Cikarang"}],[{"station_name":"Tanah Tinggi","station_id":"TTI","is_transit":false,"transit":false,"distance":0,"i_lat":-6.17331,"i_long":106.64657,"line":5,"time":0},{"distance":2028,"i_lat":-6.171811,"station_name":"Batuceper","transit":false,"time":3,"is_transit":false,"station_id":"BPR","line":5,"i_long":106.665036},{"i_lat":-6.169933,"is_transit":false,"station_name":"Poris","station_id":"PI","time":3,"i_long":106.679458,"transit":false,"distance":1834,"line":5},{"distance":2548,"line":5,"i_long":106.701612,"i_lat":-6.166068,"transit":false,"time":3,"station_id":"KDS","station_name":"Kalideres","is_transit":false},{"distance":2504,"station_id":"RW","time":3,"line":5,"i_long":106.723064,"i_lat":-6.162758,"is_transit":false,"station_name":"Rawa Buaya","transit":false},{"distance":1152,"time":4,"transit":false,"is_transit":false,"station_name":"Bojongindah","line":5,"station_id":"BOI","i_long":106.737035,"i_lat":-6.159876},{"station_name":"Taman Kota","is_transit":false,"line":5,"i_lat":-6.1587309999999995,"time":2,"station_id":"TKO","transit":false,"distance":2334,"i_long":106.756522},{"line":5,"distance":1614,"transit":false,"is_transit":false,"station_id":"PSG","i_lat":-6.161433,"i_long":106.771379,"station_name":"Pesing","time":2},{"transit":false,"i_lat":-6.162021,"station_id":"GGL","distance":2036,"is_transit":false,"line":5,"station_name":"Grogol","i_long":106.788277,"time":2},{"transit":true,"station_name":"Duri","distance":1700,"is_transit":true,"line":1,"time":3,"i_long":106.800832,"station_id":"DU","i_lat":-6.155215},{"transit":false,"station_name":"Angke","time":4,"is_transit":false,"station_id":"AK","line":1,"i_lat":-6.144674,"i_long":106.79867,"distance":1230},{"i_lat":-6.132549,"i_long":106.826365,"line":4,"station_name":"Kampung Bandan","transit":true,"station_id":"KPB","time":9,"distance":4102,"is_transit":true},{"time":3,"line":11,"transit":false,"station_name":"Rajawali","is_transit":false,"station_id":"RJW","i_lat":-6.14505,"i_long":106.836569,"distance":1444},{"station_id":"KMO","line":11,"transit":false,"is_transit":false,"i_long":106.839204,"station_name":"Kemayoran","time":5,"distance":1901,"i_lat":-6.161728},{"station_id":"PSE","station_name":"Pasar Senen","time":4,"i_lat":-6.174784,"is_transit":false,"i_long":106.84368,"line":11,"transit":false,"distance":1436},{"i_long":106.850107,"time":8,"station_id":"GST","station_name":"Gang Sentiong","i_lat":-6.185975,"line":11,"transit":false,"distance":1567,"is_transit":false},{"i_long":106.855437,"station_name":"Kramat","station_id":"KMT","transit":false,"line":11,"distance":973,"time":1,"is_transit":false,"i_lat":-6.193792},{"line":11,"is_transit":false,"station_id":"POK","distance":1829,"time":2,"station_name":"Pondok Jati","transit":false,"i_long":106.861737,"i_lat":-6.209188},{"transit":true,"station_id":"JNG","time":9,"i_lat":-6.215091,"distance":1236,"line":1,"station_name":"Jatinegara","i_long":106.86807400000001,"is_transit":true},{"station_id":"KLD","i_lat":-6.2135,"time":3,"is_transit":false,"distance":3395,"line":1,"station_name":"Klender","i_long":106.899548,"transit":false},{"distance":3100,"time":2,"is_transit":false,"transit":false,"i_lat":-6.215568,"line":1,"station_id":"BUA","i_long":106.922662,"station_name":"Buaran"},{"time":1,"i_long":106.939679,"i_lat":-6.217455,"line":1,"distance":1305,"transit":false,"station_name":"Klenderbaru","station_id":"KLDB","is_transit":false},{"time":8,"i_lat":-6.219053,"i_long":106.951283,"transit":false,"line":1,"station_id":"CUK","station_name":"Cakung","distance":1385,"is_transit":false},{"time":3,"station_id":"KRI","transit":false,"is_transit":false,"i_long":106.977657,"line":1,"station_name":"Kranji","distance":3097,"i_lat":-6.224515},{"i_long":106.997013,"line":1,"distance":2520,"i_lat":-6.236616,"time":4,"station_name":"Bekasi","is_transit":false,"transit":false,"station_id":"BKS"},{"line":1,"time":2,"station_name":"Bekasi Timur","i_long":107.016735,"transit":false,"i_lat":-6.248029,"is_transit":false,"distance":2368,"station_id":"BKST"},{"distance":4460,"i_long":107.055722,"i_lat":-6.258864,"is_transit":false,"station_id":"TB","transit":false,"line":1,"station_name":"Tambun","time":7},{"time":3,"station_id":"CIT","station_name":"Cibitung","i_lat":-6.261877,"i_long":107.083084,"is_transit":false,"transit":false,"distance":3420,"line":1},{"is_transit":false,"line":1,"station_name":"Metland Telaga Murni","i_lat":-6.262938,"station_id":"TLM","transit":false,"time":2,"distance":2800,"i_long":107.093313},{"station_id":"CKR","time":4,"station_name":"Cikarang","transit":false,"i_long":107.144613,"distance":3689,"is_transit":false,"i_lat":-6.2553149999999995,"line":1}],[{"station_id":"TTI","transit":false,"i_lat":-6.17331,"is_transit":false,"station_name":"Tanah Tinggi","line":5,"time":0,"distance":0,"i_long":106.64657},{"i_long":106.665036,"time":3,"distance":2028,"station_name":"Batuceper","is_transit":false,"line":5,"transit":false,"station_id":"BPR","i_lat":-6.171811},{"station_name":"Poris","time":3,"station_id":"PI","i_long":106.679458,"is_transit":false,"transit":false,"distance":1834,"line":5,"i_lat":-6.169933},{"is_transit":false,"distance":2548,"transit":false,"station_id":"KDS","i_long":106.701612,"time":3,"i_lat":-6.166068,"line":5,"station_name":"Kalideres"},{"i_lat":-6.162758,"station_id":"RW","i_long":106.723064,"is_transit":false,"line":5,"distance":2504,"station_name":"Rawa Buaya","transit":false,"time":3},{"i_long":106.737035,"time":4,"distance":1152,"station_name":"Bojongindah","station_id":"BOI","i_lat":-6.159876,"is_transit":false,"line":5,"transit":false},{"line":5,"transit":false,"time":2,"distance":2334,"i_long":106.756522,"is_transit":false,"station_id":"TKO","station_name":"Taman Kota","i_lat":-6.1587309999999995},{"i_long":106.771379,"station_name":"Pesing","line":5,"transit":false,"time":2,"station_id":"PSG","is_transit":false,"i_lat":-6.161433,"distance":1614},{"distance":2036,"line":5,"transit":false,"i_long":106.788277,"station_id":"GGL","is_transit":false,"i_lat":-6.162021,"station_name":"Grogol","time":2},{"transit":true,"time":3,"station_id":"DU","i_lat":-6.155215,"station_name":"Duri","line":1,"is_transit":true,"distance":1700,"i_long":106.800832},{"transit":false,"station_id":"AK","i_lat":-6.144674,"is_transit":false,"time":4,"distance":1230,"line":1,"station_name":"Angke","i_long":106.79867},{"station_id":"KPB","time":9,"distance":4102,"transit":true,"i_long":106.826365,"line":4,"i_lat":-6.132549,"station_name":"Kampung Bandan","is_transit":true},{"station_name":"Jakarta Kota","time":3,"distance":1364,"is_transit":true,"i_lat":-6.137569,"i_long":106.812439,"station_id":"JAKK","line":2,"transit":true},{"i_long":106.820901,"distance":1264,"station_id":"JAY","time":4,"line":2,"i_lat":-6.141205,"transit":false,"is_transit":false,"station_name":"Jayakarta"},{"station_id":"MGB","is_transit":false,"i_long":106.82482,"i_lat":-6.149769,"station_name":"Manggabesar","transit":false,"time":2,"distance":1080,"line":2},{"station_name":"Sawah Besar","is_transit":false,"i_long":106.827103,"time":2,"transit":false,"distance":906,"line":2,"station_id":"SW","i_lat":-6.160725},{"is_transit":false,"line":2,"station_name":"Juanda","time":2,"i_lat":-6.166716,"distance":1149,"station_id":"JUA","transit":false,"i_long":106.828284},{"i_lat":-6.186295,"i_long":106.832183,"station_id":"GDD","distance":2015,"line":2,"time":4,"transit":false,"station_name":"Gondangdia","is_transit":false},{"i_long":106.840169,"is_transit":false,"i_lat":-6.198556,"transit":false,"time":3,"station_name":"Cikini","line":2,"station_id":"CKI","distance":1750},{"i_lat":-6.209883,"station_id":"MRI","i_long":106.84912,"line":2,"distance":1590,"is_transit":true,"station_name":"Manggarai","time":4,"transit":true},{"station_name":"Matraman","time":2,"station_id":"MTR","distance":1275,"i_lat":-6.212485,"line":1,"is_transit":false,"i_long":106.858896,"transit":false},{"station_id":"JNG","transit":false,"time":8,"is_transit":false,"i_long":106.86807400000001,"distance":1377,"line":1,"i_lat":-6.215091,"station_name":"Jatinegara"},{"is_transit":false,"i_long":106.899548,"station_name":"Klender","distance":3395,"time":3,"transit":false,"line":1,"i_lat":-6.2135,"station_id":"KLD"},{"station_id":"BUA","is_transit":false,"transit":false,"i_long":106.922662,"distance":3100,"i_lat":-6.215568,"time":2,"station_name":"Buaran","line":1},{"transit":false,"station_name":"Klenderbaru","time":1,"is_transit":false,"station_id":"KLDB","i_lat":-6.217455,"line":1,"i_long":106.939679,"distance":1305},{"transit":false,"i_lat":-6.219053,"distance":1385,"station_id":"CUK","time":8,"i_long":106.951283,"line":1,"station_name":"Cakung","is_transit":false},{"i_lat":-6.224515,"station_name":"Kranji","transit":false,"is_transit":false,"distance":3097,"station_id":"KRI","i_long":106.977657,"line":1,"time":3},{"station_id":"BKS","i_long":106.997013,"distance":2520,"time":4,"line":1,"i_lat":-6.236616,"station_name":"Bekasi","transit":false,"is_transit":false},{"distance":2368,"line":1,"time":2,"is_transit":false,"station_id":"BKST","i_long":107.016735,"transit":false,"station_name":"Bekasi Timur","i_lat":-6.248029},{"transit":false,"station_name":"Tambun","i_lat":-6.258864,"i_long":107.055722,"distance":4460,"time":7,"is_transit":false,"station_id":"TB","line":1},{"station_name":"Cibitung","i_lat":-6.261877,"time":3,"i_long":107.083084,"transit":false,"distance":3420,"is_transit":false,"station_id":"CIT","line":1},{"station_id":"TLM","i_lat":-6.262938,"is_transit":false,"i_long":107.093313,"line":1,"transit":false,"time":2,"station_name":"Metland Telaga Murni","distance":2800},{"station_id":"CKR","line":1,"transit":false,"i_long":107.144613,"i_lat":-6.2553149999999995,"is_transit":false,"time":4,"distance":3689,"station_name":"Cikarang"}],[{"i_long":106.64657,"transit":false,"distance":0,"station_name":"Tanah Tinggi","is_transit":false,"i_lat":-6.17331,"line":5,"station_id":"TTI","time":0},{"time":3,"line":5,"i_lat":-6.171811,"distance":2028,"station_name":"Batuceper","station_id":"BPR","transit":false,"i_long":106.665036,"is_transit":false},{"i_long":106.679458,"station_name":"Poris","i_lat":-6.169933,"time":3,"station_id":"PI","transit":false,"is_transit":false,"line":5,"distance":1834},{"is_transit":false,"station_id":"KDS","time":3,"distance":2548,"transit":false,"station_name":"Kalideres","i_lat":-6.166068,"line":5,"i_long":106.701612},{"is_transit":false,"transit":false,"line":5,"i_long":106.723064,"distance":2504,"time":3,"station_name":"Rawa Buaya","station_id":"RW","i_lat":-6.162758},{"station_name":"Bojongindah","distance":1152,"station_id":"BOI","transit":false,"i_long":106.737035,"line":5,"is_transit":false,"i_lat":-6.159876,"time":4},{"station_id":"TKO","i_long":106.756522,"transit":false,"line":5,"is_transit":false,"time":2,"i_lat":-6.1587309999999995,"distance":2334,"station_name":"Taman Kota"},{"time":2,"distance":1614,"station_id":"PSG","i_long":106.771379,"is_transit":false,"line":5,"i_lat":-6.161433,"transit":false,"station_name":"Pesing"},{"station_id":"GGL","i_long":106.788277,"line":5,"i_lat":-6.162021,"is_transit":false,"distance":2036,"station_name":"Grogol","transit":false,"time":2},{"line":1,"station_name":"Duri","i_lat":-6.155215,"time":3,"is_transit":true,"transit":true,"distance":1700,"station_id":"DU","i_long":106.800832},{"i_lat":-6.185545,"distance":3632,"is_transit":false,"station_name":"Tanah Abang","station_id":"THB","transit":false,"i_long":106.811091,"line":1,"time":8},{"time":5,"is_transit":false,"i_long":106.816351,"station_name":"Karet","line":1,"station_id":"KAT","transit":false,"distance":2029,"i_lat":-6.20132},{"i_lat":-6.201433,"distance":471,"station_id":"SUDB","time":1,"station_name":"Sudirman Baru","line":1,"transit":false,"is_transit":false,"i_long":106.819881},{"distance":280,"time":1,"station_id":"SUD","i_long":106.822649,"station_name":"Sudirman","transit":false,"is_transit":false,"i_lat":-6.202263,"line":1},{"transit":true,"i_long":106.84912,"time":4,"station_name":"Manggarai","is_transit":true,"distance":3186,"i_lat":-6.209883,"station_id":"MRI","line":2},{"time":4,"transit":false,"i_long":106.840169,"station_name":"Cikini","station_id":"CKI","i_lat":-6.198556,"is_transit":false,"line":2,"distance":1590},{"i_lat":-6.186295,"time":3,"line":2,"distance":1750,"i_long":106.832183,"station_id":"GDD","transit":false,"is_transit":false,"station_name":"Gondangdia"},{"i_long":106.828284,"station_name":"Juanda","time":4,"transit":false,"is_transit":false,"i_lat":-6.166716,"distance":2015,"line":2,"station_id":"JUA"},{"i_long":106.827103,"distance":1149,"station_id":"SW","i_lat":-6.160725,"time":2,"transit":false,"line":2,"station_name":"Sawah Besar","is_transit":false},{"station_name":"Manggabesar","i_lat":-6.149769,"distance":906,"transit":false,"i_long":106.82482,"time":2,"is_transit":false,"station_id":"MGB","line":2},{"station_id":"JAY","is_transit":false,"i_lat":-6.141205,"transit":false,"line":2,"time":2,"station_name":"Jayakarta","distance":1080,"i_long":106.820901},{"station_name":"Jakarta Kota","time":4,"is_transit":true,"station_id":"JAKK","i_lat":-6.137569,"i_long":106.812439,"distance":1264,"transit":true,"line":2},{"transit":true,"is_transit":true,"station_id":"KPB","i_lat":-6.132549,"i_long":106.826365,"station_name":"Kampung Bandan","time":3,"line":4,"distance":1364},{"station_name":"Rajawali","is_transit":false,"time":3,"transit":false,"distance":1444,"station_id":"RJW","i_lat":-6.14505,"i_long":106.836569,"line":11},{"station_id":"KMO","time":5,"is_transit":false,"i_long":106.839204,"station_name":"Kemayoran","line":11,"i_lat":-6.161728,"distance":1901,"transit":false},{"line":11,"time":4,"station_name":"Pasar Senen","is_transit":false,"distance":1436,"i_lat":-6.174784,"i_long":106.84368,"transit":false,"station_id":"PSE"},{"transit":false,"is_transit":false,"line":11,"time":8,"distance":1567,"station_name":"Gang Sentiong","station_id":"GST","i_lat":-6.185975,"i_long":106.850107},{"distance":973,"transit":false,"line":11,"station_name":"Kramat","station_id":"KMT","i_lat":-6.193792,"time":1,"is_transit":false,"i_long":106.855437},{"transit":false,"station_id":"POK","is_transit":false,"time":2,"i_lat":-6.209188,"i_long":106.861737,"station_name":"Pondok Jati","line":11,"distance":1829},{"transit":true,"line":1,"time":9,"distance":1236,"i_lat":-6.215091,"station_name":"Jatinegara","i_long":106.86807400000001,"station_id":"JNG","is_transit":true},{"transit":false,"station_name":"Klender","i_lat":-6.2135,"is_transit":false,"distance":3395,"time":3,"station_id":"KLD","i_long":106.899548,"line":1},{"time":2,"transit":false,"i_lat":-6.215568,"i_long":106.922662,"line":1,"station_name":"Buaran","station_id":"BUA","is_transit":false,"distance":3100},{"is_transit":false,"line":1,"distance":1305,"station_id":"KLDB","station_name":"Klenderbaru","i_long":106.939679,"time":1,"transit":false,"i_lat":-6.217455},{"is_transit":false,"station_id":"CUK","line":1,"distance":1385,"station_name":"Cakung","i_long":106.951283,"time":8,"transit":false,"i_lat":-6.219053},{"transit":false,"time":3,"distance":3097,"line":1,"station_id":"KRI","station_name":"Kranji","is_transit":false,"i_lat":-6.224515,"i_long":106.977657},{"distance":2520,"is_transit":false,"time":4,"line":1,"transit":false,"station_id":"BKS","i_long":106.997013,"station_name":"Bekasi","i_lat":-6.236616},{"station_name":"Bekasi Timur","time":2,"station_id":"BKST","distance":2368,"transit":false,"i_long":107.016735,"i_lat":-6.248029,"line":1,"is_transit":false},{"station_id":"TB","i_long":107.055722,"time":7,"line":1,"station_name":"Tambun","transit":false,"distance":4460,"is_transit":false,"i_lat":-6.258864},{"station_id":"CIT","station_name":"Cibitung","line":1,"time":3,"i_long":107.083084,"i_lat":-6.261877,"transit":false,"is_transit":false,"distance":3420},{"i_lat":-6.262938,"i_long":107.093313,"station_id":"TLM","is_transit":false,"time":2,"line":1,"station_name":"Metland Telaga Murni","transit":false,"distance":2800},{"station_name":"Cikarang","transit":false,"line":1,"i_long":107.144613,"is_transit":false,"time":4,"distance":3689,"i_lat":-6.2553149999999995,"station_id":"CKR"}]]}