{"data":[[{"line":5,"is_transit":false,"distance":0,"station_name":"Tanah Tinggi","i_lat":-6.17331,"station_id":"TTI","time":0,"i_long":106.64657,"transit":false},{"is_transit":false,"distance":2028,"i_long":106.665036,"line":5,"station_name":"Batuceper","transit":false,"station_id":"BPR","time":3,"i_lat":-6.171811},{"transit":false,"is_transit":false,"i_lat":-6.169933,"line":5,"station_name":"Poris","distance":1834,"station_id":"PI","i_long":106.679458,"time":3},{"i_lat":-6.166068,"transit":false,"time":3,"i_long":106.701612,"line":5,"distance":2548,"station_id":"KDS","is_transit":false,"station_name":"Kalideres"},{"transit":false,"i_lat":-6.162758,"station_name":"Rawa Buaya","distance":2504,"is_transit":false,"time":3,"i_long":106.723064,"station_id":"RW","line":5},{"station_name":"Bojongindah","transit":false,"station_id":"BOI","distance":1152,"time":4,"i_long":106.737035,"line":5,"is_transit":false,"i_lat":-6.159876},{"station_id":"TKO","station_name":"Taman Kota","distance":2334,"i_lat":-6.1587309999999995,"time":2,"transit":false,"i_long":106.756522,"line":5,"is_transit":false},{"i_lat":-6.161433,"is_transit":false,"station_id":"PSG","distance":1614,"transit":false,"i_long":106.771379,"line":5,"station_name":"Pesing","time":2},{"time":2,"i_lat":-6.162021,"line":5,"distance":2036,"station_id":"GGL","station_name":"Grogol","transit":false,"is_transit":false,"i_long":106.788277},{"station_id":"DU","station_name":"Duri","is_transit":true,"distance":1700,"transit":true,"i_long":106.800832,"line":1,"i_lat":-6.155215,"time":3},{"station_name":"Tanah Abang","distance":3632,"is_transit":false,"time":8,"transit":false,"station_id":"THB","i_lat":-6.185545,"i_long":106.811091,"line":1},{"transit":false,"station_name":"Karet","time":5,"is_transit":false,"distance":2029,"i_lat":-6.20132,"i_long":106.816351,"line":1,"station_id":"KAT"},{"is_transit":false,"station_name":"Sudirman Baru","time":1,"line":1,"i_long":106.819881,"i_lat":-6.201433,"transit":false,"station_id":"SUDB","distance":471},{"time":1,"transit":false,"station_name":"Sudirman","i_long":106.822649,"i_lat":-6.202263,"line":1,"is_transit":false,"distance":280,"station_id":"SUD"},{"time":4,"line":2,"is_transit":true,"station_id":"MRI","transit":true,"i_long":106.84912,"distance":3186,"station_name":"Manggarai","i_lat":-6.209883},{"is_transit":false,"station_name":"Tebet","transit":false,"distance":2610,"i_long":106.857948,"time":4,"station_id":"TEB","i_lat":-6.226659,"line":2},{"station_name":"Cawang","station_id":"CW","transit":false,"is_transit":false,"i_long":106.856607,"i_lat":-6.242512,"time":2,"line":2,"distance":1230},{"line":2,"time":3,"distance":1546,"station_name":"Duren Kalibata","transit":false,"i_lat":-6.255332,"station_id":"DRN","is_transit":false,"i_long":106.85449},{"station_id":"PSMB","transit":false,"i_lat":-6.263214,"line":2,"i_long":106.851577,"time":2,"station_name":"Pasar Minggu Baru","is_transit":false,"distance":824},{"is_transit":false,"time":2,"i_long":106.843999,"i_lat":-6.2842400000000005,"station_id":"PSM","transit":false,"station_name":"Pasar Minggu","distance":2380,"line":2},{"time":4,"distance":2820,"transit":false,"i_long":106.838896,"line":2,"station_id":"TNT","station_name":"Tanjung Barat","i_lat":-6.3080680000000005,"is_transit":false},{"i_lat":-6.330363,"i_long":106.832616,"distance":2671,"time":3,"transit":false,"line":2,"station_name":"Lenteng Agung","station_id":"LNA","is_transit":false},{"station_id":"UP","time":2,"i_lat":-6.339291,"station_name":"Univ. Pancasila","is_transit":false,"distance":1029,"transit":false,"i_long":106.834175,"line":2},{"time":3,"station_name":"Univ. Indonesia","line":2,"i_lat":-6.360749,"station_id":"UI","is_transit":false,"i_long":106.831474,"distance":2264,"transit":false}],[{"time":0,"transit":false,"station_name":"Tanah Tinggi","is_transit":false,"i_long":106.64657,"line":5,"i_lat":-6.17331,"distance":0,"station_id":"TTI"},{"station_id":"BPR","is_transit":false,"transit":false,"i_lat":-6.171811,"line":5,"station_name":"Batuceper","time":3,"distance":2028,"i_long":106.665036},{"transit":false,"station_id":"PI","station_name":"Poris","distance":1834,"is_transit":false,"time":3,"i_lat":-6.169933,"i_long":106.679458,"line":5},{"time":3,"is_transit":false,"station_id":"KDS","transit":false,"i_lat":-6.166068,"distance":2548,"i_long":106.701612,"line":5,"station_name":"Kalideres"},{"time":3,"line":5,"station_id":"RW","station_name":"Rawa Buaya","i_lat":-6.162758,"is_transit":false,"i_long":106.723064,"distance":2504,"transit":false},{"transit":false,"i_long":106.737035,"distance":1152,"line":5,"i_lat":-6.159876,"is_transit":false,"station_name":"Bojongindah","station_id":"BOI","time":4},{"station_name":"Taman Kota","is_transit":false,"transit":false,"time":2,"distance":2334,"i_lat":-6.1587309999999995,"line":5,"i_long":106.756522,"station_id":"TKO"},{"i_long":106.771379,"transit":false,"station_id":"PSG","distance":1614,"line":5,"time":2,"i_lat":-6.161433,"station_name":"Pesing","is_transit":false},{"transit":false,"line":5,"i_lat":-6.162021,"is_transit":false,"station_name":"Grogol","station_id":"GGL","time":2,"distance":2036,"i_long":106.788277},{"i_lat":-6.155215,"station_name":"Duri","transit":true,"time":3,"i_long":106.800832,"station_id":"DU","distance":1700,"is_transit":true,"line":1},{"station_id":"AK","transit":false,"line":1,"i_long":106.79867,"time":4,"station_name":"Angke","is_transit":false,"distance":1230,"i_lat":-6.144674},{"is_transit":true,"time":9,"i_lat":-6.132549,"station_id":"KPB","distance":4102,"i_long":106.826365,"station_name":"Kampung Bandan","transit":true,"line":4},{"is_transit":true,"distance":1364,"station_id":"JAKK","i_lat":-6.137569,"transit":true,"time":3,"station_name":"Jakarta Kota","i_long":106.812439,"line":2},{"distance":1264,"i_long":106.820901,"time":4,"station_id":"JAY","station_name":"Jayakarta","transit":false,"i_lat":-6.141205,"is_transit":false,"line":2},{"time":2,"i_long":106.82482,"distance":1080,"line":2,"station_name":"Manggabesar","i_lat":-6.149769,"is_transit":false,"station_id":"MGB","transit":false},{"i_long":106.827103,"station_id":"SW","transit":false,"is_transit":false,"time":2,"distance":906,"i_lat":-6.160725,"line":2,"station_name":"Sawah Besar"},{"i_lat":-6.166716,"station_name":"Juanda","transit":false,"station_id":"JUA","distance":1149,"time":2,"is_transit":false,"line":2,"i_long":106.828284},{"i_lat":-6.186295,"transit":false,"station_id":"GDD","line":2,"station_name":"Gondangdia","is_transit":false,"i_long":106.832183,"distance":2015,"time":4},{"station_id":"CKI","transit":false,"distance":1750,"i_long":106.840169,"line":2,"station_name":"Cikini","is_transit":false,"time":3,"i_lat":-6.198556},{"station_name":"Manggarai","i_long":106.84912,"line":2,"time":4,"is_transit":false,"distance":1590,"i_lat":-6.209883,"transit":false,"station_id":"MRI"},{"i_long":106.857948,"station_name":"Tebet","is_transit":false,"time":4,"distance":2610,"line":2,"station_id":"TEB","transit":false,"i_lat":-6.226659},{"time":2,"distance":1230,"station_name":"Cawang","line":2,"transit":false,"i_long":106.856607,"station_id":"CW","is_transit":false,"i_lat":-6.242512},{"is_transit":false,"time":3,"i_long":106.85449,"line":2,"station_id":"DRN","distance":1546,"station_name":"Duren Kalibata","transit":false,"i_lat":-6.255332},{"station_name":"Pasar Minggu Baru","transit":false,"station_id":"PSMB","is_transit":false,"i_long":106.851577,"line":2,"time":2,"i_lat":-6.263214,"distance":824},{"transit":false,"i_lat":-6.2842400000000005,"line":2,"i_long":106.843999,"is_transit":false,"station_name":"Pasar Minggu","time":2,"station_id":"PSM","distance":2380},{"line":2,"station_name":"Tanjung Barat","time":4,"distance":2820,"is_transit":false,"transit":false,"i_long":106.838896,"i_lat":-6.3080680000000005,"station_id":"TNT"},{"i_long":106.832616,"station_name":"Lenteng Agung","transit":false,"time":3,"distance":2671,"i_lat":-6.330363,"line":2,"station_id":"LNA","is_transit":false},{"station_name":"Univ. Pancasila","i_lat":-6.339291,"station_id":"UP","is_transit":false,"time":2,"i_long":106.834175,"line":2,"transit":false,"distance":1029},{"station_name":"Univ. Indonesia","time":3,"is_transit":false,"transit":false,"i_long":106.831474,"distance":2264,"line":2,"station_id":"UI","i_lat":-6.360749}],[{"station_id":"TTI","transit":false,"time":0,"i_long":106.64657,"station_name":"Tanah Tinggi","is_transit":false,"i_lat":-6.17331,"distance":0,"line":5},{"station_name":"Batuceper","line":5,"is_transit":false,"transit":false,"time":3,"station_id":"BPR","distance":2028,"i_long":106.665036,"i_lat":-6.171811},{"station_id":"PI","time":3,"distance":1834,"i_lat":-6.169933,"line":5,"transit":false,"station_name":"Poris","is_transit":false,"i_long":106.679458},{"transit":false,"distance":2548,"station_id":"KDS","is_transit":false,"station_name":"Kalideres","i_lat":-6.166068,"line":5,"i_long":106.701612,"time":3},{"distance":2504,"transit":false,"i_lat":-6.162758,"is_transit":false,"line":5,"time":3,"i_long":106.723064,"station_id":"RW","station_name":"Rawa Buaya"},{"i_lat":-6.159876,"i_long":106.737035,"is_transit":false,"station_name":"Bojongindah","station_id":"BOI","distance":1152,"transit":false,"time":4,"line":5},{"time":2,"station_id":"TKO","i_lat":-6.1587309999999995,"i_long":106.756522,"transit":false,"line":5,"distance":2334,"station_name":"Taman Kota","is_transit":false},{"station_name":"Pesing","time":2,"transit":false,"station_id":"PSG","is_transit":false,"distance":1614,"i_lat":-6.161433,"i_long":106.771379,"line":5},{"station_id":"GGL","i_long":106.788277,"time":2,"is_transit":false,"i_lat":-6.162021,"line":5,"transit":false,"distance":2036,"station_name":"Grogol"},{"i_long":106.800832,"time":3,"station_id":"DU","station_name":"Duri","transit":true,"line":1,"is_transit":true,"distance":1700,"i_lat":-6.155215},{"station_name":"Angke","distance":1230,"transit":false,"is_transit":false,"i_long":106.79867,"i_lat":-6.144674,"line":1,"station_id":"AK","time":4},{"i_long":106.826365,"station_name":"Kampung Bandan","transit":true,"time":9,"is_transit":true,"distance":4102,"i_lat":-6.132549,"line":4,"station_id":"KPB"},{"station_name":"Rajawali","time":3,"i_long":106.836569,"transit":false,"is_transit":false,"i_lat":-6.14505,"distance":1444,"line":11,"station_id":"RJW"},{"distance":1901,"station_id":"KMO","station_name":"Kemayoran","is_transit":false,"time":5,"i_lat":-6.161728,"transit":false,"i_long":106.839204,"line":11},{"station_id":"PSE","distance":1436,"is_transit":false,"station_name":"Pasar Senen","i_long":106.84368,"line":11,"i_lat":-6.174784,"transit":false,"time":4},{"i_long":106.850107,"time":8,"i_lat":-6.185975,"station_name":"Gang Sentiong","transit":false,"line":11,"is_transit":false,"distance":1567,"station_id":"GST"},{"time":1,"is_transit":false,"station_id":"KMT","i_lat":-6.193792,"transit":false,"line":11,"station_name":"Kramat","distance":973,"i_long":106.855437},{"i_lat":-6.209188,"i_long":106.861737,"station_name":"Pondok Jati","transit":false,"time":2,"station_id":"POK","is_transit":false,"line":11,"distance":1829},{"transit":true,"station_name":"Jatinegara","i_lat":-6.215091,"i_long":106.86807400000001,"station_id":"JNG","time":9,"line":1,"is_transit":true,"distance":1236},{"is_transit":false,"i_long":106.858896,"station_id":"MTR","station_name":"Matraman","time":2,"transit":false,"distance":1377,"i_lat":-6.212485,"line":1},{"transit":true,"distance":1275,"line":2,"station_name":"Manggarai","is_transit":true,"i_lat":-6.209883,"i_long":106.84912,"time":2,"station_id":"MRI"},{"i_long":106.857948,"distance":2610,"is_transit":false,"transit":false,"time":4,"line":2,"i_lat":-6.226659,"station_id":"TEB","station_name":"Tebet"},{"line":2,"i_long":106.856607,"distance":1230,"time":2,"is_transit":false,"station_name":"Cawang","station_id":"CW","transit":false,"i_lat":-6.242512},{"is_transit":false,"time":3,"station_name":"Duren Kalibata","i_lat":-6.255332,"line":2,"transit":false,"i_long":106.85449,"distance":1546,"station_id":"DRN"},{"is_transit":false,"transit":false,"line":2,"time":2,"station_name":"Pasar Minggu Baru","i_long":106.851577,"i_lat":-6.263214,"distance":824,"station_id":"PSMB"},{"station_id":"PSM","station_name":"Pasar Minggu","distance":2380,"transit":false,"line":2,"i_lat":-6.2842400000000005,"i_long":106.843999,"time":2,"is_transit":false},{"i_lat":-6.3080680000000005,"is_transit":false,"transit":false,"time":4,"station_name":"Tanjung Barat","i_long":106.838896,"line":2,"station_id":"TNT","distance":2820},{"transit":false,"time":3,"distance":2671,"is_transit":false,"i_long":106.832616,"line":2,"station_id":"LNA","station_name":"Lenteng Agung","i_lat":-6.330363},{"transit":false,"line":2,"station_name":"Univ. Pancasila","distance":1029,"time":2,"i_lat":-6.339291,"station_id":"UP","i_long":106.834175,"is_transit":false},{"i_lat":-6.360749,"distance":2264,"station_id":"UI","i_long":106.831474,"is_transit":false,"line":2,"transit":false,"station_name":"Univ. Indonesia","time":3}]]}