{"data":[[{"station_id":"TTI","distance":0,"station_name":"Tanah Tinggi","i_long":106.64657,"is_transit":false,"transit":false,"line":5,"i_lat":-6.17331,"time":0},{"line":5,"distance":2028,"transit":false,"time":3,"station_id":"BPR","station_name":"Batuceper","i_lat":-6.171811,"is_transit":false,"i_long":106.665036},{"i_lat":-6.169933,"line":5,"distance":1834,"station_id":"PI","is_transit":false,"i_long":106.679458,"transit":false,"time":3,"station_name":"Poris"},{"station_id":"KDS","station_name":"Kalideres","time":3,"is_transit":false,"i_lat":-6.166068,"i_long":106.701612,"line":5,"transit":false,"distance":2548},{"transit":false,"time":3,"is_transit":false,"distance":2504,"station_name":"Rawa Buaya","line":5,"i_lat":-6.162758,"i_long":106.723064,"station_id":"RW"},{"time":4,"station_name":"Bojongindah","station_id":"BOI","i_lat":-6.159876,"i_long":106.737035,"line":5,"transit":false,"is_transit":false,"distance":1152},{"distance":2334,"transit":false,"time":2,"i_lat":-6.1587309999999995,"line":5,"station_id":"TKO","is_transit":false,"station_name":"Taman Kota","i_long":106.756522},{"station_name":"Pesing","station_id":"PSG","time":2,"i_lat":-6.161433,"is_transit":false,"distance":1614,"i_long":106.771379,"line":5,"transit":false},{"is_transit":false,"i_lat":-6.162021,"time":2,"transit":false,"line":5,"distance":2036,"station_id":"GGL","station_name":"Grogol","i_long":106.788277},{"distance":1700,"i_long":106.800832,"time":3,"station_id":"DU","station_name":"Duri","transit":true,"i_lat":-6.155215,"is_transit":true,"line":1},{"line":1,"i_lat":-6.185545,"distance":3632,"transit":false,"station_name":"Tanah Abang","i_long":106.811091,"time":8,"station_id":"THB","is_transit":false},{"i_long":106.816351,"i_lat":-6.20132,"distance":2029,"line":1,"station_name":"Karet","time":5,"transit":false,"is_transit":false,"station_id":"KAT"},{"station_name":"Sudirman Baru","distance":471,"time":1,"transit":false,"i_long":106.819881,"line":1,"station_id":"SUDB","i_lat":-6.201433,"is_transit":false},{"line":1,"is_transit":false,"i_long":106.822649,"station_name":"Sudirman","distance":280,"station_id":"SUD","transit":false,"time":1,"i_lat":-6.202263},{"station_id":"MRI","line":2,"i_lat":-6.209883,"i_long":106.84912,"time":4,"station_name":"Manggarai","distance":3186,"transit":true,"is_transit":true},{"transit":false,"i_lat":-6.226659,"distance":2610,"time":4,"i_long":106.857948,"station_name":"Tebet","line":2,"is_transit":false,"station_id":"TEB"},{"distance":1230,"station_name":"Cawang","i_lat":-6.242512,"station_id":"CW","line":2,"transit":false,"time":2,"i_long":106.856607,"is_transit":false},{"transit":false,"distance":1546,"time":3,"station_name":"Duren Kalibata","i_lat":-6.255332,"line":2,"station_id":"DRN","i_long":106.85449,"is_transit":false},{"is_transit":false,"i_lat":-6.263214,"transit":false,"distance":824,"i_long":106.851577,"station_id":"PSMB","station_name":"Pasar Minggu Baru","line":2,"time":2},{"i_lat":-6.2842400000000005,"transit":false,"station_id":"PSM","line":2,"distance":2380,"is_transit":false,"time":2,"station_name":"Pasar Minggu","i_long":106.843999}],[{"time":0,"distance":0,"station_id":"TTI","i_long":106.64657,"line":5,"i_lat":-6.17331,"station_name":"Tanah Tinggi","transit":false,"is_transit":false},{"time":3,"station_name":"Batuceper","transit":false,"distance":2028,"station_id":"BPR","line":5,"is_transit":false,"i_lat":-6.171811,"i_long":106.665036},{"i_lat":-6.169933,"i_long":106.679458,"time":3,"station_name":"Poris","station_id":"PI","transit":false,"is_transit":false,"distance":1834,"line":5},{"i_long":106.701612,"is_transit":false,"line":5,"station_name":"Kalideres","i_lat":-6.166068,"distance":2548,"station_id":"KDS","transit":false,"time":3},{"time":3,"i_lat":-6.162758,"distance":2504,"i_long":106.723064,"station_id":"RW","is_transit":false,"line":5,"station_name":"Rawa Buaya","transit":false},{"distance":1152,"line":5,"station_id":"BOI","transit":false,"i_lat":-6.159876,"station_name":"Bojongindah","time":4,"i_long":106.737035,"is_transit":false},{"distance":2334,"station_id":"TKO","is_transit":false,"transit":false,"i_long":106.756522,"station_name":"Taman Kota","i_lat":-6.1587309999999995,"time":2,"line":5},{"line":5,"station_id":"PSG","is_transit":false,"time":2,"i_long":106.771379,"station_name":"Pesing","distance":1614,"i_lat":-6.161433,"transit":false},{"i_lat":-6.162021,"station_id":"GGL","line":5,"time":2,"station_name":"Grogol","is_transit":false,"transit":false,"distance":2036,"i_long":106.788277},{"transit":true,"station_name":"Duri","i_long":106.800832,"is_transit":true,"line":1,"i_lat":-6.155215,"station_id":"DU","time":3,"distance":1700},{"is_transit":false,"i_long":106.79867,"time":4,"distance":1230,"station_id":"AK","line":1,"transit":false,"station_name":"Angke","i_lat":-6.144674},{"i_lat":-6.132549,"i_long":106.826365,"station_name":"Kampung Bandan","station_id":"KPB","is_transit":true,"line":4,"distance":4102,"time":9,"transit":true},{"time":3,"is_transit":true,"i_lat":-6.137569,"transit":true,"i_long":106.812439,"station_name":"Jakarta Kota","station_id":"JAKK","distance":1364,"line":2},{"line":2,"time":4,"i_lat":-6.141205,"is_transit":false,"distance":1264,"transit":false,"i_long":106.820901,"station_name":"Jayakarta","station_id":"JAY"},{"station_id":"MGB","is_transit":false,"transit":false,"distance":1080,"i_lat":-6.149769,"time":2,"station_name":"Manggabesar","i_long":106.82482,"line":2},{"station_id":"SW","time":2,"distance":906,"transit":false,"i_lat":-6.160725,"i_long":106.827103,"station_name":"Sawah Besar","is_transit":false,"line":2},{"distance":1149,"i_lat":-6.166716,"is_transit":false,"transit":false,"station_id":"JUA","station_name":"Juanda","time":2,"line":2,"i_long":106.828284},{"i_lat":-6.186295,"transit":false,"distance":2015,"station_id":"GDD","i_long":106.832183,"line":2,"time":4,"station_name":"Gondangdia","is_transit":false},{"distance":1750,"line":2,"station_name":"Cikini","time":3,"station_id":"CKI","transit":false,"i_lat":-6.198556,"i_long":106.840169,"is_transit":false},{"distance":1590,"station_id":"MRI","time":4,"transit":false,"i_long":106.84912,"i_lat":-6.209883,"line":2,"is_transit":false,"station_name":"Manggarai"},{"station_name":"Tebet","i_lat":-6.226659,"i_long":106.857948,"distance":2610,"time":4,"line":2,"station_id":"TEB","transit":false,"is_transit":false},{"station_id":"CW","station_name":"Cawang","i_lat":-6.242512,"time":2,"distance":1230,"line":2,"is_transit":false,"transit":false,"i_long":106.856607},{"i_long":106.85449,"station_id":"DRN","distance":1546,"station_name":"Duren Kalibata","transit":false,"i_lat":-6.255332,"time":3,"is_transit":false,"line":2},{"distance":824,"is_transit":false,"time":2,"transit":false,"i_long":106.851577,"line":2,"station_name":"Pasar Minggu Baru","station_id":"PSMB","i_lat":-6.263214},{"station_id":"PSM","transit":false,"i_lat":-6.2842400000000005,"time":2,"i_long":106.843999,"is_transit":false,"line":2,"distance":2380,"station_name":"Pasar Minggu"}],[{"station_name":"Tanah Tinggi","i_long":106.64657,"time":0,"line":5,"station_id":"TTI","i_lat":-6.17331,"transit":false,"is_transit":false,"distance":0},{"station_id":"BPR","is_transit":false,"i_long":106.665036,"transit":false,"line":5,"station_name":"Batuceper","time":3,"distance":2028,"i_lat":-6.171811},{"distance":1834,"transit":false,"i_lat":-6.169933,"i_long":106.679458,"line":5,"is_transit":false,"station_id":"PI","station_name":"Poris","time":3},{"line":5,"station_id":"KDS","i_lat":-6.166068,"station_name":"Kalideres","is_transit":false,"time":3,"transit":false,"i_long":106.701612,"distance":2548},{"station_name":"Rawa Buaya","time":3,"station_id":"RW","is_transit":false,"distance":2504,"i_lat":-6.162758,"transit":false,"i_long":106.723064,"line":5},{"i_lat":-6.159876,"line":5,"time":4,"station_name":"Bojongindah","distance":1152,"i_long":106.737035,"is_transit":false,"station_id":"BOI","transit":false},{"station_name":"Taman Kota","time":2,"line":5,"transit":false,"i_long":106.756522,"i_lat":-6.1587309999999995,"distance":2334,"station_id":"TKO","is_transit":false},{"transit":false,"distance":1614,"station_id":"PSG","is_transit":false,"i_lat":-6.161433,"i_long":106.771379,"line":5,"time":2,"station_name":"Pesing"},{"i_long":106.788277,"station_name":"Grogol","is_transit":false,"distance":2036,"station_id":"GGL","line":5,"time":2,"transit":false,"i_lat":-6.162021},{"station_id":"DU","time":3,"distance":1700,"i_long":106.800832,"is_transit":true,"line":1,"i_lat":-6.155215,"station_name":"Duri","transit":true},{"transit":false,"station_name":"Angke","distance":1230,"line":1,"station_id":"AK","i_long":106.79867,"i_lat":-6.144674,"is_transit":false,"time":4},{"transit":true,"time":9,"i_long":106.826365,"line":4,"i_lat":-6.132549,"is_transit":true,"station_name":"Kampung Bandan","distance":4102,"station_id":"KPB"},{"is_transit":false,"time":3,"transit":false,"i_long":106.836569,"station_name":"Rajawali","distance":1444,"line":11,"i_lat":-6.14505,"station_id":"RJW"},{"distance":1901,"i_lat":-6.161728,"is_transit":false,"i_long":106.839204,"line":11,"time":5,"station_id":"KMO","transit":false,"station_name":"Kemayoran"},{"i_long":106.84368,"transit":false,"station_id":"PSE","is_transit":false,"station_name":"Pasar Senen","time":4,"line":11,"distance":1436,"i_lat":-6.174784},{"station_name":"Gang Sentiong","i_lat":-6.185975,"time":8,"station_id":"GST","is_transit":false,"distance":1567,"i_long":106.850107,"line":11,"transit":false},{"i_long":106.855437,"distance":973,"transit":false,"line":11,"station_id":"KMT","station_name":"Kramat","is_transit":false,"i_lat":-6.193792,"time":1},{"distance":1829,"i_long":106.861737,"station_name":"Pondok Jati","time":2,"transit":false,"is_transit":false,"line":11,"station_id":"POK","i_lat":-6.209188},{"i_long":106.86807400000001,"station_name":"Jatinegara","i_lat":-6.215091,"station_id":"JNG","line":1,"transit":true,"time":9,"distance":1236,"is_transit":true},{"is_transit":false,"line":1,"i_lat":-6.212485,"station_id":"MTR","distance":1377,"station_name":"Matraman","transit":false,"i_long":106.858896,"time":2},{"transit":true,"line":2,"station_id":"MRI","station_name":"Manggarai","i_lat":-6.209883,"distance":1275,"i_long":106.84912,"time":2,"is_transit":true},{"transit":false,"is_transit":false,"i_lat":-6.226659,"line":2,"station_id":"TEB","station_name":"Tebet","distance":2610,"time":4,"i_long":106.857948},{"line":2,"distance":1230,"transit":false,"time":2,"station_id":"CW","station_name":"Cawang","is_transit":false,"i_lat":-6.242512,"i_long":106.856607},{"is_transit":false,"station_name":"Duren Kalibata","i_lat":-6.255332,"distance":1546,"station_id":"DRN","time":3,"line":2,"i_long":106.85449,"transit":false},{"line":2,"transit":false,"i_lat":-6.263214,"i_long":106.851577,"station_id":"PSMB","station_name":"Pasar Minggu Baru","time":2,"distance":824,"is_transit":false},{"i_long":106.843999,"is_transit":false,"station_id":"PSM","time":2,"station_name":"Pasar Minggu","distance":2380,"transit":false,"i_lat":-6.2842400000000005,"line":2}]]}