{"data":[[{"transit":false,"station_name":"Tanah Tinggi","station_id":"TTI","distance":0,"is_transit":false,"i_long":106.64657,"i_lat":-6.17331,"time":0,"line":5},{"station_name":"Batuceper","is_transit":false,"i_long":106.665036,"distance":2028,"time":3,"i_lat":-6.171811,"line":5,"transit":false,"station_id":"BPR"},{"transit":false,"line":5,"i_lat":-6.169933,"station_name":"Poris","is_transit":false,"i_long":106.679458,"station_id":"PI","distance":1834,"time":3},{"transit":false,"time":3,"distance":2548,"is_transit":false,"station_name":"Kalideres","line":5,"i_lat":-6.166068,"station_id":"KDS","i_long":106.701612},{"station_name":"Rawa Buaya","line":5,"transit":false,"i_lat":-6.162758,"distance":2504,"i_long":106.723064,"is_transit":false,"station_id":"RW","time":3},{"station_name":"Bojongindah","transit":false,"is_transit":false,"time":4,"distance":1152,"i_lat":-6.159876,"i_long":106.737035,"line":5,"station_id":"BOI"},{"line":5,"station_name":"Taman Kota","transit":false,"i_lat":-6.1587309999999995,"time":2,"distance":2334,"station_id":"TKO","is_transit":false,"i_long":106.756522},{"line":5,"transit":false,"station_id":"PSG","is_transit":false,"i_long":106.771379,"distance":1614,"time":2,"i_lat":-6.161433,"station_name":"Pesing"},{"i_long":106.788277,"is_transit":false,"station_id":"GGL","time":2,"transit":false,"station_name":"Grogol","i_lat":-6.162021,"line":5,"distance":2036},{"station_id":"DU","line":1,"is_transit":true,"transit":true,"station_name":"Duri","i_lat":-6.155215,"i_long":106.800832,"distance":1700,"time":3},{"i_lat":-6.185545,"line":1,"transit":true,"station_id":"THB","distance":3632,"is_transit":true,"time":8,"station_name":"Tanah Abang","i_long":106.811091},{"i_lat":-6.207404,"station_name":"Palmerah","i_long":106.79689,"line":6,"time":6,"transit":false,"station_id":"PLM","distance":3191,"is_transit":false},{"time":7,"transit":false,"station_name":"Kebayoran","line":6,"station_id":"KBY","is_transit":false,"distance":3737,"i_long":106.780334,"i_lat":-6.237242},{"i_lat":-6.276362,"time":8,"is_transit":false,"transit":false,"distance":6218,"i_long":106.74273,"line":6,"station_id":"PDJ","station_name":"Pondokranji"},{"is_transit":false,"i_long":106.728916,"i_lat":-6.288927,"station_name":"Jurangmangu","station_id":"JMU","transit":false,"distance":2179,"time":3,"line":6},{"station_id":"SDM","transit":false,"line":6,"i_lat":-6.296963,"distance":1994,"is_transit":false,"time":4,"i_long":106.712277,"station_name":"Sudimara"},{"i_lat":-6.314823,"station_name":"Rawa Buntu","station_id":"RU","line":6,"is_transit":false,"transit":false,"time":6,"distance":4566,"i_long":106.675475},{"station_id":"SRP","i_lat":-6.319871,"station_name":"Serpong","distance":2413,"line":6,"transit":false,"is_transit":false,"i_long":106.66566,"time":4}],[{"transit":false,"line":5,"is_transit":false,"station_name":"Tanah Tinggi","distance":0,"i_long":106.64657,"i_lat":-6.17331,"time":0,"station_id":"TTI"},{"distance":2028,"i_long":106.665036,"time":3,"line":5,"is_transit":false,"station_id":"BPR","i_lat":-6.171811,"station_name":"Batuceper","transit":false},{"distance":1834,"is_transit":false,"transit":false,"station_name":"Poris","station_id":"PI","i_lat":-6.169933,"line":5,"time":3,"i_long":106.679458},{"station_id":"KDS","station_name":"Kalideres","i_long":106.701612,"is_transit":false,"time":3,"transit":false,"distance":2548,"i_lat":-6.166068,"line":5},{"i_lat":-6.162758,"transit":false,"station_name":"Rawa Buaya","is_transit":false,"time":3,"distance":2504,"station_id":"RW","line":5,"i_long":106.723064},{"is_transit":false,"time":4,"station_id":"BOI","distance":1152,"station_name":"Bojongindah","i_long":106.737035,"line":5,"i_lat":-6.159876,"transit":false},{"station_name":"Taman Kota","i_lat":-6.1587309999999995,"transit":false,"distance":2334,"i_long":106.756522,"line":5,"time":2,"station_id":"TKO","is_transit":false},{"i_lat":-6.161433,"line":5,"transit":false,"station_name":"Pesing","time":2,"i_long":106.771379,"is_transit":false,"station_id":"PSG","distance":1614},{"station_name":"Grogol","station_id":"GGL","transit":false,"i_lat":-6.162021,"time":2,"is_transit":false,"distance":2036,"i_long":106.788277,"line":5},{"time":3,"i_long":106.800832,"line":1,"station_name":"Duri","distance":1700,"i_lat":-6.155215,"station_id":"DU","is_transit":true,"transit":true},{"transit":false,"is_transit":false,"line":1,"station_name":"Angke","distance":1230,"i_long":106.79867,"station_id":"AK","i_lat":-6.144674,"time":4},{"station_id":"KPB","time":9,"station_name":"Kampung Bandan","is_transit":true,"line":4,"transit":true,"i_long":106.826365,"i_lat":-6.132549,"distance":4102},{"i_long":106.812439,"i_lat":-6.137569,"station_id":"JAKK","station_name":"Jakarta Kota","distance":1364,"transit":true,"is_transit":true,"time":3,"line":2},{"distance":1264,"station_id":"JAY","time":4,"line":2,"i_lat":-6.141205,"is_transit":false,"transit":false,"i_long":106.820901,"station_name":"Jayakarta"},{"is_transit":false,"i_lat":-6.149769,"station_id":"MGB","transit":false,"time":2,"i_long":106.82482,"distance":1080,"line":2,"station_name":"Manggabesar"},{"transit":false,"station_id":"SW","distance":906,"line":2,"i_lat":-6.160725,"time":2,"i_long":106.827103,"station_name":"Sawah Besar","is_transit":false},{"station_name":"Juanda","i_long":106.828284,"i_lat":-6.166716,"distance":1149,"station_id":"JUA","transit":false,"line":2,"is_transit":false,"time":2},{"station_name":"Gondangdia","line":2,"is_transit":false,"time":4,"distance":2015,"transit":false,"station_id":"GDD","i_lat":-6.186295,"i_long":106.832183},{"station_id":"CKI","line":2,"i_lat":-6.198556,"distance":1750,"station_name":"Cikini","transit":false,"time":3,"i_long":106.840169,"is_transit":false},{"transit":true,"is_transit":true,"station_name":"Manggarai","distance":1590,"line":2,"i_long":106.84912,"time":4,"station_id":"MRI","i_lat":-6.209883},{"line":1,"station_name":"Sudirman","is_transit":false,"transit":false,"station_id":"SUD","i_long":106.822649,"i_lat":-6.202263,"time":4,"distance":3186},{"station_id":"SUDB","transit":false,"is_transit":false,"distance":280,"station_name":"Sudirman Baru","i_lat":-6.201433,"i_long":106.819881,"line":1,"time":1},{"i_long":106.816351,"distance":471,"line":1,"station_name":"Karet","time":1,"i_lat":-6.20132,"transit":false,"is_transit":false,"station_id":"KAT"},{"is_transit":true,"time":5,"i_long":106.811091,"transit":true,"station_id":"THB","line":1,"distance":2029,"i_lat":-6.185545,"station_name":"Tanah Abang"},{"station_id":"PLM","station_name":"Palmerah","time":6,"i_lat":-6.207404,"distance":3191,"is_transit":false,"i_long":106.79689,"transit":false,"line":6},{"transit":false,"i_long":106.780334,"distance":3737,"line":6,"station_name":"Kebayoran","is_transit":false,"time":7,"i_lat":-6.237242,"station_id":"KBY"},{"is_transit":false,"i_long":106.74273,"line":6,"station_name":"Pondokranji","i_lat":-6.276362,"time":8,"distance":6218,"station_id":"PDJ","transit":false},{"i_long":106.728916,"i_lat":-6.288927,"line":6,"station_id":"JMU","distance":2179,"time":3,"station_name":"Jurangmangu","transit":false,"is_transit":false},{"distance":1994,"i_lat":-6.296963,"transit":false,"i_long":106.712277,"station_name":"Sudimara","is_transit":false,"time":4,"line":6,"station_id":"SDM"},{"distance":4566,"is_transit":false,"transit":false,"time":6,"i_long":106.675475,"i_lat":-6.314823,"station_name":"Rawa Buntu","station_id":"RU","line":6},{"is_transit":false,"time":4,"transit":false,"station_name":"Serpong","line":6,"station_id":"SRP","i_long":106.66566,"distance":2413,"i_lat":-6.319871}],[{"line":5,"transit":false,"is_transit":false,"distance":0,"i_lat":-6.17331,"station_id":"TTI","i_long":106.64657,"time":0,"station_name":"Tanah Tinggi"},{"line":5,"transit":false,"is_transit":false,"i_long":106.665036,"station_id":"BPR","station_name":"Batuceper","time":3,"i_lat":-6.171811,"distance":2028},{"time":3,"station_id":"PI","is_transit":false,"i_lat":-6.169933,"transit":false,"station_name":"Poris","distance":1834,"i_long":106.679458,"line":5},{"station_name":"Kalideres","i_lat":-6.166068,"time":3,"transit":false,"distance":2548,"is_transit":false,"i_long":106.701612,"line":5,"station_id":"KDS"},{"time":3,"transit":false,"distance":2504,"line":5,"i_lat":-6.162758,"i_long":106.723064,"station_name":"Rawa Buaya","station_id":"RW","is_transit":false},{"time":4,"station_id":"BOI","distance":1152,"line":5,"is_transit":false,"station_name":"Bojongindah","i_long":106.737035,"i_lat":-6.159876,"transit":false},{"distance":2334,"i_long":106.756522,"i_lat":-6.1587309999999995,"time":2,"line":5,"station_id":"TKO","transit":false,"is_transit":false,"station_name":"Taman Kota"},{"transit":false,"time":2,"station_id":"PSG","line":5,"is_transit":false,"station_name":"Pesing","i_long":106.771379,"i_lat":-6.161433,"distance":1614},{"i_long":106.788277,"station_id":"GGL","distance":2036,"station_name":"Grogol","time":2,"line":5,"transit":false,"is_transit":false,"i_lat":-6.162021},{"transit":true,"station_name":"Duri","is_transit":true,"time":3,"line":1,"station_id":"DU","distance":1700,"i_long":106.800832,"i_lat":-6.155215},{"i_long":106.79867,"line":1,"i_lat":-6.144674,"transit":false,"is_transit":false,"time":4,"distance":1230,"station_id":"AK","station_name":"Angke"},{"distance":4102,"i_long":106.826365,"transit":true,"line":4,"i_lat":-6.132549,"station_id":"KPB","is_transit":true,"time":9,"station_name":"Kampung Bandan"},{"is_transit":false,"station_name":"Rajawali","distance":1444,"transit":false,"station_id":"RJW","i_lat":-6.14505,"line":11,"i_long":106.836569,"time":3},{"i_lat":-6.161728,"station_name":"Kemayoran","distance":1901,"transit":false,"is_transit":false,"time":5,"line":11,"station_id":"KMO","i_long":106.839204},{"is_transit":false,"i_long":106.84368,"station_id":"PSE","i_lat":-6.174784,"line":11,"time":4,"station_name":"Pasar Senen","distance":1436,"transit":false},{"distance":1567,"station_id":"GST","is_transit":false,"transit":false,"line":11,"station_name":"Gang Sentiong","i_lat":-6.185975,"time":8,"i_long":106.850107},{"distance":973,"i_long":106.855437,"line":11,"is_transit":false,"station_name":"Kramat","transit":false,"time":1,"station_id":"KMT","i_lat":-6.193792},{"station_id":"POK","i_long":106.861737,"i_lat":-6.209188,"transit":false,"is_transit":false,"station_name":"Pondok Jati","distance":1829,"time":2,"line":11},{"transit":true,"time":9,"is_transit":true,"i_long":106.86807400000001,"station_id":"JNG","i_lat":-6.215091,"line":1,"station_name":"Jatinegara","distance":1236},{"time":2,"i_long":106.858896,"station_id":"MTR","station_name":"Matraman","distance":1377,"transit":false,"line":1,"is_transit":false,"i_lat":-6.212485},{"distance":1275,"time":2,"station_id":"MRI","i_lat":-6.209883,"is_transit":false,"station_name":"Manggarai","i_long":106.84912,"line":2,"transit":false},{"transit":false,"station_id":"SUD","is_transit":false,"distance":3186,"time":4,"i_long":106.822649,"station_name":"Sudirman","i_lat":-6.202263,"line":1},{"i_long":106.819881,"line":1,"station_name":"Sudirman Baru","transit":false,"station_id":"SUDB","time":1,"distance":280,"is_transit":false,"i_lat":-6.201433},{"i_long":106.816351,"line":1,"time":1,"station_name":"Karet","transit":false,"station_id":"KAT","distance":471,"is_transit":false,"i_lat":-6.20132},{"station_name":"Tanah Abang","time":5,"transit":true,"i_lat":-6.185545,"station_id":"THB","line":1,"is_transit":true,"distance":2029,"i_long":106.811091},{"line":6,"station_id":"PLM","transit":false,"is_transit":false,"distance":3191,"station_name":"Palmerah","time":6,"i_lat":-6.207404,"i_long":106.79689},{"distance":3737,"time":7,"line":6,"is_transit":false,"i_lat":-6.237242,"i_long":106.780334,"station_name":"Kebayoran","station_id":"KBY","transit":false},{"time":8,"distance":6218,"i_lat":-6.276362,"i_long":106.74273,"transit":false,"is_transit":false,"line":6,"station_name":"Pondokranji","station_id":"PDJ"},{"line":6,"station_name":"Jurangmangu","i_lat":-6.288927,"i_long":106.728916,"station_id":"JMU","transit":false,"is_transit":false,"distance":2179,"time":3},{"i_lat":-6.296963,"is_transit":false,"time":4,"i_long":106.712277,"station_id":"SDM","transit":false,"station_name":"Sudimara","line":6,"distance":1994},{"i_lat":-6.314823,"line":6,"station_id":"RU","time":6,"is_transit":false,"distance":4566,"transit":false,"i_long":106.675475,"station_name":"Rawa Buntu"},{"time":4,"transit":false,"station_id":"SRP","station_name":"Serpong","i_long":106.66566,"line":6,"i_lat":-6.319871,"distance":2413,"is_transit":false}]]}