{"data":[[{"i_long":106.64657,"time":0,"line":5,"station_id":"TTI","station_name":"Tanah Tinggi","is_transit":false,"transit":false,"i_lat":-6.17331,"distance":0},{"i_lat":-6.171811,"line":5,"station_id":"BPR","time":3,"i_long":106.665036,"station_name":"Batuceper","is_transit":false,"transit":false,"distance":2028},{"i_lat":-6.169933,"is_transit":false,"station_name":"Poris","distance":1834,"i_long":106.679458,"line":5,"station_id":"PI","transit":false,"time":3},{"is_transit":false,"distance":2548,"station_name":"Kalideres","i_lat":-6.166068,"i_long":106.701612,"line":5,"time":3,"station_id":"KDS","transit":false},{"line":5,"i_lat":-6.162758,"distance":2504,"i_long":106.723064,"station_name":"Rawa Buaya","time":3,"is_transit":false,"transit":false,"station_id":"RW"},{"transit":false,"distance":1152,"station_id":"BOI","station_name":"Bojongindah","line":5,"i_long":106.737035,"time":4,"is_transit":false,"i_lat":-6.159876},{"i_long":106.756522,"line":5,"transit":false,"station_id":"TKO","i_lat":-6.1587309999999995,"station_name":"Taman Kota","time":2,"distance":2334,"is_transit":false},{"station_name":"Pesing","line":5,"time":2,"station_id":"PSG","transit":false,"i_lat":-6.161433,"i_long":106.771379,"distance":1614,"is_transit":false},{"transit":false,"time":2,"i_long":106.788277,"station_id":"GGL","is_transit":false,"line":5,"i_lat":-6.162021,"station_name":"Grogol","distance":2036},{"i_long":106.800832,"transit":true,"line":1,"station_id":"DU","station_name":"Duri","is_transit":true,"i_lat":-6.155215,"time":3,"distance":1700},{"station_name":"Tanah Abang","transit":false,"line":1,"is_transit":false,"i_lat":-6.185545,"station_id":"THB","i_long":106.811091,"time":8,"distance":3632},{"distance":2029,"is_transit":false,"i_lat":-6.20132,"line":1,"time":5,"station_name":"Karet","station_id":"KAT","transit":false,"i_long":106.816351},{"line":1,"distance":471,"is_transit":false,"i_lat":-6.201433,"station_id":"SUDB","station_name":"Sudirman Baru","transit":false,"i_long":106.819881,"time":1},{"transit":false,"line":1,"time":1,"station_id":"SUD","station_name":"Sudirman","distance":280,"i_long":106.822649,"i_lat":-6.202263,"is_transit":false},{"transit":false,"station_name":"Manggarai","is_transit":false,"time":4,"line":2,"i_long":106.84912,"i_lat":-6.209883,"station_id":"MRI","distance":3186},{"transit":false,"time":2,"i_lat":-6.212485,"station_name":"Matraman","distance":1275,"i_long":106.858896,"station_id":"MTR","is_transit":false,"line":1},{"distance":1377,"time":8,"line":1,"station_id":"JNG","is_transit":false,"transit":false,"i_long":106.86807400000001,"station_name":"Jatinegara","i_lat":-6.215091},{"transit":false,"line":1,"time":3,"station_id":"KLD","i_lat":-6.2135,"is_transit":false,"i_long":106.899548,"station_name":"Klender","distance":3395},{"station_id":"BUA","i_lat":-6.215568,"transit":false,"time":2,"i_long":106.922662,"distance":3100,"station_name":"Buaran","is_transit":false,"line":1},{"station_id":"KLDB","distance":1305,"i_lat":-6.217455,"station_name":"Klenderbaru","transit":false,"line":1,"is_transit":false,"time":1,"i_long":106.939679},{"line":1,"station_id":"CUK","distance":1385,"time":8,"station_name":"Cakung","is_transit":false,"i_lat":-6.219053,"i_long":106.951283,"transit":false}],[{"i_long":106.64657,"time":0,"station_name":"Tanah Tinggi","transit":false,"station_id":"TTI","i_lat":-6.17331,"line":5,"distance":0,"is_transit":false},{"transit":false,"line":5,"distance":2028,"i_lat":-6.171811,"i_long":106.665036,"is_transit":false,"station_id":"BPR","time":3,"station_name":"Batuceper"},{"distance":1834,"line":5,"is_transit":false,"station_id":"PI","i_lat":-6.169933,"i_long":106.679458,"transit":false,"time":3,"station_name":"Poris"},{"line":5,"time":3,"distance":2548,"i_long":106.701612,"is_transit":false,"station_name":"Kalideres","i_lat":-6.166068,"transit":false,"station_id":"KDS"},{"distance":2504,"is_transit":false,"i_long":106.723064,"station_id":"RW","i_lat":-6.162758,"time":3,"transit":false,"station_name":"Rawa Buaya","line":5},{"distance":1152,"is_transit":false,"i_long":106.737035,"station_name":"Bojongindah","line":5,"transit":false,"station_id":"BOI","i_lat":-6.159876,"time":4},{"is_transit":false,"station_id":"TKO","line":5,"transit":false,"station_name":"Taman Kota","i_lat":-6.1587309999999995,"time":2,"distance":2334,"i_long":106.756522},{"time":2,"i_long":106.771379,"station_name":"Pesing","distance":1614,"is_transit":false,"transit":false,"line":5,"station_id":"PSG","i_lat":-6.161433},{"station_id":"GGL","time":2,"distance":2036,"is_transit":false,"transit":false,"station_name":"Grogol","line":5,"i_long":106.788277,"i_lat":-6.162021},{"line":1,"i_lat":-6.155215,"is_transit":true,"transit":true,"station_name":"Duri","i_long":106.800832,"time":3,"station_id":"DU","distance":1700},{"distance":1230,"station_id":"AK","time":4,"line":1,"is_transit":false,"i_lat":-6.144674,"transit":false,"station_name":"Angke","i_long":106.79867},{"station_name":"Kampung Bandan","line":4,"transit":true,"is_transit":true,"distance":4102,"station_id":"KPB","i_lat":-6.132549,"i_long":106.826365,"time":9},{"i_lat":-6.14505,"distance":1444,"line":11,"is_transit":false,"station_name":"Rajawali","time":3,"transit":false,"station_id":"RJW","i_long":106.836569},{"station_name":"Kemayoran","station_id":"KMO","is_transit":false,"transit":false,"time":5,"i_lat":-6.161728,"distance":1901,"i_long":106.839204,"line":11},{"line":11,"is_transit":false,"time":4,"distance":1436,"i_lat":-6.174784,"transit":false,"i_long":106.84368,"station_name":"Pasar Senen","station_id":"PSE"},{"i_lat":-6.185975,"time":8,"is_transit":false,"station_id":"GST","distance":1567,"transit":false,"station_name":"Gang Sentiong","i_long":106.850107,"line":11},{"time":1,"station_id":"KMT","is_transit":false,"transit":false,"i_lat":-6.193792,"i_long":106.855437,"distance":973,"line":11,"station_name":"Kramat"},{"i_long":106.861737,"i_lat":-6.209188,"distance":1829,"line":11,"station_name":"Pondok Jati","station_id":"POK","time":2,"transit":false,"is_transit":false},{"distance":1236,"time":9,"line":1,"transit":true,"is_transit":true,"i_lat":-6.215091,"station_id":"JNG","station_name":"Jatinegara","i_long":106.86807400000001},{"is_transit":false,"distance":3395,"station_id":"KLD","time":3,"station_name":"Klender","transit":false,"i_lat":-6.2135,"i_long":106.899548,"line":1},{"line":1,"station_name":"Buaran","distance":3100,"is_transit":false,"time":2,"station_id":"BUA","transit":false,"i_lat":-6.215568,"i_long":106.922662},{"i_lat":-6.217455,"station_id":"KLDB","station_name":"Klenderbaru","i_long":106.939679,"is_transit":false,"transit":false,"time":1,"distance":1305,"line":1},{"line":1,"transit":false,"time":8,"station_id":"CUK","distance":1385,"is_transit":false,"station_name":"Cakung","i_lat":-6.219053,"i_long":106.951283}],[{"time":0,"is_transit":false,"line":5,"station_id":"TTI","distance":0,"transit":false,"i_lat":-6.17331,"i_long":106.64657,"station_name":"Tanah Tinggi"},{"i_lat":-6.171811,"distance":2028,"station_id":"BPR","station_name":"Batuceper","i_long":106.665036,"time":3,"is_transit":false,"transit":false,"line":5},{"transit":false,"is_transit":false,"time":3,"station_name":"Poris","i_long":106.679458,"distance":1834,"i_lat":-6.169933,"station_id":"PI","line":5},{"time":3,"station_id":"KDS","station_name":"Kalideres","i_long":106.701612,"i_lat":-6.166068,"is_transit":false,"line":5,"transit":false,"distance":2548},{"line":5,"time":3,"station_id":"RW","is_transit":false,"station_name":"Rawa Buaya","distance":2504,"transit":false,"i_lat":-6.162758,"i_long":106.723064},{"line":5,"is_transit":false,"station_name":"Bojongindah","time":4,"distance":1152,"station_id":"BOI","transit":false,"i_lat":-6.159876,"i_long":106.737035},{"station_id":"TKO","is_transit":false,"distance":2334,"line":5,"time":2,"i_long":106.756522,"i_lat":-6.1587309999999995,"station_name":"Taman Kota","transit":false},{"transit":false,"i_long":106.771379,"is_transit":false,"time":2,"station_id":"PSG","distance":1614,"station_name":"Pesing","i_lat":-6.161433,"line":5},{"station_id":"GGL","transit":false,"is_transit":false,"distance":2036,"line":5,"station_name":"Grogol","time":2,"i_lat":-6.162021,"i_long":106.788277},{"station_name":"Duri","station_id":"DU","distance":1700,"transit":true,"i_long":106.800832,"i_lat":-6.155215,"time":3,"line":1,"is_transit":true},{"line":1,"is_transit":false,"station_name":"Angke","distance":1230,"time":4,"i_lat":-6.144674,"i_long":106.79867,"station_id":"AK","transit":false},{"distance":4102,"i_lat":-6.132549,"transit":true,"time":9,"i_long":106.826365,"is_transit":true,"station_name":"Kampung Bandan","line":4,"station_id":"KPB"},{"i_lat":-6.137569,"distance":1364,"line":2,"i_long":106.812439,"transit":true,"is_transit":true,"station_id":"JAKK","time":3,"station_name":"Jakarta Kota"},{"transit":false,"is_transit":false,"i_long":106.820901,"time":4,"station_name":"Jayakarta","line":2,"station_id":"JAY","distance":1264,"i_lat":-6.141205},{"line":2,"station_name":"Manggabesar","is_transit":false,"i_lat":-6.149769,"i_long":106.82482,"time":2,"distance":1080,"station_id":"MGB","transit":false},{"time":2,"i_lat":-6.160725,"is_transit":false,"distance":906,"i_long":106.827103,"station_name":"Sawah Besar","station_id":"SW","transit":false,"line":2},{"i_lat":-6.166716,"i_long":106.828284,"station_id":"JUA","station_name":"Juanda","line":2,"transit":false,"distance":1149,"is_transit":false,"time":2},{"station_id":"GDD","i_long":106.832183,"time":4,"transit":false,"line":2,"is_transit":false,"station_name":"Gondangdia","distance":2015,"i_lat":-6.186295},{"is_transit":false,"line":2,"i_lat":-6.198556,"transit":false,"distance":1750,"time":3,"i_long":106.840169,"station_id":"CKI","station_name":"Cikini"},{"i_lat":-6.209883,"time":4,"is_transit":true,"distance":1590,"station_name":"Manggarai","line":2,"transit":true,"i_long":106.84912,"station_id":"MRI"},{"is_transit":false,"i_lat":-6.212485,"line":1,"station_name":"Matraman","station_id":"MTR","transit":false,"i_long":106.858896,"distance":1275,"time":2},{"station_id":"JNG","time":8,"i_long":106.86807400000001,"is_transit":false,"station_name":"Jatinegara","transit":false,"distance":1377,"i_lat":-6.215091,"line":1},{"line":1,"transit":false,"station_name":"Klender","time":3,"station_id":"KLD","i_lat":-6.2135,"i_long":106.899548,"is_transit":false,"distance":3395},{"is_transit":false,"i_lat":-6.215568,"transit":false,"i_long":106.922662,"line":1,"time":2,"station_id":"BUA","station_name":"Buaran","distance":3100},{"line":1,"station_name":"Klenderbaru","transit":false,"i_lat":-6.217455,"i_long":106.939679,"time":1,"is_transit":false,"distance":1305,"station_id":"KLDB"},{"i_long":106.951283,"station_id":"CUK","transit":false,"is_transit":false,"i_lat":-6.219053,"time":8,"distance":1385,"line":1,"station_name":"Cakung"}],[{"distance":0,"transit":false,"i_lat":-6.17331,"time":0,"station_name":"Tanah Tinggi","is_transit":false,"line":5,"station_id":"TTI","i_long":106.64657},{"is_transit":false,"distance":2028,"time":3,"i_long":106.665036,"station_name":"Batuceper","i_lat":-6.171811,"station_id":"BPR","line":5,"transit":false},{"distance":1834,"time":3,"i_long":106.679458,"station_name":"Poris","line":5,"i_lat":-6.169933,"station_id":"PI","transit":false,"is_transit":false},{"line":5,"distance":2548,"station_id":"KDS","time":3,"i_lat":-6.166068,"station_name":"Kalideres","is_transit":false,"transit":false,"i_long":106.701612},{"i_lat":-6.162758,"is_transit":false,"transit":false,"line":5,"station_name":"Rawa Buaya","distance":2504,"time":3,"i_long":106.723064,"station_id":"RW"},{"distance":1152,"transit":false,"is_transit":false,"time":4,"station_id":"BOI","station_name":"Bojongindah","i_long":106.737035,"line":5,"i_lat":-6.159876},{"time":2,"i_lat":-6.1587309999999995,"is_transit":false,"line":5,"station_name":"Taman Kota","transit":false,"i_long":106.756522,"distance":2334,"station_id":"TKO"},{"line":5,"station_id":"PSG","station_name":"Pesing","time":2,"transit":false,"is_transit":false,"i_long":106.771379,"distance":1614,"i_lat":-6.161433},{"transit":false,"i_long":106.788277,"station_id":"GGL","distance":2036,"station_name":"Grogol","is_transit":false,"i_lat":-6.162021,"line":5,"time":2},{"distance":1700,"time":3,"station_id":"DU","i_lat":-6.155215,"station_name":"Duri","i_long":106.800832,"is_transit":true,"transit":true,"line":1},{"station_name":"Tanah Abang","station_id":"THB","line":1,"time":8,"transit":false,"is_transit":false,"distance":3632,"i_lat":-6.185545,"i_long":106.811091},{"transit":false,"i_lat":-6.20132,"time":5,"station_id":"KAT","distance":2029,"line":1,"is_transit":false,"station_name":"Karet","i_long":106.816351},{"station_id":"SUDB","time":1,"station_name":"Sudirman Baru","transit":false,"is_transit":false,"i_lat":-6.201433,"i_long":106.819881,"distance":471,"line":1},{"station_id":"SUD","is_transit":false,"station_name":"Sudirman","transit":false,"time":1,"i_lat":-6.202263,"distance":280,"i_long":106.822649,"line":1},{"i_lat":-6.209883,"station_id":"MRI","line":2,"time":4,"transit":true,"distance":3186,"i_long":106.84912,"is_transit":true,"station_name":"Manggarai"},{"station_id":"CKI","is_transit":false,"time":4,"i_lat":-6.198556,"line":2,"transit":false,"i_long":106.840169,"distance":1590,"station_name":"Cikini"},{"time":3,"station_name":"Gondangdia","is_transit":false,"station_id":"GDD","i_lat":-6.186295,"line":2,"i_long":106.832183,"transit":false,"distance":1750},{"time":4,"station_id":"JUA","i_lat":-6.166716,"i_long":106.828284,"is_transit":false,"distance":2015,"station_name":"Juanda","transit":false,"line":2},{"is_transit":false,"time":2,"i_lat":-6.160725,"line":2,"transit":false,"station_id":"SW","i_long":106.827103,"station_name":"Sawah Besar","distance":1149},{"station_id":"MGB","i_lat":-6.149769,"time":2,"is_transit":false,"distance":906,"station_name":"Manggabesar","line":2,"transit":false,"i_long":106.82482},{"i_long":106.820901,"line":2,"station_id":"JAY","time":2,"is_transit":false,"distance":1080,"i_lat":-6.141205,"station_name":"Jayakarta","transit":false},{"i_lat":-6.137569,"transit":true,"line":2,"station_id":"JAKK","time":4,"is_transit":true,"distance":1264,"i_long":106.812439,"station_name":"Jakarta Kota"},{"line":4,"transit":true,"distance":1364,"time":3,"station_id":"KPB","i_long":106.826365,"station_name":"Kampung Bandan","i_lat":-6.132549,"is_transit":true},{"time":3,"transit":false,"is_transit":false,"i_long":106.836569,"station_name":"Rajawali","station_id":"RJW","distance":1444,"line":11,"i_lat":-6.14505},{"i_lat":-6.161728,"line":11,"time":5,"i_long":106.839204,"transit":false,"distance":1901,"station_name":"Kemayoran","is_transit":false,"station_id":"KMO"},{"distance":1436,"transit":false,"station_id":"PSE","time":4,"is_transit":false,"i_long":106.84368,"i_lat":-6.174784,"station_name":"Pasar Senen","line":11},{"is_transit":false,"line":11,"station_id":"GST","i_lat":-6.185975,"transit":false,"i_long":106.850107,"station_name":"Gang Sentiong","distance":1567,"time":8},{"i_lat":-6.193792,"is_transit":false,"line":11,"transit":false,"time":1,"distance":973,"station_id":"KMT","station_name":"Kramat","i_long":106.855437},{"station_id":"POK","time":2,"transit":false,"station_name":"Pondok Jati","i_long":106.861737,"distance":1829,"is_transit":false,"line":11,"i_lat":-6.209188},{"i_long":106.86807400000001,"is_transit":true,"time":9,"station_id":"JNG","station_name":"Jatinegara","i_lat":-6.215091,"line":1,"transit":true,"distance":1236},{"i_lat":-6.2135,"station_name":"Klender","time":3,"station_id":"KLD","transit":false,"is_transit":false,"i_long":106.899548,"distance":3395,"line":1},{"distance":3100,"line":1,"station_name":"Buaran","i_lat":-6.215568,"i_long":106.922662,"time":2,"transit":false,"is_transit":false,"station_id":"BUA"},{"i_long":106.939679,"station_id":"KLDB","transit":false,"i_lat":-6.217455,"time":1,"is_transit":false,"line":1,"station_name":"Klenderbaru","distance":1305},{"i_long":106.951283,"station_name":"Cakung","station_id":"CUK","transit":false,"i_lat":-6.219053,"time":8,"line":1,"distance":1385,"is_transit":false}]]}