{"data":[[{"time":0,"i_lat":-6.17331,"line":5,"transit":false,"distance":0,"i_long":106.64657,"station_name":"Tanah Tinggi","station_id":"TTI","is_transit":false},{"station_name":"Batuceper","i_lat":-6.171811,"i_long":106.665036,"station_id":"BPR","transit":false,"line":5,"time":3,"is_transit":false,"distance":2028},{"transit":false,"is_transit":false,"time":3,"i_long":106.679458,"station_name":"Poris","distance":1834,"station_id":"PI","i_lat":-6.169933,"line":5},{"line":5,"station_id":"KDS","station_name":"Kalideres","time":3,"transit":false,"i_lat":-6.166068,"i_long":106.701612,"is_transit":false,"distance":2548},{"station_name":"Rawa Buaya","line":5,"i_lat":-6.162758,"transit":false,"time":3,"station_id":"RW","is_transit":false,"distance":2504,"i_long":106.723064},{"is_transit":false,"station_name":"Bojongindah","distance":1152,"i_long":106.737035,"line":5,"station_id":"BOI","transit":false,"time":4,"i_lat":-6.159876},{"station_name":"Taman Kota","station_id":"TKO","distance":2334,"i_lat":-6.1587309999999995,"line":5,"transit":false,"is_transit":false,"time":2,"i_long":106.756522},{"time":2,"station_id":"PSG","distance":1614,"i_long":106.771379,"line":5,"station_name":"Pesing","is_transit":false,"i_lat":-6.161433,"transit":false},{"station_id":"GGL","i_long":106.788277,"is_transit":false,"distance":2036,"i_lat":-6.162021,"line":5,"transit":false,"station_name":"Grogol","time":2},{"distance":1700,"transit":true,"line":1,"i_long":106.800832,"time":3,"i_lat":-6.155215,"station_name":"Duri","station_id":"DU","is_transit":true},{"time":8,"i_long":106.811091,"transit":false,"line":1,"distance":3632,"station_id":"THB","station_name":"Tanah Abang","is_transit":false,"i_lat":-6.185545},{"is_transit":false,"time":5,"station_id":"KAT","distance":2029,"i_lat":-6.20132,"i_long":106.816351,"station_name":"Karet","line":1,"transit":false},{"transit":false,"distance":471,"i_long":106.819881,"station_id":"SUDB","is_transit":false,"time":1,"station_name":"Sudirman Baru","i_lat":-6.201433,"line":1},{"transit":false,"station_id":"SUD","station_name":"Sudirman","is_transit":false,"i_lat":-6.202263,"line":1,"i_long":106.822649,"distance":280,"time":1},{"station_name":"Manggarai","i_lat":-6.209883,"distance":3186,"line":2,"time":4,"transit":true,"i_long":106.84912,"is_transit":true,"station_id":"MRI"},{"is_transit":false,"station_id":"TEB","i_lat":-6.226659,"line":2,"transit":false,"time":4,"i_long":106.857948,"station_name":"Tebet","distance":2610},{"time":2,"station_id":"CW","transit":false,"station_name":"Cawang","is_transit":false,"i_lat":-6.242512,"line":2,"distance":1230,"i_long":106.856607},{"time":3,"i_lat":-6.255332,"is_transit":false,"distance":1546,"line":2,"transit":false,"i_long":106.85449,"station_id":"DRN","station_name":"Duren Kalibata"},{"station_id":"PSMB","i_lat":-6.263214,"is_transit":false,"i_long":106.851577,"line":2,"time":2,"station_name":"Pasar Minggu Baru","distance":824,"transit":false},{"station_id":"PSM","time":2,"transit":false,"is_transit":false,"i_long":106.843999,"station_name":"Pasar Minggu","distance":2380,"i_lat":-6.2842400000000005,"line":2}],[{"line":5,"distance":0,"time":0,"station_name":"Tanah Tinggi","station_id":"TTI","is_transit":false,"i_lat":-6.17331,"transit":false,"i_long":106.64657},{"is_transit":false,"line":5,"time":3,"i_lat":-6.171811,"i_long":106.665036,"station_name":"Batuceper","distance":2028,"transit":false,"station_id":"BPR"},{"station_id":"PI","distance":1834,"is_transit":false,"time":3,"i_lat":-6.169933,"station_name":"Poris","i_long":106.679458,"line":5,"transit":false},{"station_id":"KDS","i_lat":-6.166068,"transit":false,"station_name":"Kalideres","distance":2548,"time":3,"is_transit":false,"line":5,"i_long":106.701612},{"station_id":"RW","time":3,"i_long":106.723064,"transit":false,"line":5,"is_transit":false,"i_lat":-6.162758,"distance":2504,"station_name":"Rawa Buaya"},{"station_name":"Bojongindah","time":4,"distance":1152,"transit":false,"i_long":106.737035,"is_transit":false,"i_lat":-6.159876,"line":5,"station_id":"BOI"},{"transit":false,"is_transit":false,"station_id":"TKO","time":2,"station_name":"Taman Kota","distance":2334,"i_lat":-6.1587309999999995,"i_long":106.756522,"line":5},{"i_long":106.771379,"is_transit":false,"station_id":"PSG","time":2,"line":5,"transit":false,"i_lat":-6.161433,"distance":1614,"station_name":"Pesing"},{"station_id":"GGL","distance":2036,"time":2,"station_name":"Grogol","transit":false,"is_transit":false,"i_lat":-6.162021,"i_long":106.788277,"line":5},{"station_name":"Duri","time":3,"line":1,"transit":true,"station_id":"DU","i_lat":-6.155215,"is_transit":true,"i_long":106.800832,"distance":1700},{"station_id":"AK","i_lat":-6.144674,"transit":false,"i_long":106.79867,"time":4,"line":1,"is_transit":false,"distance":1230,"station_name":"Angke"},{"distance":4102,"line":4,"is_transit":true,"time":9,"transit":true,"i_lat":-6.132549,"i_long":106.826365,"station_id":"KPB","station_name":"Kampung Bandan"},{"i_long":106.812439,"line":2,"transit":true,"station_id":"JAKK","time":3,"i_lat":-6.137569,"station_name":"Jakarta Kota","distance":1364,"is_transit":true},{"station_id":"JAY","is_transit":false,"station_name":"Jayakarta","time":4,"i_long":106.820901,"distance":1264,"line":2,"transit":false,"i_lat":-6.141205},{"station_name":"Manggabesar","transit":false,"i_long":106.82482,"distance":1080,"station_id":"MGB","i_lat":-6.149769,"line":2,"time":2,"is_transit":false},{"i_lat":-6.160725,"is_transit":false,"time":2,"line":2,"transit":false,"i_long":106.827103,"station_name":"Sawah Besar","distance":906,"station_id":"SW"},{"i_lat":-6.166716,"i_long":106.828284,"line":2,"station_name":"Juanda","distance":1149,"transit":false,"station_id":"JUA","is_transit":false,"time":2},{"station_name":"Gondangdia","station_id":"GDD","is_transit":false,"transit":false,"i_lat":-6.186295,"line":2,"time":4,"i_long":106.832183,"distance":2015},{"transit":false,"line":2,"time":3,"is_transit":false,"i_long":106.840169,"distance":1750,"i_lat":-6.198556,"station_name":"Cikini","station_id":"CKI"},{"distance":1590,"station_name":"Manggarai","i_long":106.84912,"transit":false,"station_id":"MRI","time":4,"is_transit":false,"i_lat":-6.209883,"line":2},{"station_id":"TEB","station_name":"Tebet","distance":2610,"i_lat":-6.226659,"i_long":106.857948,"transit":false,"time":4,"line":2,"is_transit":false},{"transit":false,"i_long":106.856607,"station_name":"Cawang","station_id":"CW","is_transit":false,"i_lat":-6.242512,"time":2,"line":2,"distance":1230},{"i_long":106.85449,"is_transit":false,"line":2,"time":3,"station_id":"DRN","transit":false,"distance":1546,"i_lat":-6.255332,"station_name":"Duren Kalibata"},{"i_long":106.851577,"transit":false,"i_lat":-6.263214,"station_id":"PSMB","station_name":"Pasar Minggu Baru","is_transit":false,"time":2,"distance":824,"line":2},{"distance":2380,"line":2,"i_lat":-6.2842400000000005,"is_transit":false,"time":2,"station_name":"Pasar Minggu","transit":false,"station_id":"PSM","i_long":106.843999}],[{"line":5,"distance":0,"station_id":"TTI","i_long":106.64657,"i_lat":-6.17331,"station_name":"Tanah Tinggi","time":0,"transit":false,"is_transit":false},{"distance":2028,"station_name":"Batuceper","time":3,"transit":false,"i_lat":-6.171811,"i_long":106.665036,"station_id":"BPR","is_transit":false,"line":5},{"time":3,"station_name":"Poris","line":5,"is_transit":false,"i_lat":-6.169933,"transit":false,"station_id":"PI","distance":1834,"i_long":106.679458},{"time":3,"station_id":"KDS","transit":false,"is_transit":false,"line":5,"distance":2548,"i_lat":-6.166068,"i_long":106.701612,"station_name":"Kalideres"},{"distance":2504,"station_name":"Rawa Buaya","station_id":"RW","line":5,"i_lat":-6.162758,"time":3,"is_transit":false,"transit":false,"i_long":106.723064},{"transit":false,"station_id":"BOI","distance":1152,"time":4,"line":5,"station_name":"Bojongindah","i_long":106.737035,"is_transit":false,"i_lat":-6.159876},{"station_name":"Taman Kota","transit":false,"i_long":106.756522,"time":2,"is_transit":false,"distance":2334,"i_lat":-6.1587309999999995,"line":5,"station_id":"TKO"},{"is_transit":false,"i_long":106.771379,"line":5,"station_name":"Pesing","station_id":"PSG","time":2,"i_lat":-6.161433,"transit":false,"distance":1614},{"distance":2036,"i_lat":-6.162021,"i_long":106.788277,"station_id":"GGL","time":2,"station_name":"Grogol","line":5,"is_transit":false,"transit":false},{"transit":true,"is_transit":true,"time":3,"distance":1700,"i_long":106.800832,"station_id":"DU","i_lat":-6.155215,"line":1,"station_name":"Duri"},{"station_id":"AK","transit":false,"i_lat":-6.144674,"distance":1230,"is_transit":false,"i_long":106.79867,"line":1,"station_name":"Angke","time":4},{"station_id":"KPB","distance":4102,"i_long":106.826365,"transit":true,"line":4,"time":9,"i_lat":-6.132549,"station_name":"Kampung Bandan","is_transit":true},{"time":3,"station_name":"Rajawali","distance":1444,"line":11,"station_id":"RJW","transit":false,"is_transit":false,"i_lat":-6.14505,"i_long":106.836569},{"station_id":"KMO","line":11,"i_long":106.839204,"transit":false,"i_lat":-6.161728,"distance":1901,"is_transit":false,"station_name":"Kemayoran","time":5},{"station_id":"PSE","i_long":106.84368,"distance":1436,"transit":false,"station_name":"Pasar Senen","is_transit":false,"i_lat":-6.174784,"line":11,"time":4},{"is_transit":false,"time":8,"i_lat":-6.185975,"distance":1567,"station_name":"Gang Sentiong","line":11,"transit":false,"station_id":"GST","i_long":106.850107},{"time":1,"distance":973,"station_name":"Kramat","is_transit":false,"i_lat":-6.193792,"line":11,"station_id":"KMT","transit":false,"i_long":106.855437},{"station_name":"Pondok Jati","station_id":"POK","is_transit":false,"distance":1829,"i_long":106.861737,"i_lat":-6.209188,"line":11,"time":2,"transit":false},{"time":9,"distance":1236,"transit":true,"is_transit":true,"station_name":"Jatinegara","i_lat":-6.215091,"line":1,"station_id":"JNG","i_long":106.86807400000001},{"transit":false,"station_name":"Matraman","time":2,"i_lat":-6.212485,"station_id":"MTR","is_transit":false,"i_long":106.858896,"distance":1377,"line":1},{"i_lat":-6.209883,"distance":1275,"i_long":106.84912,"station_name":"Manggarai","time":2,"is_transit":true,"transit":true,"station_id":"MRI","line":2},{"line":2,"station_id":"TEB","is_transit":false,"transit":false,"station_name":"Tebet","i_lat":-6.226659,"distance":2610,"time":4,"i_long":106.857948},{"station_name":"Cawang","i_long":106.856607,"is_transit":false,"line":2,"transit":false,"station_id":"CW","distance":1230,"time":2,"i_lat":-6.242512},{"line":2,"is_transit":false,"i_long":106.85449,"time":3,"station_name":"Duren Kalibata","i_lat":-6.255332,"transit":false,"station_id":"DRN","distance":1546},{"time":2,"line":2,"station_name":"Pasar Minggu Baru","is_transit":false,"station_id":"PSMB","transit":false,"distance":824,"i_long":106.851577,"i_lat":-6.263214},{"station_id":"PSM","is_transit":false,"i_lat":-6.2842400000000005,"line":2,"station_name":"Pasar Minggu","i_long":106.843999,"transit":false,"distance":2380,"time":2}]]}