{"data":[[{"distance":0,"transit":false,"station_name":"Tanah Tinggi","i_lat":-6.17331,"i_long":106.64657,"time":0,"line":5,"station_id":"TTI","is_transit":false},{"time":3,"station_id":"BPR","i_lat":-6.171811,"line":5,"i_long":106.665036,"station_name":"Batuceper","is_transit":false,"transit":false,"distance":2028},{"station_id":"PI","i_lat":-6.169933,"i_long":106.679458,"line":5,"transit":false,"station_name":"Poris","time":3,"distance":1834,"is_transit":false},{"i_lat":-6.166068,"line":5,"station_id":"KDS","is_transit":false,"time":3,"transit":false,"distance":2548,"i_long":106.701612,"station_name":"Kalideres"},{"i_lat":-6.162758,"distance":2504,"station_id":"RW","line":5,"time":3,"i_long":106.723064,"is_transit":false,"station_name":"Rawa Buaya","transit":false},{"station_name":"Bojongindah","transit":false,"line":5,"distance":1152,"station_id":"BOI","i_long":106.737035,"i_lat":-6.159876,"time":4,"is_transit":false},{"transit":false,"is_transit":false,"time":2,"line":5,"distance":2334,"station_name":"Taman Kota","i_long":106.756522,"i_lat":-6.1587309999999995,"station_id":"TKO"},{"i_lat":-6.161433,"i_long":106.771379,"time":2,"is_transit":false,"transit":false,"station_name":"Pesing","station_id":"PSG","distance":1614,"line":5},{"i_long":106.788277,"line":5,"transit":false,"distance":2036,"i_lat":-6.162021,"station_name":"Grogol","is_transit":false,"station_id":"GGL","time":2},{"distance":1700,"transit":true,"is_transit":true,"i_lat":-6.155215,"i_long":106.800832,"station_id":"DU","time":3,"line":1,"station_name":"Duri"},{"is_transit":false,"i_long":106.811091,"station_id":"THB","line":1,"time":8,"transit":false,"station_name":"Tanah Abang","distance":3632,"i_lat":-6.185545},{"i_lat":-6.20132,"transit":false,"station_id":"KAT","distance":2029,"line":1,"station_name":"Karet","is_transit":false,"time":5,"i_long":106.816351},{"distance":471,"is_transit":false,"transit":false,"i_lat":-6.201433,"i_long":106.819881,"line":1,"time":1,"station_name":"Sudirman Baru","station_id":"SUDB"},{"time":1,"distance":280,"transit":false,"station_name":"Sudirman","line":1,"station_id":"SUD","i_long":106.822649,"is_transit":false,"i_lat":-6.202263},{"line":2,"transit":false,"station_name":"Manggarai","is_transit":false,"i_long":106.84912,"station_id":"MRI","distance":3186,"time":4,"i_lat":-6.209883},{"station_name":"Matraman","distance":1275,"station_id":"MTR","line":1,"time":2,"is_transit":false,"transit":false,"i_lat":-6.212485,"i_long":106.858896}],[{"distance":0,"i_long":106.64657,"station_id":"TTI","station_name":"Tanah Tinggi","transit":false,"time":0,"is_transit":false,"i_lat":-6.17331,"line":5},{"i_lat":-6.171811,"station_name":"Batuceper","time":3,"line":5,"transit":false,"distance":2028,"station_id":"BPR","is_transit":false,"i_long":106.665036},{"i_lat":-6.169933,"line":5,"station_name":"Poris","time":3,"transit":false,"i_long":106.679458,"is_transit":false,"station_id":"PI","distance":1834},{"transit":false,"station_name":"Kalideres","time":3,"distance":2548,"i_lat":-6.166068,"station_id":"KDS","i_long":106.701612,"is_transit":false,"line":5},{"i_lat":-6.162758,"line":5,"distance":2504,"time":3,"station_name":"Rawa Buaya","i_long":106.723064,"station_id":"RW","transit":false,"is_transit":false},{"distance":1152,"transit":false,"is_transit":false,"i_long":106.737035,"station_id":"BOI","line":5,"i_lat":-6.159876,"station_name":"Bojongindah","time":4},{"i_long":106.756522,"i_lat":-6.1587309999999995,"line":5,"is_transit":false,"station_id":"TKO","transit":false,"time":2,"station_name":"Taman Kota","distance":2334},{"is_transit":false,"time":2,"station_id":"PSG","i_long":106.771379,"distance":1614,"i_lat":-6.161433,"line":5,"transit":false,"station_name":"Pesing"},{"i_lat":-6.162021,"i_long":106.788277,"distance":2036,"station_id":"GGL","station_name":"Grogol","line":5,"transit":false,"is_transit":false,"time":2},{"is_transit":true,"time":3,"distance":1700,"transit":true,"line":1,"station_id":"DU","i_lat":-6.155215,"i_long":106.800832,"station_name":"Duri"},{"line":1,"station_name":"Angke","time":4,"transit":false,"distance":1230,"i_lat":-6.144674,"i_long":106.79867,"is_transit":false,"station_id":"AK"},{"distance":4102,"line":4,"i_lat":-6.132549,"transit":true,"time":9,"i_long":106.826365,"station_id":"KPB","station_name":"Kampung Bandan","is_transit":true},{"i_lat":-6.14505,"is_transit":false,"line":11,"distance":1444,"i_long":106.836569,"time":3,"station_name":"Rajawali","transit":false,"station_id":"RJW"},{"i_long":106.839204,"is_transit":false,"transit":false,"station_id":"KMO","station_name":"Kemayoran","i_lat":-6.161728,"time":5,"distance":1901,"line":11},{"time":4,"line":11,"distance":1436,"station_id":"PSE","i_lat":-6.174784,"i_long":106.84368,"is_transit":false,"transit":false,"station_name":"Pasar Senen"},{"i_lat":-6.185975,"station_name":"Gang Sentiong","transit":false,"distance":1567,"line":11,"i_long":106.850107,"is_transit":false,"station_id":"GST","time":8},{"time":1,"line":11,"station_name":"Kramat","i_long":106.855437,"transit":false,"station_id":"KMT","is_transit":false,"i_lat":-6.193792,"distance":973},{"station_id":"POK","is_transit":false,"i_long":106.861737,"time":2,"distance":1829,"line":11,"transit":false,"i_lat":-6.209188,"station_name":"Pondok Jati"},{"distance":1236,"station_name":"Jatinegara","line":1,"i_long":106.86807400000001,"station_id":"JNG","time":9,"transit":true,"is_transit":true,"i_lat":-6.215091},{"distance":1377,"is_transit":false,"line":1,"i_lat":-6.212485,"transit":false,"station_name":"Matraman","time":2,"station_id":"MTR","i_long":106.858896}],[{"distance":0,"station_name":"Tanah Tinggi","is_transit":false,"line":5,"transit":false,"time":0,"i_long":106.64657,"station_id":"TTI","i_lat":-6.17331},{"i_lat":-6.171811,"i_long":106.665036,"station_id":"BPR","line":5,"station_name":"Batuceper","is_transit":false,"distance":2028,"transit":false,"time":3},{"station_id":"PI","is_transit":false,"i_long":106.679458,"station_name":"Poris","line":5,"transit":false,"time":3,"distance":1834,"i_lat":-6.169933},{"station_name":"Kalideres","line":5,"transit":false,"distance":2548,"time":3,"station_id":"KDS","i_long":106.701612,"i_lat":-6.166068,"is_transit":false},{"distance":2504,"station_name":"Rawa Buaya","is_transit":false,"i_lat":-6.162758,"transit":false,"line":5,"time":3,"station_id":"RW","i_long":106.723064},{"i_long":106.737035,"time":4,"is_transit":false,"line":5,"transit":false,"distance":1152,"i_lat":-6.159876,"station_name":"Bojongindah","station_id":"BOI"},{"station_name":"Taman Kota","distance":2334,"station_id":"TKO","i_lat":-6.1587309999999995,"i_long":106.756522,"is_transit":false,"line":5,"time":2,"transit":false},{"is_transit":false,"line":5,"i_long":106.771379,"transit":false,"distance":1614,"station_name":"Pesing","i_lat":-6.161433,"time":2,"station_id":"PSG"},{"distance":2036,"station_name":"Grogol","i_long":106.788277,"station_id":"GGL","is_transit":false,"line":5,"time":2,"transit":false,"i_lat":-6.162021},{"station_name":"Duri","station_id":"DU","transit":true,"distance":1700,"is_transit":true,"i_lat":-6.155215,"i_long":106.800832,"time":3,"line":1},{"transit":false,"station_name":"Angke","distance":1230,"i_long":106.79867,"line":1,"time":4,"is_transit":false,"station_id":"AK","i_lat":-6.144674},{"station_id":"KPB","is_transit":true,"time":9,"transit":true,"i_long":106.826365,"station_name":"Kampung Bandan","i_lat":-6.132549,"distance":4102,"line":4},{"i_lat":-6.137569,"station_name":"Jakarta Kota","i_long":106.812439,"station_id":"JAKK","transit":true,"line":2,"time":3,"distance":1364,"is_transit":true},{"distance":1264,"i_long":106.820901,"station_id":"JAY","time":4,"i_lat":-6.141205,"line":2,"transit":false,"is_transit":false,"station_name":"Jayakarta"},{"i_lat":-6.149769,"i_long":106.82482,"is_transit":false,"time":2,"distance":1080,"station_name":"Manggabesar","line":2,"transit":false,"station_id":"MGB"},{"station_id":"SW","transit":false,"is_transit":false,"distance":906,"line":2,"time":2,"i_long":106.827103,"i_lat":-6.160725,"station_name":"Sawah Besar"},{"is_transit":false,"distance":1149,"i_lat":-6.166716,"station_name":"Juanda","i_long":106.828284,"line":2,"station_id":"JUA","time":2,"transit":false},{"transit":false,"station_id":"GDD","distance":2015,"i_lat":-6.186295,"station_name":"Gondangdia","time":4,"is_transit":false,"i_long":106.832183,"line":2},{"station_id":"CKI","distance":1750,"is_transit":false,"station_name":"Cikini","transit":false,"i_lat":-6.198556,"i_long":106.840169,"line":2,"time":3},{"transit":true,"line":2,"distance":1590,"i_long":106.84912,"station_id":"MRI","is_transit":true,"time":4,"station_name":"Manggarai","i_lat":-6.209883},{"i_long":106.858896,"is_transit":false,"station_id":"MTR","time":2,"station_name":"Matraman","line":1,"i_lat":-6.212485,"transit":false,"distance":1275}],[{"transit":false,"line":5,"station_name":"Tanah Tinggi","i_lat":-6.17331,"is_transit":false,"station_id":"TTI","i_long":106.64657,"distance":0,"time":0},{"i_long":106.665036,"i_lat":-6.171811,"is_transit":false,"transit":false,"station_name":"Batuceper","time":3,"line":5,"station_id":"BPR","distance":2028},{"i_long":106.679458,"line":5,"station_name":"Poris","is_transit":false,"time":3,"transit":false,"i_lat":-6.169933,"station_id":"PI","distance":1834},{"is_transit":false,"i_long":106.701612,"distance":2548,"station_id":"KDS","i_lat":-6.166068,"station_name":"Kalideres","transit":false,"line":5,"time":3},{"is_transit":false,"line":5,"time":3,"transit":false,"station_name":"Rawa Buaya","distance":2504,"station_id":"RW","i_lat":-6.162758,"i_long":106.723064},{"station_name":"Bojongindah","i_lat":-6.159876,"distance":1152,"station_id":"BOI","time":4,"is_transit":false,"transit":false,"i_long":106.737035,"line":5},{"distance":2334,"time":2,"is_transit":false,"transit":false,"line":5,"station_id":"TKO","station_name":"Taman Kota","i_lat":-6.1587309999999995,"i_long":106.756522},{"station_id":"PSG","is_transit":false,"time":2,"distance":1614,"i_long":106.771379,"line":5,"i_lat":-6.161433,"transit":false,"station_name":"Pesing"},{"i_long":106.788277,"distance":2036,"line":5,"station_name":"Grogol","time":2,"i_lat":-6.162021,"station_id":"GGL","transit":false,"is_transit":false},{"is_transit":true,"line":1,"i_long":106.800832,"station_id":"DU","i_lat":-6.155215,"transit":true,"station_name":"Duri","time":3,"distance":1700},{"station_id":"THB","station_name":"Tanah Abang","transit":false,"time":8,"distance":3632,"i_lat":-6.185545,"i_long":106.811091,"is_transit":false,"line":1},{"distance":2029,"line":1,"transit":false,"i_long":106.816351,"station_name":"Karet","station_id":"KAT","i_lat":-6.20132,"is_transit":false,"time":5},{"i_lat":-6.201433,"station_name":"Sudirman Baru","station_id":"SUDB","line":1,"time":1,"distance":471,"transit":false,"is_transit":false,"i_long":106.819881},{"is_transit":false,"time":1,"distance":280,"i_lat":-6.202263,"line":1,"station_id":"SUD","i_long":106.822649,"transit":false,"station_name":"Sudirman"},{"is_transit":true,"i_lat":-6.209883,"transit":true,"distance":3186,"station_name":"Manggarai","station_id":"MRI","i_long":106.84912,"time":4,"line":2},{"is_transit":false,"line":2,"station_name":"Cikini","i_lat":-6.198556,"station_id":"CKI","i_long":106.840169,"transit":false,"distance":1590,"time":4},{"transit":false,"is_transit":false,"distance":1750,"station_name":"Gondangdia","i_long":106.832183,"line":2,"station_id":"GDD","i_lat":-6.186295,"time":3},{"i_lat":-6.166716,"station_id":"JUA","is_transit":false,"distance":2015,"i_long":106.828284,"transit":false,"line":2,"station_name":"Juanda","time":4},{"line":2,"station_id":"SW","i_lat":-6.160725,"transit":false,"station_name":"Sawah Besar","is_transit":false,"distance":1149,"i_long":106.827103,"time":2},{"i_long":106.82482,"time":2,"transit":false,"i_lat":-6.149769,"station_name":"Manggabesar","station_id":"MGB","is_transit":false,"distance":906,"line":2},{"i_long":106.820901,"line":2,"time":2,"distance":1080,"transit":false,"station_name":"Jayakarta","is_transit":false,"i_lat":-6.141205,"station_id":"JAY"},{"transit":true,"i_lat":-6.137569,"time":4,"is_transit":true,"station_id":"JAKK","distance":1264,"i_long":106.812439,"line":2,"station_name":"Jakarta Kota"},{"i_lat":-6.132549,"distance":1364,"transit":true,"i_long":106.826365,"station_id":"KPB","is_transit":true,"line":4,"time":3,"station_name":"Kampung Bandan"},{"is_transit":false,"time":3,"i_lat":-6.14505,"i_long":106.836569,"line":11,"distance":1444,"station_name":"Rajawali","station_id":"RJW","transit":false},{"i_lat":-6.161728,"station_name":"Kemayoran","line":11,"i_long":106.839204,"is_transit":false,"transit":false,"time":5,"distance":1901,"station_id":"KMO"},{"station_id":"PSE","distance":1436,"is_transit":false,"i_lat":-6.174784,"i_long":106.84368,"transit":false,"station_name":"Pasar Senen","time":4,"line":11},{"i_long":106.850107,"transit":false,"station_name":"Gang Sentiong","distance":1567,"station_id":"GST","time":8,"i_lat":-6.185975,"is_transit":false,"line":11},{"distance":973,"station_id":"KMT","time":1,"i_long":106.855437,"station_name":"Kramat","i_lat":-6.193792,"is_transit":false,"line":11,"transit":false},{"transit":false,"is_transit":false,"time":2,"station_id":"POK","station_name":"Pondok Jati","i_long":106.861737,"distance":1829,"line":11,"i_lat":-6.209188},{"is_transit":true,"station_name":"Jatinegara","i_lat":-6.215091,"i_long":106.86807400000001,"station_id":"JNG","transit":true,"time":9,"distance":1236,"line":1},{"is_transit":false,"line":1,"time":2,"distance":1377,"station_name":"Matraman","transit":false,"station_id":"MTR","i_lat":-6.212485,"i_long":106.858896}]]}