{"data":[[{"i_lat":-6.17331,"time":0,"station_name":"Tanah Tinggi","station_id":"TTI","distance":0,"transit":false,"i_long":106.64657,"is_transit":false,"line":5},{"time":3,"station_id":"BPR","i_lat":-6.171811,"i_long":106.665036,"distance":2028,"is_transit":false,"line":5,"station_name":"Batuceper","transit":false},{"i_long":106.679458,"is_transit":false,"time":3,"i_lat":-6.169933,"station_name":"Poris","line":5,"distance":1834,"station_id":"PI","transit":false},{"i_lat":-6.166068,"distance":2548,"time":3,"i_long":106.701612,"transit":false,"station_id":"KDS","station_name":"Kalideres","line":5,"is_transit":false},{"distance":2504,"is_transit":false,"i_lat":-6.162758,"time":3,"station_name":"Rawa Buaya","i_long":106.723064,"transit":false,"line":5,"station_id":"RW"},{"transit":false,"distance":1152,"i_lat":-6.159876,"time":4,"station_name":"Bojongindah","line":5,"station_id":"BOI","i_long":106.737035,"is_transit":false},{"time":2,"i_lat":-6.1587309999999995,"distance":2334,"station_name":"Taman Kota","is_transit":false,"station_id":"TKO","i_long":106.756522,"transit":false,"line":5},{"station_id":"PSG","transit":false,"station_name":"Pesing","i_lat":-6.161433,"i_long":106.771379,"line":5,"distance":1614,"is_transit":false,"time":2},{"is_transit":false,"transit":false,"line":5,"station_name":"Grogol","i_long":106.788277,"i_lat":-6.162021,"time":2,"station_id":"GGL","distance":2036},{"transit":true,"i_long":106.800832,"distance":1700,"line":1,"time":3,"station_name":"Duri","i_lat":-6.155215,"is_transit":true,"station_id":"DU"},{"i_lat":-6.185545,"line":1,"time":8,"i_long":106.811091,"transit":false,"is_transit":false,"distance":3632,"station_name":"Tanah Abang","station_id":"THB"},{"distance":2029,"i_long":106.816351,"transit":false,"time":5,"is_transit":false,"station_name":"Karet","i_lat":-6.20132,"station_id":"KAT","line":1},{"transit":false,"station_name":"Sudirman Baru","line":1,"distance":471,"i_long":106.819881,"time":1,"i_lat":-6.201433,"is_transit":false,"station_id":"SUDB"},{"line":1,"station_id":"SUD","transit":false,"distance":280,"i_long":106.822649,"i_lat":-6.202263,"station_name":"Sudirman","is_transit":false,"time":1},{"time":4,"station_name":"Manggarai","i_lat":-6.209883,"i_long":106.84912,"is_transit":false,"line":2,"distance":3186,"station_id":"MRI","transit":false},{"time":2,"station_id":"MTR","is_transit":false,"station_name":"Matraman","i_lat":-6.212485,"i_long":106.858896,"line":1,"distance":1275,"transit":false},{"i_lat":-6.215091,"distance":1377,"line":1,"station_id":"JNG","is_transit":false,"time":8,"station_name":"Jatinegara","i_long":106.86807400000001,"transit":false},{"station_name":"Klender","distance":3395,"i_lat":-6.2135,"i_long":106.899548,"line":1,"station_id":"KLD","time":3,"transit":false,"is_transit":false},{"i_long":106.922662,"station_name":"Buaran","distance":3100,"line":1,"i_lat":-6.215568,"station_id":"BUA","is_transit":false,"time":2,"transit":false},{"i_long":106.939679,"line":1,"i_lat":-6.217455,"transit":false,"time":1,"station_name":"Klenderbaru","distance":1305,"station_id":"KLDB","is_transit":false}],[{"station_name":"Tanah Tinggi","station_id":"TTI","time":0,"transit":false,"is_transit":false,"i_lat":-6.17331,"i_long":106.64657,"line":5,"distance":0},{"transit":false,"i_lat":-6.171811,"time":3,"distance":2028,"i_long":106.665036,"station_id":"BPR","line":5,"station_name":"Batuceper","is_transit":false},{"is_transit":false,"i_long":106.679458,"transit":false,"station_id":"PI","i_lat":-6.169933,"line":5,"distance":1834,"station_name":"Poris","time":3},{"is_transit":false,"time":3,"i_long":106.701612,"line":5,"transit":false,"i_lat":-6.166068,"station_name":"Kalideres","distance":2548,"station_id":"KDS"},{"station_name":"Rawa Buaya","distance":2504,"i_lat":-6.162758,"station_id":"RW","i_long":106.723064,"line":5,"is_transit":false,"transit":false,"time":3},{"distance":1152,"transit":false,"line":5,"is_transit":false,"i_long":106.737035,"i_lat":-6.159876,"station_id":"BOI","station_name":"Bojongindah","time":4},{"transit":false,"time":2,"distance":2334,"i_long":106.756522,"line":5,"is_transit":false,"station_name":"Taman Kota","station_id":"TKO","i_lat":-6.1587309999999995},{"transit":false,"station_name":"Pesing","is_transit":false,"time":2,"i_lat":-6.161433,"i_long":106.771379,"line":5,"station_id":"PSG","distance":1614},{"line":5,"distance":2036,"is_transit":false,"i_lat":-6.162021,"station_name":"Grogol","station_id":"GGL","time":2,"transit":false,"i_long":106.788277},{"i_long":106.800832,"i_lat":-6.155215,"line":1,"station_name":"Duri","transit":true,"is_transit":true,"distance":1700,"time":3,"station_id":"DU"},{"time":4,"transit":false,"i_lat":-6.144674,"station_id":"AK","i_long":106.79867,"is_transit":false,"distance":1230,"line":1,"station_name":"Angke"},{"time":9,"transit":true,"station_name":"Kampung Bandan","station_id":"KPB","i_lat":-6.132549,"i_long":106.826365,"distance":4102,"line":4,"is_transit":true},{"station_id":"RJW","time":3,"i_long":106.836569,"station_name":"Rajawali","i_lat":-6.14505,"line":11,"is_transit":false,"distance":1444,"transit":false},{"station_id":"KMO","i_lat":-6.161728,"line":11,"time":5,"distance":1901,"station_name":"Kemayoran","transit":false,"i_long":106.839204,"is_transit":false},{"station_name":"Pasar Senen","station_id":"PSE","transit":false,"i_long":106.84368,"i_lat":-6.174784,"line":11,"is_transit":false,"distance":1436,"time":4},{"station_name":"Gang Sentiong","is_transit":false,"distance":1567,"station_id":"GST","time":8,"transit":false,"line":11,"i_long":106.850107,"i_lat":-6.185975},{"i_long":106.855437,"distance":973,"station_name":"Kramat","i_lat":-6.193792,"transit":false,"station_id":"KMT","is_transit":false,"line":11,"time":1},{"time":2,"station_id":"POK","station_name":"Pondok Jati","transit":false,"i_long":106.861737,"i_lat":-6.209188,"is_transit":false,"line":11,"distance":1829},{"i_lat":-6.215091,"line":1,"is_transit":true,"i_long":106.86807400000001,"station_id":"JNG","transit":true,"station_name":"Jatinegara","time":9,"distance":1236},{"station_name":"Klender","is_transit":false,"transit":false,"i_lat":-6.2135,"time":3,"distance":3395,"i_long":106.899548,"station_id":"KLD","line":1},{"is_transit":false,"station_id":"BUA","time":2,"transit":false,"i_long":106.922662,"distance":3100,"i_lat":-6.215568,"line":1,"station_name":"Buaran"},{"station_id":"KLDB","line":1,"distance":1305,"i_long":106.939679,"is_transit":false,"station_name":"Klenderbaru","time":1,"i_lat":-6.217455,"transit":false}],[{"station_id":"TTI","transit":false,"i_long":106.64657,"station_name":"Tanah Tinggi","time":0,"distance":0,"line":5,"is_transit":false,"i_lat":-6.17331},{"time":3,"line":5,"is_transit":false,"transit":false,"i_long":106.665036,"i_lat":-6.171811,"station_id":"BPR","distance":2028,"station_name":"Batuceper"},{"is_transit":false,"transit":false,"i_long":106.679458,"line":5,"distance":1834,"i_lat":-6.169933,"station_id":"PI","time":3,"station_name":"Poris"},{"is_transit":false,"transit":false,"station_id":"KDS","i_long":106.701612,"distance":2548,"time":3,"station_name":"Kalideres","i_lat":-6.166068,"line":5},{"station_id":"RW","i_long":106.723064,"time":3,"line":5,"distance":2504,"is_transit":false,"transit":false,"station_name":"Rawa Buaya","i_lat":-6.162758},{"station_id":"BOI","i_lat":-6.159876,"line":5,"i_long":106.737035,"station_name":"Bojongindah","is_transit":false,"time":4,"distance":1152,"transit":false},{"line":5,"time":2,"station_name":"Taman Kota","i_long":106.756522,"station_id":"TKO","is_transit":false,"distance":2334,"i_lat":-6.1587309999999995,"transit":false},{"time":2,"station_name":"Pesing","distance":1614,"transit":false,"line":5,"i_lat":-6.161433,"i_long":106.771379,"is_transit":false,"station_id":"PSG"},{"station_id":"GGL","transit":false,"station_name":"Grogol","line":5,"distance":2036,"time":2,"i_lat":-6.162021,"i_long":106.788277,"is_transit":false},{"distance":1700,"transit":true,"i_lat":-6.155215,"i_long":106.800832,"time":3,"line":1,"station_name":"Duri","is_transit":true,"station_id":"DU"},{"i_long":106.79867,"station_name":"Angke","distance":1230,"station_id":"AK","line":1,"i_lat":-6.144674,"transit":false,"time":4,"is_transit":false},{"transit":true,"i_lat":-6.132549,"station_name":"Kampung Bandan","is_transit":true,"time":9,"distance":4102,"i_long":106.826365,"line":4,"station_id":"KPB"},{"i_long":106.812439,"station_id":"JAKK","time":3,"transit":true,"line":2,"i_lat":-6.137569,"station_name":"Jakarta Kota","is_transit":true,"distance":1364},{"station_id":"JAY","time":4,"line":2,"is_transit":false,"distance":1264,"station_name":"Jayakarta","transit":false,"i_lat":-6.141205,"i_long":106.820901},{"time":2,"distance":1080,"transit":false,"i_lat":-6.149769,"station_id":"MGB","is_transit":false,"station_name":"Manggabesar","i_long":106.82482,"line":2},{"distance":906,"i_lat":-6.160725,"transit":false,"i_long":106.827103,"line":2,"station_name":"Sawah Besar","is_transit":false,"station_id":"SW","time":2},{"i_long":106.828284,"i_lat":-6.166716,"distance":1149,"transit":false,"line":2,"station_name":"Juanda","is_transit":false,"station_id":"JUA","time":2},{"i_long":106.832183,"line":2,"i_lat":-6.186295,"distance":2015,"station_name":"Gondangdia","station_id":"GDD","is_transit":false,"time":4,"transit":false},{"i_long":106.840169,"time":3,"line":2,"station_name":"Cikini","is_transit":false,"distance":1750,"transit":false,"i_lat":-6.198556,"station_id":"CKI"},{"i_long":106.84912,"line":2,"station_name":"Manggarai","station_id":"MRI","is_transit":true,"distance":1590,"transit":true,"time":4,"i_lat":-6.209883},{"station_name":"Matraman","is_transit":false,"distance":1275,"i_long":106.858896,"line":1,"time":2,"station_id":"MTR","transit":false,"i_lat":-6.212485},{"i_lat":-6.215091,"station_name":"Jatinegara","transit":false,"is_transit":false,"line":1,"i_long":106.86807400000001,"time":8,"station_id":"JNG","distance":1377},{"station_id":"KLD","i_long":106.899548,"time":3,"distance":3395,"transit":false,"i_lat":-6.2135,"is_transit":false,"station_name":"Klender","line":1},{"i_long":106.922662,"line":1,"transit":false,"station_id":"BUA","station_name":"Buaran","is_transit":false,"i_lat":-6.215568,"time":2,"distance":3100},{"time":1,"transit":false,"line":1,"is_transit":false,"distance":1305,"i_lat":-6.217455,"station_id":"KLDB","station_name":"Klenderbaru","i_long":106.939679}],[{"station_name":"Tanah Tinggi","distance":0,"station_id":"TTI","is_transit":false,"transit":false,"time":0,"i_long":106.64657,"line":5,"i_lat":-6.17331},{"distance":2028,"i_lat":-6.171811,"i_long":106.665036,"is_transit":false,"time":3,"station_id":"BPR","line":5,"transit":false,"station_name":"Batuceper"},{"is_transit":false,"station_name":"Poris","line":5,"i_long":106.679458,"i_lat":-6.169933,"time":3,"station_id":"PI","transit":false,"distance":1834},{"distance":2548,"i_lat":-6.166068,"station_id":"KDS","line":5,"is_transit":false,"transit":false,"i_long":106.701612,"time":3,"station_name":"Kalideres"},{"line":5,"station_id":"RW","i_long":106.723064,"distance":2504,"transit":false,"station_name":"Rawa Buaya","i_lat":-6.162758,"is_transit":false,"time":3},{"i_long":106.737035,"i_lat":-6.159876,"is_transit":false,"station_id":"BOI","line":5,"station_name":"Bojongindah","time":4,"distance":1152,"transit":false},{"is_transit":false,"station_id":"TKO","i_lat":-6.1587309999999995,"line":5,"i_long":106.756522,"time":2,"station_name":"Taman Kota","transit":false,"distance":2334},{"station_name":"Pesing","i_long":106.771379,"i_lat":-6.161433,"distance":1614,"station_id":"PSG","is_transit":false,"time":2,"transit":false,"line":5},{"line":5,"i_lat":-6.162021,"station_name":"Grogol","station_id":"GGL","distance":2036,"transit":false,"time":2,"i_long":106.788277,"is_transit":false},{"time":3,"station_id":"DU","i_lat":-6.155215,"is_transit":true,"line":1,"i_long":106.800832,"transit":true,"distance":1700,"station_name":"Duri"},{"transit":false,"time":8,"station_id":"THB","is_transit":false,"station_name":"Tanah Abang","line":1,"i_long":106.811091,"distance":3632,"i_lat":-6.185545},{"transit":false,"distance":2029,"i_lat":-6.20132,"station_name":"Karet","line":1,"is_transit":false,"station_id":"KAT","time":5,"i_long":106.816351},{"time":1,"station_name":"Sudirman Baru","is_transit":false,"i_long":106.819881,"transit":false,"i_lat":-6.201433,"distance":471,"station_id":"SUDB","line":1},{"station_name":"Sudirman","time":1,"transit":false,"line":1,"is_transit":false,"distance":280,"i_long":106.822649,"station_id":"SUD","i_lat":-6.202263},{"transit":true,"station_id":"MRI","station_name":"Manggarai","i_lat":-6.209883,"i_long":106.84912,"is_transit":true,"line":2,"time":4,"distance":3186},{"is_transit":false,"transit":false,"distance":1590,"i_lat":-6.198556,"line":2,"time":4,"i_long":106.840169,"station_id":"CKI","station_name":"Cikini"},{"time":3,"is_transit":false,"station_name":"Gondangdia","i_lat":-6.186295,"i_long":106.832183,"distance":1750,"transit":false,"station_id":"GDD","line":2},{"station_id":"JUA","time":4,"i_lat":-6.166716,"transit":false,"line":2,"i_long":106.828284,"station_name":"Juanda","is_transit":false,"distance":2015},{"transit":false,"station_id":"SW","station_name":"Sawah Besar","time":2,"i_long":106.827103,"distance":1149,"line":2,"is_transit":false,"i_lat":-6.160725},{"line":2,"is_transit":false,"i_lat":-6.149769,"distance":906,"station_name":"Manggabesar","transit":false,"i_long":106.82482,"station_id":"MGB","time":2},{"station_name":"Jayakarta","i_lat":-6.141205,"distance":1080,"station_id":"JAY","is_transit":false,"time":2,"i_long":106.820901,"transit":false,"line":2},{"i_lat":-6.137569,"i_long":106.812439,"distance":1264,"time":4,"is_transit":true,"station_name":"Jakarta Kota","transit":true,"line":2,"station_id":"JAKK"},{"is_transit":true,"distance":1364,"station_id":"KPB","transit":true,"i_long":106.826365,"line":4,"station_name":"Kampung Bandan","i_lat":-6.132549,"time":3},{"line":11,"i_long":106.836569,"is_transit":false,"distance":1444,"transit":false,"station_id":"RJW","time":3,"station_name":"Rajawali","i_lat":-6.14505},{"distance":1901,"transit":false,"is_transit":false,"i_lat":-6.161728,"i_long":106.839204,"time":5,"station_name":"Kemayoran","station_id":"KMO","line":11},{"distance":1436,"station_id":"PSE","time":4,"station_name":"Pasar Senen","is_transit":false,"transit":false,"line":11,"i_lat":-6.174784,"i_long":106.84368},{"station_id":"GST","is_transit":false,"i_lat":-6.185975,"distance":1567,"i_long":106.850107,"line":11,"transit":false,"station_name":"Gang Sentiong","time":8},{"transit":false,"line":11,"station_name":"Kramat","station_id":"KMT","distance":973,"is_transit":false,"i_lat":-6.193792,"i_long":106.855437,"time":1},{"distance":1829,"station_id":"POK","transit":false,"station_name":"Pondok Jati","time":2,"i_lat":-6.209188,"i_long":106.861737,"line":11,"is_transit":false},{"i_long":106.86807400000001,"line":1,"station_id":"JNG","is_transit":true,"station_name":"Jatinegara","time":9,"distance":1236,"transit":true,"i_lat":-6.215091},{"transit":false,"is_transit":false,"distance":3395,"station_name":"Klender","i_lat":-6.2135,"i_long":106.899548,"station_id":"KLD","line":1,"time":3},{"i_lat":-6.215568,"station_name":"Buaran","is_transit":false,"time":2,"distance":3100,"i_long":106.922662,"line":1,"transit":false,"station_id":"BUA"},{"time":1,"transit":false,"station_name":"Klenderbaru","i_lat":-6.217455,"is_transit":false,"distance":1305,"line":1,"station_id":"KLDB","i_long":106.939679}]]}