{"data":[[{"station_id":"TTI","distance":0,"is_transit":false,"i_lat":-6.17331,"i_long":106.64657,"transit":false,"time":0,"line":5,"station_name":"Tanah Tinggi"},{"i_long":106.665036,"line":5,"i_lat":-6.171811,"is_transit":false,"time":3,"station_id":"BPR","distance":2028,"station_name":"Batuceper","transit":false},{"i_long":106.679458,"line":5,"distance":1834,"i_lat":-6.169933,"is_transit":false,"station_name":"Poris","station_id":"PI","transit":false,"time":3},{"i_lat":-6.166068,"i_long":106.701612,"time":3,"station_name":"Kalideres","station_id":"KDS","distance":2548,"line":5,"transit":false,"is_transit":false},{"transit":false,"line":5,"station_id":"RW","distance":2504,"is_transit":false,"station_name":"Rawa Buaya","i_lat":-6.162758,"time":3,"i_long":106.723064},{"transit":false,"time":4,"i_lat":-6.159876,"i_long":106.737035,"distance":1152,"is_transit":false,"station_name":"Bojongindah","station_id":"BOI","line":5},{"station_id":"TKO","distance":2334,"line":5,"time":2,"i_long":106.756522,"station_name":"Taman Kota","is_transit":false,"i_lat":-6.1587309999999995,"transit":false},{"line":5,"i_long":106.771379,"station_name":"Pesing","distance":1614,"i_lat":-6.161433,"is_transit":false,"time":2,"transit":false,"station_id":"PSG"},{"transit":false,"i_long":106.788277,"station_id":"GGL","is_transit":false,"line":5,"distance":2036,"time":2,"i_lat":-6.162021,"station_name":"Grogol"},{"is_transit":true,"i_lat":-6.155215,"i_long":106.800832,"line":1,"station_id":"DU","time":3,"station_name":"Duri","transit":true,"distance":1700},{"time":8,"i_long":106.811091,"line":1,"distance":3632,"is_transit":true,"station_id":"THB","i_lat":-6.185545,"station_name":"Tanah Abang","transit":true},{"station_name":"Palmerah","i_long":106.79689,"line":6,"distance":3191,"time":6,"transit":false,"i_lat":-6.207404,"is_transit":false,"station_id":"PLM"},{"station_name":"Kebayoran","time":7,"line":6,"i_lat":-6.237242,"transit":false,"distance":3737,"is_transit":false,"i_long":106.780334,"station_id":"KBY"},{"distance":6218,"station_id":"PDJ","station_name":"Pondokranji","i_lat":-6.276362,"is_transit":false,"transit":false,"i_long":106.74273,"line":6,"time":8},{"station_id":"JMU","time":3,"transit":false,"i_long":106.728916,"is_transit":false,"line":6,"station_name":"Jurangmangu","distance":2179,"i_lat":-6.288927},{"distance":1994,"time":4,"is_transit":false,"station_name":"Sudimara","station_id":"SDM","line":6,"i_long":106.712277,"transit":false,"i_lat":-6.296963},{"transit":false,"time":6,"station_name":"Rawa Buntu","station_id":"RU","distance":4566,"line":6,"is_transit":false,"i_lat":-6.314823,"i_long":106.675475},{"i_long":106.66566,"transit":false,"station_id":"SRP","time":4,"is_transit":false,"i_lat":-6.319871,"distance":2413,"line":6,"station_name":"Serpong"},{"i_long":106.640411,"line":3,"distance":1784,"station_name":"Cisauk","time":4,"transit":false,"is_transit":false,"station_id":"CSK","i_lat":-6.32484},{"distance":2519,"station_id":"CC","transit":false,"i_long":106.617853,"line":3,"station_name":"Cicayur","is_transit":false,"i_lat":-6.329547,"time":4},{"is_transit":false,"i_lat":-6.3441410000000005,"station_id":"PRP","transit":false,"line":6,"distance":5968,"i_long":106.568863,"time":8,"station_name":"Parung Panjang"},{"i_lat":-6.354349,"line":3,"time":9,"distance":7025,"transit":false,"station_id":"CJT","is_transit":false,"i_long":106.508482,"station_name":"Cilejit"},{"distance":2675,"i_long":106.491338,"is_transit":false,"time":6,"station_name":"Daru","i_lat":-6.338021,"line":0,"station_id":"DAR","transit":false},{"distance":3902,"transit":false,"is_transit":false,"i_long":106.460812,"line":6,"time":5,"station_name":"Tenjo","i_lat":-6.327251,"station_id":"TEJ"},{"i_lat":-6.328533,"transit":false,"i_long":106.425991,"station_id":"TGS","time":5,"line":6,"is_transit":false,"station_name":"Tigaraksa","distance":2974},{"station_name":"Cikoya","is_transit":false,"distance":2651,"station_id":"CKY","line":3,"time":3,"transit":false,"i_long":106.411216,"i_lat":-6.33561},{"time":4,"i_long":106.394373,"i_lat":-6.332307,"station_name":"Maja","distance":1853,"station_id":"MJ","is_transit":false,"transit":false,"line":6},{"distance":7293,"i_long":106.332092,"station_name":"Citeras","line":3,"i_lat":-6.334892,"is_transit":false,"station_id":"CTR","time":10,"transit":false}],[{"time":0,"transit":false,"i_long":106.64657,"station_id":"TTI","station_name":"Tanah Tinggi","is_transit":false,"i_lat":-6.17331,"distance":0,"line":5},{"transit":false,"time":3,"distance":2028,"i_lat":-6.171811,"station_id":"BPR","i_long":106.665036,"station_name":"Batuceper","line":5,"is_transit":false},{"time":3,"distance":1834,"station_id":"PI","transit":false,"is_transit":false,"i_lat":-6.169933,"line":5,"station_name":"Poris","i_long":106.679458},{"distance":2548,"transit":false,"i_lat":-6.166068,"station_id":"KDS","i_long":106.701612,"line":5,"is_transit":false,"station_name":"Kalideres","time":3},{"i_long":106.723064,"station_id":"RW","time":3,"transit":false,"distance":2504,"station_name":"Rawa Buaya","is_transit":false,"i_lat":-6.162758,"line":5},{"transit":false,"i_long":106.737035,"is_transit":false,"distance":1152,"i_lat":-6.159876,"station_id":"BOI","time":4,"station_name":"Bojongindah","line":5},{"is_transit":false,"i_lat":-6.1587309999999995,"line":5,"station_id":"TKO","i_long":106.756522,"station_name":"Taman Kota","time":2,"distance":2334,"transit":false},{"line":5,"transit":false,"i_long":106.771379,"i_lat":-6.161433,"time":2,"station_id":"PSG","distance":1614,"station_name":"Pesing","is_transit":false},{"station_name":"Grogol","station_id":"GGL","i_lat":-6.162021,"transit":false,"i_long":106.788277,"time":2,"distance":2036,"line":5,"is_transit":false},{"time":3,"transit":true,"is_transit":true,"distance":1700,"station_id":"DU","i_lat":-6.155215,"station_name":"Duri","line":1,"i_long":106.800832},{"distance":1230,"time":4,"is_transit":false,"i_lat":-6.144674,"line":1,"station_name":"Angke","station_id":"AK","transit":false,"i_long":106.79867},{"distance":4102,"transit":true,"station_id":"KPB","is_transit":true,"i_lat":-6.132549,"i_long":106.826365,"line":4,"station_name":"Kampung Bandan","time":9},{"time":3,"transit":true,"distance":1364,"station_name":"Jakarta Kota","station_id":"JAKK","i_lat":-6.137569,"i_long":106.812439,"line":2,"is_transit":true},{"station_name":"Jayakarta","transit":false,"station_id":"JAY","i_long":106.820901,"distance":1264,"is_transit":false,"i_lat":-6.141205,"time":4,"line":2},{"station_id":"MGB","distance":1080,"transit":false,"time":2,"is_transit":false,"station_name":"Manggabesar","i_long":106.82482,"line":2,"i_lat":-6.149769},{"transit":false,"time":2,"line":2,"station_id":"SW","distance":906,"i_lat":-6.160725,"is_transit":false,"station_name":"Sawah Besar","i_long":106.827103},{"is_transit":false,"line":2,"station_id":"JUA","i_lat":-6.166716,"time":2,"i_long":106.828284,"transit":false,"distance":1149,"station_name":"Juanda"},{"time":4,"i_lat":-6.186295,"is_transit":false,"distance":2015,"i_long":106.832183,"station_id":"GDD","line":2,"station_name":"Gondangdia","transit":false},{"time":3,"station_name":"Cikini","distance":1750,"is_transit":false,"i_lat":-6.198556,"i_long":106.840169,"line":2,"station_id":"CKI","transit":false},{"time":4,"transit":true,"i_lat":-6.209883,"line":2,"station_name":"Manggarai","distance":1590,"i_long":106.84912,"station_id":"MRI","is_transit":true},{"transit":false,"time":4,"is_transit":false,"i_long":106.822649,"station_id":"SUD","line":1,"i_lat":-6.202263,"station_name":"Sudirman","distance":3186},{"distance":280,"transit":false,"station_id":"SUDB","time":1,"line":1,"i_lat":-6.201433,"is_transit":false,"station_name":"Sudirman Baru","i_long":106.819881},{"station_id":"KAT","station_name":"Karet","transit":false,"i_lat":-6.20132,"is_transit":false,"line":1,"time":1,"distance":471,"i_long":106.816351},{"i_long":106.811091,"distance":2029,"station_id":"THB","time":5,"line":1,"station_name":"Tanah Abang","is_transit":true,"i_lat":-6.185545,"transit":true},{"station_name":"Palmerah","station_id":"PLM","i_lat":-6.207404,"i_long":106.79689,"line":6,"distance":3191,"is_transit":false,"transit":false,"time":6},{"distance":3737,"line":6,"i_long":106.780334,"transit":false,"station_name":"Kebayoran","station_id":"KBY","i_lat":-6.237242,"time":7,"is_transit":false},{"station_name":"Pondokranji","station_id":"PDJ","transit":false,"i_lat":-6.276362,"distance":6218,"i_long":106.74273,"time":8,"line":6,"is_transit":false},{"i_lat":-6.288927,"distance":2179,"time":3,"line":6,"station_id":"JMU","is_transit":false,"transit":false,"station_name":"Jurangmangu","i_long":106.728916},{"time":4,"distance":1994,"transit":false,"station_id":"SDM","i_long":106.712277,"line":6,"i_lat":-6.296963,"station_name":"Sudimara","is_transit":false},{"time":6,"distance":4566,"station_name":"Rawa Buntu","i_long":106.675475,"transit":false,"is_transit":false,"i_lat":-6.314823,"station_id":"RU","line":6},{"i_long":106.66566,"time":4,"line":6,"distance":2413,"transit":false,"is_transit":false,"i_lat":-6.319871,"station_name":"Serpong","station_id":"SRP"},{"distance":1784,"i_lat":-6.32484,"is_transit":false,"i_long":106.640411,"line":3,"time":4,"station_name":"Cisauk","station_id":"CSK","transit":false},{"distance":2519,"i_lat":-6.329547,"i_long":106.617853,"time":4,"transit":false,"is_transit":false,"line":3,"station_id":"CC","station_name":"Cicayur"},{"time":8,"i_long":106.568863,"distance":5968,"station_id":"PRP","i_lat":-6.3441410000000005,"transit":false,"line":6,"is_transit":false,"station_name":"Parung Panjang"},{"transit":false,"station_id":"CJT","time":9,"i_lat":-6.354349,"line":3,"distance":7025,"i_long":106.508482,"station_name":"Cilejit","is_transit":false},{"distance":2675,"transit":false,"station_id":"DAR","station_name":"Daru","i_long":106.491338,"time":6,"is_transit":false,"i_lat":-6.338021,"line":0},{"line":6,"time":5,"i_long":106.460812,"is_transit":false,"distance":3902,"i_lat":-6.327251,"station_name":"Tenjo","station_id":"TEJ","transit":false},{"i_lat":-6.328533,"line":6,"i_long":106.425991,"station_name":"Tigaraksa","is_transit":false,"distance":2974,"station_id":"TGS","transit":false,"time":5},{"distance":2651,"line":3,"station_id":"CKY","transit":false,"is_transit":false,"i_lat":-6.33561,"i_long":106.411216,"time":3,"station_name":"Cikoya"},{"i_lat":-6.332307,"distance":1853,"time":4,"station_name":"Maja","station_id":"MJ","transit":false,"line":6,"is_transit":false,"i_long":106.394373},{"distance":7293,"i_lat":-6.334892,"time":10,"line":3,"transit":false,"station_id":"CTR","is_transit":false,"i_long":106.332092,"station_name":"Citeras"}],[{"is_transit":false,"i_long":106.64657,"transit":false,"station_id":"TTI","station_name":"Tanah Tinggi","i_lat":-6.17331,"line":5,"time":0,"distance":0},{"i_lat":-6.171811,"time":3,"i_long":106.665036,"distance":2028,"station_name":"Batuceper","station_id":"BPR","transit":false,"is_transit":false,"line":5},{"time":3,"distance":1834,"station_name":"Poris","i_lat":-6.169933,"is_transit":false,"line":5,"station_id":"PI","transit":false,"i_long":106.679458},{"time":3,"line":5,"transit":false,"i_lat":-6.166068,"is_transit":false,"station_name":"Kalideres","i_long":106.701612,"station_id":"KDS","distance":2548},{"station_id":"RW","transit":false,"is_transit":false,"i_lat":-6.162758,"i_long":106.723064,"distance":2504,"station_name":"Rawa Buaya","line":5,"time":3},{"station_id":"BOI","distance":1152,"station_name":"Bojongindah","is_transit":false,"i_lat":-6.159876,"time":4,"transit":false,"i_long":106.737035,"line":5},{"distance":2334,"transit":false,"i_lat":-6.1587309999999995,"line":5,"time":2,"station_id":"TKO","is_transit":false,"station_name":"Taman Kota","i_long":106.756522},{"i_lat":-6.161433,"station_name":"Pesing","distance":1614,"station_id":"PSG","transit":false,"is_transit":false,"line":5,"time":2,"i_long":106.771379},{"station_name":"Grogol","time":2,"line":5,"distance":2036,"transit":false,"is_transit":false,"i_lat":-6.162021,"i_long":106.788277,"station_id":"GGL"},{"time":3,"i_lat":-6.155215,"station_id":"DU","transit":true,"station_name":"Duri","distance":1700,"i_long":106.800832,"line":1,"is_transit":true},{"station_name":"Angke","time":4,"distance":1230,"is_transit":false,"i_long":106.79867,"station_id":"AK","transit":false,"i_lat":-6.144674,"line":1},{"time":9,"is_transit":true,"station_id":"KPB","line":4,"distance":4102,"transit":true,"i_lat":-6.132549,"station_name":"Kampung Bandan","i_long":106.826365},{"station_id":"RJW","i_long":106.836569,"is_transit":false,"distance":1444,"i_lat":-6.14505,"line":11,"time":3,"station_name":"Rajawali","transit":false},{"transit":false,"is_transit":false,"time":5,"distance":1901,"station_id":"KMO","i_lat":-6.161728,"i_long":106.839204,"line":11,"station_name":"Kemayoran"},{"i_long":106.84368,"line":11,"time":4,"station_id":"PSE","station_name":"Pasar Senen","transit":false,"is_transit":false,"distance":1436,"i_lat":-6.174784},{"is_transit":false,"i_lat":-6.185975,"time":8,"distance":1567,"i_long":106.850107,"transit":false,"line":11,"station_name":"Gang Sentiong","station_id":"GST"},{"distance":973,"station_id":"KMT","time":1,"transit":false,"station_name":"Kramat","is_transit":false,"i_long":106.855437,"line":11,"i_lat":-6.193792},{"distance":1829,"time":2,"is_transit":false,"station_name":"Pondok Jati","i_lat":-6.209188,"line":11,"i_long":106.861737,"station_id":"POK","transit":false},{"distance":1236,"time":9,"is_transit":true,"transit":true,"station_id":"JNG","i_lat":-6.215091,"i_long":106.86807400000001,"line":1,"station_name":"Jatinegara"},{"distance":1377,"i_lat":-6.212485,"is_transit":false,"i_long":106.858896,"line":1,"station_id":"MTR","time":2,"station_name":"Matraman","transit":false},{"station_id":"MRI","station_name":"Manggarai","line":2,"i_lat":-6.209883,"time":2,"distance":1275,"i_long":106.84912,"transit":false,"is_transit":false},{"line":1,"i_long":106.822649,"time":4,"transit":false,"distance":3186,"station_name":"Sudirman","station_id":"SUD","is_transit":false,"i_lat":-6.202263},{"i_lat":-6.201433,"i_long":106.819881,"is_transit":false,"time":1,"transit":false,"distance":280,"station_name":"Sudirman Baru","station_id":"SUDB","line":1},{"i_lat":-6.20132,"station_id":"KAT","distance":471,"is_transit":false,"transit":false,"i_long":106.816351,"time":1,"line":1,"station_name":"Karet"},{"station_id":"THB","is_transit":true,"line":1,"station_name":"Tanah Abang","time":5,"distance":2029,"i_lat":-6.185545,"transit":true,"i_long":106.811091},{"line":6,"i_lat":-6.207404,"i_long":106.79689,"time":6,"is_transit":false,"station_name":"Palmerah","transit":false,"station_id":"PLM","distance":3191},{"i_lat":-6.237242,"station_id":"KBY","transit":false,"distance":3737,"i_long":106.780334,"is_transit":false,"line":6,"time":7,"station_name":"Kebayoran"},{"transit":false,"time":8,"distance":6218,"station_id":"PDJ","line":6,"i_long":106.74273,"i_lat":-6.276362,"is_transit":false,"station_name":"Pondokranji"},{"time":3,"station_id":"JMU","i_lat":-6.288927,"station_name":"Jurangmangu","transit":false,"is_transit":false,"line":6,"distance":2179,"i_long":106.728916},{"transit":false,"distance":1994,"line":6,"time":4,"station_name":"Sudimara","i_long":106.712277,"station_id":"SDM","is_transit":false,"i_lat":-6.296963},{"line":6,"time":6,"station_id":"RU","distance":4566,"station_name":"Rawa Buntu","transit":false,"is_transit":false,"i_lat":-6.314823,"i_long":106.675475},{"i_long":106.66566,"line":6,"time":4,"station_id":"SRP","distance":2413,"i_lat":-6.319871,"transit":false,"is_transit":false,"station_name":"Serpong"},{"station_name":"Cisauk","time":4,"distance":1784,"i_lat":-6.32484,"i_long":106.640411,"transit":false,"station_id":"CSK","is_transit":false,"line":3},{"time":4,"is_transit":false,"i_lat":-6.329547,"i_long":106.617853,"station_name":"Cicayur","distance":2519,"transit":false,"station_id":"CC","line":3},{"i_long":106.568863,"station_name":"Parung Panjang","distance":5968,"is_transit":false,"time":8,"transit":false,"i_lat":-6.3441410000000005,"line":6,"station_id":"PRP"},{"is_transit":false,"station_id":"CJT","line":3,"i_lat":-6.354349,"i_long":106.508482,"time":9,"distance":7025,"station_name":"Cilejit","transit":false},{"i_long":106.491338,"distance":2675,"time":6,"is_transit":false,"station_id":"DAR","line":0,"station_name":"Daru","transit":false,"i_lat":-6.338021},{"transit":false,"station_id":"TEJ","time":5,"line":6,"i_long":106.460812,"distance":3902,"is_transit":false,"station_name":"Tenjo","i_lat":-6.327251},{"station_id":"TGS","distance":2974,"is_transit":false,"i_lat":-6.328533,"station_name":"Tigaraksa","time":5,"transit":false,"i_long":106.425991,"line":6},{"i_long":106.411216,"is_transit":false,"distance":2651,"line":3,"i_lat":-6.33561,"station_id":"CKY","station_name":"Cikoya","transit":false,"time":3},{"line":6,"station_name":"Maja","time":4,"distance":1853,"station_id":"MJ","is_transit":false,"i_long":106.394373,"i_lat":-6.332307,"transit":false},{"i_long":106.332092,"station_id":"CTR","line":3,"station_name":"Citeras","transit":false,"is_transit":false,"distance":7293,"i_lat":-6.334892,"time":10}]]}