{"data":[[{"station_name":"Tanah Tinggi","is_transit":false,"distance":0,"time":0,"station_id":"TTI","transit":false,"i_long":106.64657,"line":5,"i_lat":-6.17331},{"station_id":"BPR","is_transit":false,"station_name":"Batuceper","distance":2028,"transit":false,"i_lat":-6.171811,"line":5,"time":3,"i_long":106.665036},{"station_id":"PI","station_name":"Poris","distance":1834,"time":3,"is_transit":false,"i_lat":-6.169933,"i_long":106.679458,"line":5,"transit":false},{"distance":2548,"transit":false,"i_lat":-6.166068,"station_name":"Kalideres","station_id":"KDS","line":5,"time":3,"i_long":106.701612,"is_transit":false},{"transit":false,"line":5,"distance":2504,"station_id":"RW","is_transit":false,"time":3,"i_lat":-6.162758,"station_name":"Rawa Buaya","i_long":106.723064},{"i_long":106.737035,"is_transit":false,"station_name":"Bojongindah","station_id":"BOI","time":4,"line":5,"transit":false,"distance":1152,"i_lat":-6.159876},{"station_name":"Taman Kota","i_lat":-6.1587309999999995,"distance":2334,"station_id":"TKO","time":2,"line":5,"transit":false,"is_transit":false,"i_long":106.756522},{"station_name":"Pesing","transit":false,"i_lat":-6.161433,"i_long":106.771379,"line":5,"is_transit":false,"distance":1614,"station_id":"PSG","time":2},{"station_id":"GGL","i_long":106.788277,"transit":false,"is_transit":false,"i_lat":-6.162021,"line":5,"distance":2036,"time":2,"station_name":"Grogol"},{"distance":1700,"transit":true,"i_lat":-6.155215,"station_name":"Duri","i_long":106.800832,"time":3,"is_transit":true,"station_id":"DU","line":1},{"transit":false,"i_long":106.811091,"distance":3632,"i_lat":-6.185545,"is_transit":false,"line":1,"station_name":"Tanah Abang","time":8,"station_id":"THB"},{"transit":false,"station_name":"Karet","distance":2029,"time":5,"station_id":"KAT","is_transit":false,"line":1,"i_long":106.816351,"i_lat":-6.20132},{"line":1,"i_lat":-6.201433,"transit":false,"is_transit":false,"station_id":"SUDB","station_name":"Sudirman Baru","distance":471,"time":1,"i_long":106.819881},{"station_id":"SUD","time":1,"distance":280,"i_lat":-6.202263,"i_long":106.822649,"transit":false,"line":1,"is_transit":false,"station_name":"Sudirman"},{"is_transit":false,"time":4,"distance":3186,"station_name":"Manggarai","i_lat":-6.209883,"transit":false,"i_long":106.84912,"line":2,"station_id":"MRI"},{"transit":false,"is_transit":false,"i_long":106.858896,"distance":1275,"station_id":"MTR","station_name":"Matraman","time":2,"i_lat":-6.212485,"line":1},{"is_transit":false,"i_lat":-6.215091,"station_id":"JNG","distance":1377,"transit":false,"station_name":"Jatinegara","i_long":106.86807400000001,"line":1,"time":8},{"i_long":106.899548,"station_name":"Klender","transit":false,"i_lat":-6.2135,"is_transit":false,"distance":3395,"station_id":"KLD","time":3,"line":1},{"distance":3100,"time":2,"is_transit":false,"line":1,"i_long":106.922662,"station_id":"BUA","station_name":"Buaran","transit":false,"i_lat":-6.215568},{"transit":false,"is_transit":false,"distance":1305,"i_long":106.939679,"line":1,"time":1,"i_lat":-6.217455,"station_id":"KLDB","station_name":"Klenderbaru"},{"is_transit":false,"distance":1385,"i_lat":-6.219053,"i_long":106.951283,"station_name":"Cakung","line":1,"time":8,"transit":false,"station_id":"CUK"}],[{"i_lat":-6.17331,"is_transit":false,"station_name":"Tanah Tinggi","distance":0,"i_long":106.64657,"line":5,"time":0,"transit":false,"station_id":"TTI"},{"transit":false,"time":3,"station_id":"BPR","distance":2028,"i_lat":-6.171811,"line":5,"station_name":"Batuceper","is_transit":false,"i_long":106.665036},{"i_long":106.679458,"station_id":"PI","i_lat":-6.169933,"is_transit":false,"station_name":"Poris","transit":false,"line":5,"time":3,"distance":1834},{"i_lat":-6.166068,"station_id":"KDS","i_long":106.701612,"station_name":"Kalideres","line":5,"transit":false,"is_transit":false,"time":3,"distance":2548},{"is_transit":false,"station_id":"RW","line":5,"time":3,"transit":false,"i_lat":-6.162758,"distance":2504,"i_long":106.723064,"station_name":"Rawa Buaya"},{"transit":false,"is_transit":false,"line":5,"i_lat":-6.159876,"distance":1152,"station_name":"Bojongindah","i_long":106.737035,"time":4,"station_id":"BOI"},{"transit":false,"distance":2334,"station_id":"TKO","station_name":"Taman Kota","is_transit":false,"i_long":106.756522,"time":2,"i_lat":-6.1587309999999995,"line":5},{"transit":false,"is_transit":false,"i_long":106.771379,"station_id":"PSG","i_lat":-6.161433,"distance":1614,"station_name":"Pesing","line":5,"time":2},{"time":2,"station_id":"GGL","transit":false,"is_transit":false,"station_name":"Grogol","distance":2036,"i_long":106.788277,"i_lat":-6.162021,"line":5},{"is_transit":true,"i_lat":-6.155215,"transit":true,"i_long":106.800832,"line":1,"time":3,"station_id":"DU","station_name":"Duri","distance":1700},{"transit":false,"station_name":"Angke","is_transit":false,"time":4,"i_lat":-6.144674,"station_id":"AK","line":1,"distance":1230,"i_long":106.79867},{"time":9,"transit":true,"is_transit":true,"distance":4102,"line":4,"station_name":"Kampung Bandan","i_lat":-6.132549,"station_id":"KPB","i_long":106.826365},{"transit":false,"time":3,"i_long":106.836569,"line":11,"distance":1444,"is_transit":false,"station_name":"Rajawali","station_id":"RJW","i_lat":-6.14505},{"distance":1901,"transit":false,"i_long":106.839204,"is_transit":false,"i_lat":-6.161728,"station_id":"KMO","station_name":"Kemayoran","time":5,"line":11},{"i_lat":-6.174784,"distance":1436,"station_name":"Pasar Senen","transit":false,"line":11,"time":4,"is_transit":false,"i_long":106.84368,"station_id":"PSE"},{"i_long":106.850107,"time":8,"line":11,"station_id":"GST","i_lat":-6.185975,"station_name":"Gang Sentiong","is_transit":false,"distance":1567,"transit":false},{"time":1,"is_transit":false,"station_id":"KMT","i_lat":-6.193792,"transit":false,"distance":973,"i_long":106.855437,"line":11,"station_name":"Kramat"},{"i_long":106.861737,"transit":false,"time":2,"distance":1829,"station_id":"POK","station_name":"Pondok Jati","line":11,"i_lat":-6.209188,"is_transit":false},{"station_id":"JNG","i_long":106.86807400000001,"station_name":"Jatinegara","transit":true,"i_lat":-6.215091,"distance":1236,"is_transit":true,"time":9,"line":1},{"station_name":"Klender","is_transit":false,"line":1,"transit":false,"i_lat":-6.2135,"i_long":106.899548,"time":3,"distance":3395,"station_id":"KLD"},{"time":2,"is_transit":false,"station_id":"BUA","i_lat":-6.215568,"transit":false,"station_name":"Buaran","i_long":106.922662,"line":1,"distance":3100},{"station_id":"KLDB","distance":1305,"line":1,"i_long":106.939679,"time":1,"i_lat":-6.217455,"transit":false,"station_name":"Klenderbaru","is_transit":false},{"line":1,"transit":false,"is_transit":false,"station_id":"CUK","station_name":"Cakung","i_long":106.951283,"distance":1385,"i_lat":-6.219053,"time":8}],[{"transit":false,"is_transit":false,"distance":0,"i_lat":-6.17331,"line":5,"station_id":"TTI","time":0,"i_long":106.64657,"station_name":"Tanah Tinggi"},{"station_name":"Batuceper","i_lat":-6.171811,"i_long":106.665036,"line":5,"is_transit":false,"transit":false,"station_id":"BPR","time":3,"distance":2028},{"is_transit":false,"distance":1834,"transit":false,"station_id":"PI","i_long":106.679458,"line":5,"i_lat":-6.169933,"time":3,"station_name":"Poris"},{"transit":false,"time":3,"i_long":106.701612,"is_transit":false,"i_lat":-6.166068,"line":5,"station_name":"Kalideres","distance":2548,"station_id":"KDS"},{"time":3,"transit":false,"is_transit":false,"i_lat":-6.162758,"i_long":106.723064,"distance":2504,"line":5,"station_id":"RW","station_name":"Rawa Buaya"},{"time":4,"distance":1152,"i_lat":-6.159876,"i_long":106.737035,"station_name":"Bojongindah","transit":false,"station_id":"BOI","line":5,"is_transit":false},{"station_id":"TKO","i_long":106.756522,"i_lat":-6.1587309999999995,"station_name":"Taman Kota","is_transit":false,"time":2,"line":5,"transit":false,"distance":2334},{"line":5,"station_name":"Pesing","distance":1614,"station_id":"PSG","transit":false,"time":2,"is_transit":false,"i_lat":-6.161433,"i_long":106.771379},{"i_long":106.788277,"distance":2036,"station_name":"Grogol","time":2,"i_lat":-6.162021,"is_transit":false,"transit":false,"station_id":"GGL","line":5},{"line":1,"time":3,"is_transit":true,"distance":1700,"station_name":"Duri","transit":true,"station_id":"DU","i_lat":-6.155215,"i_long":106.800832},{"i_long":106.79867,"transit":false,"distance":1230,"time":4,"station_name":"Angke","line":1,"is_transit":false,"station_id":"AK","i_lat":-6.144674},{"transit":true,"time":9,"is_transit":true,"station_name":"Kampung Bandan","i_lat":-6.132549,"station_id":"KPB","i_long":106.826365,"distance":4102,"line":4},{"station_id":"JAKK","station_name":"Jakarta Kota","i_lat":-6.137569,"is_transit":true,"i_long":106.812439,"line":2,"transit":true,"time":3,"distance":1364},{"line":2,"i_long":106.820901,"time":4,"i_lat":-6.141205,"station_name":"Jayakarta","station_id":"JAY","transit":false,"is_transit":false,"distance":1264},{"time":2,"distance":1080,"i_long":106.82482,"station_name":"Manggabesar","station_id":"MGB","line":2,"transit":false,"i_lat":-6.149769,"is_transit":false},{"line":2,"time":2,"station_id":"SW","station_name":"Sawah Besar","is_transit":false,"i_long":106.827103,"transit":false,"distance":906,"i_lat":-6.160725},{"is_transit":false,"i_lat":-6.166716,"i_long":106.828284,"transit":false,"distance":1149,"station_id":"JUA","station_name":"Juanda","time":2,"line":2},{"transit":false,"station_id":"GDD","time":4,"i_lat":-6.186295,"line":2,"distance":2015,"i_long":106.832183,"station_name":"Gondangdia","is_transit":false},{"distance":1750,"transit":false,"station_id":"CKI","station_name":"Cikini","i_long":106.840169,"is_transit":false,"time":3,"i_lat":-6.198556,"line":2},{"line":2,"time":4,"i_long":106.84912,"is_transit":true,"distance":1590,"i_lat":-6.209883,"station_name":"Manggarai","transit":true,"station_id":"MRI"},{"i_lat":-6.212485,"line":1,"i_long":106.858896,"station_name":"Matraman","is_transit":false,"distance":1275,"station_id":"MTR","transit":false,"time":2},{"distance":1377,"line":1,"station_id":"JNG","transit":false,"is_transit":false,"i_lat":-6.215091,"i_long":106.86807400000001,"time":8,"station_name":"Jatinegara"},{"i_lat":-6.2135,"distance":3395,"station_name":"Klender","time":3,"station_id":"KLD","transit":false,"line":1,"is_transit":false,"i_long":106.899548},{"distance":3100,"i_lat":-6.215568,"time":2,"line":1,"transit":false,"station_id":"BUA","is_transit":false,"i_long":106.922662,"station_name":"Buaran"},{"is_transit":false,"i_long":106.939679,"transit":false,"station_id":"KLDB","station_name":"Klenderbaru","i_lat":-6.217455,"line":1,"time":1,"distance":1305},{"i_lat":-6.219053,"time":8,"i_long":106.951283,"distance":1385,"station_name":"Cakung","station_id":"CUK","transit":false,"is_transit":false,"line":1}],[{"time":0,"station_name":"Tanah Tinggi","distance":0,"i_lat":-6.17331,"is_transit":false,"line":5,"transit":false,"station_id":"TTI","i_long":106.64657},{"time":3,"line":5,"transit":false,"i_lat":-6.171811,"is_transit":false,"station_name":"Batuceper","i_long":106.665036,"station_id":"BPR","distance":2028},{"station_id":"PI","transit":false,"is_transit":false,"i_lat":-6.169933,"i_long":106.679458,"distance":1834,"station_name":"Poris","line":5,"time":3},{"is_transit":false,"station_name":"Kalideres","distance":2548,"station_id":"KDS","i_lat":-6.166068,"transit":false,"time":3,"i_long":106.701612,"line":5},{"distance":2504,"transit":false,"i_lat":-6.162758,"line":5,"is_transit":false,"time":3,"station_id":"RW","station_name":"Rawa Buaya","i_long":106.723064},{"i_lat":-6.159876,"station_name":"Bojongindah","transit":false,"distance":1152,"station_id":"BOI","is_transit":false,"line":5,"time":4,"i_long":106.737035},{"station_name":"Taman Kota","time":2,"line":5,"transit":false,"is_transit":false,"distance":2334,"i_lat":-6.1587309999999995,"i_long":106.756522,"station_id":"TKO"},{"time":2,"i_lat":-6.161433,"transit":false,"station_id":"PSG","station_name":"Pesing","distance":1614,"i_long":106.771379,"line":5,"is_transit":false},{"station_name":"Grogol","is_transit":false,"time":2,"distance":2036,"i_long":106.788277,"station_id":"GGL","transit":false,"i_lat":-6.162021,"line":5},{"time":3,"is_transit":true,"station_id":"DU","line":1,"transit":true,"distance":1700,"i_lat":-6.155215,"station_name":"Duri","i_long":106.800832},{"station_id":"THB","i_long":106.811091,"is_transit":false,"distance":3632,"i_lat":-6.185545,"line":1,"time":8,"station_name":"Tanah Abang","transit":false},{"transit":false,"is_transit":false,"time":5,"distance":2029,"station_id":"KAT","i_lat":-6.20132,"i_long":106.816351,"line":1,"station_name":"Karet"},{"i_long":106.819881,"line":1,"time":1,"station_id":"SUDB","station_name":"Sudirman Baru","transit":false,"is_transit":false,"distance":471,"i_lat":-6.201433},{"station_id":"SUD","i_lat":-6.202263,"time":1,"distance":280,"i_long":106.822649,"transit":false,"line":1,"station_name":"Sudirman","is_transit":false},{"distance":3186,"station_id":"MRI","transit":true,"time":4,"station_name":"Manggarai","is_transit":true,"i_long":106.84912,"line":2,"i_lat":-6.209883},{"is_transit":false,"time":4,"distance":1590,"station_name":"Cikini","i_lat":-6.198556,"line":2,"i_long":106.840169,"station_id":"CKI","transit":false},{"distance":1750,"time":3,"is_transit":false,"transit":false,"station_id":"GDD","i_lat":-6.186295,"i_long":106.832183,"line":2,"station_name":"Gondangdia"},{"time":4,"i_lat":-6.166716,"station_name":"Juanda","transit":false,"station_id":"JUA","is_transit":false,"distance":2015,"line":2,"i_long":106.828284},{"station_id":"SW","station_name":"Sawah Besar","time":2,"transit":false,"line":2,"is_transit":false,"i_long":106.827103,"distance":1149,"i_lat":-6.160725},{"i_lat":-6.149769,"distance":906,"i_long":106.82482,"time":2,"line":2,"station_name":"Manggabesar","transit":false,"is_transit":false,"station_id":"MGB"},{"station_name":"Jayakarta","is_transit":false,"line":2,"transit":false,"distance":1080,"i_lat":-6.141205,"station_id":"JAY","time":2,"i_long":106.820901},{"time":4,"transit":true,"station_id":"JAKK","i_long":106.812439,"line":2,"station_name":"Jakarta Kota","distance":1264,"i_lat":-6.137569,"is_transit":true},{"i_lat":-6.132549,"i_long":106.826365,"transit":true,"time":3,"line":4,"distance":1364,"station_name":"Kampung Bandan","station_id":"KPB","is_transit":true},{"station_name":"Rajawali","transit":false,"is_transit":false,"line":11,"i_lat":-6.14505,"time":3,"i_long":106.836569,"station_id":"RJW","distance":1444},{"transit":false,"is_transit":false,"i_long":106.839204,"distance":1901,"station_id":"KMO","line":11,"station_name":"Kemayoran","time":5,"i_lat":-6.161728},{"is_transit":false,"i_long":106.84368,"line":11,"transit":false,"time":4,"station_id":"PSE","station_name":"Pasar Senen","distance":1436,"i_lat":-6.174784},{"station_name":"Gang Sentiong","line":11,"is_transit":false,"station_id":"GST","time":8,"i_lat":-6.185975,"distance":1567,"transit":false,"i_long":106.850107},{"distance":973,"i_long":106.855437,"line":11,"station_id":"KMT","transit":false,"is_transit":false,"station_name":"Kramat","time":1,"i_lat":-6.193792},{"i_lat":-6.209188,"transit":false,"line":11,"time":2,"distance":1829,"station_name":"Pondok Jati","station_id":"POK","is_transit":false,"i_long":106.861737},{"i_lat":-6.215091,"i_long":106.86807400000001,"station_name":"Jatinegara","transit":true,"distance":1236,"station_id":"JNG","line":1,"is_transit":true,"time":9},{"distance":3395,"station_name":"Klender","i_lat":-6.2135,"line":1,"time":3,"transit":false,"station_id":"KLD","i_long":106.899548,"is_transit":false},{"station_id":"BUA","line":1,"time":2,"transit":false,"is_transit":false,"i_lat":-6.215568,"i_long":106.922662,"distance":3100,"station_name":"Buaran"},{"i_lat":-6.217455,"i_long":106.939679,"line":1,"transit":false,"station_name":"Klenderbaru","is_transit":false,"distance":1305,"station_id":"KLDB","time":1},{"station_id":"CUK","transit":false,"distance":1385,"i_lat":-6.219053,"i_long":106.951283,"line":1,"time":8,"is_transit":false,"station_name":"Cakung"}]]}