{"data":[[{"is_transit":false,"station_name":"Tanah Tinggi","distance":0,"i_lat":-6.17331,"time":0,"line":5,"transit":false,"station_id":"TTI","i_long":106.64657},{"station_name":"Batuceper","is_transit":false,"transit":false,"time":3,"distance":2028,"station_id":"BPR","line":5,"i_lat":-6.171811,"i_long":106.665036},{"distance":1834,"is_transit":false,"i_lat":-6.169933,"station_id":"PI","time":3,"station_name":"Poris","line":5,"i_long":106.679458,"transit":false},{"time":3,"i_lat":-6.166068,"is_transit":false,"transit":false,"line":5,"station_name":"Kalideres","distance":2548,"station_id":"KDS","i_long":106.701612},{"station_id":"RW","distance":2504,"station_name":"Rawa Buaya","is_transit":false,"i_long":106.723064,"i_lat":-6.162758,"time":3,"transit":false,"line":5},{"line":5,"is_transit":false,"distance":1152,"i_lat":-6.159876,"station_name":"Bojongindah","station_id":"BOI","transit":false,"time":4,"i_long":106.737035},{"station_id":"TKO","transit":false,"time":2,"distance":2334,"line":5,"station_name":"Taman Kota","is_transit":false,"i_lat":-6.1587309999999995,"i_long":106.756522},{"is_transit":false,"line":5,"station_id":"PSG","i_long":106.771379,"i_lat":-6.161433,"transit":false,"distance":1614,"station_name":"Pesing","time":2},{"is_transit":false,"i_lat":-6.162021,"station_name":"Grogol","i_long":106.788277,"line":5,"distance":2036,"transit":false,"station_id":"GGL","time":2},{"line":1,"station_name":"Duri","i_long":106.800832,"distance":1700,"transit":true,"time":3,"station_id":"DU","is_transit":true,"i_lat":-6.155215},{"station_id":"THB","i_lat":-6.185545,"station_name":"Tanah Abang","transit":true,"is_transit":true,"i_long":106.811091,"line":1,"distance":3632,"time":8},{"i_long":106.79689,"is_transit":false,"station_name":"Palmerah","line":6,"station_id":"PLM","distance":3191,"i_lat":-6.207404,"transit":false,"time":6},{"line":6,"is_transit":false,"distance":3737,"transit":false,"i_lat":-6.237242,"i_long":106.780334,"station_name":"Kebayoran","time":7,"station_id":"KBY"},{"distance":6218,"i_lat":-6.276362,"line":6,"transit":false,"i_long":106.74273,"station_id":"PDJ","time":8,"station_name":"Pondokranji","is_transit":false},{"is_transit":false,"transit":false,"station_id":"JMU","station_name":"Jurangmangu","i_lat":-6.288927,"distance":2179,"i_long":106.728916,"line":6,"time":3},{"distance":1994,"station_id":"SDM","line":6,"transit":false,"i_long":106.712277,"time":4,"is_transit":false,"i_lat":-6.296963,"station_name":"Sudimara"},{"station_name":"Rawa Buntu","time":6,"transit":false,"is_transit":false,"i_long":106.675475,"distance":4566,"station_id":"RU","i_lat":-6.314823,"line":6},{"station_name":"Serpong","line":6,"transit":false,"i_lat":-6.319871,"distance":2413,"i_long":106.66566,"is_transit":false,"station_id":"SRP","time":4}],[{"transit":false,"station_id":"TTI","is_transit":false,"i_lat":-6.17331,"line":5,"distance":0,"station_name":"Tanah Tinggi","i_long":106.64657,"time":0},{"station_id":"BPR","transit":false,"line":5,"distance":2028,"time":3,"i_lat":-6.171811,"station_name":"Batuceper","i_long":106.665036,"is_transit":false},{"station_name":"Poris","line":5,"is_transit":false,"i_long":106.679458,"distance":1834,"station_id":"PI","time":3,"transit":false,"i_lat":-6.169933},{"i_long":106.701612,"station_name":"Kalideres","is_transit":false,"distance":2548,"transit":false,"line":5,"time":3,"station_id":"KDS","i_lat":-6.166068},{"line":5,"station_name":"Rawa Buaya","i_lat":-6.162758,"i_long":106.723064,"distance":2504,"station_id":"RW","transit":false,"is_transit":false,"time":3},{"is_transit":false,"station_id":"BOI","station_name":"Bojongindah","transit":false,"i_lat":-6.159876,"time":4,"line":5,"i_long":106.737035,"distance":1152},{"i_long":106.756522,"line":5,"i_lat":-6.1587309999999995,"station_name":"Taman Kota","time":2,"transit":false,"station_id":"TKO","is_transit":false,"distance":2334},{"i_lat":-6.161433,"distance":1614,"time":2,"station_id":"PSG","is_transit":false,"line":5,"station_name":"Pesing","i_long":106.771379,"transit":false},{"i_long":106.788277,"line":5,"i_lat":-6.162021,"station_name":"Grogol","distance":2036,"transit":false,"is_transit":false,"time":2,"station_id":"GGL"},{"is_transit":true,"station_name":"Duri","i_long":106.800832,"time":3,"transit":true,"distance":1700,"station_id":"DU","i_lat":-6.155215,"line":1},{"is_transit":false,"transit":false,"distance":1230,"station_id":"AK","time":4,"i_lat":-6.144674,"line":1,"i_long":106.79867,"station_name":"Angke"},{"i_long":106.826365,"station_name":"Kampung Bandan","line":4,"is_transit":true,"distance":4102,"transit":true,"i_lat":-6.132549,"station_id":"KPB","time":9},{"station_name":"Jakarta Kota","i_lat":-6.137569,"time":3,"distance":1364,"i_long":106.812439,"station_id":"JAKK","is_transit":true,"transit":true,"line":2},{"transit":false,"distance":1264,"station_id":"JAY","i_lat":-6.141205,"i_long":106.820901,"station_name":"Jayakarta","is_transit":false,"time":4,"line":2},{"transit":false,"station_name":"Manggabesar","i_long":106.82482,"is_transit":false,"line":2,"distance":1080,"time":2,"station_id":"MGB","i_lat":-6.149769},{"line":2,"station_name":"Sawah Besar","i_long":106.827103,"distance":906,"i_lat":-6.160725,"is_transit":false,"time":2,"transit":false,"station_id":"SW"},{"line":2,"i_long":106.828284,"transit":false,"is_transit":false,"time":2,"station_id":"JUA","distance":1149,"i_lat":-6.166716,"station_name":"Juanda"},{"station_name":"Gondangdia","is_transit":false,"transit":false,"station_id":"GDD","distance":2015,"i_lat":-6.186295,"line":2,"time":4,"i_long":106.832183},{"i_long":106.840169,"line":2,"i_lat":-6.198556,"station_id":"CKI","transit":false,"is_transit":false,"distance":1750,"time":3,"station_name":"Cikini"},{"line":2,"station_name":"Manggarai","transit":true,"i_lat":-6.209883,"is_transit":true,"i_long":106.84912,"distance":1590,"time":4,"station_id":"MRI"},{"distance":3186,"time":4,"i_lat":-6.202263,"i_long":106.822649,"station_name":"Sudirman","station_id":"SUD","transit":false,"is_transit":false,"line":1},{"transit":false,"i_long":106.819881,"time":1,"station_name":"Sudirman Baru","is_transit":false,"line":1,"distance":280,"station_id":"SUDB","i_lat":-6.201433},{"i_lat":-6.20132,"line":1,"station_name":"Karet","transit":false,"is_transit":false,"time":1,"station_id":"KAT","distance":471,"i_long":106.816351},{"distance":2029,"transit":true,"time":5,"station_id":"THB","i_lat":-6.185545,"station_name":"Tanah Abang","i_long":106.811091,"line":1,"is_transit":true},{"transit":false,"line":6,"station_id":"PLM","i_long":106.79689,"is_transit":false,"time":6,"distance":3191,"station_name":"Palmerah","i_lat":-6.207404},{"transit":false,"i_lat":-6.237242,"is_transit":false,"distance":3737,"i_long":106.780334,"station_id":"KBY","line":6,"station_name":"Kebayoran","time":7},{"i_long":106.74273,"is_transit":false,"station_name":"Pondokranji","distance":6218,"time":8,"transit":false,"station_id":"PDJ","i_lat":-6.276362,"line":6},{"station_name":"Jurangmangu","time":3,"distance":2179,"line":6,"transit":false,"station_id":"JMU","i_lat":-6.288927,"i_long":106.728916,"is_transit":false},{"station_name":"Sudimara","is_transit":false,"line":6,"distance":1994,"time":4,"i_lat":-6.296963,"station_id":"SDM","transit":false,"i_long":106.712277},{"distance":4566,"transit":false,"time":6,"line":6,"station_name":"Rawa Buntu","i_lat":-6.314823,"station_id":"RU","is_transit":false,"i_long":106.675475},{"i_lat":-6.319871,"line":6,"transit":false,"i_long":106.66566,"distance":2413,"station_name":"Serpong","is_transit":false,"time":4,"station_id":"SRP"}],[{"station_name":"Tanah Tinggi","i_lat":-6.17331,"is_transit":false,"time":0,"transit":false,"distance":0,"station_id":"TTI","i_long":106.64657,"line":5},{"station_id":"BPR","i_long":106.665036,"transit":false,"is_transit":false,"time":3,"i_lat":-6.171811,"line":5,"station_name":"Batuceper","distance":2028},{"i_lat":-6.169933,"transit":false,"is_transit":false,"distance":1834,"station_name":"Poris","i_long":106.679458,"line":5,"time":3,"station_id":"PI"},{"line":5,"i_long":106.701612,"station_name":"Kalideres","time":3,"distance":2548,"transit":false,"station_id":"KDS","i_lat":-6.166068,"is_transit":false},{"distance":2504,"station_id":"RW","line":5,"is_transit":false,"i_long":106.723064,"time":3,"i_lat":-6.162758,"transit":false,"station_name":"Rawa Buaya"},{"i_long":106.737035,"station_name":"Bojongindah","is_transit":false,"transit":false,"i_lat":-6.159876,"distance":1152,"time":4,"station_id":"BOI","line":5},{"i_lat":-6.1587309999999995,"station_name":"Taman Kota","is_transit":false,"line":5,"station_id":"TKO","transit":false,"distance":2334,"i_long":106.756522,"time":2},{"station_name":"Pesing","is_transit":false,"time":2,"station_id":"PSG","line":5,"distance":1614,"i_long":106.771379,"transit":false,"i_lat":-6.161433},{"i_long":106.788277,"i_lat":-6.162021,"is_transit":false,"transit":false,"time":2,"line":5,"station_name":"Grogol","distance":2036,"station_id":"GGL"},{"station_name":"Duri","distance":1700,"time":3,"is_transit":true,"i_long":106.800832,"transit":true,"i_lat":-6.155215,"line":1,"station_id":"DU"},{"station_name":"Angke","distance":1230,"i_long":106.79867,"transit":false,"station_id":"AK","i_lat":-6.144674,"is_transit":false,"time":4,"line":1},{"time":9,"station_name":"Kampung Bandan","i_lat":-6.132549,"station_id":"KPB","is_transit":true,"distance":4102,"i_long":106.826365,"transit":true,"line":4},{"time":3,"is_transit":false,"transit":false,"i_lat":-6.14505,"distance":1444,"station_id":"RJW","i_long":106.836569,"station_name":"Rajawali","line":11},{"is_transit":false,"station_id":"KMO","distance":1901,"transit":false,"station_name":"Kemayoran","time":5,"i_lat":-6.161728,"i_long":106.839204,"line":11},{"line":11,"transit":false,"distance":1436,"station_id":"PSE","is_transit":false,"i_lat":-6.174784,"i_long":106.84368,"time":4,"station_name":"Pasar Senen"},{"time":8,"station_id":"GST","i_long":106.850107,"is_transit":false,"transit":false,"distance":1567,"line":11,"station_name":"Gang Sentiong","i_lat":-6.185975},{"time":1,"is_transit":false,"transit":false,"distance":973,"station_name":"Kramat","i_long":106.855437,"station_id":"KMT","i_lat":-6.193792,"line":11},{"is_transit":false,"line":11,"station_name":"Pondok Jati","i_long":106.861737,"time":2,"station_id":"POK","transit":false,"i_lat":-6.209188,"distance":1829},{"distance":1236,"station_id":"JNG","i_lat":-6.215091,"line":1,"time":9,"i_long":106.86807400000001,"station_name":"Jatinegara","transit":true,"is_transit":true},{"time":2,"distance":1377,"line":1,"station_id":"MTR","i_long":106.858896,"station_name":"Matraman","i_lat":-6.212485,"transit":false,"is_transit":false},{"is_transit":false,"i_lat":-6.209883,"station_id":"MRI","station_name":"Manggarai","i_long":106.84912,"line":2,"transit":false,"distance":1275,"time":2},{"time":4,"is_transit":false,"distance":3186,"i_long":106.822649,"line":1,"station_id":"SUD","i_lat":-6.202263,"station_name":"Sudirman","transit":false},{"station_name":"Sudirman Baru","i_lat":-6.201433,"time":1,"distance":280,"station_id":"SUDB","is_transit":false,"line":1,"i_long":106.819881,"transit":false},{"is_transit":false,"i_lat":-6.20132,"station_id":"KAT","transit":false,"station_name":"Karet","distance":471,"i_long":106.816351,"line":1,"time":1},{"station_id":"THB","i_long":106.811091,"time":5,"is_transit":true,"line":1,"station_name":"Tanah Abang","distance":2029,"transit":true,"i_lat":-6.185545},{"station_name":"Palmerah","is_transit":false,"distance":3191,"i_long":106.79689,"transit":false,"line":6,"station_id":"PLM","i_lat":-6.207404,"time":6},{"i_long":106.780334,"transit":false,"station_name":"Kebayoran","i_lat":-6.237242,"is_transit":false,"line":6,"distance":3737,"time":7,"station_id":"KBY"},{"transit":false,"is_transit":false,"i_long":106.74273,"station_name":"Pondokranji","station_id":"PDJ","distance":6218,"i_lat":-6.276362,"time":8,"line":6},{"distance":2179,"i_long":106.728916,"line":6,"time":3,"station_name":"Jurangmangu","transit":false,"station_id":"JMU","i_lat":-6.288927,"is_transit":false},{"station_name":"Sudimara","transit":false,"distance":1994,"station_id":"SDM","i_lat":-6.296963,"line":6,"time":4,"i_long":106.712277,"is_transit":false},{"station_name":"Rawa Buntu","distance":4566,"i_long":106.675475,"station_id":"RU","transit":false,"time":6,"line":6,"i_lat":-6.314823,"is_transit":false},{"time":4,"station_id":"SRP","i_long":106.66566,"line":6,"distance":2413,"i_lat":-6.319871,"transit":false,"station_name":"Serpong","is_transit":false}]]}