{"data":[[{"transit":false,"distance":0,"time":0,"is_transit":false,"i_lat":-6.17331,"i_long":106.64657,"line":5,"station_name":"Tanah Tinggi","station_id":"TTI"},{"transit":false,"distance":2028,"i_lat":-6.171811,"line":5,"station_id":"BPR","time":3,"i_long":106.665036,"station_name":"Batuceper","is_transit":false},{"i_long":106.679458,"is_transit":false,"time":3,"station_id":"PI","i_lat":-6.169933,"line":5,"station_name":"Poris","distance":1834,"transit":false},{"is_transit":false,"time":3,"station_id":"KDS","station_name":"Kalideres","line":5,"distance":2548,"i_long":106.701612,"transit":false,"i_lat":-6.166068},{"time":3,"station_name":"Rawa Buaya","i_lat":-6.162758,"line":5,"transit":false,"station_id":"RW","i_long":106.723064,"distance":2504,"is_transit":false},{"line":5,"i_long":106.737035,"station_name":"Bojongindah","transit":false,"station_id":"BOI","distance":1152,"time":4,"is_transit":false,"i_lat":-6.159876},{"distance":2334,"transit":false,"is_transit":false,"station_id":"TKO","i_long":106.756522,"i_lat":-6.1587309999999995,"time":2,"station_name":"Taman Kota","line":5},{"transit":false,"i_lat":-6.161433,"distance":1614,"time":2,"line":5,"station_name":"Pesing","i_long":106.771379,"station_id":"PSG","is_transit":false},{"distance":2036,"station_id":"GGL","i_lat":-6.162021,"i_long":106.788277,"line":5,"transit":false,"is_transit":false,"time":2,"station_name":"Grogol"},{"transit":true,"station_name":"Duri","distance":1700,"time":3,"is_transit":true,"station_id":"DU","i_lat":-6.155215,"i_long":106.800832,"line":1},{"time":8,"station_name":"Tanah Abang","line":1,"distance":3632,"is_transit":false,"transit":false,"i_long":106.811091,"station_id":"THB","i_lat":-6.185545},{"line":1,"time":5,"station_name":"Karet","transit":false,"station_id":"KAT","distance":2029,"i_lat":-6.20132,"is_transit":false,"i_long":106.816351},{"is_transit":false,"i_lat":-6.201433,"station_id":"SUDB","distance":471,"line":1,"transit":false,"i_long":106.819881,"time":1,"station_name":"Sudirman Baru"},{"distance":280,"line":1,"i_long":106.822649,"i_lat":-6.202263,"station_name":"Sudirman","is_transit":false,"transit":false,"time":1,"station_id":"SUD"},{"station_id":"MRI","station_name":"Manggarai","distance":3186,"transit":false,"line":2,"i_long":106.84912,"time":4,"is_transit":false,"i_lat":-6.209883},{"line":1,"station_name":"Matraman","station_id":"MTR","i_lat":-6.212485,"time":2,"distance":1275,"i_long":106.858896,"is_transit":false,"transit":false}],[{"line":5,"i_lat":-6.17331,"distance":0,"station_id":"TTI","time":0,"transit":false,"station_name":"Tanah Tinggi","i_long":106.64657,"is_transit":false},{"is_transit":false,"distance":2028,"time":3,"i_lat":-6.171811,"i_long":106.665036,"transit":false,"line":5,"station_name":"Batuceper","station_id":"BPR"},{"is_transit":false,"station_name":"Poris","station_id":"PI","i_long":106.679458,"line":5,"time":3,"transit":false,"i_lat":-6.169933,"distance":1834},{"i_long":106.701612,"transit":false,"i_lat":-6.166068,"station_id":"KDS","line":5,"distance":2548,"time":3,"is_transit":false,"station_name":"Kalideres"},{"distance":2504,"station_name":"Rawa Buaya","line":5,"station_id":"RW","time":3,"i_lat":-6.162758,"transit":false,"is_transit":false,"i_long":106.723064},{"is_transit":false,"transit":false,"station_name":"Bojongindah","i_lat":-6.159876,"distance":1152,"station_id":"BOI","i_long":106.737035,"line":5,"time":4},{"distance":2334,"station_name":"Taman Kota","station_id":"TKO","time":2,"is_transit":false,"i_lat":-6.1587309999999995,"i_long":106.756522,"line":5,"transit":false},{"station_id":"PSG","is_transit":false,"i_long":106.771379,"time":2,"distance":1614,"station_name":"Pesing","i_lat":-6.161433,"line":5,"transit":false},{"station_id":"GGL","is_transit":false,"station_name":"Grogol","i_long":106.788277,"time":2,"i_lat":-6.162021,"transit":false,"line":5,"distance":2036},{"transit":true,"station_id":"DU","i_long":106.800832,"line":1,"station_name":"Duri","distance":1700,"is_transit":true,"time":3,"i_lat":-6.155215},{"distance":1230,"i_long":106.79867,"station_id":"AK","time":4,"i_lat":-6.144674,"station_name":"Angke","transit":false,"is_transit":false,"line":1},{"line":4,"distance":4102,"i_lat":-6.132549,"is_transit":true,"transit":true,"station_name":"Kampung Bandan","station_id":"KPB","i_long":106.826365,"time":9},{"time":3,"line":11,"i_lat":-6.14505,"transit":false,"distance":1444,"station_name":"Rajawali","is_transit":false,"station_id":"RJW","i_long":106.836569},{"station_name":"Kemayoran","line":11,"distance":1901,"transit":false,"i_lat":-6.161728,"i_long":106.839204,"time":5,"station_id":"KMO","is_transit":false},{"distance":1436,"is_transit":false,"line":11,"transit":false,"i_lat":-6.174784,"station_name":"Pasar Senen","time":4,"station_id":"PSE","i_long":106.84368},{"line":11,"time":8,"station_id":"GST","is_transit":false,"transit":false,"distance":1567,"station_name":"Gang Sentiong","i_lat":-6.185975,"i_long":106.850107},{"station_name":"Kramat","station_id":"KMT","line":11,"i_long":106.855437,"i_lat":-6.193792,"is_transit":false,"transit":false,"time":1,"distance":973},{"i_lat":-6.209188,"i_long":106.861737,"distance":1829,"transit":false,"station_name":"Pondok Jati","station_id":"POK","time":2,"line":11,"is_transit":false},{"i_lat":-6.215091,"time":9,"station_name":"Jatinegara","line":1,"i_long":106.86807400000001,"station_id":"JNG","is_transit":true,"distance":1236,"transit":true},{"station_name":"Matraman","i_lat":-6.212485,"i_long":106.858896,"time":2,"station_id":"MTR","is_transit":false,"line":1,"distance":1377,"transit":false}],[{"i_lat":-6.17331,"distance":0,"i_long":106.64657,"transit":false,"time":0,"station_name":"Tanah Tinggi","is_transit":false,"line":5,"station_id":"TTI"},{"distance":2028,"time":3,"transit":false,"station_id":"BPR","line":5,"station_name":"Batuceper","i_lat":-6.171811,"i_long":106.665036,"is_transit":false},{"time":3,"i_lat":-6.169933,"i_long":106.679458,"line":5,"transit":false,"station_id":"PI","is_transit":false,"distance":1834,"station_name":"Poris"},{"station_id":"KDS","time":3,"distance":2548,"transit":false,"station_name":"Kalideres","is_transit":false,"i_long":106.701612,"line":5,"i_lat":-6.166068},{"i_long":106.723064,"transit":false,"time":3,"station_id":"RW","station_name":"Rawa Buaya","is_transit":false,"line":5,"distance":2504,"i_lat":-6.162758},{"line":5,"distance":1152,"station_name":"Bojongindah","station_id":"BOI","is_transit":false,"i_lat":-6.159876,"time":4,"i_long":106.737035,"transit":false},{"i_lat":-6.1587309999999995,"station_id":"TKO","line":5,"is_transit":false,"distance":2334,"transit":false,"time":2,"i_long":106.756522,"station_name":"Taman Kota"},{"line":5,"transit":false,"is_transit":false,"time":2,"i_lat":-6.161433,"i_long":106.771379,"station_name":"Pesing","station_id":"PSG","distance":1614},{"i_lat":-6.162021,"station_id":"GGL","i_long":106.788277,"is_transit":false,"distance":2036,"station_name":"Grogol","transit":false,"time":2,"line":5},{"i_long":106.800832,"transit":true,"is_transit":true,"distance":1700,"station_name":"Duri","i_lat":-6.155215,"line":1,"station_id":"DU","time":3},{"time":4,"line":1,"i_lat":-6.144674,"distance":1230,"station_id":"AK","station_name":"Angke","transit":false,"i_long":106.79867,"is_transit":false},{"i_long":106.826365,"station_name":"Kampung Bandan","i_lat":-6.132549,"time":9,"station_id":"KPB","transit":true,"is_transit":true,"line":4,"distance":4102},{"station_id":"JAKK","is_transit":true,"distance":1364,"time":3,"transit":true,"station_name":"Jakarta Kota","i_lat":-6.137569,"line":2,"i_long":106.812439},{"is_transit":false,"transit":false,"line":2,"i_long":106.820901,"distance":1264,"time":4,"station_name":"Jayakarta","station_id":"JAY","i_lat":-6.141205},{"distance":1080,"station_name":"Manggabesar","station_id":"MGB","transit":false,"i_long":106.82482,"line":2,"is_transit":false,"i_lat":-6.149769,"time":2},{"station_id":"SW","i_long":106.827103,"transit":false,"line":2,"is_transit":false,"time":2,"i_lat":-6.160725,"distance":906,"station_name":"Sawah Besar"},{"distance":1149,"station_name":"Juanda","time":2,"i_long":106.828284,"is_transit":false,"line":2,"i_lat":-6.166716,"transit":false,"station_id":"JUA"},{"line":2,"distance":2015,"i_lat":-6.186295,"i_long":106.832183,"transit":false,"is_transit":false,"station_name":"Gondangdia","time":4,"station_id":"GDD"},{"station_id":"CKI","i_long":106.840169,"time":3,"is_transit":false,"station_name":"Cikini","transit":false,"distance":1750,"line":2,"i_lat":-6.198556},{"line":2,"time":4,"transit":true,"is_transit":true,"i_lat":-6.209883,"i_long":106.84912,"distance":1590,"station_name":"Manggarai","station_id":"MRI"},{"distance":1275,"station_id":"MTR","is_transit":false,"time":2,"line":1,"transit":false,"station_name":"Matraman","i_long":106.858896,"i_lat":-6.212485}],[{"i_long":106.64657,"station_id":"TTI","distance":0,"i_lat":-6.17331,"line":5,"time":0,"is_transit":false,"transit":false,"station_name":"Tanah Tinggi"},{"transit":false,"time":3,"station_id":"BPR","is_transit":false,"i_lat":-6.171811,"station_name":"Batuceper","line":5,"distance":2028,"i_long":106.665036},{"station_id":"PI","time":3,"transit":false,"distance":1834,"station_name":"Poris","i_long":106.679458,"line":5,"is_transit":false,"i_lat":-6.169933},{"time":3,"i_long":106.701612,"transit":false,"line":5,"is_transit":false,"station_id":"KDS","i_lat":-6.166068,"distance":2548,"station_name":"Kalideres"},{"i_lat":-6.162758,"i_long":106.723064,"time":3,"distance":2504,"station_id":"RW","transit":false,"is_transit":false,"line":5,"station_name":"Rawa Buaya"},{"distance":1152,"transit":false,"time":4,"i_lat":-6.159876,"is_transit":false,"station_id":"BOI","i_long":106.737035,"station_name":"Bojongindah","line":5},{"line":5,"station_name":"Taman Kota","time":2,"i_long":106.756522,"is_transit":false,"transit":false,"station_id":"TKO","i_lat":-6.1587309999999995,"distance":2334},{"distance":1614,"station_name":"Pesing","time":2,"is_transit":false,"i_long":106.771379,"i_lat":-6.161433,"line":5,"transit":false,"station_id":"PSG"},{"station_id":"GGL","station_name":"Grogol","is_transit":false,"time":2,"i_long":106.788277,"distance":2036,"i_lat":-6.162021,"line":5,"transit":false},{"line":1,"station_id":"DU","distance":1700,"time":3,"station_name":"Duri","i_long":106.800832,"i_lat":-6.155215,"is_transit":true,"transit":true},{"time":8,"i_long":106.811091,"is_transit":false,"distance":3632,"station_id":"THB","i_lat":-6.185545,"station_name":"Tanah Abang","line":1,"transit":false},{"distance":2029,"line":1,"station_id":"KAT","i_long":106.816351,"time":5,"transit":false,"i_lat":-6.20132,"is_transit":false,"station_name":"Karet"},{"distance":471,"station_name":"Sudirman Baru","line":1,"is_transit":false,"time":1,"i_lat":-6.201433,"station_id":"SUDB","transit":false,"i_long":106.819881},{"station_id":"SUD","distance":280,"transit":false,"station_name":"Sudirman","time":1,"i_lat":-6.202263,"i_long":106.822649,"is_transit":false,"line":1},{"station_id":"MRI","is_transit":true,"line":2,"distance":3186,"time":4,"station_name":"Manggarai","i_lat":-6.209883,"i_long":106.84912,"transit":true},{"station_id":"CKI","time":4,"line":2,"i_long":106.840169,"is_transit":false,"distance":1590,"i_lat":-6.198556,"transit":false,"station_name":"Cikini"},{"distance":1750,"station_id":"GDD","i_lat":-6.186295,"transit":false,"time":3,"is_transit":false,"station_name":"Gondangdia","i_long":106.832183,"line":2},{"station_name":"Juanda","station_id":"JUA","time":4,"i_long":106.828284,"line":2,"transit":false,"is_transit":false,"distance":2015,"i_lat":-6.166716},{"time":2,"i_long":106.827103,"transit":false,"distance":1149,"station_id":"SW","station_name":"Sawah Besar","line":2,"is_transit":false,"i_lat":-6.160725},{"i_lat":-6.149769,"i_long":106.82482,"station_name":"Manggabesar","transit":false,"is_transit":false,"distance":906,"time":2,"line":2,"station_id":"MGB"},{"station_id":"JAY","transit":false,"distance":1080,"i_long":106.820901,"is_transit":false,"i_lat":-6.141205,"station_name":"Jayakarta","line":2,"time":2},{"station_name":"Jakarta Kota","distance":1264,"i_long":106.812439,"time":4,"line":2,"i_lat":-6.137569,"is_transit":true,"station_id":"JAKK","transit":true},{"i_long":106.826365,"line":4,"time":3,"i_lat":-6.132549,"transit":true,"station_id":"KPB","is_transit":true,"distance":1364,"station_name":"Kampung Bandan"},{"distance":1444,"transit":false,"i_lat":-6.14505,"i_long":106.836569,"is_transit":false,"station_id":"RJW","line":11,"station_name":"Rajawali","time":3},{"station_id":"KMO","distance":1901,"i_long":106.839204,"i_lat":-6.161728,"time":5,"line":11,"is_transit":false,"station_name":"Kemayoran","transit":false},{"line":11,"time":4,"transit":false,"distance":1436,"is_transit":false,"i_lat":-6.174784,"station_name":"Pasar Senen","station_id":"PSE","i_long":106.84368},{"station_id":"GST","i_lat":-6.185975,"is_transit":false,"station_name":"Gang Sentiong","i_long":106.850107,"transit":false,"line":11,"distance":1567,"time":8},{"transit":false,"station_name":"Kramat","station_id":"KMT","distance":973,"is_transit":false,"time":1,"i_lat":-6.193792,"line":11,"i_long":106.855437},{"station_id":"POK","line":11,"i_long":106.861737,"station_name":"Pondok Jati","distance":1829,"transit":false,"is_transit":false,"i_lat":-6.209188,"time":2},{"transit":true,"is_transit":true,"station_name":"Jatinegara","time":9,"distance":1236,"i_lat":-6.215091,"line":1,"i_long":106.86807400000001,"station_id":"JNG"},{"distance":1377,"station_id":"MTR","line":1,"station_name":"Matraman","i_long":106.858896,"i_lat":-6.212485,"transit":false,"is_transit":false,"time":2}]]}