{"data":[[{"time":0,"i_lat":-6.17331,"i_long":106.64657,"station_name":"Tanah Tinggi","station_id":"TTI","transit":false,"line":5,"distance":0,"is_transit":false},{"line":0,"station_id":"BPR","distance":2028,"transit":false,"is_transit":false,"station_name":"Batuceper","time":3,"i_lat":-6.171811,"i_long":106.665036},{"station_name":"Poris","transit":false,"time":3,"i_lat":-6.169933,"i_long":106.679458,"line":5,"station_id":"PI","is_transit":false,"distance":1834},{"i_long":106.701612,"line":5,"is_transit":false,"distance":2548,"station_id":"KDS","station_name":"Kalideres","time":3,"transit":false,"i_lat":-6.166068},{"i_lat":-6.162758,"station_id":"RW","distance":2504,"is_transit":false,"i_long":106.723064,"line":5,"station_name":"Rawa Buaya","time":3,"transit":false},{"i_long":106.737035,"line":0,"i_lat":-6.159876,"station_name":"Bojongindah","distance":1152,"station_id":"BOI","transit":false,"time":4,"is_transit":false},{"distance":2334,"transit":false,"time":2,"line":5,"station_id":"TKO","station_name":"Taman Kota","i_long":106.756522,"is_transit":false,"i_lat":-6.1587309999999995},{"transit":false,"distance":1614,"i_long":106.771379,"is_transit":false,"time":2,"station_id":"PSG","line":5,"i_lat":-6.161433,"station_name":"Pesing"},{"time":2,"distance":2036,"i_long":106.788277,"is_transit":false,"station_name":"Grogol","i_lat":-6.162021,"line":5,"transit":false,"station_id":"GGL"},{"station_name":"Duri","line":1,"time":3,"i_lat":-6.155215,"is_transit":true,"distance":1700,"station_id":"DU","transit":true,"i_long":106.800832},{"i_long":106.811091,"i_lat":-6.185545,"transit":false,"is_transit":true,"station_id":"THB","distance":3632,"time":8,"station_name":"Tanah Abang","line":1},{"station_name":"Karet","station_id":"KAT","line":1,"transit":false,"i_long":106.816351,"is_transit":false,"distance":2029,"time":5,"i_lat":-6.20132},{"distance":471,"station_id":"SUDB","is_transit":false,"time":1,"i_lat":-6.201433,"station_name":"Sudirman Baru","i_long":106.819881,"line":1,"transit":false},{"time":1,"distance":280,"station_name":"Sudirman","transit":false,"is_transit":false,"line":1,"station_id":"SUD","i_lat":-6.202263,"i_long":106.822649},{"i_lat":-6.209883,"line":0,"i_long":106.84912,"station_name":"Manggarai","is_transit":true,"time":4,"distance":3186,"transit":false,"station_id":"MRI"},{"transit":false,"is_transit":false,"i_lat":-6.212485,"time":2,"station_id":"MTR","i_long":106.858896,"distance":1275,"station_name":"Matraman","line":1}],[{"line":5,"station_name":"Tanah Tinggi","station_id":"TTI","distance":0,"is_transit":false,"transit":false,"time":0,"i_lat":-6.17331,"i_long":106.64657},{"time":3,"i_long":106.665036,"transit":false,"line":0,"is_transit":false,"station_name":"Batuceper","distance":2028,"station_id":"BPR","i_lat":-6.171811},{"is_transit":false,"time":3,"station_name":"Poris","transit":false,"i_long":106.679458,"i_lat":-6.169933,"distance":1834,"line":5,"station_id":"PI"},{"station_name":"Kalideres","i_lat":-6.166068,"transit":false,"distance":2548,"is_transit":false,"time":3,"i_long":106.701612,"station_id":"KDS","line":5},{"is_transit":false,"station_name":"Rawa Buaya","line":5,"i_long":106.723064,"transit":false,"distance":2504,"time":3,"station_id":"RW","i_lat":-6.162758},{"transit":false,"line":0,"distance":1152,"i_lat":-6.159876,"i_long":106.737035,"time":4,"is_transit":false,"station_id":"BOI","station_name":"Bojongindah"},{"transit":false,"is_transit":false,"time":2,"station_id":"TKO","i_lat":-6.1587309999999995,"i_long":106.756522,"distance":2334,"station_name":"Taman Kota","line":5},{"time":2,"station_id":"PSG","line":5,"is_transit":false,"station_name":"Pesing","transit":false,"i_lat":-6.161433,"i_long":106.771379,"distance":1614},{"station_id":"GGL","transit":false,"line":5,"is_transit":false,"time":2,"i_lat":-6.162021,"i_long":106.788277,"station_name":"Grogol","distance":2036},{"transit":true,"time":3,"i_long":106.800832,"distance":1700,"station_id":"DU","is_transit":true,"i_lat":-6.155215,"line":1,"station_name":"Duri"},{"line":0,"time":4,"station_name":"Angke","distance":1230,"is_transit":false,"station_id":"AK","transit":false,"i_lat":-6.144674,"i_long":106.79867},{"time":9,"distance":4102,"line":0,"i_lat":-6.132549,"i_long":106.826365,"station_id":"KPB","station_name":"Kampung Bandan","is_transit":true,"transit":true},{"line":11,"is_transit":false,"station_name":"Rajawali","i_long":106.836569,"distance":1444,"station_id":"RJW","time":3,"i_lat":-6.14505,"transit":false},{"station_id":"KMO","i_lat":-6.161728,"transit":false,"distance":1901,"time":5,"i_long":106.839204,"line":11,"is_transit":false,"station_name":"Kemayoran"},{"transit":false,"station_name":"Pasar Senen","time":4,"i_lat":-6.174784,"line":11,"is_transit":false,"i_long":106.84368,"station_id":"PSE","distance":1436},{"i_long":106.850107,"time":8,"transit":false,"distance":1567,"station_name":"Gang Sentiong","line":11,"is_transit":false,"i_lat":-6.185975,"station_id":"GST"},{"distance":973,"i_lat":-6.193792,"is_transit":false,"station_name":"Kramat","station_id":"KMT","time":1,"i_long":106.855437,"transit":false,"line":11},{"line":11,"i_long":106.861737,"is_transit":false,"station_name":"Pondok Jati","transit":false,"time":2,"distance":1829,"i_lat":-6.209188,"station_id":"POK"},{"is_transit":true,"line":0,"time":9,"distance":1236,"station_name":"Jatinegara","station_id":"JNG","i_long":106.86807400000001,"transit":true,"i_lat":-6.215091},{"time":2,"distance":1377,"is_transit":false,"station_name":"Matraman","i_lat":-6.212485,"station_id":"MTR","line":1,"transit":false,"i_long":106.858896}],[{"transit":false,"i_lat":-6.17331,"distance":0,"time":0,"i_long":106.64657,"station_name":"Tanah Tinggi","line":5,"is_transit":false,"station_id":"TTI"},{"i_lat":-6.171811,"time":3,"station_name":"Batuceper","transit":false,"distance":2028,"i_long":106.665036,"line":0,"station_id":"BPR","is_transit":false},{"distance":1834,"i_lat":-6.169933,"time":3,"station_name":"Poris","transit":false,"i_long":106.679458,"is_transit":false,"line":5,"station_id":"PI"},{"i_long":106.701612,"distance":2548,"station_name":"Kalideres","is_transit":false,"line":5,"transit":false,"time":3,"i_lat":-6.166068,"station_id":"KDS"},{"is_transit":false,"transit":false,"station_name":"Rawa Buaya","i_long":106.723064,"station_id":"RW","line":5,"i_lat":-6.162758,"time":3,"distance":2504},{"distance":1152,"is_transit":false,"i_lat":-6.159876,"transit":false,"station_id":"BOI","time":4,"i_long":106.737035,"station_name":"Bojongindah","line":0},{"distance":2334,"is_transit":false,"transit":false,"i_lat":-6.1587309999999995,"line":5,"i_long":106.756522,"time":2,"station_id":"TKO","station_name":"Taman Kota"},{"time":2,"distance":1614,"station_id":"PSG","i_lat":-6.161433,"is_transit":false,"transit":false,"i_long":106.771379,"line":5,"station_name":"Pesing"},{"time":2,"line":5,"transit":false,"i_lat":-6.162021,"is_transit":false,"station_name":"Grogol","station_id":"GGL","distance":2036,"i_long":106.788277},{"i_lat":-6.155215,"distance":1700,"station_id":"DU","station_name":"Duri","time":3,"line":1,"transit":true,"i_long":106.800832,"is_transit":true},{"station_id":"AK","time":4,"is_transit":false,"station_name":"Angke","line":0,"transit":false,"i_lat":-6.144674,"i_long":106.79867,"distance":1230},{"transit":false,"i_lat":-6.132549,"distance":4102,"station_name":"Kampung Bandan","time":9,"i_long":106.826365,"is_transit":true,"station_id":"KPB","line":0},{"distance":1364,"transit":true,"i_long":106.812439,"station_id":"JAKK","station_name":"Jakarta Kota","time":3,"i_lat":-6.137569,"line":0,"is_transit":true},{"time":4,"transit":false,"station_name":"Jayakarta","i_lat":-6.141205,"i_long":106.820901,"station_id":"JAY","line":7,"is_transit":false,"distance":1264},{"time":2,"distance":1080,"transit":false,"line":2,"is_transit":false,"i_long":106.82482,"station_name":"Manggabesar","station_id":"MGB","i_lat":-6.149769},{"is_transit":false,"station_name":"Sawah Besar","i_long":106.827103,"line":2,"time":2,"i_lat":-6.160725,"transit":false,"distance":906,"station_id":"SW"},{"distance":1149,"transit":false,"is_transit":false,"line":2,"station_id":"JUA","station_name":"Juanda","i_lat":-6.166716,"time":2,"i_long":106.828284},{"is_transit":false,"distance":2015,"station_id":"GDD","i_lat":-6.186295,"transit":false,"line":2,"time":4,"station_name":"Gondangdia","i_long":106.832183},{"distance":1750,"station_name":"Cikini","i_lat":-6.198556,"line":0,"transit":false,"time":3,"i_long":106.840169,"station_id":"CKI","is_transit":false},{"is_transit":true,"station_name":"Manggarai","time":4,"transit":true,"i_lat":-6.209883,"i_long":106.84912,"station_id":"MRI","line":0,"distance":1590},{"station_id":"MTR","time":2,"station_name":"Matraman","i_lat":-6.212485,"distance":1275,"is_transit":false,"transit":false,"i_long":106.858896,"line":1}],[{"is_transit":false,"i_long":106.64657,"transit":false,"station_id":"TTI","station_name":"Tanah Tinggi","line":5,"distance":0,"time":0,"i_lat":-6.17331},{"i_lat":-6.171811,"line":0,"station_id":"BPR","is_transit":false,"station_name":"Batuceper","time":3,"i_long":106.665036,"distance":2028,"transit":false},{"i_lat":-6.169933,"line":5,"time":3,"distance":1834,"i_long":106.679458,"is_transit":false,"transit":false,"station_id":"PI","station_name":"Poris"},{"i_long":106.701612,"time":3,"station_name":"Kalideres","distance":2548,"transit":false,"i_lat":-6.166068,"station_id":"KDS","is_transit":false,"line":5},{"time":3,"distance":2504,"station_name":"Rawa Buaya","transit":false,"i_lat":-6.162758,"i_long":106.723064,"line":5,"is_transit":false,"station_id":"RW"},{"station_name":"Bojongindah","time":4,"line":0,"i_long":106.737035,"distance":1152,"is_transit":false,"transit":false,"i_lat":-6.159876,"station_id":"BOI"},{"is_transit":false,"transit":false,"line":5,"station_name":"Taman Kota","time":2,"station_id":"TKO","i_lat":-6.1587309999999995,"i_long":106.756522,"distance":2334},{"distance":1614,"transit":false,"i_long":106.771379,"line":5,"station_name":"Pesing","station_id":"PSG","i_lat":-6.161433,"time":2,"is_transit":false},{"distance":2036,"station_name":"Grogol","i_long":106.788277,"time":2,"is_transit":false,"station_id":"GGL","transit":false,"i_lat":-6.162021,"line":5},{"is_transit":true,"station_id":"DU","distance":1700,"station_name":"Duri","line":1,"i_lat":-6.155215,"i_long":106.800832,"transit":true,"time":3},{"is_transit":true,"transit":false,"i_lat":-6.185545,"line":1,"station_name":"Tanah Abang","time":8,"i_long":106.811091,"station_id":"THB","distance":3632},{"distance":2029,"i_long":106.816351,"line":1,"station_id":"KAT","time":5,"i_lat":-6.20132,"is_transit":false,"station_name":"Karet","transit":false},{"time":1,"station_id":"SUDB","distance":471,"is_transit":false,"transit":false,"i_lat":-6.201433,"i_long":106.819881,"line":1,"station_name":"Sudirman Baru"},{"i_long":106.822649,"line":1,"is_transit":false,"transit":false,"time":1,"station_id":"SUD","distance":280,"station_name":"Sudirman","i_lat":-6.202263},{"distance":3186,"transit":true,"is_transit":true,"station_name":"Manggarai","i_lat":-6.209883,"i_long":106.84912,"station_id":"MRI","line":0,"time":4},{"time":4,"i_long":106.840169,"station_id":"CKI","line":0,"distance":1590,"station_name":"Cikini","is_transit":false,"i_lat":-6.198556,"transit":false},{"transit":false,"time":3,"i_lat":-6.186295,"is_transit":false,"i_long":106.832183,"line":2,"station_id":"GDD","station_name":"Gondangdia","distance":1750},{"i_lat":-6.166716,"transit":false,"station_name":"Juanda","distance":2015,"time":4,"i_long":106.828284,"station_id":"JUA","line":2,"is_transit":false},{"transit":false,"station_name":"Sawah Besar","time":2,"i_long":106.827103,"line":2,"is_transit":false,"i_lat":-6.160725,"station_id":"SW","distance":1149},{"station_id":"MGB","transit":false,"line":2,"i_long":106.82482,"i_lat":-6.149769,"distance":906,"is_transit":false,"time":2,"station_name":"Manggabesar"},{"i_lat":-6.141205,"time":2,"station_name":"Jayakarta","is_transit":false,"transit":false,"i_long":106.820901,"line":7,"distance":1080,"station_id":"JAY"},{"i_lat":-6.137569,"transit":true,"is_transit":true,"time":4,"station_name":"Jakarta Kota","i_long":106.812439,"distance":1264,"station_id":"JAKK","line":0},{"i_lat":-6.132549,"is_transit":true,"transit":true,"station_id":"KPB","i_long":106.826365,"time":3,"station_name":"Kampung Bandan","distance":1364,"line":0},{"station_name":"Rajawali","line":11,"i_lat":-6.14505,"is_transit":false,"i_long":106.836569,"distance":1444,"transit":false,"time":3,"station_id":"RJW"},{"station_name":"Kemayoran","i_lat":-6.161728,"i_long":106.839204,"station_id":"KMO","transit":false,"is_transit":false,"time":5,"line":11,"distance":1901},{"time":4,"line":11,"i_lat":-6.174784,"is_transit":false,"station_name":"Pasar Senen","transit":false,"station_id":"PSE","distance":1436,"i_long":106.84368},{"i_lat":-6.185975,"i_long":106.850107,"station_name":"Gang Sentiong","station_id":"GST","line":11,"transit":false,"is_transit":false,"distance":1567,"time":8},{"transit":false,"station_id":"KMT","i_long":106.855437,"i_lat":-6.193792,"time":1,"distance":973,"is_transit":false,"station_name":"Kramat","line":11},{"station_id":"POK","time":2,"station_name":"Pondok Jati","distance":1829,"is_transit":false,"transit":false,"i_lat":-6.209188,"i_long":106.861737,"line":11},{"station_id":"JNG","time":9,"i_long":106.86807400000001,"is_transit":true,"distance":1236,"station_name":"Jatinegara","line":0,"transit":true,"i_lat":-6.215091},{"is_transit":false,"station_name":"Matraman","station_id":"MTR","i_lat":-6.212485,"transit":false,"time":2,"i_long":106.858896,"line":1,"distance":1377}]]}