{"data":[[{"station_name":"Tanah Tinggi","i_long":106.64657,"time":0,"station_id":"TTI","is_transit":false,"i_lat":-6.17331,"transit":false,"line":5,"distance":0},{"line":0,"transit":false,"is_transit":false,"station_id":"BPR","time":3,"i_lat":-6.171811,"station_name":"Batuceper","distance":2028,"i_long":106.665036},{"distance":1834,"is_transit":false,"station_id":"PI","time":3,"i_lat":-6.169933,"i_long":106.679458,"station_name":"Poris","transit":false,"line":5},{"i_long":106.701612,"line":5,"station_id":"KDS","station_name":"Kalideres","transit":false,"time":3,"i_lat":-6.166068,"distance":2548,"is_transit":false},{"station_id":"RW","station_name":"Rawa Buaya","is_transit":false,"transit":false,"line":5,"distance":2504,"i_lat":-6.162758,"i_long":106.723064,"time":3},{"time":4,"station_name":"Bojongindah","i_lat":-6.159876,"i_long":106.737035,"transit":false,"distance":1152,"is_transit":false,"station_id":"BOI","line":0},{"distance":2334,"station_id":"TKO","i_long":106.756522,"is_transit":false,"station_name":"Taman Kota","transit":false,"time":2,"line":5,"i_lat":-6.1587309999999995},{"distance":1614,"transit":false,"station_name":"Pesing","is_transit":false,"i_lat":-6.161433,"station_id":"PSG","i_long":106.771379,"time":2,"line":5},{"distance":2036,"station_name":"Grogol","transit":false,"time":2,"line":5,"station_id":"GGL","i_lat":-6.162021,"is_transit":false,"i_long":106.788277},{"i_long":106.800832,"line":1,"station_name":"Duri","is_transit":true,"station_id":"DU","transit":true,"time":3,"i_lat":-6.155215,"distance":1700},{"distance":1230,"time":4,"i_lat":-6.144674,"i_long":106.79867,"station_name":"Angke","is_transit":false,"line":0,"transit":false,"station_id":"AK"},{"transit":false,"station_name":"Kampung Bandan","line":0,"i_lat":-6.132549,"is_transit":true,"time":9,"station_id":"KPB","distance":4102,"i_long":106.826365},{"station_name":"Jakarta Kota","is_transit":true,"distance":1364,"station_id":"JAKK","transit":true,"i_lat":-6.137569,"line":0,"time":3,"i_long":106.812439},{"station_name":"Jayakarta","station_id":"JAY","line":7,"distance":1264,"i_lat":-6.141205,"time":4,"i_long":106.820901,"is_transit":false,"transit":false}],[{"line":5,"i_lat":-6.17331,"is_transit":false,"i_long":106.64657,"transit":false,"distance":0,"station_id":"TTI","time":0,"station_name":"Tanah Tinggi"},{"station_name":"Batuceper","distance":2028,"i_lat":-6.171811,"i_long":106.665036,"transit":false,"station_id":"BPR","time":3,"is_transit":false,"line":0},{"distance":1834,"time":3,"transit":false,"station_name":"Poris","i_long":106.679458,"i_lat":-6.169933,"is_transit":false,"line":5,"station_id":"PI"},{"station_name":"Kalideres","distance":2548,"transit":false,"line":5,"station_id":"KDS","is_transit":false,"time":3,"i_lat":-6.166068,"i_long":106.701612},{"i_lat":-6.162758,"is_transit":false,"transit":false,"distance":2504,"i_long":106.723064,"line":5,"station_name":"Rawa Buaya","time":3,"station_id":"RW"},{"i_lat":-6.159876,"is_transit":false,"station_name":"Bojongindah","line":0,"station_id":"BOI","time":4,"distance":1152,"transit":false,"i_long":106.737035},{"station_id":"TKO","line":5,"station_name":"Taman Kota","time":2,"i_lat":-6.1587309999999995,"transit":false,"distance":2334,"is_transit":false,"i_long":106.756522},{"station_id":"PSG","time":2,"is_transit":false,"station_name":"Pesing","i_long":106.771379,"line":5,"distance":1614,"i_lat":-6.161433,"transit":false},{"line":5,"distance":2036,"is_transit":false,"time":2,"station_name":"Grogol","station_id":"GGL","i_long":106.788277,"transit":false,"i_lat":-6.162021},{"i_long":106.800832,"line":1,"station_name":"Duri","station_id":"DU","is_transit":true,"transit":true,"i_lat":-6.155215,"time":3,"distance":1700},{"time":8,"distance":3632,"station_id":"THB","i_lat":-6.185545,"i_long":106.811091,"line":1,"station_name":"Tanah Abang","is_transit":true,"transit":false},{"is_transit":false,"station_name":"Karet","transit":false,"i_lat":-6.20132,"station_id":"KAT","line":1,"distance":2029,"i_long":106.816351,"time":5},{"time":1,"station_name":"Sudirman Baru","i_long":106.819881,"line":1,"station_id":"SUDB","is_transit":false,"transit":false,"distance":471,"i_lat":-6.201433},{"transit":false,"is_transit":false,"i_long":106.822649,"distance":280,"i_lat":-6.202263,"line":1,"station_id":"SUD","station_name":"Sudirman","time":1},{"time":4,"station_name":"Manggarai","is_transit":true,"transit":true,"line":0,"station_id":"MRI","distance":3186,"i_lat":-6.209883,"i_long":106.84912},{"transit":false,"station_id":"CKI","time":4,"i_lat":-6.198556,"station_name":"Cikini","distance":1590,"line":0,"is_transit":false,"i_long":106.840169},{"time":3,"is_transit":false,"i_lat":-6.186295,"i_long":106.832183,"line":2,"station_name":"Gondangdia","distance":1750,"transit":false,"station_id":"GDD"},{"line":2,"i_long":106.828284,"station_id":"JUA","station_name":"Juanda","transit":false,"is_transit":false,"distance":2015,"i_lat":-6.166716,"time":4},{"line":2,"is_transit":false,"time":2,"i_lat":-6.160725,"distance":1149,"station_name":"Sawah Besar","station_id":"SW","transit":false,"i_long":106.827103},{"time":2,"i_lat":-6.149769,"i_long":106.82482,"line":2,"is_transit":false,"station_name":"Manggabesar","transit":false,"station_id":"MGB","distance":906},{"is_transit":false,"transit":false,"distance":1080,"line":7,"i_lat":-6.141205,"station_id":"JAY","time":2,"station_name":"Jayakarta","i_long":106.820901}],[{"transit":false,"station_id":"TTI","i_long":106.64657,"distance":0,"station_name":"Tanah Tinggi","is_transit":false,"time":0,"i_lat":-6.17331,"line":5},{"transit":false,"distance":2028,"is_transit":false,"station_id":"BPR","station_name":"Batuceper","time":3,"i_long":106.665036,"i_lat":-6.171811,"line":0},{"time":3,"station_id":"PI","distance":1834,"station_name":"Poris","is_transit":false,"transit":false,"i_lat":-6.169933,"i_long":106.679458,"line":5},{"distance":2548,"time":3,"is_transit":false,"transit":false,"i_lat":-6.166068,"station_name":"Kalideres","station_id":"KDS","line":5,"i_long":106.701612},{"line":5,"i_long":106.723064,"distance":2504,"transit":false,"is_transit":false,"station_name":"Rawa Buaya","time":3,"i_lat":-6.162758,"station_id":"RW"},{"time":4,"distance":1152,"i_lat":-6.159876,"i_long":106.737035,"is_transit":false,"transit":false,"station_id":"BOI","line":0,"station_name":"Bojongindah"},{"line":5,"is_transit":false,"station_name":"Taman Kota","transit":false,"distance":2334,"time":2,"i_lat":-6.1587309999999995,"i_long":106.756522,"station_id":"TKO"},{"line":5,"is_transit":false,"i_long":106.771379,"distance":1614,"station_id":"PSG","station_name":"Pesing","time":2,"i_lat":-6.161433,"transit":false},{"i_lat":-6.162021,"i_long":106.788277,"time":2,"station_name":"Grogol","is_transit":false,"station_id":"GGL","transit":false,"line":5,"distance":2036},{"i_long":106.800832,"time":3,"line":1,"distance":1700,"station_name":"Duri","is_transit":true,"transit":true,"i_lat":-6.155215,"station_id":"DU"},{"is_transit":true,"distance":3632,"transit":false,"i_lat":-6.185545,"i_long":106.811091,"time":8,"line":1,"station_id":"THB","station_name":"Tanah Abang"},{"i_lat":-6.20132,"distance":2029,"i_long":106.816351,"line":1,"is_transit":false,"station_id":"KAT","station_name":"Karet","time":5,"transit":false},{"station_name":"Sudirman Baru","i_lat":-6.201433,"distance":471,"is_transit":false,"station_id":"SUDB","line":1,"i_long":106.819881,"transit":false,"time":1},{"station_name":"Sudirman","station_id":"SUD","distance":280,"i_lat":-6.202263,"time":1,"transit":false,"line":1,"is_transit":false,"i_long":106.822649},{"time":4,"station_id":"MRI","transit":false,"i_long":106.84912,"line":0,"distance":3186,"is_transit":true,"station_name":"Manggarai","i_lat":-6.209883},{"line":1,"is_transit":false,"time":2,"transit":false,"station_name":"Matraman","distance":1275,"station_id":"MTR","i_long":106.858896,"i_lat":-6.212485},{"i_long":106.86807400000001,"station_id":"JNG","transit":true,"time":8,"i_lat":-6.215091,"station_name":"Jatinegara","line":0,"is_transit":true,"distance":1377},{"station_id":"POK","line":11,"is_transit":false,"station_name":"Pondok Jati","i_lat":-6.209188,"distance":1236,"time":2,"i_long":106.861737,"transit":false},{"line":11,"station_name":"Kramat","time":2,"station_id":"KMT","transit":false,"is_transit":false,"distance":1829,"i_long":106.855437,"i_lat":-6.193792},{"station_name":"Gang Sentiong","i_lat":-6.185975,"line":11,"is_transit":false,"distance":973,"station_id":"GST","transit":false,"i_long":106.850107,"time":1},{"station_id":"PSE","line":11,"time":8,"i_long":106.84368,"is_transit":false,"distance":1567,"i_lat":-6.174784,"transit":false,"station_name":"Pasar Senen"},{"i_long":106.839204,"line":11,"time":4,"i_lat":-6.161728,"station_name":"Kemayoran","transit":false,"distance":1436,"is_transit":false,"station_id":"KMO"},{"distance":1901,"line":11,"time":5,"is_transit":false,"station_id":"RJW","station_name":"Rajawali","i_lat":-6.14505,"i_long":106.836569,"transit":false},{"time":3,"is_transit":true,"distance":1444,"station_name":"Kampung Bandan","i_long":106.826365,"i_lat":-6.132549,"line":0,"transit":true,"station_id":"KPB"},{"station_id":"JAKK","transit":true,"station_name":"Jakarta Kota","is_transit":true,"i_long":106.812439,"line":0,"distance":1364,"time":3,"i_lat":-6.137569},{"transit":false,"station_id":"JAY","i_lat":-6.141205,"station_name":"Jayakarta","time":4,"is_transit":false,"i_long":106.820901,"distance":1264,"line":7}],[{"line":5,"time":0,"distance":0,"is_transit":false,"station_name":"Tanah Tinggi","i_lat":-6.17331,"i_long":106.64657,"station_id":"TTI","transit":false},{"station_name":"Batuceper","station_id":"BPR","i_long":106.665036,"is_transit":false,"transit":false,"time":3,"line":0,"distance":2028,"i_lat":-6.171811},{"i_long":106.679458,"is_transit":false,"station_id":"PI","i_lat":-6.169933,"line":5,"distance":1834,"station_name":"Poris","transit":false,"time":3},{"line":5,"time":3,"distance":2548,"i_lat":-6.166068,"i_long":106.701612,"transit":false,"station_id":"KDS","is_transit":false,"station_name":"Kalideres"},{"i_lat":-6.162758,"station_name":"Rawa Buaya","transit":false,"is_transit":false,"distance":2504,"line":5,"station_id":"RW","i_long":106.723064,"time":3},{"transit":false,"station_name":"Bojongindah","i_lat":-6.159876,"i_long":106.737035,"distance":1152,"station_id":"BOI","line":0,"time":4,"is_transit":false},{"i_lat":-6.1587309999999995,"station_id":"TKO","i_long":106.756522,"line":5,"is_transit":false,"distance":2334,"transit":false,"station_name":"Taman Kota","time":2},{"is_transit":false,"station_name":"Pesing","time":2,"station_id":"PSG","line":5,"i_long":106.771379,"transit":false,"distance":1614,"i_lat":-6.161433},{"time":2,"distance":2036,"transit":false,"i_long":106.788277,"station_id":"GGL","line":5,"is_transit":false,"i_lat":-6.162021,"station_name":"Grogol"},{"i_lat":-6.155215,"station_id":"DU","distance":1700,"line":1,"transit":true,"time":3,"is_transit":true,"i_long":106.800832,"station_name":"Duri"},{"station_name":"Angke","transit":false,"i_lat":-6.144674,"i_long":106.79867,"distance":1230,"station_id":"AK","line":0,"is_transit":false,"time":4},{"station_id":"KPB","distance":4102,"is_transit":true,"transit":true,"time":9,"i_lat":-6.132549,"line":0,"i_long":106.826365,"station_name":"Kampung Bandan"},{"transit":false,"i_lat":-6.14505,"station_id":"RJW","distance":1444,"time":3,"i_long":106.836569,"line":11,"station_name":"Rajawali","is_transit":false},{"line":11,"station_id":"KMO","i_long":106.839204,"distance":1901,"is_transit":false,"station_name":"Kemayoran","transit":false,"i_lat":-6.161728,"time":5},{"i_long":106.84368,"is_transit":false,"distance":1436,"station_id":"PSE","station_name":"Pasar Senen","i_lat":-6.174784,"line":11,"transit":false,"time":4},{"is_transit":false,"station_id":"GST","station_name":"Gang Sentiong","distance":1567,"time":8,"i_lat":-6.185975,"i_long":106.850107,"line":11,"transit":false},{"transit":false,"station_name":"Kramat","i_long":106.855437,"line":11,"is_transit":false,"time":1,"station_id":"KMT","distance":973,"i_lat":-6.193792},{"is_transit":false,"station_name":"Pondok Jati","i_long":106.861737,"distance":1829,"time":2,"line":11,"transit":false,"station_id":"POK","i_lat":-6.209188},{"station_id":"JNG","i_long":106.86807400000001,"distance":1236,"is_transit":true,"time":9,"station_name":"Jatinegara","line":0,"i_lat":-6.215091,"transit":true},{"i_lat":-6.212485,"line":1,"distance":1377,"is_transit":false,"time":2,"station_id":"MTR","station_name":"Matraman","transit":false,"i_long":106.858896},{"i_lat":-6.209883,"transit":true,"line":0,"station_id":"MRI","is_transit":true,"distance":1275,"station_name":"Manggarai","i_long":106.84912,"time":2},{"station_name":"Cikini","transit":false,"i_lat":-6.198556,"i_long":106.840169,"line":0,"distance":1590,"station_id":"CKI","time":4,"is_transit":false},{"transit":false,"time":3,"line":2,"station_id":"GDD","is_transit":false,"station_name":"Gondangdia","i_long":106.832183,"distance":1750,"i_lat":-6.186295},{"distance":2015,"transit":false,"is_transit":false,"i_lat":-6.166716,"i_long":106.828284,"station_name":"Juanda","line":2,"time":4,"station_id":"JUA"},{"transit":false,"line":2,"is_transit":false,"station_id":"SW","i_long":106.827103,"station_name":"Sawah Besar","distance":1149,"time":2,"i_lat":-6.160725},{"is_transit":false,"distance":906,"time":2,"station_name":"Manggabesar","station_id":"MGB","transit":false,"i_lat":-6.149769,"i_long":106.82482,"line":2},{"i_lat":-6.141205,"is_transit":false,"time":2,"station_name":"Jayakarta","i_long":106.820901,"station_id":"JAY","distance":1080,"line":7,"transit":false}]]}