{"data":[[{"is_transit":false,"station_name":"Tanah Tinggi","time":0,"i_long":106.64657,"line":5,"station_id":"TTI","transit":false,"i_lat":-6.17331,"distance":0},{"station_id":"BPR","i_long":106.665036,"line":0,"i_lat":-6.171811,"is_transit":false,"station_name":"Batuceper","time":3,"transit":false,"distance":2028},{"i_long":106.679458,"transit":false,"distance":1834,"is_transit":false,"i_lat":-6.169933,"line":5,"station_id":"PI","station_name":"Poris","time":3},{"station_name":"Kalideres","distance":2548,"is_transit":false,"i_long":106.701612,"line":5,"transit":false,"station_id":"KDS","time":3,"i_lat":-6.166068},{"station_name":"Rawa Buaya","transit":false,"i_long":106.723064,"line":5,"station_id":"RW","is_transit":false,"distance":2504,"time":3,"i_lat":-6.162758},{"transit":false,"i_lat":-6.159876,"station_id":"BOI","distance":1152,"is_transit":false,"line":0,"i_long":106.737035,"time":4,"station_name":"Bojongindah"},{"distance":2334,"time":2,"station_id":"TKO","station_name":"Taman Kota","i_lat":-6.1587309999999995,"transit":false,"line":5,"is_transit":false,"i_long":106.756522},{"time":2,"station_id":"PSG","i_long":106.771379,"transit":false,"line":5,"distance":1614,"is_transit":false,"station_name":"Pesing","i_lat":-6.161433},{"i_long":106.788277,"time":2,"distance":2036,"station_id":"GGL","line":5,"transit":false,"is_transit":false,"i_lat":-6.162021,"station_name":"Grogol"},{"time":3,"station_name":"Duri","transit":true,"distance":1700,"i_lat":-6.155215,"i_long":106.800832,"station_id":"DU","line":1,"is_transit":true},{"station_id":"THB","is_transit":true,"i_lat":-6.185545,"time":8,"station_name":"Tanah Abang","transit":false,"distance":3632,"i_long":106.811091,"line":1},{"station_id":"KAT","i_lat":-6.20132,"line":1,"transit":false,"station_name":"Karet","time":5,"distance":2029,"is_transit":false,"i_long":106.816351},{"i_lat":-6.201433,"i_long":106.819881,"distance":471,"station_name":"Sudirman Baru","time":1,"station_id":"SUDB","transit":false,"line":1,"is_transit":false},{"station_id":"SUD","transit":false,"time":1,"distance":280,"station_name":"Sudirman","line":1,"is_transit":false,"i_long":106.822649,"i_lat":-6.202263},{"time":4,"i_long":106.84912,"is_transit":true,"line":0,"station_id":"MRI","i_lat":-6.209883,"distance":3186,"transit":false,"station_name":"Manggarai"},{"line":1,"i_lat":-6.212485,"is_transit":false,"i_long":106.858896,"time":2,"station_id":"MTR","station_name":"Matraman","transit":false,"distance":1275},{"i_lat":-6.215091,"distance":1377,"station_name":"Jatinegara","transit":false,"time":8,"station_id":"JNG","is_transit":true,"i_long":106.86807400000001,"line":0},{"distance":3395,"is_transit":false,"line":1,"i_lat":-6.2135,"i_long":106.899548,"transit":false,"station_name":"Klender","time":3,"station_id":"KLD"},{"i_lat":-6.215568,"distance":3100,"i_long":106.922662,"line":0,"station_name":"Buaran","time":2,"is_transit":false,"transit":false,"station_id":"BUA"},{"transit":false,"station_id":"KLDB","i_lat":-6.217455,"distance":1305,"line":1,"is_transit":false,"station_name":"Klenderbaru","time":1,"i_long":106.939679},{"is_transit":false,"i_long":106.951283,"i_lat":-6.219053,"distance":1385,"line":0,"transit":false,"time":8,"station_name":"Cakung","station_id":"CUK"}],[{"i_lat":-6.17331,"distance":0,"transit":false,"station_name":"Tanah Tinggi","is_transit":false,"line":5,"time":0,"i_long":106.64657,"station_id":"TTI"},{"line":0,"distance":2028,"is_transit":false,"time":3,"i_lat":-6.171811,"station_id":"BPR","i_long":106.665036,"transit":false,"station_name":"Batuceper"},{"time":3,"i_lat":-6.169933,"transit":false,"station_name":"Poris","station_id":"PI","i_long":106.679458,"line":5,"distance":1834,"is_transit":false},{"time":3,"i_lat":-6.166068,"i_long":106.701612,"distance":2548,"is_transit":false,"line":5,"station_id":"KDS","transit":false,"station_name":"Kalideres"},{"is_transit":false,"distance":2504,"station_id":"RW","line":5,"station_name":"Rawa Buaya","i_lat":-6.162758,"transit":false,"time":3,"i_long":106.723064},{"transit":false,"is_transit":false,"station_name":"Bojongindah","station_id":"BOI","line":0,"i_lat":-6.159876,"i_long":106.737035,"time":4,"distance":1152},{"time":2,"distance":2334,"i_long":106.756522,"line":5,"station_id":"TKO","i_lat":-6.1587309999999995,"transit":false,"station_name":"Taman Kota","is_transit":false},{"line":5,"is_transit":false,"time":2,"i_long":106.771379,"i_lat":-6.161433,"transit":false,"distance":1614,"station_name":"Pesing","station_id":"PSG"},{"line":5,"is_transit":false,"station_name":"Grogol","transit":false,"station_id":"GGL","distance":2036,"i_lat":-6.162021,"time":2,"i_long":106.788277},{"distance":1700,"station_id":"DU","i_lat":-6.155215,"time":3,"i_long":106.800832,"line":1,"station_name":"Duri","transit":true,"is_transit":true},{"transit":false,"i_lat":-6.144674,"distance":1230,"station_name":"Angke","is_transit":false,"i_long":106.79867,"station_id":"AK","line":0,"time":4},{"transit":true,"station_id":"KPB","is_transit":true,"station_name":"Kampung Bandan","i_lat":-6.132549,"distance":4102,"i_long":106.826365,"line":0,"time":9},{"transit":false,"time":3,"distance":1444,"station_id":"RJW","is_transit":false,"i_lat":-6.14505,"i_long":106.836569,"line":11,"station_name":"Rajawali"},{"i_long":106.839204,"station_name":"Kemayoran","transit":false,"time":5,"i_lat":-6.161728,"is_transit":false,"line":11,"distance":1901,"station_id":"KMO"},{"distance":1436,"i_long":106.84368,"is_transit":false,"time":4,"i_lat":-6.174784,"line":11,"transit":false,"station_id":"PSE","station_name":"Pasar Senen"},{"i_long":106.850107,"is_transit":false,"station_id":"GST","time":8,"i_lat":-6.185975,"station_name":"Gang Sentiong","line":11,"transit":false,"distance":1567},{"time":1,"distance":973,"station_id":"KMT","i_lat":-6.193792,"i_long":106.855437,"station_name":"Kramat","is_transit":false,"line":11,"transit":false},{"transit":false,"station_name":"Pondok Jati","distance":1829,"i_lat":-6.209188,"station_id":"POK","i_long":106.861737,"line":11,"is_transit":false,"time":2},{"distance":1236,"line":0,"station_id":"JNG","i_long":106.86807400000001,"station_name":"Jatinegara","time":9,"is_transit":true,"transit":true,"i_lat":-6.215091},{"time":3,"transit":false,"station_name":"Klender","is_transit":false,"i_lat":-6.2135,"i_long":106.899548,"line":1,"distance":3395,"station_id":"KLD"},{"time":2,"distance":3100,"is_transit":false,"line":0,"station_id":"BUA","station_name":"Buaran","i_lat":-6.215568,"transit":false,"i_long":106.922662},{"line":1,"transit":false,"i_lat":-6.217455,"i_long":106.939679,"distance":1305,"is_transit":false,"time":1,"station_name":"Klenderbaru","station_id":"KLDB"},{"i_lat":-6.219053,"station_name":"Cakung","transit":false,"line":0,"distance":1385,"i_long":106.951283,"station_id":"CUK","is_transit":false,"time":8}],[{"i_long":106.64657,"distance":0,"is_transit":false,"station_name":"Tanah Tinggi","time":0,"station_id":"TTI","i_lat":-6.17331,"transit":false,"line":5},{"time":3,"i_lat":-6.171811,"distance":2028,"station_id":"BPR","line":0,"station_name":"Batuceper","transit":false,"is_transit":false,"i_long":106.665036},{"transit":false,"station_id":"PI","i_long":106.679458,"distance":1834,"time":3,"i_lat":-6.169933,"is_transit":false,"station_name":"Poris","line":5},{"transit":false,"station_id":"KDS","i_long":106.701612,"line":5,"distance":2548,"station_name":"Kalideres","time":3,"is_transit":false,"i_lat":-6.166068},{"station_id":"RW","time":3,"transit":false,"station_name":"Rawa Buaya","i_lat":-6.162758,"i_long":106.723064,"distance":2504,"is_transit":false,"line":5},{"i_lat":-6.159876,"time":4,"transit":false,"station_id":"BOI","station_name":"Bojongindah","i_long":106.737035,"is_transit":false,"line":0,"distance":1152},{"station_name":"Taman Kota","i_long":106.756522,"line":5,"transit":false,"time":2,"station_id":"TKO","is_transit":false,"i_lat":-6.1587309999999995,"distance":2334},{"transit":false,"station_name":"Pesing","station_id":"PSG","distance":1614,"i_long":106.771379,"line":5,"time":2,"is_transit":false,"i_lat":-6.161433},{"station_name":"Grogol","station_id":"GGL","i_lat":-6.162021,"is_transit":false,"i_long":106.788277,"transit":false,"distance":2036,"line":5,"time":2},{"transit":true,"distance":1700,"station_id":"DU","i_long":106.800832,"is_transit":true,"time":3,"line":1,"i_lat":-6.155215,"station_name":"Duri"},{"i_long":106.79867,"i_lat":-6.144674,"time":4,"distance":1230,"station_id":"AK","transit":false,"is_transit":false,"station_name":"Angke","line":0},{"transit":false,"time":9,"line":0,"i_lat":-6.132549,"station_name":"Kampung Bandan","distance":4102,"station_id":"KPB","is_transit":true,"i_long":106.826365},{"station_name":"Jakarta Kota","station_id":"JAKK","is_transit":true,"transit":true,"i_long":106.812439,"line":0,"i_lat":-6.137569,"distance":1364,"time":3},{"transit":false,"station_name":"Jayakarta","station_id":"JAY","line":7,"time":4,"distance":1264,"is_transit":false,"i_long":106.820901,"i_lat":-6.141205},{"transit":false,"is_transit":false,"distance":1080,"i_lat":-6.149769,"time":2,"station_id":"MGB","station_name":"Manggabesar","i_long":106.82482,"line":2},{"is_transit":false,"station_id":"SW","i_long":106.827103,"distance":906,"line":2,"i_lat":-6.160725,"station_name":"Sawah Besar","transit":false,"time":2},{"station_name":"Juanda","i_lat":-6.166716,"time":2,"is_transit":false,"line":2,"transit":false,"distance":1149,"i_long":106.828284,"station_id":"JUA"},{"station_name":"Gondangdia","i_lat":-6.186295,"distance":2015,"is_transit":false,"station_id":"GDD","i_long":106.832183,"line":2,"transit":false,"time":4},{"station_id":"CKI","time":3,"distance":1750,"i_lat":-6.198556,"i_long":106.840169,"station_name":"Cikini","line":0,"is_transit":false,"transit":false},{"is_transit":true,"time":4,"distance":1590,"i_long":106.84912,"i_lat":-6.209883,"line":0,"station_name":"Manggarai","transit":true,"station_id":"MRI"},{"distance":1275,"station_id":"MTR","time":2,"station_name":"Matraman","is_transit":false,"transit":false,"i_lat":-6.212485,"i_long":106.858896,"line":1},{"i_lat":-6.215091,"station_name":"Jatinegara","transit":false,"i_long":106.86807400000001,"distance":1377,"line":0,"time":8,"station_id":"JNG","is_transit":true},{"transit":false,"distance":3395,"station_id":"KLD","station_name":"Klender","i_lat":-6.2135,"i_long":106.899548,"line":1,"is_transit":false,"time":3},{"station_name":"Buaran","i_long":106.922662,"station_id":"BUA","is_transit":false,"i_lat":-6.215568,"distance":3100,"line":0,"time":2,"transit":false},{"station_name":"Klenderbaru","transit":false,"line":1,"is_transit":false,"i_lat":-6.217455,"i_long":106.939679,"station_id":"KLDB","time":1,"distance":1305},{"i_long":106.951283,"line":0,"station_id":"CUK","i_lat":-6.219053,"distance":1385,"time":8,"is_transit":false,"transit":false,"station_name":"Cakung"}],[{"i_long":106.64657,"is_transit":false,"station_id":"TTI","i_lat":-6.17331,"line":5,"transit":false,"time":0,"distance":0,"station_name":"Tanah Tinggi"},{"i_lat":-6.171811,"time":3,"station_id":"BPR","station_name":"Batuceper","line":0,"is_transit":false,"i_long":106.665036,"transit":false,"distance":2028},{"i_long":106.679458,"station_id":"PI","station_name":"Poris","is_transit":false,"line":5,"i_lat":-6.169933,"time":3,"distance":1834,"transit":false},{"is_transit":false,"transit":false,"i_lat":-6.166068,"station_id":"KDS","time":3,"station_name":"Kalideres","distance":2548,"i_long":106.701612,"line":5},{"station_name":"Rawa Buaya","distance":2504,"transit":false,"i_long":106.723064,"station_id":"RW","time":3,"is_transit":false,"i_lat":-6.162758,"line":5},{"time":4,"station_id":"BOI","i_lat":-6.159876,"is_transit":false,"distance":1152,"i_long":106.737035,"transit":false,"station_name":"Bojongindah","line":0},{"station_id":"TKO","time":2,"station_name":"Taman Kota","is_transit":false,"distance":2334,"transit":false,"i_long":106.756522,"i_lat":-6.1587309999999995,"line":5},{"is_transit":false,"distance":1614,"i_lat":-6.161433,"line":5,"station_id":"PSG","i_long":106.771379,"station_name":"Pesing","time":2,"transit":false},{"station_id":"GGL","time":2,"transit":false,"is_transit":false,"i_long":106.788277,"line":5,"distance":2036,"station_name":"Grogol","i_lat":-6.162021},{"distance":1700,"station_name":"Duri","line":1,"is_transit":true,"station_id":"DU","transit":true,"time":3,"i_lat":-6.155215,"i_long":106.800832},{"i_long":106.811091,"line":1,"time":8,"transit":false,"station_id":"THB","station_name":"Tanah Abang","is_transit":true,"i_lat":-6.185545,"distance":3632},{"is_transit":false,"i_lat":-6.20132,"station_id":"KAT","distance":2029,"i_long":106.816351,"station_name":"Karet","transit":false,"time":5,"line":1},{"line":1,"i_lat":-6.201433,"station_id":"SUDB","is_transit":false,"station_name":"Sudirman Baru","time":1,"distance":471,"i_long":106.819881,"transit":false},{"transit":false,"time":1,"distance":280,"station_id":"SUD","i_lat":-6.202263,"station_name":"Sudirman","i_long":106.822649,"line":1,"is_transit":false},{"i_lat":-6.209883,"time":4,"transit":true,"is_transit":true,"station_name":"Manggarai","line":0,"distance":3186,"station_id":"MRI","i_long":106.84912},{"i_lat":-6.198556,"distance":1590,"station_name":"Cikini","transit":false,"line":0,"is_transit":false,"station_id":"CKI","time":4,"i_long":106.840169},{"i_lat":-6.186295,"station_id":"GDD","i_long":106.832183,"station_name":"Gondangdia","line":2,"time":3,"distance":1750,"is_transit":false,"transit":false},{"station_name":"Juanda","i_long":106.828284,"line":2,"time":4,"i_lat":-6.166716,"transit":false,"station_id":"JUA","distance":2015,"is_transit":false},{"is_transit":false,"i_lat":-6.160725,"line":2,"transit":false,"time":2,"i_long":106.827103,"station_name":"Sawah Besar","distance":1149,"station_id":"SW"},{"station_name":"Manggabesar","station_id":"MGB","i_lat":-6.149769,"line":2,"is_transit":false,"i_long":106.82482,"transit":false,"distance":906,"time":2},{"station_id":"JAY","distance":1080,"transit":false,"time":2,"station_name":"Jayakarta","i_lat":-6.141205,"i_long":106.820901,"line":7,"is_transit":false},{"i_lat":-6.137569,"line":0,"station_id":"JAKK","station_name":"Jakarta Kota","transit":true,"is_transit":true,"time":4,"i_long":106.812439,"distance":1264},{"time":3,"line":0,"is_transit":true,"i_lat":-6.132549,"transit":true,"distance":1364,"i_long":106.826365,"station_id":"KPB","station_name":"Kampung Bandan"},{"time":3,"i_long":106.836569,"station_id":"RJW","line":11,"is_transit":false,"transit":false,"distance":1444,"station_name":"Rajawali","i_lat":-6.14505},{"is_transit":false,"distance":1901,"station_name":"Kemayoran","i_long":106.839204,"time":5,"station_id":"KMO","i_lat":-6.161728,"transit":false,"line":11},{"distance":1436,"station_id":"PSE","station_name":"Pasar Senen","time":4,"is_transit":false,"i_lat":-6.174784,"i_long":106.84368,"line":11,"transit":false},{"i_lat":-6.185975,"i_long":106.850107,"line":11,"transit":false,"station_id":"GST","is_transit":false,"distance":1567,"time":8,"station_name":"Gang Sentiong"},{"transit":false,"distance":973,"station_name":"Kramat","i_lat":-6.193792,"time":1,"is_transit":false,"station_id":"KMT","i_long":106.855437,"line":11},{"line":11,"i_long":106.861737,"transit":false,"distance":1829,"station_name":"Pondok Jati","i_lat":-6.209188,"time":2,"station_id":"POK","is_transit":false},{"station_id":"JNG","station_name":"Jatinegara","is_transit":true,"i_lat":-6.215091,"line":0,"time":9,"distance":1236,"i_long":106.86807400000001,"transit":true},{"transit":false,"i_lat":-6.2135,"station_id":"KLD","station_name":"Klender","i_long":106.899548,"is_transit":false,"time":3,"line":1,"distance":3395},{"is_transit":false,"i_lat":-6.215568,"i_long":106.922662,"time":2,"station_name":"Buaran","line":0,"station_id":"BUA","distance":3100,"transit":false},{"i_long":106.939679,"line":1,"is_transit":false,"distance":1305,"station_id":"KLDB","station_name":"Klenderbaru","i_lat":-6.217455,"transit":false,"time":1},{"i_long":106.951283,"distance":1385,"line":0,"transit":false,"is_transit":false,"i_lat":-6.219053,"time":8,"station_id":"CUK","station_name":"Cakung"}]]}