{"data":[[{"time":0,"distance":0,"is_transit":false,"station_id":"TTI","i_long":106.64657,"i_lat":-6.17331,"station_name":"Tanah Tinggi","transit":false,"line":5},{"i_long":106.665036,"i_lat":-6.171811,"station_name":"Batuceper","line":5,"station_id":"BPR","is_transit":false,"transit":false,"time":3,"distance":2028},{"i_long":106.679458,"line":5,"distance":1834,"station_name":"Poris","time":3,"i_lat":-6.169933,"is_transit":false,"transit":false,"station_id":"PI"},{"distance":2548,"station_name":"Kalideres","station_id":"KDS","i_long":106.701612,"line":5,"i_lat":-6.166068,"transit":false,"time":3,"is_transit":false},{"station_name":"Rawa Buaya","station_id":"RW","distance":2504,"i_lat":-6.162758,"is_transit":false,"time":3,"i_long":106.723064,"line":5,"transit":false},{"line":5,"station_name":"Bojongindah","station_id":"BOI","is_transit":false,"transit":false,"i_lat":-6.159876,"distance":1152,"time":4,"i_long":106.737035},{"line":5,"i_lat":-6.1587309999999995,"distance":2334,"station_name":"Taman Kota","station_id":"TKO","time":2,"i_long":106.756522,"is_transit":false,"transit":false},{"distance":1614,"station_id":"PSG","line":5,"transit":false,"time":2,"i_lat":-6.161433,"i_long":106.771379,"is_transit":false,"station_name":"Pesing"},{"i_long":106.788277,"transit":false,"time":2,"i_lat":-6.162021,"station_name":"Grogol","distance":2036,"is_transit":false,"line":5,"station_id":"GGL"},{"transit":true,"time":3,"station_name":"Duri","line":1,"distance":1700,"i_lat":-6.155215,"i_long":106.800832,"is_transit":true,"station_id":"DU"},{"i_long":106.811091,"is_transit":true,"time":8,"distance":3632,"line":1,"station_name":"Tanah Abang","station_id":"THB","transit":true,"i_lat":-6.185545},{"transit":false,"i_long":106.79689,"i_lat":-6.207404,"station_name":"Palmerah","time":6,"is_transit":false,"line":6,"distance":3191,"station_id":"PLM"},{"is_transit":false,"transit":false,"station_id":"KBY","time":7,"i_lat":-6.237242,"i_long":106.780334,"distance":3737,"station_name":"Kebayoran","line":6},{"distance":6218,"station_name":"Pondokranji","is_transit":false,"time":8,"i_lat":-6.276362,"i_long":106.74273,"line":6,"station_id":"PDJ","transit":false},{"distance":2179,"time":3,"i_long":106.728916,"station_id":"JMU","i_lat":-6.288927,"station_name":"Jurangmangu","line":6,"transit":false,"is_transit":false},{"station_name":"Sudimara","transit":false,"distance":1994,"line":6,"station_id":"SDM","i_lat":-6.296963,"time":4,"is_transit":false,"i_long":106.712277},{"distance":4566,"time":6,"station_name":"Rawa Buntu","station_id":"RU","is_transit":false,"transit":false,"i_lat":-6.314823,"i_long":106.675475,"line":6},{"distance":2413,"station_id":"SRP","transit":false,"line":6,"i_lat":-6.319871,"is_transit":false,"station_name":"Serpong","time":4,"i_long":106.66566},{"transit":false,"time":4,"line":3,"station_id":"CSK","i_lat":-6.32484,"station_name":"Cisauk","is_transit":false,"distance":1784,"i_long":106.640411},{"distance":2519,"i_long":106.617853,"line":3,"station_id":"CC","station_name":"Cicayur","transit":false,"time":4,"is_transit":false,"i_lat":-6.329547},{"distance":5968,"transit":false,"time":8,"i_lat":-6.3441410000000005,"is_transit":false,"station_id":"PRP","line":6,"station_name":"Parung Panjang","i_long":106.568863},{"station_name":"Cilejit","distance":7025,"i_lat":-6.354349,"transit":false,"line":3,"i_long":106.508482,"station_id":"CJT","time":9,"is_transit":false}],[{"station_name":"Tanah Tinggi","station_id":"TTI","i_long":106.64657,"i_lat":-6.17331,"distance":0,"line":5,"time":0,"transit":false,"is_transit":false},{"station_id":"BPR","is_transit":false,"transit":false,"i_long":106.665036,"time":3,"i_lat":-6.171811,"line":5,"distance":2028,"station_name":"Batuceper"},{"station_id":"PI","i_long":106.679458,"station_name":"Poris","distance":1834,"transit":false,"is_transit":false,"line":5,"time":3,"i_lat":-6.169933},{"transit":false,"distance":2548,"station_id":"KDS","station_name":"Kalideres","is_transit":false,"i_lat":-6.166068,"i_long":106.701612,"line":5,"time":3},{"line":5,"station_id":"RW","station_name":"Rawa Buaya","is_transit":false,"transit":false,"time":3,"i_lat":-6.162758,"i_long":106.723064,"distance":2504},{"transit":false,"i_lat":-6.159876,"distance":1152,"station_name":"Bojongindah","is_transit":false,"i_long":106.737035,"station_id":"BOI","line":5,"time":4},{"i_long":106.756522,"is_transit":false,"transit":false,"time":2,"station_name":"Taman Kota","station_id":"TKO","distance":2334,"i_lat":-6.1587309999999995,"line":5},{"station_id":"PSG","i_long":106.771379,"line":5,"is_transit":false,"station_name":"Pesing","transit":false,"i_lat":-6.161433,"distance":1614,"time":2},{"i_long":106.788277,"time":2,"station_id":"GGL","i_lat":-6.162021,"is_transit":false,"station_name":"Grogol","distance":2036,"transit":false,"line":5},{"is_transit":true,"station_name":"Duri","time":3,"i_lat":-6.155215,"line":1,"transit":true,"station_id":"DU","i_long":106.800832,"distance":1700},{"i_long":106.79867,"station_name":"Angke","distance":1230,"transit":false,"i_lat":-6.144674,"is_transit":false,"station_id":"AK","time":4,"line":1},{"i_lat":-6.132549,"i_long":106.826365,"line":4,"station_id":"KPB","distance":4102,"time":9,"station_name":"Kampung Bandan","is_transit":true,"transit":true},{"distance":1364,"transit":true,"station_name":"Jakarta Kota","station_id":"JAKK","is_transit":true,"i_lat":-6.137569,"time":3,"i_long":106.812439,"line":2},{"is_transit":false,"distance":1264,"line":2,"i_long":106.820901,"i_lat":-6.141205,"transit":false,"station_name":"Jayakarta","station_id":"JAY","time":4},{"i_long":106.82482,"station_name":"Manggabesar","station_id":"MGB","transit":false,"time":2,"is_transit":false,"line":2,"distance":1080,"i_lat":-6.149769},{"time":2,"i_long":106.827103,"distance":906,"line":2,"i_lat":-6.160725,"is_transit":false,"station_name":"Sawah Besar","station_id":"SW","transit":false},{"distance":1149,"i_long":106.828284,"is_transit":false,"line":2,"transit":false,"time":2,"station_id":"JUA","i_lat":-6.166716,"station_name":"Juanda"},{"i_long":106.832183,"distance":2015,"station_id":"GDD","is_transit":false,"transit":false,"station_name":"Gondangdia","line":2,"time":4,"i_lat":-6.186295},{"time":3,"station_id":"CKI","i_long":106.840169,"line":2,"station_name":"Cikini","transit":false,"distance":1750,"is_transit":false,"i_lat":-6.198556},{"station_id":"MRI","distance":1590,"is_transit":true,"i_lat":-6.209883,"transit":true,"station_name":"Manggarai","time":4,"line":2,"i_long":106.84912},{"line":1,"time":4,"i_lat":-6.202263,"distance":3186,"station_name":"Sudirman","station_id":"SUD","is_transit":false,"transit":false,"i_long":106.822649},{"transit":false,"station_name":"Sudirman Baru","time":1,"distance":280,"station_id":"SUDB","i_long":106.819881,"i_lat":-6.201433,"line":1,"is_transit":false},{"station_id":"KAT","time":1,"i_long":106.816351,"transit":false,"is_transit":false,"i_lat":-6.20132,"line":1,"station_name":"Karet","distance":471},{"line":1,"station_name":"Tanah Abang","distance":2029,"i_long":106.811091,"i_lat":-6.185545,"transit":true,"station_id":"THB","time":5,"is_transit":true},{"distance":3191,"i_long":106.79689,"station_name":"Palmerah","transit":false,"line":6,"is_transit":false,"i_lat":-6.207404,"station_id":"PLM","time":6},{"distance":3737,"station_id":"KBY","station_name":"Kebayoran","line":6,"i_lat":-6.237242,"is_transit":false,"i_long":106.780334,"time":7,"transit":false},{"station_id":"PDJ","distance":6218,"station_name":"Pondokranji","i_long":106.74273,"time":8,"line":6,"i_lat":-6.276362,"is_transit":false,"transit":false},{"i_long":106.728916,"station_id":"JMU","is_transit":false,"transit":false,"time":3,"line":6,"station_name":"Jurangmangu","distance":2179,"i_lat":-6.288927},{"time":4,"station_id":"SDM","is_transit":false,"transit":false,"station_name":"Sudimara","i_long":106.712277,"distance":1994,"i_lat":-6.296963,"line":6},{"station_id":"RU","station_name":"Rawa Buntu","transit":false,"i_lat":-6.314823,"is_transit":false,"time":6,"line":6,"i_long":106.675475,"distance":4566},{"is_transit":false,"distance":2413,"station_id":"SRP","line":6,"i_lat":-6.319871,"time":4,"i_long":106.66566,"station_name":"Serpong","transit":false},{"station_name":"Cisauk","time":4,"i_lat":-6.32484,"is_transit":false,"station_id":"CSK","line":3,"i_long":106.640411,"distance":1784,"transit":false},{"transit":false,"time":4,"line":3,"distance":2519,"i_lat":-6.329547,"station_name":"Cicayur","i_long":106.617853,"is_transit":false,"station_id":"CC"},{"station_id":"PRP","i_lat":-6.3441410000000005,"i_long":106.568863,"station_name":"Parung Panjang","line":6,"is_transit":false,"transit":false,"distance":5968,"time":8},{"transit":false,"time":9,"distance":7025,"is_transit":false,"station_id":"CJT","station_name":"Cilejit","i_lat":-6.354349,"i_long":106.508482,"line":3}],[{"time":0,"is_transit":false,"i_long":106.64657,"i_lat":-6.17331,"station_name":"Tanah Tinggi","station_id":"TTI","line":5,"transit":false,"distance":0},{"transit":false,"time":3,"station_id":"BPR","is_transit":false,"station_name":"Batuceper","line":5,"distance":2028,"i_long":106.665036,"i_lat":-6.171811},{"i_long":106.679458,"station_id":"PI","is_transit":false,"distance":1834,"station_name":"Poris","line":5,"time":3,"i_lat":-6.169933,"transit":false},{"time":3,"transit":false,"station_name":"Kalideres","station_id":"KDS","distance":2548,"is_transit":false,"line":5,"i_lat":-6.166068,"i_long":106.701612},{"transit":false,"is_transit":false,"distance":2504,"station_name":"Rawa Buaya","i_lat":-6.162758,"i_long":106.723064,"time":3,"line":5,"station_id":"RW"},{"station_id":"BOI","time":4,"line":5,"distance":1152,"is_transit":false,"transit":false,"station_name":"Bojongindah","i_lat":-6.159876,"i_long":106.737035},{"i_long":106.756522,"transit":false,"is_transit":false,"i_lat":-6.1587309999999995,"station_name":"Taman Kota","distance":2334,"station_id":"TKO","line":5,"time":2},{"station_name":"Pesing","line":5,"station_id":"PSG","is_transit":false,"transit":false,"i_lat":-6.161433,"distance":1614,"time":2,"i_long":106.771379},{"time":2,"station_name":"Grogol","transit":false,"i_long":106.788277,"line":5,"is_transit":false,"station_id":"GGL","i_lat":-6.162021,"distance":2036},{"station_id":"DU","is_transit":true,"transit":true,"time":3,"i_long":106.800832,"station_name":"Duri","distance":1700,"i_lat":-6.155215,"line":1},{"station_name":"Angke","i_long":106.79867,"time":4,"transit":false,"distance":1230,"is_transit":false,"station_id":"AK","i_lat":-6.144674,"line":1},{"i_lat":-6.132549,"distance":4102,"station_id":"KPB","i_long":106.826365,"line":4,"station_name":"Kampung Bandan","is_transit":true,"time":9,"transit":true},{"station_id":"RJW","is_transit":false,"i_lat":-6.14505,"i_long":106.836569,"station_name":"Rajawali","transit":false,"time":3,"distance":1444,"line":11},{"station_name":"Kemayoran","is_transit":false,"line":11,"i_long":106.839204,"time":5,"i_lat":-6.161728,"station_id":"KMO","distance":1901,"transit":false},{"is_transit":false,"time":4,"line":11,"station_name":"Pasar Senen","station_id":"PSE","i_lat":-6.174784,"distance":1436,"i_long":106.84368,"transit":false},{"i_lat":-6.185975,"transit":false,"time":8,"station_id":"GST","i_long":106.850107,"line":11,"is_transit":false,"distance":1567,"station_name":"Gang Sentiong"},{"is_transit":false,"line":11,"transit":false,"time":1,"station_name":"Kramat","distance":973,"station_id":"KMT","i_lat":-6.193792,"i_long":106.855437},{"line":11,"transit":false,"i_long":106.861737,"distance":1829,"time":2,"station_id":"POK","station_name":"Pondok Jati","is_transit":false,"i_lat":-6.209188},{"transit":true,"station_name":"Jatinegara","time":9,"distance":1236,"station_id":"JNG","i_lat":-6.215091,"i_long":106.86807400000001,"is_transit":true,"line":1},{"station_id":"MTR","distance":1377,"is_transit":false,"station_name":"Matraman","i_long":106.858896,"transit":false,"i_lat":-6.212485,"time":2,"line":1},{"transit":false,"i_long":106.84912,"station_id":"MRI","distance":1275,"i_lat":-6.209883,"is_transit":false,"time":2,"station_name":"Manggarai","line":2},{"transit":false,"i_lat":-6.202263,"i_long":106.822649,"line":1,"time":4,"is_transit":false,"station_id":"SUD","station_name":"Sudirman","distance":3186},{"line":1,"is_transit":false,"station_id":"SUDB","transit":false,"i_lat":-6.201433,"station_name":"Sudirman Baru","distance":280,"time":1,"i_long":106.819881},{"time":1,"line":1,"station_name":"Karet","distance":471,"i_lat":-6.20132,"transit":false,"is_transit":false,"station_id":"KAT","i_long":106.816351},{"i_lat":-6.185545,"time":5,"is_transit":true,"station_id":"THB","line":1,"transit":true,"i_long":106.811091,"distance":2029,"station_name":"Tanah Abang"},{"is_transit":false,"distance":3191,"time":6,"station_name":"Palmerah","line":6,"transit":false,"i_long":106.79689,"station_id":"PLM","i_lat":-6.207404},{"station_id":"KBY","time":7,"line":6,"station_name":"Kebayoran","transit":false,"i_long":106.780334,"i_lat":-6.237242,"distance":3737,"is_transit":false},{"i_long":106.74273,"line":6,"station_id":"PDJ","is_transit":false,"distance":6218,"transit":false,"i_lat":-6.276362,"time":8,"station_name":"Pondokranji"},{"station_name":"Jurangmangu","time":3,"i_long":106.728916,"i_lat":-6.288927,"is_transit":false,"distance":2179,"line":6,"transit":false,"station_id":"JMU"},{"time":4,"distance":1994,"i_lat":-6.296963,"transit":false,"station_name":"Sudimara","i_long":106.712277,"station_id":"SDM","line":6,"is_transit":false},{"distance":4566,"station_name":"Rawa Buntu","time":6,"line":6,"station_id":"RU","is_transit":false,"transit":false,"i_lat":-6.314823,"i_long":106.675475},{"distance":2413,"i_lat":-6.319871,"i_long":106.66566,"station_id":"SRP","time":4,"transit":false,"is_transit":false,"station_name":"Serpong","line":6},{"station_id":"CSK","is_transit":false,"i_lat":-6.32484,"transit":false,"station_name":"Cisauk","time":4,"line":3,"distance":1784,"i_long":106.640411},{"time":4,"station_name":"Cicayur","transit":false,"is_transit":false,"i_lat":-6.329547,"i_long":106.617853,"station_id":"CC","line":3,"distance":2519},{"station_name":"Parung Panjang","station_id":"PRP","time":8,"is_transit":false,"i_lat":-6.3441410000000005,"distance":5968,"transit":false,"i_long":106.568863,"line":6},{"is_transit":false,"distance":7025,"line":3,"station_name":"Cilejit","i_long":106.508482,"transit":false,"station_id":"CJT","i_lat":-6.354349,"time":9}]]}