{"data":[[{"i_long":106.64657,"time":0,"station_name":"Tanah Tinggi","distance":0,"line":5,"transit":false,"station_id":"TTI","i_lat":-6.17331,"is_transit":false},{"station_name":"Batuceper","i_lat":-6.171811,"line":5,"transit":false,"is_transit":false,"distance":2028,"i_long":106.665036,"time":3,"station_id":"BPR"},{"transit":false,"time":3,"station_id":"PI","line":5,"distance":1834,"station_name":"Poris","is_transit":false,"i_long":106.679458,"i_lat":-6.169933},{"distance":2548,"transit":false,"is_transit":false,"i_long":106.701612,"line":5,"time":3,"station_id":"KDS","station_name":"Kalideres","i_lat":-6.166068},{"station_name":"Rawa Buaya","is_transit":false,"transit":false,"line":5,"distance":2504,"i_long":106.723064,"i_lat":-6.162758,"station_id":"RW","time":3},{"i_lat":-6.159876,"distance":1152,"i_long":106.737035,"station_name":"Bojongindah","is_transit":false,"time":4,"station_id":"BOI","line":5,"transit":false},{"time":2,"transit":false,"station_name":"Taman Kota","distance":2334,"is_transit":false,"station_id":"TKO","i_long":106.756522,"line":5,"i_lat":-6.1587309999999995},{"i_lat":-6.161433,"transit":false,"distance":1614,"station_name":"Pesing","time":2,"station_id":"PSG","is_transit":false,"i_long":106.771379,"line":5},{"line":5,"time":2,"distance":2036,"station_name":"Grogol","i_long":106.788277,"is_transit":false,"i_lat":-6.162021,"station_id":"GGL","transit":false},{"is_transit":true,"distance":1700,"station_id":"DU","transit":true,"i_long":106.800832,"time":3,"line":1,"station_name":"Duri","i_lat":-6.155215},{"distance":3632,"transit":true,"station_name":"Tanah Abang","i_lat":-6.185545,"time":8,"is_transit":true,"station_id":"THB","line":1,"i_long":106.811091},{"i_lat":-6.207404,"line":6,"distance":3191,"time":6,"station_name":"Palmerah","station_id":"PLM","is_transit":false,"i_long":106.79689,"transit":false},{"line":6,"station_id":"KBY","transit":false,"i_long":106.780334,"is_transit":false,"distance":3737,"station_name":"Kebayoran","time":7,"i_lat":-6.237242},{"station_id":"PDJ","is_transit":false,"i_long":106.74273,"transit":false,"i_lat":-6.276362,"line":6,"distance":6218,"station_name":"Pondokranji","time":8},{"is_transit":false,"station_name":"Jurangmangu","station_id":"JMU","distance":2179,"transit":false,"i_lat":-6.288927,"line":6,"time":3,"i_long":106.728916},{"i_long":106.712277,"transit":false,"time":4,"is_transit":false,"distance":1994,"line":6,"i_lat":-6.296963,"station_name":"Sudimara","station_id":"SDM"},{"time":6,"distance":4566,"station_id":"RU","station_name":"Rawa Buntu","i_lat":-6.314823,"i_long":106.675475,"is_transit":false,"transit":false,"line":6},{"station_name":"Serpong","station_id":"SRP","is_transit":false,"i_long":106.66566,"transit":false,"i_lat":-6.319871,"line":6,"time":4,"distance":2413}],[{"distance":0,"station_id":"TTI","time":0,"is_transit":false,"station_name":"Tanah Tinggi","line":5,"i_lat":-6.17331,"i_long":106.64657,"transit":false},{"time":3,"station_id":"BPR","i_lat":-6.171811,"i_long":106.665036,"is_transit":false,"distance":2028,"station_name":"Batuceper","transit":false,"line":5},{"is_transit":false,"time":3,"i_lat":-6.169933,"line":5,"transit":false,"station_id":"PI","i_long":106.679458,"station_name":"Poris","distance":1834},{"station_id":"KDS","i_lat":-6.166068,"time":3,"is_transit":false,"distance":2548,"station_name":"Kalideres","line":5,"transit":false,"i_long":106.701612},{"i_long":106.723064,"line":5,"is_transit":false,"time":3,"distance":2504,"station_id":"RW","i_lat":-6.162758,"transit":false,"station_name":"Rawa Buaya"},{"i_lat":-6.159876,"transit":false,"line":5,"station_id":"BOI","time":4,"is_transit":false,"distance":1152,"i_long":106.737035,"station_name":"Bojongindah"},{"line":5,"distance":2334,"transit":false,"time":2,"station_id":"TKO","i_long":106.756522,"station_name":"Taman Kota","i_lat":-6.1587309999999995,"is_transit":false},{"time":2,"transit":false,"is_transit":false,"i_long":106.771379,"distance":1614,"station_name":"Pesing","station_id":"PSG","line":5,"i_lat":-6.161433},{"i_lat":-6.162021,"line":5,"time":2,"i_long":106.788277,"transit":false,"distance":2036,"is_transit":false,"station_name":"Grogol","station_id":"GGL"},{"distance":1700,"is_transit":true,"transit":true,"time":3,"station_id":"DU","i_long":106.800832,"i_lat":-6.155215,"station_name":"Duri","line":1},{"is_transit":false,"line":1,"station_id":"AK","i_lat":-6.144674,"transit":false,"i_long":106.79867,"station_name":"Angke","distance":1230,"time":4},{"i_lat":-6.132549,"is_transit":true,"line":4,"transit":true,"time":9,"distance":4102,"station_id":"KPB","station_name":"Kampung Bandan","i_long":106.826365},{"station_id":"JAKK","time":3,"transit":true,"station_name":"Jakarta Kota","i_long":106.812439,"distance":1364,"is_transit":true,"line":2,"i_lat":-6.137569},{"i_long":106.820901,"is_transit":false,"time":4,"station_name":"Jayakarta","station_id":"JAY","i_lat":-6.141205,"line":2,"distance":1264,"transit":false},{"i_lat":-6.149769,"station_name":"Manggabesar","time":2,"transit":false,"is_transit":false,"station_id":"MGB","i_long":106.82482,"distance":1080,"line":2},{"distance":906,"line":2,"station_name":"Sawah Besar","i_lat":-6.160725,"i_long":106.827103,"time":2,"transit":false,"is_transit":false,"station_id":"SW"},{"i_long":106.828284,"station_id":"JUA","transit":false,"i_lat":-6.166716,"time":2,"is_transit":false,"line":2,"distance":1149,"station_name":"Juanda"},{"station_id":"GDD","distance":2015,"station_name":"Gondangdia","time":4,"transit":false,"is_transit":false,"i_long":106.832183,"i_lat":-6.186295,"line":2},{"station_name":"Cikini","time":3,"is_transit":false,"distance":1750,"station_id":"CKI","transit":false,"i_long":106.840169,"line":2,"i_lat":-6.198556},{"is_transit":true,"i_long":106.84912,"station_id":"MRI","distance":1590,"transit":true,"line":2,"i_lat":-6.209883,"time":4,"station_name":"Manggarai"},{"is_transit":false,"station_name":"Sudirman","transit":false,"i_long":106.822649,"distance":3186,"time":4,"line":1,"i_lat":-6.202263,"station_id":"SUD"},{"i_lat":-6.201433,"time":1,"station_id":"SUDB","distance":280,"i_long":106.819881,"station_name":"Sudirman Baru","line":1,"transit":false,"is_transit":false},{"time":1,"transit":false,"station_name":"Karet","i_lat":-6.20132,"line":1,"distance":471,"i_long":106.816351,"is_transit":false,"station_id":"KAT"},{"transit":true,"i_long":106.811091,"station_id":"THB","time":5,"is_transit":true,"station_name":"Tanah Abang","i_lat":-6.185545,"line":1,"distance":2029},{"line":6,"transit":false,"station_name":"Palmerah","distance":3191,"station_id":"PLM","i_long":106.79689,"time":6,"i_lat":-6.207404,"is_transit":false},{"distance":3737,"station_name":"Kebayoran","is_transit":false,"station_id":"KBY","time":7,"i_lat":-6.237242,"transit":false,"i_long":106.780334,"line":6},{"i_long":106.74273,"distance":6218,"station_name":"Pondokranji","is_transit":false,"time":8,"transit":false,"line":6,"i_lat":-6.276362,"station_id":"PDJ"},{"is_transit":false,"distance":2179,"station_name":"Jurangmangu","line":6,"transit":false,"i_long":106.728916,"time":3,"station_id":"JMU","i_lat":-6.288927},{"i_lat":-6.296963,"transit":false,"is_transit":false,"i_long":106.712277,"station_name":"Sudimara","time":4,"distance":1994,"line":6,"station_id":"SDM"},{"time":6,"line":6,"station_name":"Rawa Buntu","distance":4566,"is_transit":false,"station_id":"RU","i_lat":-6.314823,"transit":false,"i_long":106.675475},{"i_long":106.66566,"line":6,"station_id":"SRP","distance":2413,"station_name":"Serpong","time":4,"is_transit":false,"transit":false,"i_lat":-6.319871}],[{"transit":false,"station_id":"TTI","is_transit":false,"i_long":106.64657,"line":5,"distance":0,"i_lat":-6.17331,"station_name":"Tanah Tinggi","time":0},{"time":3,"is_transit":false,"distance":2028,"i_long":106.665036,"station_id":"BPR","station_name":"Batuceper","transit":false,"i_lat":-6.171811,"line":5},{"is_transit":false,"station_id":"PI","i_long":106.679458,"time":3,"distance":1834,"transit":false,"i_lat":-6.169933,"station_name":"Poris","line":5},{"transit":false,"distance":2548,"i_lat":-6.166068,"time":3,"station_name":"Kalideres","station_id":"KDS","line":5,"i_long":106.701612,"is_transit":false},{"time":3,"transit":false,"i_long":106.723064,"i_lat":-6.162758,"station_name":"Rawa Buaya","station_id":"RW","is_transit":false,"line":5,"distance":2504},{"line":5,"time":4,"distance":1152,"transit":false,"station_id":"BOI","is_transit":false,"station_name":"Bojongindah","i_lat":-6.159876,"i_long":106.737035},{"station_id":"TKO","distance":2334,"i_lat":-6.1587309999999995,"transit":false,"i_long":106.756522,"line":5,"time":2,"station_name":"Taman Kota","is_transit":false},{"i_lat":-6.161433,"distance":1614,"is_transit":false,"station_name":"Pesing","time":2,"i_long":106.771379,"line":5,"station_id":"PSG","transit":false},{"station_name":"Grogol","time":2,"transit":false,"is_transit":false,"distance":2036,"station_id":"GGL","i_lat":-6.162021,"i_long":106.788277,"line":5},{"station_id":"DU","distance":1700,"time":3,"i_long":106.800832,"station_name":"Duri","transit":true,"is_transit":true,"line":1,"i_lat":-6.155215},{"is_transit":false,"i_long":106.79867,"distance":1230,"line":1,"station_id":"AK","i_lat":-6.144674,"transit":false,"station_name":"Angke","time":4},{"i_long":106.826365,"is_transit":true,"line":4,"distance":4102,"time":9,"transit":true,"i_lat":-6.132549,"station_name":"Kampung Bandan","station_id":"KPB"},{"time":3,"i_long":106.836569,"line":11,"station_id":"RJW","station_name":"Rajawali","distance":1444,"is_transit":false,"i_lat":-6.14505,"transit":false},{"station_name":"Kemayoran","is_transit":false,"time":5,"station_id":"KMO","line":11,"distance":1901,"i_lat":-6.161728,"transit":false,"i_long":106.839204},{"i_long":106.84368,"transit":false,"distance":1436,"time":4,"station_id":"PSE","i_lat":-6.174784,"line":11,"is_transit":false,"station_name":"Pasar Senen"},{"i_long":106.850107,"is_transit":false,"transit":false,"i_lat":-6.185975,"line":11,"time":8,"distance":1567,"station_id":"GST","station_name":"Gang Sentiong"},{"line":11,"i_lat":-6.193792,"station_name":"Kramat","time":1,"station_id":"KMT","distance":973,"i_long":106.855437,"transit":false,"is_transit":false},{"distance":1829,"i_lat":-6.209188,"station_name":"Pondok Jati","transit":false,"line":11,"i_long":106.861737,"is_transit":false,"station_id":"POK","time":2},{"transit":true,"is_transit":true,"time":9,"i_long":106.86807400000001,"distance":1236,"line":1,"station_id":"JNG","station_name":"Jatinegara","i_lat":-6.215091},{"distance":1377,"is_transit":false,"line":1,"station_id":"MTR","time":2,"i_lat":-6.212485,"i_long":106.858896,"transit":false,"station_name":"Matraman"},{"time":2,"i_lat":-6.209883,"station_name":"Manggarai","distance":1275,"line":2,"i_long":106.84912,"station_id":"MRI","is_transit":false,"transit":false},{"station_name":"Sudirman","time":4,"station_id":"SUD","transit":false,"distance":3186,"i_lat":-6.202263,"is_transit":false,"line":1,"i_long":106.822649},{"station_name":"Sudirman Baru","is_transit":false,"station_id":"SUDB","distance":280,"i_long":106.819881,"line":1,"time":1,"transit":false,"i_lat":-6.201433},{"time":1,"station_name":"Karet","transit":false,"i_long":106.816351,"is_transit":false,"i_lat":-6.20132,"distance":471,"line":1,"station_id":"KAT"},{"station_name":"Tanah Abang","is_transit":true,"time":5,"distance":2029,"station_id":"THB","transit":true,"i_long":106.811091,"line":1,"i_lat":-6.185545},{"distance":3191,"line":6,"is_transit":false,"station_id":"PLM","i_long":106.79689,"i_lat":-6.207404,"time":6,"station_name":"Palmerah","transit":false},{"transit":false,"i_lat":-6.237242,"time":7,"station_id":"KBY","line":6,"station_name":"Kebayoran","i_long":106.780334,"distance":3737,"is_transit":false},{"station_name":"Pondokranji","station_id":"PDJ","i_lat":-6.276362,"i_long":106.74273,"line":6,"is_transit":false,"distance":6218,"time":8,"transit":false},{"is_transit":false,"i_lat":-6.288927,"i_long":106.728916,"station_name":"Jurangmangu","time":3,"station_id":"JMU","line":6,"distance":2179,"transit":false},{"is_transit":false,"station_name":"Sudimara","transit":false,"i_lat":-6.296963,"i_long":106.712277,"distance":1994,"station_id":"SDM","time":4,"line":6},{"is_transit":false,"station_name":"Rawa Buntu","station_id":"RU","line":6,"i_long":106.675475,"time":6,"transit":false,"i_lat":-6.314823,"distance":4566},{"is_transit":false,"time":4,"line":6,"station_name":"Serpong","transit":false,"i_long":106.66566,"distance":2413,"station_id":"SRP","i_lat":-6.319871}]]}