{"data":[[{"is_transit":false,"i_lat":-6.17331,"time":0,"i_long":106.64657,"line":5,"distance":0,"transit":false,"station_name":"Tanah Tinggi","station_id":"TTI"},{"station_name":"Batuceper","time":3,"i_lat":-6.171811,"i_long":106.665036,"is_transit":false,"distance":2028,"line":5,"station_id":"BPR","transit":false},{"transit":false,"time":3,"line":5,"i_long":106.679458,"station_id":"PI","distance":1834,"i_lat":-6.169933,"station_name":"Poris","is_transit":false},{"line":5,"station_id":"KDS","distance":2548,"i_lat":-6.166068,"is_transit":false,"station_name":"Kalideres","transit":false,"time":3,"i_long":106.701612},{"i_long":106.723064,"station_name":"Rawa Buaya","transit":false,"i_lat":-6.162758,"station_id":"RW","time":3,"distance":2504,"is_transit":false,"line":5},{"distance":1152,"station_name":"Bojongindah","i_lat":-6.159876,"transit":false,"is_transit":false,"station_id":"BOI","time":4,"line":5,"i_long":106.737035},{"i_lat":-6.1587309999999995,"line":5,"station_id":"TKO","distance":2334,"station_name":"Taman Kota","is_transit":false,"transit":false,"i_long":106.756522,"time":2},{"i_long":106.771379,"distance":1614,"station_name":"Pesing","transit":false,"time":2,"is_transit":false,"station_id":"PSG","line":5,"i_lat":-6.161433},{"is_transit":false,"i_lat":-6.162021,"line":5,"distance":2036,"transit":false,"station_name":"Grogol","time":2,"i_long":106.788277,"station_id":"GGL"},{"i_long":106.800832,"station_id":"DU","distance":1700,"transit":true,"i_lat":-6.155215,"station_name":"Duri","is_transit":true,"line":1,"time":3},{"line":1,"distance":3632,"station_name":"Tanah Abang","is_transit":false,"time":8,"i_lat":-6.185545,"transit":false,"station_id":"THB","i_long":106.811091},{"i_lat":-6.20132,"line":1,"is_transit":false,"i_long":106.816351,"station_id":"KAT","distance":2029,"station_name":"Karet","time":5,"transit":false}],[{"i_long":106.64657,"distance":0,"station_id":"TTI","transit":false,"i_lat":-6.17331,"line":5,"time":0,"station_name":"Tanah Tinggi","is_transit":false},{"distance":2028,"time":3,"transit":false,"line":5,"is_transit":false,"i_long":106.665036,"i_lat":-6.171811,"station_name":"Batuceper","station_id":"BPR"},{"is_transit":false,"i_long":106.679458,"station_name":"Poris","station_id":"PI","time":3,"i_lat":-6.169933,"distance":1834,"transit":false,"line":5},{"time":3,"line":5,"distance":2548,"station_name":"Kalideres","station_id":"KDS","i_lat":-6.166068,"i_long":106.701612,"is_transit":false,"transit":false},{"i_lat":-6.162758,"time":3,"station_name":"Rawa Buaya","distance":2504,"line":5,"transit":false,"station_id":"RW","i_long":106.723064,"is_transit":false},{"distance":1152,"station_name":"Bojongindah","i_lat":-6.159876,"i_long":106.737035,"transit":false,"station_id":"BOI","line":5,"is_transit":false,"time":4},{"station_id":"TKO","transit":false,"i_lat":-6.1587309999999995,"line":5,"time":2,"station_name":"Taman Kota","is_transit":false,"i_long":106.756522,"distance":2334},{"is_transit":false,"transit":false,"line":5,"i_long":106.771379,"station_name":"Pesing","station_id":"PSG","time":2,"i_lat":-6.161433,"distance":1614},{"station_name":"Grogol","transit":false,"station_id":"GGL","time":2,"i_lat":-6.162021,"is_transit":false,"distance":2036,"line":5,"i_long":106.788277},{"is_transit":true,"station_name":"Duri","time":3,"line":1,"station_id":"DU","i_long":106.800832,"distance":1700,"transit":true,"i_lat":-6.155215},{"distance":1230,"transit":false,"i_long":106.79867,"station_name":"Angke","time":4,"line":1,"station_id":"AK","is_transit":false,"i_lat":-6.144674},{"station_id":"KPB","station_name":"Kampung Bandan","is_transit":true,"i_long":106.826365,"transit":true,"time":9,"line":4,"i_lat":-6.132549,"distance":4102},{"is_transit":true,"transit":true,"time":3,"i_long":106.812439,"line":2,"station_id":"JAKK","station_name":"Jakarta Kota","distance":1364,"i_lat":-6.137569},{"station_id":"JAY","station_name":"Jayakarta","transit":false,"distance":1264,"time":4,"is_transit":false,"i_lat":-6.141205,"i_long":106.820901,"line":2},{"distance":1080,"station_name":"Manggabesar","is_transit":false,"time":2,"station_id":"MGB","i_long":106.82482,"line":2,"i_lat":-6.149769,"transit":false},{"line":2,"station_id":"SW","is_transit":false,"transit":false,"i_lat":-6.160725,"station_name":"Sawah Besar","time":2,"distance":906,"i_long":106.827103},{"distance":1149,"is_transit":false,"time":2,"line":2,"transit":false,"i_lat":-6.166716,"i_long":106.828284,"station_name":"Juanda","station_id":"JUA"},{"i_long":106.832183,"i_lat":-6.186295,"line":2,"time":4,"station_name":"Gondangdia","distance":2015,"is_transit":false,"transit":false,"station_id":"GDD"},{"distance":1750,"i_lat":-6.198556,"time":3,"station_name":"Cikini","i_long":106.840169,"transit":false,"station_id":"CKI","is_transit":false,"line":2},{"is_transit":true,"station_name":"Manggarai","station_id":"MRI","time":4,"i_long":106.84912,"i_lat":-6.209883,"line":2,"distance":1590,"transit":true},{"line":1,"station_name":"Sudirman","transit":false,"is_transit":false,"station_id":"SUD","i_lat":-6.202263,"time":4,"distance":3186,"i_long":106.822649},{"station_id":"SUDB","transit":false,"distance":280,"station_name":"Sudirman Baru","i_lat":-6.201433,"i_long":106.819881,"line":1,"time":1,"is_transit":false},{"i_lat":-6.20132,"station_id":"KAT","i_long":106.816351,"distance":471,"station_name":"Karet","transit":false,"time":1,"is_transit":false,"line":1}],[{"time":0,"i_long":106.64657,"i_lat":-6.17331,"transit":false,"line":5,"station_name":"Tanah Tinggi","is_transit":false,"distance":0,"station_id":"TTI"},{"transit":false,"station_id":"BPR","station_name":"Batuceper","line":5,"i_long":106.665036,"time":3,"is_transit":false,"i_lat":-6.171811,"distance":2028},{"time":3,"station_name":"Poris","transit":false,"i_long":106.679458,"distance":1834,"line":5,"station_id":"PI","is_transit":false,"i_lat":-6.169933},{"station_id":"KDS","is_transit":false,"transit":false,"i_lat":-6.166068,"station_name":"Kalideres","i_long":106.701612,"time":3,"line":5,"distance":2548},{"time":3,"i_lat":-6.162758,"line":5,"station_name":"Rawa Buaya","is_transit":false,"station_id":"RW","i_long":106.723064,"distance":2504,"transit":false},{"distance":1152,"i_long":106.737035,"i_lat":-6.159876,"is_transit":false,"station_id":"BOI","line":5,"time":4,"station_name":"Bojongindah","transit":false},{"station_id":"TKO","time":2,"station_name":"Taman Kota","i_lat":-6.1587309999999995,"is_transit":false,"transit":false,"i_long":106.756522,"distance":2334,"line":5},{"i_lat":-6.161433,"i_long":106.771379,"is_transit":false,"transit":false,"station_id":"PSG","time":2,"station_name":"Pesing","line":5,"distance":1614},{"station_id":"GGL","is_transit":false,"station_name":"Grogol","distance":2036,"transit":false,"i_long":106.788277,"time":2,"line":5,"i_lat":-6.162021},{"time":3,"station_name":"Duri","line":1,"is_transit":true,"distance":1700,"station_id":"DU","transit":true,"i_long":106.800832,"i_lat":-6.155215},{"distance":1230,"station_id":"AK","time":4,"transit":false,"i_long":106.79867,"is_transit":false,"station_name":"Angke","i_lat":-6.144674,"line":1},{"i_long":106.826365,"station_name":"Kampung Bandan","line":4,"station_id":"KPB","time":9,"transit":true,"distance":4102,"is_transit":true,"i_lat":-6.132549},{"station_name":"Rajawali","i_long":106.836569,"line":11,"i_lat":-6.14505,"is_transit":false,"station_id":"RJW","time":3,"transit":false,"distance":1444},{"transit":false,"station_name":"Kemayoran","is_transit":false,"station_id":"KMO","time":5,"i_lat":-6.161728,"i_long":106.839204,"line":11,"distance":1901},{"time":4,"station_id":"PSE","i_long":106.84368,"line":11,"is_transit":false,"transit":false,"distance":1436,"i_lat":-6.174784,"station_name":"Pasar Senen"},{"line":11,"distance":1567,"transit":false,"station_id":"GST","time":8,"station_name":"Gang Sentiong","is_transit":false,"i_long":106.850107,"i_lat":-6.185975},{"station_name":"Kramat","is_transit":false,"i_lat":-6.193792,"time":1,"transit":false,"line":11,"i_long":106.855437,"station_id":"KMT","distance":973},{"distance":1829,"time":2,"transit":false,"station_id":"POK","i_lat":-6.209188,"is_transit":false,"station_name":"Pondok Jati","i_long":106.861737,"line":11},{"station_name":"Jatinegara","transit":true,"i_long":106.86807400000001,"time":9,"distance":1236,"is_transit":true,"station_id":"JNG","line":1,"i_lat":-6.215091},{"time":2,"station_id":"MTR","i_lat":-6.212485,"line":1,"is_transit":false,"distance":1377,"station_name":"Matraman","i_long":106.858896,"transit":false},{"i_lat":-6.209883,"i_long":106.84912,"station_name":"Manggarai","transit":false,"distance":1275,"line":2,"is_transit":false,"station_id":"MRI","time":2},{"line":1,"station_name":"Sudirman","i_lat":-6.202263,"is_transit":false,"i_long":106.822649,"transit":false,"distance":3186,"station_id":"SUD","time":4},{"i_lat":-6.201433,"station_name":"Sudirman Baru","line":1,"station_id":"SUDB","time":1,"transit":false,"is_transit":false,"distance":280,"i_long":106.819881},{"is_transit":false,"station_name":"Karet","i_lat":-6.20132,"i_long":106.816351,"distance":471,"station_id":"KAT","line":1,"time":1,"transit":false}]]}