{"data":[[{"station_name":"Tanah Tinggi","distance":0,"time":0,"station_id":"TTI","is_transit":false,"i_long":106.64657,"i_lat":-6.17331,"transit":false,"line":5},{"i_lat":-6.171811,"time":3,"station_id":"BPR","i_long":106.665036,"line":5,"transit":false,"is_transit":false,"station_name":"Batuceper","distance":2028},{"time":3,"station_id":"PI","i_lat":-6.169933,"station_name":"Poris","i_long":106.679458,"distance":1834,"transit":false,"is_transit":false,"line":5},{"time":3,"is_transit":false,"station_id":"KDS","i_long":106.701612,"station_name":"Kalideres","i_lat":-6.166068,"line":5,"distance":2548,"transit":false},{"i_long":106.723064,"line":5,"station_name":"Rawa Buaya","distance":2504,"transit":false,"time":3,"i_lat":-6.162758,"station_id":"RW","is_transit":false},{"i_long":106.737035,"time":4,"station_name":"Bojongindah","i_lat":-6.159876,"line":5,"is_transit":false,"transit":false,"station_id":"BOI","distance":1152},{"i_long":106.756522,"i_lat":-6.1587309999999995,"distance":2334,"station_id":"TKO","station_name":"Taman Kota","is_transit":false,"time":2,"transit":false,"line":5},{"i_lat":-6.161433,"station_id":"PSG","time":2,"line":5,"is_transit":false,"i_long":106.771379,"station_name":"Pesing","transit":false,"distance":1614},{"i_lat":-6.162021,"transit":false,"line":5,"distance":2036,"i_long":106.788277,"time":2,"station_name":"Grogol","is_transit":false,"station_id":"GGL"},{"transit":true,"station_id":"DU","station_name":"Duri","time":3,"i_long":106.800832,"i_lat":-6.155215,"is_transit":true,"line":1,"distance":1700},{"line":1,"is_transit":true,"time":8,"transit":true,"i_long":106.811091,"i_lat":-6.185545,"distance":3632,"station_name":"Tanah Abang","station_id":"THB"},{"i_long":106.79689,"i_lat":-6.207404,"time":6,"line":6,"station_id":"PLM","station_name":"Palmerah","is_transit":false,"distance":3191,"transit":false},{"is_transit":false,"distance":3737,"station_name":"Kebayoran","time":7,"station_id":"KBY","line":6,"i_long":106.780334,"transit":false,"i_lat":-6.237242},{"line":6,"station_name":"Pondokranji","is_transit":false,"station_id":"PDJ","i_lat":-6.276362,"i_long":106.74273,"distance":6218,"transit":false,"time":8},{"is_transit":false,"station_name":"Jurangmangu","time":3,"i_long":106.728916,"station_id":"JMU","distance":2179,"i_lat":-6.288927,"line":6,"transit":false}],[{"is_transit":false,"station_name":"Tanah Tinggi","distance":0,"station_id":"TTI","i_lat":-6.17331,"i_long":106.64657,"line":5,"time":0,"transit":false},{"transit":false,"i_lat":-6.171811,"i_long":106.665036,"line":5,"station_name":"Batuceper","time":3,"is_transit":false,"distance":2028,"station_id":"BPR"},{"i_lat":-6.169933,"i_long":106.679458,"line":5,"station_id":"PI","distance":1834,"transit":false,"time":3,"station_name":"Poris","is_transit":false},{"transit":false,"station_id":"KDS","i_long":106.701612,"i_lat":-6.166068,"is_transit":false,"distance":2548,"line":5,"time":3,"station_name":"Kalideres"},{"distance":2504,"station_id":"RW","line":5,"time":3,"i_lat":-6.162758,"is_transit":false,"transit":false,"i_long":106.723064,"station_name":"Rawa Buaya"},{"transit":false,"line":5,"time":4,"i_lat":-6.159876,"station_name":"Bojongindah","i_long":106.737035,"distance":1152,"station_id":"BOI","is_transit":false},{"distance":2334,"time":2,"i_lat":-6.1587309999999995,"station_name":"Taman Kota","is_transit":false,"transit":false,"line":5,"station_id":"TKO","i_long":106.756522},{"transit":false,"station_id":"PSG","i_lat":-6.161433,"line":5,"time":2,"station_name":"Pesing","is_transit":false,"i_long":106.771379,"distance":1614},{"station_name":"Grogol","time":2,"i_lat":-6.162021,"i_long":106.788277,"station_id":"GGL","is_transit":false,"transit":false,"line":5,"distance":2036},{"i_lat":-6.155215,"i_long":106.800832,"time":3,"line":1,"is_transit":true,"transit":true,"distance":1700,"station_name":"Duri","station_id":"DU"},{"station_name":"Angke","distance":1230,"station_id":"AK","is_transit":false,"transit":false,"line":1,"time":4,"i_lat":-6.144674,"i_long":106.79867},{"is_transit":true,"transit":true,"time":9,"i_long":106.826365,"i_lat":-6.132549,"distance":4102,"station_name":"Kampung Bandan","station_id":"KPB","line":4},{"line":2,"transit":true,"is_transit":true,"i_lat":-6.137569,"i_long":106.812439,"distance":1364,"station_name":"Jakarta Kota","station_id":"JAKK","time":3},{"time":4,"station_name":"Jayakarta","transit":false,"station_id":"JAY","i_lat":-6.141205,"i_long":106.820901,"distance":1264,"line":2,"is_transit":false},{"i_long":106.82482,"line":2,"station_name":"Manggabesar","is_transit":false,"transit":false,"distance":1080,"time":2,"i_lat":-6.149769,"station_id":"MGB"},{"i_long":106.827103,"transit":false,"distance":906,"time":2,"is_transit":false,"station_id":"SW","i_lat":-6.160725,"station_name":"Sawah Besar","line":2},{"i_lat":-6.166716,"distance":1149,"i_long":106.828284,"station_id":"JUA","time":2,"is_transit":false,"station_name":"Juanda","transit":false,"line":2},{"line":2,"station_name":"Gondangdia","is_transit":false,"i_long":106.832183,"i_lat":-6.186295,"transit":false,"station_id":"GDD","distance":2015,"time":4},{"is_transit":false,"i_long":106.840169,"distance":1750,"time":3,"station_name":"Cikini","transit":false,"station_id":"CKI","i_lat":-6.198556,"line":2},{"is_transit":true,"time":4,"i_lat":-6.209883,"distance":1590,"station_id":"MRI","station_name":"Manggarai","i_long":106.84912,"transit":true,"line":2},{"is_transit":false,"distance":3186,"station_id":"SUD","time":4,"i_long":106.822649,"i_lat":-6.202263,"station_name":"Sudirman","line":1,"transit":false},{"line":1,"is_transit":false,"i_lat":-6.201433,"station_id":"SUDB","station_name":"Sudirman Baru","transit":false,"i_long":106.819881,"distance":280,"time":1},{"station_name":"Karet","i_long":106.816351,"station_id":"KAT","is_transit":false,"transit":false,"line":1,"distance":471,"time":1,"i_lat":-6.20132},{"station_name":"Tanah Abang","time":5,"line":1,"transit":true,"distance":2029,"i_lat":-6.185545,"i_long":106.811091,"station_id":"THB","is_transit":true},{"time":6,"is_transit":false,"i_long":106.79689,"i_lat":-6.207404,"line":6,"transit":false,"station_name":"Palmerah","station_id":"PLM","distance":3191},{"i_long":106.780334,"line":6,"is_transit":false,"distance":3737,"time":7,"station_id":"KBY","station_name":"Kebayoran","i_lat":-6.237242,"transit":false},{"distance":6218,"transit":false,"i_long":106.74273,"time":8,"i_lat":-6.276362,"station_name":"Pondokranji","is_transit":false,"station_id":"PDJ","line":6},{"station_name":"Jurangmangu","i_lat":-6.288927,"is_transit":false,"distance":2179,"station_id":"JMU","time":3,"transit":false,"i_long":106.728916,"line":6}],[{"time":0,"line":5,"station_name":"Tanah Tinggi","distance":0,"station_id":"TTI","is_transit":false,"transit":false,"i_long":106.64657,"i_lat":-6.17331},{"line":5,"station_id":"BPR","distance":2028,"time":3,"is_transit":false,"station_name":"Batuceper","i_lat":-6.171811,"transit":false,"i_long":106.665036},{"line":5,"distance":1834,"time":3,"station_name":"Poris","is_transit":false,"i_lat":-6.169933,"transit":false,"i_long":106.679458,"station_id":"PI"},{"transit":false,"station_name":"Kalideres","line":5,"is_transit":false,"station_id":"KDS","i_lat":-6.166068,"distance":2548,"time":3,"i_long":106.701612},{"transit":false,"line":5,"station_id":"RW","distance":2504,"station_name":"Rawa Buaya","time":3,"i_lat":-6.162758,"i_long":106.723064,"is_transit":false},{"i_lat":-6.159876,"is_transit":false,"station_id":"BOI","station_name":"Bojongindah","time":4,"line":5,"i_long":106.737035,"transit":false,"distance":1152},{"i_lat":-6.1587309999999995,"station_name":"Taman Kota","transit":false,"station_id":"TKO","time":2,"distance":2334,"i_long":106.756522,"line":5,"is_transit":false},{"i_lat":-6.161433,"station_name":"Pesing","is_transit":false,"time":2,"transit":false,"distance":1614,"station_id":"PSG","i_long":106.771379,"line":5},{"is_transit":false,"line":5,"distance":2036,"i_long":106.788277,"station_id":"GGL","time":2,"station_name":"Grogol","transit":false,"i_lat":-6.162021},{"station_name":"Duri","i_lat":-6.155215,"is_transit":true,"distance":1700,"transit":true,"i_long":106.800832,"line":1,"time":3,"station_id":"DU"},{"line":1,"time":4,"station_name":"Angke","is_transit":false,"station_id":"AK","i_lat":-6.144674,"distance":1230,"i_long":106.79867,"transit":false},{"is_transit":true,"station_name":"Kampung Bandan","line":4,"transit":true,"time":9,"station_id":"KPB","i_long":106.826365,"distance":4102,"i_lat":-6.132549},{"is_transit":false,"transit":false,"time":3,"i_lat":-6.14505,"line":11,"station_id":"RJW","i_long":106.836569,"distance":1444,"station_name":"Rajawali"},{"i_long":106.839204,"line":11,"transit":false,"station_id":"KMO","station_name":"Kemayoran","distance":1901,"is_transit":false,"i_lat":-6.161728,"time":5},{"time":4,"distance":1436,"transit":false,"station_id":"PSE","line":11,"is_transit":false,"station_name":"Pasar Senen","i_lat":-6.174784,"i_long":106.84368},{"is_transit":false,"station_id":"GST","transit":false,"line":11,"time":8,"station_name":"Gang Sentiong","i_lat":-6.185975,"i_long":106.850107,"distance":1567},{"is_transit":false,"distance":973,"station_id":"KMT","line":11,"i_long":106.855437,"station_name":"Kramat","time":1,"transit":false,"i_lat":-6.193792},{"transit":false,"is_transit":false,"i_long":106.861737,"distance":1829,"i_lat":-6.209188,"station_id":"POK","time":2,"station_name":"Pondok Jati","line":11},{"station_id":"JNG","i_lat":-6.215091,"distance":1236,"station_name":"Jatinegara","time":9,"line":1,"transit":true,"is_transit":true,"i_long":106.86807400000001},{"time":2,"line":1,"i_long":106.858896,"transit":false,"station_name":"Matraman","distance":1377,"is_transit":false,"station_id":"MTR","i_lat":-6.212485},{"is_transit":false,"i_long":106.84912,"line":2,"transit":false,"time":2,"distance":1275,"station_id":"MRI","i_lat":-6.209883,"station_name":"Manggarai"},{"time":4,"i_long":106.822649,"is_transit":false,"station_id":"SUD","transit":false,"distance":3186,"line":1,"i_lat":-6.202263,"station_name":"Sudirman"},{"transit":false,"i_long":106.819881,"line":1,"distance":280,"time":1,"is_transit":false,"i_lat":-6.201433,"station_name":"Sudirman Baru","station_id":"SUDB"},{"station_id":"KAT","i_lat":-6.20132,"is_transit":false,"time":1,"station_name":"Karet","i_long":106.816351,"line":1,"transit":false,"distance":471},{"time":5,"line":1,"transit":true,"distance":2029,"i_lat":-6.185545,"station_id":"THB","i_long":106.811091,"station_name":"Tanah Abang","is_transit":true},{"line":6,"station_name":"Palmerah","distance":3191,"station_id":"PLM","is_transit":false,"transit":false,"i_long":106.79689,"i_lat":-6.207404,"time":6},{"station_id":"KBY","station_name":"Kebayoran","line":6,"i_lat":-6.237242,"i_long":106.780334,"transit":false,"distance":3737,"time":7,"is_transit":false},{"station_id":"PDJ","distance":6218,"transit":false,"i_long":106.74273,"time":8,"station_name":"Pondokranji","i_lat":-6.276362,"line":6,"is_transit":false},{"transit":false,"is_transit":false,"line":6,"time":3,"station_id":"JMU","distance":2179,"i_lat":-6.288927,"station_name":"Jurangmangu","i_long":106.728916}]]}