{"data":[[{"station_id":"TTI","station_name":"Tanah Tinggi","i_lat":-6.17331,"distance":0,"is_transit":false,"time":0,"transit":false,"line":5,"i_long":106.64657},{"station_id":"BPR","transit":false,"i_lat":-6.171811,"station_name":"Batuceper","time":3,"distance":2028,"i_long":106.665036,"is_transit":false,"line":5},{"station_id":"PI","is_transit":false,"i_lat":-6.169933,"time":3,"i_long":106.679458,"transit":false,"station_name":"Poris","line":5,"distance":1834},{"i_lat":-6.166068,"distance":2548,"i_long":106.701612,"transit":false,"line":5,"time":3,"station_id":"KDS","is_transit":false,"station_name":"Kalideres"},{"is_transit":false,"time":3,"station_id":"RW","station_name":"Rawa Buaya","i_lat":-6.162758,"transit":false,"i_long":106.723064,"line":5,"distance":2504},{"line":5,"transit":false,"station_name":"Bojongindah","time":4,"station_id":"BOI","i_lat":-6.159876,"distance":1152,"is_transit":false,"i_long":106.737035},{"transit":false,"time":2,"i_long":106.756522,"line":5,"station_name":"Taman Kota","distance":2334,"is_transit":false,"i_lat":-6.1587309999999995,"station_id":"TKO"},{"transit":false,"time":2,"station_name":"Pesing","line":5,"is_transit":false,"i_lat":-6.161433,"distance":1614,"i_long":106.771379,"station_id":"PSG"},{"transit":false,"distance":2036,"station_id":"GGL","line":5,"i_lat":-6.162021,"i_long":106.788277,"is_transit":false,"station_name":"Grogol","time":2},{"station_name":"Duri","transit":true,"i_lat":-6.155215,"distance":1700,"station_id":"DU","time":3,"line":1,"i_long":106.800832,"is_transit":true},{"station_id":"THB","transit":false,"i_lat":-6.185545,"is_transit":false,"i_long":106.811091,"line":1,"station_name":"Tanah Abang","time":8,"distance":3632},{"line":1,"time":5,"i_lat":-6.20132,"station_name":"Karet","station_id":"KAT","is_transit":false,"transit":false,"distance":2029,"i_long":106.816351},{"time":1,"is_transit":false,"line":1,"distance":471,"station_id":"SUDB","transit":false,"i_long":106.819881,"i_lat":-6.201433,"station_name":"Sudirman Baru"},{"transit":false,"station_name":"Sudirman","time":1,"i_lat":-6.202263,"line":1,"station_id":"SUD","is_transit":false,"distance":280,"i_long":106.822649},{"i_long":106.84912,"line":2,"station_id":"MRI","transit":false,"is_transit":false,"station_name":"Manggarai","i_lat":-6.209883,"distance":3186,"time":4},{"i_long":106.858896,"distance":1275,"transit":false,"time":2,"station_id":"MTR","is_transit":false,"station_name":"Matraman","i_lat":-6.212485,"line":1},{"line":1,"time":8,"i_long":106.86807400000001,"station_id":"JNG","station_name":"Jatinegara","is_transit":false,"distance":1377,"i_lat":-6.215091,"transit":false},{"station_name":"Klender","is_transit":false,"i_long":106.899548,"i_lat":-6.2135,"time":3,"station_id":"KLD","line":1,"distance":3395,"transit":false},{"time":2,"line":1,"station_name":"Buaran","transit":false,"is_transit":false,"station_id":"BUA","i_long":106.922662,"i_lat":-6.215568,"distance":3100},{"i_lat":-6.217455,"i_long":106.939679,"station_name":"Klenderbaru","time":1,"station_id":"KLDB","distance":1305,"line":1,"is_transit":false,"transit":false},{"station_name":"Cakung","line":1,"time":8,"distance":1385,"transit":false,"station_id":"CUK","is_transit":false,"i_lat":-6.219053,"i_long":106.951283},{"is_transit":false,"time":3,"station_id":"KRI","line":1,"transit":false,"station_name":"Kranji","i_long":106.977657,"distance":3097,"i_lat":-6.224515},{"station_name":"Bekasi","time":4,"transit":false,"i_long":106.997013,"i_lat":-6.236616,"is_transit":false,"station_id":"BKS","distance":2520,"line":1},{"i_long":107.016735,"is_transit":false,"distance":2368,"station_name":"Bekasi Timur","transit":false,"i_lat":-6.248029,"line":1,"station_id":"BKST","time":2},{"i_long":107.055722,"station_name":"Tambun","time":7,"distance":4460,"station_id":"TB","i_lat":-6.258864,"line":1,"is_transit":false,"transit":false},{"time":3,"is_transit":false,"transit":false,"line":1,"station_id":"CIT","i_long":107.083084,"station_name":"Cibitung","i_lat":-6.261877,"distance":3420},{"line":1,"station_id":"TLM","distance":2800,"is_transit":false,"i_long":107.093313,"i_lat":-6.262938,"transit":false,"time":2,"station_name":"Metland Telaga Murni"}],[{"station_name":"Tanah Tinggi","time":0,"is_transit":false,"station_id":"TTI","i_lat":-6.17331,"distance":0,"transit":false,"i_long":106.64657,"line":5},{"line":5,"time":3,"station_name":"Batuceper","transit":false,"i_long":106.665036,"is_transit":false,"i_lat":-6.171811,"distance":2028,"station_id":"BPR"},{"line":5,"time":3,"station_name":"Poris","transit":false,"distance":1834,"station_id":"PI","is_transit":false,"i_long":106.679458,"i_lat":-6.169933},{"time":3,"i_long":106.701612,"is_transit":false,"line":5,"i_lat":-6.166068,"station_id":"KDS","distance":2548,"station_name":"Kalideres","transit":false},{"is_transit":false,"transit":false,"station_id":"RW","i_lat":-6.162758,"station_name":"Rawa Buaya","time":3,"line":5,"distance":2504,"i_long":106.723064},{"transit":false,"i_lat":-6.159876,"time":4,"distance":1152,"i_long":106.737035,"station_name":"Bojongindah","station_id":"BOI","line":5,"is_transit":false},{"i_long":106.756522,"is_transit":false,"station_name":"Taman Kota","i_lat":-6.1587309999999995,"time":2,"station_id":"TKO","transit":false,"line":5,"distance":2334},{"station_name":"Pesing","distance":1614,"station_id":"PSG","time":2,"transit":false,"i_lat":-6.161433,"i_long":106.771379,"is_transit":false,"line":5},{"time":2,"distance":2036,"is_transit":false,"i_long":106.788277,"i_lat":-6.162021,"line":5,"station_name":"Grogol","station_id":"GGL","transit":false},{"time":3,"is_transit":true,"i_lat":-6.155215,"station_name":"Duri","i_long":106.800832,"transit":true,"distance":1700,"line":1,"station_id":"DU"},{"station_id":"AK","distance":1230,"is_transit":false,"transit":false,"line":1,"time":4,"i_long":106.79867,"i_lat":-6.144674,"station_name":"Angke"},{"distance":4102,"transit":true,"i_long":106.826365,"i_lat":-6.132549,"station_name":"Kampung Bandan","is_transit":true,"station_id":"KPB","line":4,"time":9},{"time":3,"station_name":"Rajawali","distance":1444,"i_lat":-6.14505,"i_long":106.836569,"line":11,"is_transit":false,"station_id":"RJW","transit":false},{"i_long":106.839204,"station_id":"KMO","line":11,"transit":false,"time":5,"is_transit":false,"distance":1901,"i_lat":-6.161728,"station_name":"Kemayoran"},{"distance":1436,"line":11,"station_id":"PSE","i_long":106.84368,"transit":false,"station_name":"Pasar Senen","time":4,"is_transit":false,"i_lat":-6.174784},{"time":8,"transit":false,"is_transit":false,"station_id":"GST","i_lat":-6.185975,"line":11,"station_name":"Gang Sentiong","distance":1567,"i_long":106.850107},{"station_id":"KMT","line":11,"time":1,"i_lat":-6.193792,"station_name":"Kramat","distance":973,"is_transit":false,"transit":false,"i_long":106.855437},{"i_long":106.861737,"time":2,"station_id":"POK","transit":false,"line":11,"i_lat":-6.209188,"station_name":"Pondok Jati","distance":1829,"is_transit":false},{"time":9,"i_long":106.86807400000001,"line":1,"station_name":"Jatinegara","is_transit":true,"i_lat":-6.215091,"distance":1236,"transit":true,"station_id":"JNG"},{"time":3,"distance":3395,"station_name":"Klender","is_transit":false,"transit":false,"line":1,"station_id":"KLD","i_long":106.899548,"i_lat":-6.2135},{"i_lat":-6.215568,"i_long":106.922662,"transit":false,"distance":3100,"is_transit":false,"line":1,"station_id":"BUA","station_name":"Buaran","time":2},{"i_long":106.939679,"line":1,"distance":1305,"station_name":"Klenderbaru","is_transit":false,"time":1,"transit":false,"station_id":"KLDB","i_lat":-6.217455},{"station_id":"CUK","i_lat":-6.219053,"line":1,"transit":false,"station_name":"Cakung","time":8,"is_transit":false,"i_long":106.951283,"distance":1385},{"line":1,"station_name":"Kranji","time":3,"station_id":"KRI","is_transit":false,"distance":3097,"i_long":106.977657,"transit":false,"i_lat":-6.224515},{"i_long":106.997013,"station_name":"Bekasi","i_lat":-6.236616,"is_transit":false,"transit":false,"time":4,"distance":2520,"station_id":"BKS","line":1},{"transit":false,"station_id":"BKST","line":1,"time":2,"i_long":107.016735,"i_lat":-6.248029,"station_name":"Bekasi Timur","distance":2368,"is_transit":false},{"i_long":107.055722,"distance":4460,"line":1,"i_lat":-6.258864,"station_name":"Tambun","transit":false,"is_transit":false,"time":7,"station_id":"TB"},{"i_long":107.083084,"distance":3420,"i_lat":-6.261877,"transit":false,"line":1,"station_id":"CIT","is_transit":false,"time":3,"station_name":"Cibitung"},{"station_id":"TLM","station_name":"Metland Telaga Murni","distance":2800,"transit":false,"is_transit":false,"i_long":107.093313,"time":2,"line":1,"i_lat":-6.262938}],[{"i_lat":-6.17331,"distance":0,"time":0,"line":5,"transit":false,"is_transit":false,"station_name":"Tanah Tinggi","i_long":106.64657,"station_id":"TTI"},{"time":3,"i_lat":-6.171811,"is_transit":false,"line":5,"station_name":"Batuceper","distance":2028,"station_id":"BPR","transit":false,"i_long":106.665036},{"station_name":"Poris","distance":1834,"station_id":"PI","time":3,"line":5,"transit":false,"i_long":106.679458,"is_transit":false,"i_lat":-6.169933},{"transit":false,"i_lat":-6.166068,"time":3,"i_long":106.701612,"line":5,"is_transit":false,"distance":2548,"station_id":"KDS","station_name":"Kalideres"},{"station_name":"Rawa Buaya","i_long":106.723064,"station_id":"RW","time":3,"is_transit":false,"i_lat":-6.162758,"line":5,"distance":2504,"transit":false},{"station_name":"Bojongindah","station_id":"BOI","is_transit":false,"distance":1152,"i_long":106.737035,"line":5,"i_lat":-6.159876,"transit":false,"time":4},{"station_name":"Taman Kota","is_transit":false,"i_long":106.756522,"transit":false,"line":5,"time":2,"station_id":"TKO","i_lat":-6.1587309999999995,"distance":2334},{"station_name":"Pesing","time":2,"line":5,"i_long":106.771379,"station_id":"PSG","distance":1614,"is_transit":false,"transit":false,"i_lat":-6.161433},{"transit":false,"line":5,"time":2,"i_lat":-6.162021,"i_long":106.788277,"is_transit":false,"station_id":"GGL","distance":2036,"station_name":"Grogol"},{"distance":1700,"transit":true,"station_id":"DU","line":1,"time":3,"i_lat":-6.155215,"station_name":"Duri","is_transit":true,"i_long":106.800832},{"is_transit":false,"transit":false,"i_lat":-6.144674,"i_long":106.79867,"distance":1230,"line":1,"station_name":"Angke","time":4,"station_id":"AK"},{"station_name":"Kampung Bandan","transit":true,"i_long":106.826365,"is_transit":true,"station_id":"KPB","line":4,"time":9,"distance":4102,"i_lat":-6.132549},{"station_name":"Jakarta Kota","i_long":106.812439,"distance":1364,"line":2,"is_transit":true,"time":3,"station_id":"JAKK","i_lat":-6.137569,"transit":true},{"station_id":"JAY","line":2,"is_transit":false,"time":4,"transit":false,"distance":1264,"i_lat":-6.141205,"i_long":106.820901,"station_name":"Jayakarta"},{"station_id":"MGB","i_long":106.82482,"transit":false,"i_lat":-6.149769,"station_name":"Manggabesar","time":2,"distance":1080,"line":2,"is_transit":false},{"line":2,"station_name":"Sawah Besar","station_id":"SW","transit":false,"i_lat":-6.160725,"distance":906,"time":2,"i_long":106.827103,"is_transit":false},{"line":2,"is_transit":false,"station_name":"Juanda","station_id":"JUA","i_long":106.828284,"time":2,"distance":1149,"i_lat":-6.166716,"transit":false},{"is_transit":false,"time":4,"station_name":"Gondangdia","transit":false,"station_id":"GDD","line":2,"distance":2015,"i_long":106.832183,"i_lat":-6.186295},{"i_long":106.840169,"line":2,"i_lat":-6.198556,"station_name":"Cikini","time":3,"distance":1750,"is_transit":false,"transit":false,"station_id":"CKI"},{"station_id":"MRI","transit":true,"line":2,"station_name":"Manggarai","i_lat":-6.209883,"i_long":106.84912,"distance":1590,"time":4,"is_transit":true},{"station_name":"Matraman","is_transit":false,"distance":1275,"transit":false,"i_lat":-6.212485,"i_long":106.858896,"time":2,"station_id":"MTR","line":1},{"time":8,"i_lat":-6.215091,"line":1,"station_name":"Jatinegara","transit":false,"distance":1377,"is_transit":false,"i_long":106.86807400000001,"station_id":"JNG"},{"time":3,"distance":3395,"station_id":"KLD","transit":false,"i_long":106.899548,"i_lat":-6.2135,"station_name":"Klender","is_transit":false,"line":1},{"station_id":"BUA","line":1,"time":2,"i_long":106.922662,"i_lat":-6.215568,"distance":3100,"is_transit":false,"transit":false,"station_name":"Buaran"},{"transit":false,"distance":1305,"time":1,"station_id":"KLDB","i_lat":-6.217455,"line":1,"is_transit":false,"station_name":"Klenderbaru","i_long":106.939679},{"distance":1385,"is_transit":false,"transit":false,"time":8,"i_long":106.951283,"i_lat":-6.219053,"line":1,"station_name":"Cakung","station_id":"CUK"},{"station_id":"KRI","i_lat":-6.224515,"station_name":"Kranji","line":1,"distance":3097,"i_long":106.977657,"is_transit":false,"transit":false,"time":3},{"line":1,"distance":2520,"station_name":"Bekasi","station_id":"BKS","time":4,"is_transit":false,"i_lat":-6.236616,"transit":false,"i_long":106.997013},{"distance":2368,"i_lat":-6.248029,"time":2,"transit":false,"is_transit":false,"station_id":"BKST","i_long":107.016735,"station_name":"Bekasi Timur","line":1},{"station_name":"Tambun","transit":false,"line":1,"is_transit":false,"i_lat":-6.258864,"i_long":107.055722,"distance":4460,"time":7,"station_id":"TB"},{"distance":3420,"station_id":"CIT","transit":false,"i_long":107.083084,"time":3,"station_name":"Cibitung","is_transit":false,"i_lat":-6.261877,"line":1},{"i_long":107.093313,"transit":false,"station_name":"Metland Telaga Murni","time":2,"is_transit":false,"station_id":"TLM","distance":2800,"line":1,"i_lat":-6.262938}],[{"time":0,"station_name":"Tanah Tinggi","is_transit":false,"transit":false,"distance":0,"station_id":"TTI","i_lat":-6.17331,"i_long":106.64657,"line":5},{"station_name":"Batuceper","i_long":106.665036,"line":5,"i_lat":-6.171811,"transit":false,"distance":2028,"is_transit":false,"station_id":"BPR","time":3},{"time":3,"distance":1834,"is_transit":false,"transit":false,"i_lat":-6.169933,"station_name":"Poris","station_id":"PI","line":5,"i_long":106.679458},{"time":3,"is_transit":false,"line":5,"station_id":"KDS","station_name":"Kalideres","distance":2548,"i_lat":-6.166068,"transit":false,"i_long":106.701612},{"station_id":"RW","distance":2504,"i_long":106.723064,"transit":false,"line":5,"station_name":"Rawa Buaya","is_transit":false,"i_lat":-6.162758,"time":3},{"is_transit":false,"station_name":"Bojongindah","distance":1152,"transit":false,"station_id":"BOI","line":5,"time":4,"i_lat":-6.159876,"i_long":106.737035},{"distance":2334,"time":2,"i_lat":-6.1587309999999995,"transit":false,"station_id":"TKO","station_name":"Taman Kota","is_transit":false,"i_long":106.756522,"line":5},{"i_long":106.771379,"station_id":"PSG","station_name":"Pesing","distance":1614,"is_transit":false,"i_lat":-6.161433,"time":2,"transit":false,"line":5},{"i_lat":-6.162021,"time":2,"i_long":106.788277,"distance":2036,"station_name":"Grogol","is_transit":false,"station_id":"GGL","transit":false,"line":5},{"line":1,"station_name":"Duri","i_long":106.800832,"transit":true,"i_lat":-6.155215,"distance":1700,"time":3,"is_transit":true,"station_id":"DU"},{"i_long":106.811091,"time":8,"station_name":"Tanah Abang","distance":3632,"transit":false,"is_transit":false,"station_id":"THB","line":1,"i_lat":-6.185545},{"is_transit":false,"transit":false,"i_lat":-6.20132,"distance":2029,"line":1,"time":5,"station_name":"Karet","station_id":"KAT","i_long":106.816351},{"distance":471,"time":1,"transit":false,"is_transit":false,"i_long":106.819881,"station_id":"SUDB","i_lat":-6.201433,"station_name":"Sudirman Baru","line":1},{"line":1,"i_long":106.822649,"i_lat":-6.202263,"time":1,"is_transit":false,"transit":false,"distance":280,"station_name":"Sudirman","station_id":"SUD"},{"time":4,"distance":3186,"i_lat":-6.209883,"line":2,"station_id":"MRI","is_transit":true,"transit":true,"i_long":106.84912,"station_name":"Manggarai"},{"time":4,"distance":1590,"transit":false,"station_id":"CKI","i_lat":-6.198556,"i_long":106.840169,"is_transit":false,"line":2,"station_name":"Cikini"},{"station_id":"GDD","i_long":106.832183,"is_transit":false,"time":3,"station_name":"Gondangdia","i_lat":-6.186295,"distance":1750,"transit":false,"line":2},{"time":4,"i_lat":-6.166716,"i_long":106.828284,"distance":2015,"line":2,"is_transit":false,"transit":false,"station_name":"Juanda","station_id":"JUA"},{"station_id":"SW","distance":1149,"i_long":106.827103,"transit":false,"time":2,"station_name":"Sawah Besar","is_transit":false,"i_lat":-6.160725,"line":2},{"i_long":106.82482,"transit":false,"i_lat":-6.149769,"station_name":"Manggabesar","distance":906,"is_transit":false,"line":2,"station_id":"MGB","time":2},{"i_long":106.820901,"i_lat":-6.141205,"transit":false,"time":2,"line":2,"station_name":"Jayakarta","distance":1080,"is_transit":false,"station_id":"JAY"},{"station_name":"Jakarta Kota","distance":1264,"transit":true,"i_long":106.812439,"line":2,"time":4,"i_lat":-6.137569,"is_transit":true,"station_id":"JAKK"},{"is_transit":true,"i_long":106.826365,"distance":1364,"transit":true,"i_lat":-6.132549,"line":4,"time":3,"station_id":"KPB","station_name":"Kampung Bandan"},{"station_name":"Rajawali","time":3,"distance":1444,"i_long":106.836569,"line":11,"i_lat":-6.14505,"station_id":"RJW","transit":false,"is_transit":false},{"station_id":"KMO","station_name":"Kemayoran","is_transit":false,"i_lat":-6.161728,"i_long":106.839204,"time":5,"transit":false,"line":11,"distance":1901},{"i_lat":-6.174784,"distance":1436,"i_long":106.84368,"transit":false,"station_id":"PSE","line":11,"time":4,"station_name":"Pasar Senen","is_transit":false},{"time":8,"is_transit":false,"i_lat":-6.185975,"line":11,"transit":false,"station_name":"Gang Sentiong","station_id":"GST","distance":1567,"i_long":106.850107},{"transit":false,"station_name":"Kramat","station_id":"KMT","line":11,"time":1,"is_transit":false,"i_lat":-6.193792,"i_long":106.855437,"distance":973},{"i_long":106.861737,"station_id":"POK","distance":1829,"i_lat":-6.209188,"line":11,"time":2,"transit":false,"is_transit":false,"station_name":"Pondok Jati"},{"transit":true,"line":1,"is_transit":true,"i_long":106.86807400000001,"distance":1236,"station_id":"JNG","i_lat":-6.215091,"time":9,"station_name":"Jatinegara"},{"is_transit":false,"transit":false,"i_lat":-6.2135,"line":1,"station_name":"Klender","time":3,"distance":3395,"station_id":"KLD","i_long":106.899548},{"time":2,"station_id":"BUA","distance":3100,"i_lat":-6.215568,"i_long":106.922662,"line":1,"transit":false,"station_name":"Buaran","is_transit":false},{"i_lat":-6.217455,"line":1,"transit":false,"station_id":"KLDB","distance":1305,"station_name":"Klenderbaru","i_long":106.939679,"time":1,"is_transit":false},{"station_id":"CUK","is_transit":false,"i_long":106.951283,"distance":1385,"transit":false,"i_lat":-6.219053,"line":1,"station_name":"Cakung","time":8},{"transit":false,"i_long":106.977657,"line":1,"i_lat":-6.224515,"time":3,"station_name":"Kranji","distance":3097,"station_id":"KRI","is_transit":false},{"time":4,"station_name":"Bekasi","distance":2520,"is_transit":false,"transit":false,"line":1,"i_long":106.997013,"i_lat":-6.236616,"station_id":"BKS"},{"station_id":"BKST","i_long":107.016735,"line":1,"is_transit":false,"transit":false,"time":2,"station_name":"Bekasi Timur","i_lat":-6.248029,"distance":2368},{"distance":4460,"is_transit":false,"i_lat":-6.258864,"i_long":107.055722,"line":1,"time":7,"transit":false,"station_name":"Tambun","station_id":"TB"},{"transit":false,"i_long":107.083084,"station_name":"Cibitung","time":3,"distance":3420,"is_transit":false,"station_id":"CIT","i_lat":-6.261877,"line":1},{"distance":2800,"is_transit":false,"transit":false,"time":2,"station_name":"Metland Telaga Murni","i_long":107.093313,"i_lat":-6.262938,"line":1,"station_id":"TLM"}]]}