{"data":[[{"station_id":"TTI","i_lat":-6.17331,"station_name":"Tanah Tinggi","is_transit":false,"time":0,"i_long":106.64657,"line":5,"transit":false,"distance":0},{"station_name":"Batuceper","i_long":106.665036,"line":0,"transit":false,"distance":2028,"is_transit":false,"time":3,"i_lat":-6.171811,"station_id":"BPR"},{"line":5,"transit":false,"i_lat":-6.169933,"station_id":"PI","time":3,"i_long":106.679458,"station_name":"Poris","distance":1834,"is_transit":false},{"is_transit":false,"distance":2548,"transit":false,"time":3,"station_name":"Kalideres","station_id":"KDS","i_long":106.701612,"line":5,"i_lat":-6.166068},{"line":5,"i_long":106.723064,"transit":false,"distance":2504,"time":3,"i_lat":-6.162758,"station_name":"Rawa Buaya","station_id":"RW","is_transit":false},{"is_transit":false,"line":0,"distance":1152,"station_name":"Bojongindah","transit":false,"time":4,"i_long":106.737035,"station_id":"BOI","i_lat":-6.159876},{"i_long":106.756522,"distance":2334,"is_transit":false,"transit":false,"station_name":"Taman Kota","time":2,"line":5,"station_id":"TKO","i_lat":-6.1587309999999995},{"is_transit":false,"transit":false,"station_id":"PSG","station_name":"Pesing","time":2,"i_lat":-6.161433,"i_long":106.771379,"line":5,"distance":1614},{"station_id":"GGL","station_name":"Grogol","i_lat":-6.162021,"distance":2036,"i_long":106.788277,"line":5,"is_transit":false,"transit":false,"time":2},{"is_transit":true,"i_lat":-6.155215,"i_long":106.800832,"station_id":"DU","station_name":"Duri","distance":1700,"time":3,"line":1,"transit":true},{"is_transit":true,"station_name":"Tanah Abang","i_long":106.811091,"time":8,"i_lat":-6.185545,"station_id":"THB","line":1,"transit":false,"distance":3632},{"transit":false,"i_lat":-6.20132,"i_long":106.816351,"line":1,"distance":2029,"station_name":"Karet","time":5,"is_transit":false,"station_id":"KAT"}],[{"distance":0,"time":0,"transit":false,"i_long":106.64657,"line":5,"i_lat":-6.17331,"station_name":"Tanah Tinggi","is_transit":false,"station_id":"TTI"},{"distance":2028,"transit":false,"i_long":106.665036,"station_id":"BPR","line":0,"is_transit":false,"station_name":"Batuceper","time":3,"i_lat":-6.171811},{"station_id":"PI","station_name":"Poris","distance":1834,"i_lat":-6.169933,"line":5,"is_transit":false,"transit":false,"time":3,"i_long":106.679458},{"station_id":"KDS","time":3,"distance":2548,"transit":false,"line":5,"is_transit":false,"station_name":"Kalideres","i_long":106.701612,"i_lat":-6.166068},{"distance":2504,"time":3,"i_lat":-6.162758,"station_id":"RW","is_transit":false,"line":5,"transit":false,"i_long":106.723064,"station_name":"Rawa Buaya"},{"distance":1152,"is_transit":false,"station_name":"Bojongindah","i_long":106.737035,"line":0,"transit":false,"time":4,"station_id":"BOI","i_lat":-6.159876},{"time":2,"station_id":"TKO","i_long":106.756522,"is_transit":false,"station_name":"Taman Kota","transit":false,"distance":2334,"i_lat":-6.1587309999999995,"line":5},{"time":2,"line":5,"i_lat":-6.161433,"i_long":106.771379,"is_transit":false,"distance":1614,"transit":false,"station_id":"PSG","station_name":"Pesing"},{"i_lat":-6.162021,"i_long":106.788277,"line":5,"time":2,"is_transit":false,"transit":false,"station_name":"Grogol","station_id":"GGL","distance":2036},{"station_name":"Duri","distance":1700,"transit":true,"is_transit":true,"time":3,"station_id":"DU","i_lat":-6.155215,"i_long":106.800832,"line":1},{"i_lat":-6.144674,"station_id":"AK","station_name":"Angke","line":0,"time":4,"is_transit":false,"distance":1230,"i_long":106.79867,"transit":false},{"station_name":"Kampung Bandan","station_id":"KPB","transit":false,"time":9,"is_transit":true,"i_lat":-6.132549,"i_long":106.826365,"line":0,"distance":4102},{"is_transit":true,"line":0,"i_long":106.812439,"i_lat":-6.137569,"station_name":"Jakarta Kota","transit":true,"distance":1364,"time":3,"station_id":"JAKK"},{"is_transit":false,"time":4,"i_long":106.820901,"transit":false,"line":7,"station_name":"Jayakarta","distance":1264,"i_lat":-6.141205,"station_id":"JAY"},{"i_lat":-6.149769,"distance":1080,"transit":false,"is_transit":false,"station_id":"MGB","time":2,"line":2,"station_name":"Manggabesar","i_long":106.82482},{"line":2,"station_id":"SW","distance":906,"i_lat":-6.160725,"station_name":"Sawah Besar","time":2,"is_transit":false,"transit":false,"i_long":106.827103},{"i_long":106.828284,"is_transit":false,"time":2,"line":2,"transit":false,"i_lat":-6.166716,"station_name":"Juanda","station_id":"JUA","distance":1149},{"time":4,"is_transit":false,"station_id":"GDD","station_name":"Gondangdia","i_lat":-6.186295,"i_long":106.832183,"line":2,"distance":2015,"transit":false},{"station_id":"CKI","line":0,"station_name":"Cikini","is_transit":false,"distance":1750,"transit":false,"time":3,"i_lat":-6.198556,"i_long":106.840169},{"station_name":"Manggarai","station_id":"MRI","i_long":106.84912,"transit":true,"time":4,"distance":1590,"line":0,"is_transit":true,"i_lat":-6.209883},{"time":4,"i_long":106.822649,"line":1,"distance":3186,"transit":false,"i_lat":-6.202263,"is_transit":false,"station_name":"Sudirman","station_id":"SUD"},{"i_long":106.819881,"i_lat":-6.201433,"station_id":"SUDB","transit":false,"line":1,"is_transit":false,"station_name":"Sudirman Baru","time":1,"distance":280},{"line":1,"distance":471,"station_name":"Karet","i_lat":-6.20132,"i_long":106.816351,"time":1,"is_transit":false,"transit":false,"station_id":"KAT"}],[{"is_transit":false,"i_lat":-6.17331,"station_id":"TTI","time":0,"i_long":106.64657,"line":5,"station_name":"Tanah Tinggi","distance":0,"transit":false},{"station_name":"Batuceper","is_transit":false,"station_id":"BPR","line":0,"distance":2028,"i_lat":-6.171811,"i_long":106.665036,"transit":false,"time":3},{"station_id":"PI","i_long":106.679458,"time":3,"transit":false,"distance":1834,"is_transit":false,"station_name":"Poris","line":5,"i_lat":-6.169933},{"station_id":"KDS","time":3,"station_name":"Kalideres","i_long":106.701612,"transit":false,"distance":2548,"is_transit":false,"i_lat":-6.166068,"line":5},{"station_id":"RW","i_long":106.723064,"distance":2504,"transit":false,"line":5,"station_name":"Rawa Buaya","i_lat":-6.162758,"is_transit":false,"time":3},{"i_long":106.737035,"transit":false,"station_id":"BOI","time":4,"is_transit":false,"i_lat":-6.159876,"line":0,"station_name":"Bojongindah","distance":1152},{"distance":2334,"is_transit":false,"station_id":"TKO","i_long":106.756522,"line":5,"i_lat":-6.1587309999999995,"station_name":"Taman Kota","time":2,"transit":false},{"line":5,"transit":false,"i_lat":-6.161433,"station_id":"PSG","station_name":"Pesing","is_transit":false,"distance":1614,"i_long":106.771379,"time":2},{"station_name":"Grogol","distance":2036,"time":2,"i_lat":-6.162021,"transit":false,"i_long":106.788277,"line":5,"is_transit":false,"station_id":"GGL"},{"i_long":106.800832,"station_name":"Duri","time":3,"station_id":"DU","is_transit":true,"distance":1700,"line":1,"transit":true,"i_lat":-6.155215},{"time":4,"distance":1230,"station_id":"AK","station_name":"Angke","transit":false,"is_transit":false,"i_lat":-6.144674,"i_long":106.79867,"line":0},{"is_transit":true,"transit":true,"i_long":106.826365,"line":0,"station_name":"Kampung Bandan","time":9,"station_id":"KPB","i_lat":-6.132549,"distance":4102},{"station_id":"RJW","i_long":106.836569,"i_lat":-6.14505,"line":11,"distance":1444,"time":3,"is_transit":false,"transit":false,"station_name":"Rajawali"},{"distance":1901,"transit":false,"station_id":"KMO","time":5,"is_transit":false,"line":11,"i_long":106.839204,"i_lat":-6.161728,"station_name":"Kemayoran"},{"station_id":"PSE","transit":false,"i_lat":-6.174784,"is_transit":false,"station_name":"Pasar Senen","distance":1436,"line":11,"time":4,"i_long":106.84368},{"i_long":106.850107,"station_id":"GST","is_transit":false,"time":8,"line":11,"distance":1567,"i_lat":-6.185975,"station_name":"Gang Sentiong","transit":false},{"i_lat":-6.193792,"station_name":"Kramat","line":11,"i_long":106.855437,"distance":973,"transit":false,"time":1,"is_transit":false,"station_id":"KMT"},{"station_id":"POK","station_name":"Pondok Jati","time":2,"is_transit":false,"distance":1829,"transit":false,"line":11,"i_long":106.861737,"i_lat":-6.209188},{"transit":true,"distance":1236,"time":9,"is_transit":true,"i_lat":-6.215091,"station_id":"JNG","station_name":"Jatinegara","line":0,"i_long":106.86807400000001},{"time":2,"station_id":"MTR","transit":false,"is_transit":false,"station_name":"Matraman","distance":1377,"i_lat":-6.212485,"line":1,"i_long":106.858896},{"transit":false,"distance":1275,"station_id":"MRI","station_name":"Manggarai","i_long":106.84912,"i_lat":-6.209883,"is_transit":true,"time":2,"line":0},{"time":4,"station_id":"SUD","station_name":"Sudirman","line":1,"is_transit":false,"i_lat":-6.202263,"transit":false,"distance":3186,"i_long":106.822649},{"distance":280,"station_id":"SUDB","i_long":106.819881,"transit":false,"is_transit":false,"station_name":"Sudirman Baru","line":1,"time":1,"i_lat":-6.201433},{"station_name":"Karet","is_transit":false,"distance":471,"transit":false,"line":1,"i_lat":-6.20132,"time":1,"station_id":"KAT","i_long":106.816351}]]}