{"data":[[{"station_name":"Tanah Tinggi","station_id":"TTI","time":0,"line":5,"i_lat":-6.17331,"transit":false,"is_transit":false,"distance":0,"i_long":106.64657},{"transit":false,"station_name":"Batuceper","time":3,"station_id":"BPR","is_transit":false,"i_long":106.665036,"distance":2028,"line":5,"i_lat":-6.171811},{"i_lat":-6.169933,"line":5,"transit":false,"distance":1834,"time":3,"station_id":"PI","is_transit":false,"station_name":"Poris","i_long":106.679458},{"is_transit":false,"station_name":"Kalideres","transit":false,"distance":2548,"i_lat":-6.166068,"line":5,"i_long":106.701612,"station_id":"KDS","time":3},{"station_name":"Rawa Buaya","time":3,"station_id":"RW","transit":false,"i_lat":-6.162758,"i_long":106.723064,"line":5,"distance":2504,"is_transit":false},{"is_transit":false,"distance":1152,"transit":false,"time":4,"station_name":"Bojongindah","i_lat":-6.159876,"line":5,"i_long":106.737035,"station_id":"BOI"},{"i_long":106.756522,"line":5,"is_transit":false,"transit":false,"station_name":"Taman Kota","i_lat":-6.1587309999999995,"station_id":"TKO","distance":2334,"time":2},{"station_name":"Pesing","transit":false,"i_long":106.771379,"distance":1614,"line":5,"station_id":"PSG","time":2,"i_lat":-6.161433,"is_transit":false},{"station_id":"GGL","transit":false,"distance":2036,"time":2,"line":5,"i_long":106.788277,"is_transit":false,"station_name":"Grogol","i_lat":-6.162021},{"i_lat":-6.155215,"line":1,"station_name":"Duri","i_long":106.800832,"transit":true,"distance":1700,"station_id":"DU","time":3,"is_transit":true},{"distance":3632,"i_long":106.811091,"time":8,"station_id":"THB","i_lat":-6.185545,"is_transit":false,"transit":false,"line":1,"station_name":"Tanah Abang"},{"i_long":106.816351,"is_transit":false,"station_id":"KAT","station_name":"Karet","i_lat":-6.20132,"line":1,"distance":2029,"time":5,"transit":false},{"i_long":106.819881,"line":1,"distance":471,"transit":false,"station_name":"Sudirman Baru","station_id":"SUDB","is_transit":false,"i_lat":-6.201433,"time":1},{"i_long":106.822649,"i_lat":-6.202263,"distance":280,"is_transit":false,"line":1,"station_id":"SUD","transit":false,"time":1,"station_name":"Sudirman"},{"line":2,"time":4,"i_lat":-6.209883,"is_transit":true,"i_long":106.84912,"station_id":"MRI","distance":3186,"transit":true,"station_name":"Manggarai"},{"station_name":"Tebet","time":4,"i_lat":-6.226659,"line":2,"distance":2610,"station_id":"TEB","is_transit":false,"i_long":106.857948,"transit":false},{"station_name":"Cawang","station_id":"CW","distance":1230,"time":2,"is_transit":false,"transit":false,"i_lat":-6.242512,"i_long":106.856607,"line":2},{"time":3,"station_name":"Duren Kalibata","station_id":"DRN","is_transit":false,"distance":1546,"i_long":106.85449,"i_lat":-6.255332,"transit":false,"line":2},{"time":2,"station_name":"Pasar Minggu Baru","line":2,"station_id":"PSMB","is_transit":false,"distance":824,"i_long":106.851577,"i_lat":-6.263214,"transit":false},{"station_id":"PSM","time":2,"i_long":106.843999,"distance":2380,"i_lat":-6.2842400000000005,"station_name":"Pasar Minggu","transit":false,"line":2,"is_transit":false},{"station_name":"Tanjung Barat","i_lat":-6.3080680000000005,"line":2,"time":4,"distance":2820,"station_id":"TNT","transit":false,"is_transit":false,"i_long":106.838896},{"i_long":106.832616,"line":2,"time":3,"distance":2671,"i_lat":-6.330363,"station_id":"LNA","transit":false,"is_transit":false,"station_name":"Lenteng Agung"},{"transit":false,"line":2,"i_lat":-6.339291,"is_transit":false,"distance":1029,"time":2,"station_id":"UP","station_name":"Univ. Pancasila","i_long":106.834175},{"station_id":"UI","line":2,"is_transit":false,"station_name":"Univ. Indonesia","transit":false,"i_lat":-6.360749,"distance":2264,"i_long":106.831474,"time":3},{"distance":1109,"time":2,"station_name":"Pondok Cina","i_long":106.831114,"transit":false,"line":2,"station_id":"POC","is_transit":false,"i_lat":-6.369073},{"is_transit":false,"distance":2727,"i_lat":-6.391065,"station_name":"Depokbaru","i_long":106.819451,"time":4,"transit":false,"station_id":"DPB","line":2},{"is_transit":false,"i_lat":-6.405256,"i_long":106.816926,"distance":1584,"station_id":"DP","station_name":"Depok","transit":false,"time":3,"line":2},{"transit":true,"line":2,"i_long":106.800298,"time":6,"station_id":"CTA","is_transit":true,"station_name":"Citayam","distance":5084,"i_lat":-6.448811},{"i_lat":-6.460735,"station_name":"Pondok Rajeg","time":0,"i_long":106.824374,"line":21,"transit":false,"distance":0,"is_transit":false,"station_id":"PDRG"},{"i_long":106.851978,"line":21,"transit":false,"station_name":"Cibinong","distance":0,"is_transit":false,"station_id":"CBN","time":0,"i_lat":-6.46424},{"is_transit":false,"i_long":106.905196,"line":21,"time":10,"distance":6527,"station_name":"Nambo","station_id":"NMO","i_lat":-6.466285,"transit":false}],[{"line":5,"is_transit":false,"transit":false,"station_name":"Tanah Tinggi","time":0,"distance":0,"i_long":106.64657,"i_lat":-6.17331,"station_id":"TTI"},{"line":5,"is_transit":false,"time":3,"station_name":"Batuceper","i_lat":-6.171811,"station_id":"BPR","transit":false,"distance":2028,"i_long":106.665036},{"i_long":106.679458,"is_transit":false,"time":3,"i_lat":-6.169933,"station_name":"Poris","station_id":"PI","line":5,"distance":1834,"transit":false},{"i_long":106.701612,"transit":false,"time":3,"i_lat":-6.166068,"distance":2548,"station_name":"Kalideres","station_id":"KDS","is_transit":false,"line":5},{"station_id":"RW","distance":2504,"transit":false,"i_lat":-6.162758,"i_long":106.723064,"line":5,"time":3,"station_name":"Rawa Buaya","is_transit":false},{"time":4,"line":5,"distance":1152,"is_transit":false,"station_name":"Bojongindah","i_lat":-6.159876,"station_id":"BOI","transit":false,"i_long":106.737035},{"is_transit":false,"station_id":"TKO","distance":2334,"transit":false,"station_name":"Taman Kota","i_long":106.756522,"line":5,"time":2,"i_lat":-6.1587309999999995},{"distance":1614,"time":2,"station_name":"Pesing","i_lat":-6.161433,"transit":false,"i_long":106.771379,"line":5,"is_transit":false,"station_id":"PSG"},{"time":2,"station_name":"Grogol","is_transit":false,"distance":2036,"transit":false,"station_id":"GGL","line":5,"i_lat":-6.162021,"i_long":106.788277},{"time":3,"station_name":"Duri","station_id":"DU","transit":true,"line":1,"is_transit":true,"distance":1700,"i_long":106.800832,"i_lat":-6.155215},{"i_long":106.79867,"station_name":"Angke","i_lat":-6.144674,"line":1,"time":4,"station_id":"AK","distance":1230,"transit":false,"is_transit":false},{"distance":4102,"line":4,"station_id":"KPB","i_lat":-6.132549,"i_long":106.826365,"time":9,"transit":true,"station_name":"Kampung Bandan","is_transit":true},{"i_lat":-6.137569,"distance":1364,"transit":true,"i_long":106.812439,"station_id":"JAKK","station_name":"Jakarta Kota","line":2,"time":3,"is_transit":true},{"i_lat":-6.141205,"time":4,"station_id":"JAY","distance":1264,"i_long":106.820901,"is_transit":false,"station_name":"Jayakarta","transit":false,"line":2},{"station_name":"Manggabesar","distance":1080,"line":2,"time":2,"is_transit":false,"transit":false,"i_lat":-6.149769,"i_long":106.82482,"station_id":"MGB"},{"i_lat":-6.160725,"station_name":"Sawah Besar","time":2,"station_id":"SW","i_long":106.827103,"transit":false,"line":2,"distance":906,"is_transit":false},{"station_id":"JUA","i_lat":-6.166716,"is_transit":false,"distance":1149,"station_name":"Juanda","transit":false,"time":2,"i_long":106.828284,"line":2},{"station_name":"Gondangdia","line":2,"time":4,"i_lat":-6.186295,"distance":2015,"station_id":"GDD","transit":false,"is_transit":false,"i_long":106.832183},{"distance":1750,"station_name":"Cikini","station_id":"CKI","line":2,"i_lat":-6.198556,"i_long":106.840169,"transit":false,"is_transit":false,"time":3},{"i_lat":-6.209883,"i_long":106.84912,"distance":1590,"is_transit":false,"station_id":"MRI","station_name":"Manggarai","line":2,"time":4,"transit":false},{"line":2,"is_transit":false,"transit":false,"time":4,"distance":2610,"i_long":106.857948,"i_lat":-6.226659,"station_id":"TEB","station_name":"Tebet"},{"distance":1230,"i_lat":-6.242512,"line":2,"station_id":"CW","i_long":106.856607,"station_name":"Cawang","transit":false,"time":2,"is_transit":false},{"transit":false,"is_transit":false,"line":2,"time":3,"i_lat":-6.255332,"station_id":"DRN","i_long":106.85449,"station_name":"Duren Kalibata","distance":1546},{"station_id":"PSMB","station_name":"Pasar Minggu Baru","i_long":106.851577,"line":2,"i_lat":-6.263214,"time":2,"transit":false,"distance":824,"is_transit":false},{"distance":2380,"station_name":"Pasar Minggu","time":2,"is_transit":false,"i_long":106.843999,"line":2,"i_lat":-6.2842400000000005,"station_id":"PSM","transit":false},{"is_transit":false,"station_id":"TNT","transit":false,"line":2,"distance":2820,"time":4,"i_long":106.838896,"station_name":"Tanjung Barat","i_lat":-6.3080680000000005},{"i_lat":-6.330363,"line":2,"is_transit":false,"i_long":106.832616,"station_id":"LNA","time":3,"transit":false,"station_name":"Lenteng Agung","distance":2671},{"station_id":"UP","is_transit":false,"station_name":"Univ. Pancasila","i_lat":-6.339291,"i_long":106.834175,"time":2,"distance":1029,"line":2,"transit":false},{"time":3,"station_name":"Univ. Indonesia","station_id":"UI","line":2,"i_long":106.831474,"distance":2264,"is_transit":false,"transit":false,"i_lat":-6.360749},{"distance":1109,"i_long":106.831114,"transit":false,"station_id":"POC","time":2,"is_transit":false,"station_name":"Pondok Cina","i_lat":-6.369073,"line":2},{"station_name":"Depokbaru","is_transit":false,"transit":false,"distance":2727,"i_long":106.819451,"i_lat":-6.391065,"time":4,"station_id":"DPB","line":2},{"station_id":"DP","station_name":"Depok","line":2,"time":3,"i_lat":-6.405256,"i_long":106.816926,"is_transit":false,"transit":false,"distance":1584},{"line":2,"distance":5084,"i_lat":-6.448811,"time":6,"station_name":"Citayam","station_id":"CTA","i_long":106.800298,"is_transit":true,"transit":true},{"is_transit":false,"distance":0,"transit":false,"time":0,"i_lat":-6.460735,"station_id":"PDRG","station_name":"Pondok Rajeg","i_long":106.824374,"line":21},{"transit":false,"station_name":"Cibinong","distance":0,"line":21,"is_transit":false,"time":0,"station_id":"CBN","i_long":106.851978,"i_lat":-6.46424},{"station_name":"Nambo","time":10,"i_long":106.905196,"line":21,"distance":6527,"is_transit":false,"i_lat":-6.466285,"transit":false,"station_id":"NMO"}],[{"station_name":"Tanah Tinggi","is_transit":false,"transit":false,"i_long":106.64657,"line":5,"distance":0,"time":0,"i_lat":-6.17331,"station_id":"TTI"},{"transit":false,"station_id":"BPR","station_name":"Batuceper","i_lat":-6.171811,"is_transit":false,"distance":2028,"time":3,"i_long":106.665036,"line":5},{"is_transit":false,"transit":false,"i_lat":-6.169933,"line":5,"time":3,"station_name":"Poris","distance":1834,"i_long":106.679458,"station_id":"PI"},{"i_long":106.701612,"i_lat":-6.166068,"time":3,"is_transit":false,"station_id":"KDS","station_name":"Kalideres","distance":2548,"transit":false,"line":5},{"i_long":106.723064,"line":5,"i_lat":-6.162758,"station_id":"RW","is_transit":false,"distance":2504,"transit":false,"time":3,"station_name":"Rawa Buaya"},{"transit":false,"distance":1152,"i_long":106.737035,"is_transit":false,"station_id":"BOI","station_name":"Bojongindah","i_lat":-6.159876,"line":5,"time":4},{"station_name":"Taman Kota","i_lat":-6.1587309999999995,"i_long":106.756522,"is_transit":false,"station_id":"TKO","time":2,"distance":2334,"transit":false,"line":5},{"station_id":"PSG","i_lat":-6.161433,"distance":1614,"i_long":106.771379,"line":5,"transit":false,"is_transit":false,"time":2,"station_name":"Pesing"},{"distance":2036,"transit":false,"station_id":"GGL","i_lat":-6.162021,"is_transit":false,"station_name":"Grogol","time":2,"line":5,"i_long":106.788277},{"i_long":106.800832,"transit":true,"line":1,"station_id":"DU","i_lat":-6.155215,"time":3,"is_transit":true,"station_name":"Duri","distance":1700},{"station_name":"Angke","station_id":"AK","transit":false,"time":4,"distance":1230,"is_transit":false,"i_lat":-6.144674,"i_long":106.79867,"line":1},{"transit":true,"line":4,"time":9,"i_long":106.826365,"station_id":"KPB","i_lat":-6.132549,"distance":4102,"station_name":"Kampung Bandan","is_transit":true},{"i_long":106.836569,"line":11,"is_transit":false,"transit":false,"station_name":"Rajawali","station_id":"RJW","distance":1444,"time":3,"i_lat":-6.14505},{"is_transit":false,"station_name":"Kemayoran","distance":1901,"i_lat":-6.161728,"i_long":106.839204,"transit":false,"station_id":"KMO","time":5,"line":11},{"i_long":106.84368,"line":11,"is_transit":false,"distance":1436,"transit":false,"i_lat":-6.174784,"time":4,"station_id":"PSE","station_name":"Pasar Senen"},{"is_transit":false,"station_id":"GST","distance":1567,"station_name":"Gang Sentiong","i_long":106.850107,"transit":false,"i_lat":-6.185975,"line":11,"time":8},{"i_lat":-6.193792,"i_long":106.855437,"station_name":"Kramat","is_transit":false,"transit":false,"time":1,"distance":973,"line":11,"station_id":"KMT"},{"transit":false,"i_long":106.861737,"is_transit":false,"line":11,"station_id":"POK","distance":1829,"i_lat":-6.209188,"time":2,"station_name":"Pondok Jati"},{"station_id":"JNG","transit":true,"line":1,"station_name":"Jatinegara","distance":1236,"i_long":106.86807400000001,"i_lat":-6.215091,"time":9,"is_transit":true},{"is_transit":false,"station_id":"MTR","i_lat":-6.212485,"line":1,"transit":false,"station_name":"Matraman","time":2,"i_long":106.858896,"distance":1377},{"i_long":106.84912,"station_id":"MRI","time":2,"distance":1275,"i_lat":-6.209883,"is_transit":true,"station_name":"Manggarai","transit":true,"line":2},{"time":4,"transit":false,"station_id":"TEB","i_lat":-6.226659,"is_transit":false,"i_long":106.857948,"line":2,"distance":2610,"station_name":"Tebet"},{"transit":false,"station_name":"Cawang","i_lat":-6.242512,"is_transit":false,"distance":1230,"i_long":106.856607,"line":2,"time":2,"station_id":"CW"},{"station_id":"DRN","is_transit":false,"distance":1546,"i_lat":-6.255332,"time":3,"station_name":"Duren Kalibata","line":2,"transit":false,"i_long":106.85449},{"station_id":"PSMB","line":2,"distance":824,"i_lat":-6.263214,"i_long":106.851577,"time":2,"transit":false,"is_transit":false,"station_name":"Pasar Minggu Baru"},{"i_long":106.843999,"station_id":"PSM","station_name":"Pasar Minggu","distance":2380,"time":2,"transit":false,"is_transit":false,"i_lat":-6.2842400000000005,"line":2},{"station_name":"Tanjung Barat","is_transit":false,"distance":2820,"i_long":106.838896,"transit":false,"line":2,"station_id":"TNT","time":4,"i_lat":-6.3080680000000005},{"i_long":106.832616,"station_name":"Lenteng Agung","is_transit":false,"line":2,"transit":false,"distance":2671,"station_id":"LNA","time":3,"i_lat":-6.330363},{"station_id":"UP","transit":false,"station_name":"Univ. Pancasila","time":2,"is_transit":false,"distance":1029,"line":2,"i_lat":-6.339291,"i_long":106.834175},{"i_long":106.831474,"distance":2264,"station_name":"Univ. Indonesia","transit":false,"i_lat":-6.360749,"is_transit":false,"time":3,"station_id":"UI","line":2},{"i_long":106.831114,"i_lat":-6.369073,"transit":false,"time":2,"is_transit":false,"station_id":"POC","distance":1109,"station_name":"Pondok Cina","line":2},{"station_id":"DPB","transit":false,"time":4,"distance":2727,"line":2,"is_transit":false,"i_lat":-6.391065,"i_long":106.819451,"station_name":"Depokbaru"},{"station_name":"Depok","station_id":"DP","time":3,"i_long":106.816926,"line":2,"distance":1584,"is_transit":false,"transit":false,"i_lat":-6.405256},{"station_name":"Citayam","distance":5084,"transit":true,"i_long":106.800298,"line":2,"i_lat":-6.448811,"is_transit":true,"time":6,"station_id":"CTA"},{"transit":false,"i_lat":-6.460735,"time":0,"distance":0,"station_id":"PDRG","station_name":"Pondok Rajeg","i_long":106.824374,"line":21,"is_transit":false},{"i_lat":-6.46424,"station_id":"CBN","station_name":"Cibinong","time":0,"i_long":106.851978,"is_transit":false,"transit":false,"line":21,"distance":0},{"i_long":106.905196,"line":21,"is_transit":false,"station_id":"NMO","station_name":"Nambo","time":10,"i_lat":-6.466285,"distance":6527,"transit":false}]]}