{"data":[[{"distance":0,"i_lat":-6.17331,"station_id":"TTI","line":5,"time":0,"transit":false,"station_name":"Tanah Tinggi","i_long":106.64657,"is_transit":false},{"line":5,"i_long":106.665036,"i_lat":-6.171811,"is_transit":false,"station_name":"Batuceper","station_id":"BPR","time":3,"transit":false,"distance":2028},{"time":3,"i_lat":-6.169933,"transit":false,"station_name":"Poris","distance":1834,"i_long":106.679458,"is_transit":false,"station_id":"PI","line":5},{"station_name":"Kalideres","i_lat":-6.166068,"station_id":"KDS","time":3,"distance":2548,"i_long":106.701612,"transit":false,"line":5,"is_transit":false},{"station_name":"Rawa Buaya","time":3,"i_lat":-6.162758,"is_transit":false,"distance":2504,"station_id":"RW","i_long":106.723064,"line":5,"transit":false},{"is_transit":false,"distance":1152,"transit":false,"line":5,"station_name":"Bojongindah","station_id":"BOI","time":4,"i_long":106.737035,"i_lat":-6.159876},{"station_id":"TKO","is_transit":false,"time":2,"transit":false,"distance":2334,"line":5,"i_lat":-6.1587309999999995,"station_name":"Taman Kota","i_long":106.756522},{"transit":false,"station_id":"PSG","i_lat":-6.161433,"distance":1614,"line":5,"is_transit":false,"i_long":106.771379,"station_name":"Pesing","time":2},{"i_lat":-6.162021,"distance":2036,"transit":false,"line":5,"station_id":"GGL","i_long":106.788277,"is_transit":false,"time":2,"station_name":"Grogol"},{"i_long":106.800832,"time":3,"line":1,"distance":1700,"is_transit":true,"i_lat":-6.155215,"station_id":"DU","transit":true,"station_name":"Duri"},{"station_id":"THB","time":8,"line":1,"transit":true,"station_name":"Tanah Abang","distance":3632,"i_long":106.811091,"is_transit":true,"i_lat":-6.185545},{"is_transit":false,"distance":3191,"time":6,"i_long":106.79689,"line":6,"i_lat":-6.207404,"station_name":"Palmerah","transit":false,"station_id":"PLM"},{"is_transit":false,"distance":3737,"line":6,"i_lat":-6.237242,"i_long":106.780334,"station_id":"KBY","time":7,"station_name":"Kebayoran","transit":false},{"time":8,"station_id":"PDJ","line":6,"distance":6218,"station_name":"Pondokranji","i_lat":-6.276362,"i_long":106.74273,"transit":false,"is_transit":false},{"i_long":106.728916,"transit":false,"station_name":"Jurangmangu","is_transit":false,"station_id":"JMU","i_lat":-6.288927,"distance":2179,"line":6,"time":3}],[{"station_name":"Tanah Tinggi","transit":false,"is_transit":false,"station_id":"TTI","distance":0,"i_lat":-6.17331,"i_long":106.64657,"time":0,"line":5},{"transit":false,"station_name":"Batuceper","distance":2028,"i_lat":-6.171811,"line":5,"i_long":106.665036,"time":3,"is_transit":false,"station_id":"BPR"},{"i_long":106.679458,"station_name":"Poris","distance":1834,"transit":false,"time":3,"i_lat":-6.169933,"station_id":"PI","is_transit":false,"line":5},{"is_transit":false,"i_long":106.701612,"time":3,"distance":2548,"station_id":"KDS","i_lat":-6.166068,"line":5,"station_name":"Kalideres","transit":false},{"distance":2504,"station_name":"Rawa Buaya","is_transit":false,"i_long":106.723064,"i_lat":-6.162758,"time":3,"station_id":"RW","transit":false,"line":5},{"station_id":"BOI","time":4,"transit":false,"i_lat":-6.159876,"distance":1152,"station_name":"Bojongindah","is_transit":false,"i_long":106.737035,"line":5},{"is_transit":false,"distance":2334,"station_id":"TKO","time":2,"i_long":106.756522,"transit":false,"station_name":"Taman Kota","i_lat":-6.1587309999999995,"line":5},{"line":5,"station_name":"Pesing","time":2,"i_long":106.771379,"i_lat":-6.161433,"transit":false,"station_id":"PSG","distance":1614,"is_transit":false},{"station_name":"Grogol","distance":2036,"i_lat":-6.162021,"time":2,"i_long":106.788277,"is_transit":false,"line":5,"transit":false,"station_id":"GGL"},{"is_transit":true,"i_long":106.800832,"i_lat":-6.155215,"line":1,"transit":true,"time":3,"distance":1700,"station_id":"DU","station_name":"Duri"},{"i_lat":-6.144674,"line":1,"station_id":"AK","time":4,"transit":false,"is_transit":false,"station_name":"Angke","i_long":106.79867,"distance":1230},{"is_transit":true,"i_long":106.826365,"distance":4102,"station_id":"KPB","i_lat":-6.132549,"transit":true,"station_name":"Kampung Bandan","line":4,"time":9},{"i_lat":-6.137569,"distance":1364,"line":2,"is_transit":true,"time":3,"station_name":"Jakarta Kota","transit":true,"i_long":106.812439,"station_id":"JAKK"},{"is_transit":false,"transit":false,"station_id":"JAY","distance":1264,"time":4,"line":2,"i_long":106.820901,"station_name":"Jayakarta","i_lat":-6.141205},{"distance":1080,"is_transit":false,"transit":false,"i_lat":-6.149769,"i_long":106.82482,"time":2,"station_id":"MGB","line":2,"station_name":"Manggabesar"},{"transit":false,"station_id":"SW","time":2,"station_name":"Sawah Besar","i_lat":-6.160725,"i_long":106.827103,"is_transit":false,"line":2,"distance":906},{"transit":false,"station_id":"JUA","time":2,"i_long":106.828284,"distance":1149,"station_name":"Juanda","is_transit":false,"i_lat":-6.166716,"line":2},{"distance":2015,"is_transit":false,"line":2,"time":4,"i_long":106.832183,"station_name":"Gondangdia","station_id":"GDD","transit":false,"i_lat":-6.186295},{"i_long":106.840169,"station_name":"Cikini","time":3,"line":2,"station_id":"CKI","transit":false,"is_transit":false,"distance":1750,"i_lat":-6.198556},{"station_name":"Manggarai","line":2,"station_id":"MRI","is_transit":true,"time":4,"distance":1590,"i_lat":-6.209883,"transit":true,"i_long":106.84912},{"distance":3186,"i_long":106.822649,"line":1,"station_name":"Sudirman","station_id":"SUD","i_lat":-6.202263,"is_transit":false,"transit":false,"time":4},{"transit":false,"station_name":"Sudirman Baru","is_transit":false,"distance":280,"i_lat":-6.201433,"station_id":"SUDB","time":1,"i_long":106.819881,"line":1},{"transit":false,"time":1,"i_lat":-6.20132,"station_id":"KAT","i_long":106.816351,"line":1,"station_name":"Karet","distance":471,"is_transit":false},{"i_long":106.811091,"distance":2029,"line":1,"station_id":"THB","transit":true,"station_name":"Tanah Abang","is_transit":true,"time":5,"i_lat":-6.185545},{"is_transit":false,"time":6,"i_long":106.79689,"line":6,"transit":false,"i_lat":-6.207404,"distance":3191,"station_name":"Palmerah","station_id":"PLM"},{"station_id":"KBY","line":6,"station_name":"Kebayoran","is_transit":false,"i_long":106.780334,"time":7,"transit":false,"i_lat":-6.237242,"distance":3737},{"i_lat":-6.276362,"distance":6218,"i_long":106.74273,"station_name":"Pondokranji","line":6,"station_id":"PDJ","time":8,"is_transit":false,"transit":false},{"is_transit":false,"i_lat":-6.288927,"distance":2179,"station_name":"Jurangmangu","time":3,"station_id":"JMU","line":6,"transit":false,"i_long":106.728916}],[{"i_lat":-6.17331,"station_name":"Tanah Tinggi","time":0,"distance":0,"is_transit":false,"line":5,"transit":false,"station_id":"TTI","i_long":106.64657},{"line":5,"is_transit":false,"time":3,"station_name":"Batuceper","i_lat":-6.171811,"station_id":"BPR","distance":2028,"i_long":106.665036,"transit":false},{"station_name":"Poris","station_id":"PI","i_long":106.679458,"distance":1834,"transit":false,"time":3,"i_lat":-6.169933,"line":5,"is_transit":false},{"transit":false,"station_id":"KDS","station_name":"Kalideres","time":3,"line":5,"is_transit":false,"i_lat":-6.166068,"distance":2548,"i_long":106.701612},{"distance":2504,"line":5,"station_id":"RW","time":3,"transit":false,"is_transit":false,"station_name":"Rawa Buaya","i_long":106.723064,"i_lat":-6.162758},{"transit":false,"is_transit":false,"station_name":"Bojongindah","i_long":106.737035,"line":5,"i_lat":-6.159876,"distance":1152,"time":4,"station_id":"BOI"},{"transit":false,"time":2,"i_lat":-6.1587309999999995,"is_transit":false,"station_name":"Taman Kota","distance":2334,"line":5,"i_long":106.756522,"station_id":"TKO"},{"time":2,"station_id":"PSG","transit":false,"distance":1614,"is_transit":false,"line":5,"i_long":106.771379,"station_name":"Pesing","i_lat":-6.161433},{"time":2,"distance":2036,"i_long":106.788277,"station_id":"GGL","i_lat":-6.162021,"is_transit":false,"line":5,"station_name":"Grogol","transit":false},{"station_id":"DU","i_lat":-6.155215,"transit":true,"time":3,"distance":1700,"i_long":106.800832,"line":1,"is_transit":true,"station_name":"Duri"},{"i_lat":-6.144674,"is_transit":false,"transit":false,"i_long":106.79867,"station_id":"AK","station_name":"Angke","line":1,"distance":1230,"time":4},{"transit":true,"is_transit":true,"station_name":"Kampung Bandan","time":9,"distance":4102,"line":4,"i_lat":-6.132549,"i_long":106.826365,"station_id":"KPB"},{"distance":1444,"i_lat":-6.14505,"station_name":"Rajawali","is_transit":false,"i_long":106.836569,"line":11,"time":3,"transit":false,"station_id":"RJW"},{"line":11,"time":5,"transit":false,"distance":1901,"is_transit":false,"station_name":"Kemayoran","i_long":106.839204,"station_id":"KMO","i_lat":-6.161728},{"station_id":"PSE","is_transit":false,"i_long":106.84368,"distance":1436,"station_name":"Pasar Senen","i_lat":-6.174784,"time":4,"line":11,"transit":false},{"station_id":"GST","transit":false,"time":8,"distance":1567,"i_long":106.850107,"line":11,"is_transit":false,"station_name":"Gang Sentiong","i_lat":-6.185975},{"time":1,"transit":false,"line":11,"i_lat":-6.193792,"distance":973,"is_transit":false,"station_id":"KMT","station_name":"Kramat","i_long":106.855437},{"transit":false,"station_id":"POK","is_transit":false,"i_long":106.861737,"distance":1829,"line":11,"i_lat":-6.209188,"station_name":"Pondok Jati","time":2},{"is_transit":true,"time":9,"i_long":106.86807400000001,"i_lat":-6.215091,"station_id":"JNG","distance":1236,"station_name":"Jatinegara","line":1,"transit":true},{"is_transit":false,"transit":false,"time":2,"distance":1377,"station_id":"MTR","i_lat":-6.212485,"i_long":106.858896,"station_name":"Matraman","line":1},{"station_id":"MRI","is_transit":false,"line":2,"transit":false,"time":2,"i_long":106.84912,"distance":1275,"i_lat":-6.209883,"station_name":"Manggarai"},{"i_lat":-6.202263,"distance":3186,"transit":false,"station_id":"SUD","station_name":"Sudirman","i_long":106.822649,"line":1,"is_transit":false,"time":4},{"i_lat":-6.201433,"line":1,"is_transit":false,"time":1,"station_name":"Sudirman Baru","distance":280,"transit":false,"station_id":"SUDB","i_long":106.819881},{"station_id":"KAT","distance":471,"is_transit":false,"time":1,"i_lat":-6.20132,"line":1,"i_long":106.816351,"transit":false,"station_name":"Karet"},{"station_id":"THB","i_lat":-6.185545,"station_name":"Tanah Abang","time":5,"line":1,"i_long":106.811091,"distance":2029,"is_transit":true,"transit":true},{"station_name":"Palmerah","i_lat":-6.207404,"i_long":106.79689,"distance":3191,"transit":false,"line":6,"station_id":"PLM","time":6,"is_transit":false},{"line":6,"time":7,"transit":false,"station_id":"KBY","station_name":"Kebayoran","is_transit":false,"distance":3737,"i_lat":-6.237242,"i_long":106.780334},{"is_transit":false,"distance":6218,"i_lat":-6.276362,"i_long":106.74273,"station_name":"Pondokranji","station_id":"PDJ","time":8,"transit":false,"line":6},{"station_name":"Jurangmangu","is_transit":false,"i_lat":-6.288927,"distance":2179,"transit":false,"line":6,"time":3,"i_long":106.728916,"station_id":"JMU"}]]}