{"data":[[{"transit":false,"line":5,"is_transit":false,"station_name":"Tanah Tinggi","distance":0,"i_long":106.64657,"i_lat":-6.17331,"time":0,"station_id":"TTI"},{"distance":2028,"i_long":106.665036,"time":3,"line":5,"is_transit":false,"station_id":"BPR","i_lat":-6.171811,"station_name":"Batuceper","transit":false},{"distance":1834,"is_transit":false,"transit":false,"station_name":"Poris","station_id":"PI","i_lat":-6.169933,"line":5,"time":3,"i_long":106.679458},{"station_id":"KDS","station_name":"Kalideres","i_long":106.701612,"is_transit":false,"time":3,"transit":false,"distance":2548,"i_lat":-6.166068,"line":5},{"i_lat":-6.162758,"transit":false,"station_name":"Rawa Buaya","is_transit":false,"time":3,"distance":2504,"station_id":"RW","line":5,"i_long":106.723064},{"is_transit":false,"time":4,"station_id":"BOI","distance":1152,"station_name":"Bojongindah","i_long":106.737035,"line":5,"i_lat":-6.159876,"transit":false},{"station_name":"Taman Kota","i_lat":-6.1587309999999995,"transit":false,"distance":2334,"i_long":106.756522,"line":5,"time":2,"station_id":"TKO","is_transit":false},{"i_lat":-6.161433,"line":5,"transit":false,"station_name":"Pesing","time":2,"i_long":106.771379,"is_transit":false,"station_id":"PSG","distance":1614},{"station_name":"Grogol","station_id":"GGL","transit":false,"i_lat":-6.162021,"time":2,"is_transit":false,"distance":2036,"i_long":106.788277,"line":5},{"time":3,"i_long":106.800832,"line":1,"station_name":"Duri","distance":1700,"i_lat":-6.155215,"station_id":"DU","is_transit":true,"transit":true},{"transit":false,"is_transit":false,"line":1,"station_name":"Tanah Abang","distance":3632,"i_long":106.811091,"station_id":"THB","i_lat":-6.185545,"time":8},{"station_id":"KAT","time":5,"station_name":"Karet","is_transit":false,"line":1,"transit":false,"i_long":106.816351,"i_lat":-6.20132,"distance":2029},{"i_long":106.819881,"i_lat":-6.201433,"station_id":"SUDB","station_name":"Sudirman Baru","distance":471,"transit":false,"is_transit":false,"time":1,"line":1},{"distance":280,"station_id":"SUD","time":1,"line":1,"i_lat":-6.202263,"is_transit":false,"transit":false,"i_long":106.822649,"station_name":"Sudirman"},{"is_transit":true,"i_lat":-6.209883,"station_id":"MRI","transit":true,"time":4,"i_long":106.84912,"distance":3186,"line":2,"station_name":"Manggarai"},{"transit":false,"station_id":"TEB","distance":2610,"line":2,"i_lat":-6.226659,"time":4,"i_long":106.857948,"station_name":"Tebet","is_transit":false},{"station_name":"Cawang","i_long":106.856607,"i_lat":-6.242512,"distance":1230,"station_id":"CW","transit":false,"line":2,"is_transit":false,"time":2},{"station_name":"Duren Kalibata","line":2,"is_transit":false,"time":3,"distance":1546,"transit":false,"station_id":"DRN","i_lat":-6.255332,"i_long":106.85449},{"station_id":"PSMB","line":2,"i_lat":-6.263214,"distance":824,"station_name":"Pasar Minggu Baru","transit":false,"time":2,"i_long":106.851577,"is_transit":false},{"transit":false,"is_transit":false,"station_name":"Pasar Minggu","distance":2380,"line":2,"i_long":106.843999,"time":2,"station_id":"PSM","i_lat":-6.2842400000000005},{"line":2,"station_name":"Tanjung Barat","is_transit":false,"transit":false,"station_id":"TNT","i_long":106.838896,"i_lat":-6.3080680000000005,"time":4,"distance":2820},{"station_id":"LNA","transit":false,"is_transit":false,"distance":2671,"station_name":"Lenteng Agung","i_lat":-6.330363,"i_long":106.832616,"line":2,"time":3},{"i_long":106.834175,"distance":1029,"line":2,"station_name":"Univ. Pancasila","time":2,"i_lat":-6.339291,"transit":false,"is_transit":false,"station_id":"UP"},{"is_transit":false,"time":3,"i_long":106.831474,"transit":false,"station_id":"UI","line":2,"distance":2264,"i_lat":-6.360749,"station_name":"Univ. Indonesia"}],[{"station_id":"TTI","station_name":"Tanah Tinggi","time":0,"i_lat":-6.17331,"distance":0,"is_transit":false,"i_long":106.64657,"transit":false,"line":5},{"transit":false,"i_long":106.665036,"distance":2028,"line":5,"station_name":"Batuceper","is_transit":false,"time":3,"i_lat":-6.171811,"station_id":"BPR"},{"is_transit":false,"i_long":106.679458,"line":5,"station_name":"Poris","i_lat":-6.169933,"time":3,"distance":1834,"station_id":"PI","transit":false},{"i_long":106.701612,"i_lat":-6.166068,"line":5,"station_id":"KDS","distance":2548,"time":3,"station_name":"Kalideres","transit":false,"is_transit":false},{"distance":2504,"i_lat":-6.162758,"transit":false,"i_long":106.723064,"station_name":"Rawa Buaya","is_transit":false,"time":3,"line":5,"station_id":"RW"},{"distance":1152,"is_transit":false,"transit":false,"time":4,"i_long":106.737035,"i_lat":-6.159876,"station_name":"Bojongindah","station_id":"BOI","line":5},{"is_transit":false,"time":2,"transit":false,"station_name":"Taman Kota","line":5,"station_id":"TKO","i_long":106.756522,"distance":2334,"i_lat":-6.1587309999999995},{"line":5,"transit":false,"is_transit":false,"distance":1614,"i_lat":-6.161433,"station_id":"PSG","i_long":106.771379,"time":2,"station_name":"Pesing"},{"line":5,"transit":false,"is_transit":false,"i_long":106.788277,"station_id":"GGL","station_name":"Grogol","time":2,"i_lat":-6.162021,"distance":2036},{"time":3,"station_id":"DU","is_transit":true,"i_lat":-6.155215,"transit":true,"station_name":"Duri","distance":1700,"i_long":106.800832,"line":1},{"station_name":"Angke","i_lat":-6.144674,"time":4,"transit":false,"distance":1230,"is_transit":false,"i_long":106.79867,"line":1,"station_id":"AK"},{"time":9,"transit":true,"distance":4102,"line":4,"i_lat":-6.132549,"i_long":106.826365,"station_name":"Kampung Bandan","station_id":"KPB","is_transit":true},{"time":3,"station_id":"JAKK","distance":1364,"line":2,"is_transit":true,"station_name":"Jakarta Kota","i_long":106.812439,"i_lat":-6.137569,"transit":true},{"distance":1264,"i_long":106.820901,"i_lat":-6.141205,"time":4,"line":2,"station_id":"JAY","transit":false,"is_transit":false,"station_name":"Jayakarta"},{"transit":false,"time":2,"station_id":"MGB","line":2,"is_transit":false,"station_name":"Manggabesar","i_long":106.82482,"i_lat":-6.149769,"distance":1080},{"i_long":106.827103,"station_id":"SW","distance":906,"station_name":"Sawah Besar","time":2,"line":2,"transit":false,"is_transit":false,"i_lat":-6.160725},{"transit":false,"station_name":"Juanda","is_transit":false,"time":2,"line":2,"station_id":"JUA","distance":1149,"i_long":106.828284,"i_lat":-6.166716},{"station_name":"Gondangdia","station_id":"GDD","i_lat":-6.186295,"time":4,"i_long":106.832183,"is_transit":false,"distance":2015,"line":2,"transit":false},{"station_id":"CKI","i_long":106.840169,"transit":false,"line":2,"station_name":"Cikini","distance":1750,"is_transit":false,"i_lat":-6.198556,"time":3},{"transit":false,"i_long":106.84912,"time":4,"is_transit":false,"line":2,"i_lat":-6.209883,"station_name":"Manggarai","station_id":"MRI","distance":1590},{"line":2,"transit":false,"station_name":"Tebet","time":4,"i_lat":-6.226659,"is_transit":false,"distance":2610,"station_id":"TEB","i_long":106.857948},{"i_long":106.856607,"time":2,"i_lat":-6.242512,"line":2,"station_id":"CW","station_name":"Cawang","is_transit":false,"distance":1230,"transit":false},{"station_name":"Duren Kalibata","i_long":106.85449,"i_lat":-6.255332,"distance":1546,"line":2,"station_id":"DRN","transit":false,"is_transit":false,"time":3},{"station_id":"PSMB","i_lat":-6.263214,"line":2,"is_transit":false,"time":2,"distance":824,"transit":false,"station_name":"Pasar Minggu Baru","i_long":106.851577},{"station_id":"PSM","i_long":106.843999,"i_lat":-6.2842400000000005,"transit":false,"is_transit":false,"station_name":"Pasar Minggu","distance":2380,"time":2,"line":2},{"transit":false,"time":4,"is_transit":false,"i_long":106.838896,"station_id":"TNT","i_lat":-6.3080680000000005,"line":2,"station_name":"Tanjung Barat","distance":2820},{"time":3,"i_long":106.832616,"station_id":"LNA","station_name":"Lenteng Agung","distance":2671,"transit":false,"line":2,"is_transit":false,"i_lat":-6.330363},{"distance":1029,"time":2,"station_id":"UP","i_lat":-6.339291,"is_transit":false,"station_name":"Univ. Pancasila","i_long":106.834175,"line":2,"transit":false},{"transit":false,"station_id":"UI","is_transit":false,"distance":2264,"time":3,"i_long":106.831474,"station_name":"Univ. Indonesia","i_lat":-6.360749,"line":2}],[{"i_long":106.64657,"line":5,"station_name":"Tanah Tinggi","transit":false,"station_id":"TTI","time":0,"distance":0,"is_transit":false,"i_lat":-6.17331},{"i_long":106.665036,"line":5,"time":3,"station_name":"Batuceper","transit":false,"station_id":"BPR","distance":2028,"is_transit":false,"i_lat":-6.171811},{"station_name":"Poris","time":3,"transit":false,"i_lat":-6.169933,"station_id":"PI","line":5,"is_transit":false,"distance":1834,"i_long":106.679458},{"line":5,"station_id":"KDS","transit":false,"is_transit":false,"distance":2548,"station_name":"Kalideres","time":3,"i_lat":-6.166068,"i_long":106.701612},{"distance":2504,"time":3,"line":5,"is_transit":false,"i_lat":-6.162758,"i_long":106.723064,"station_name":"Rawa Buaya","station_id":"RW","transit":false},{"time":4,"distance":1152,"i_lat":-6.159876,"i_long":106.737035,"transit":false,"is_transit":false,"line":5,"station_name":"Bojongindah","station_id":"BOI"},{"line":5,"station_name":"Taman Kota","i_lat":-6.1587309999999995,"i_long":106.756522,"station_id":"TKO","transit":false,"is_transit":false,"distance":2334,"time":2},{"i_lat":-6.161433,"is_transit":false,"time":2,"i_long":106.771379,"station_id":"PSG","transit":false,"station_name":"Pesing","line":5,"distance":1614},{"i_lat":-6.162021,"line":5,"station_id":"GGL","time":2,"is_transit":false,"distance":2036,"transit":false,"i_long":106.788277,"station_name":"Grogol"},{"time":3,"transit":true,"station_id":"DU","station_name":"Duri","i_long":106.800832,"line":1,"i_lat":-6.155215,"distance":1700,"is_transit":true},{"transit":false,"station_name":"Angke","line":1,"is_transit":false,"station_id":"AK","i_lat":-6.144674,"i_long":106.79867,"distance":1230,"time":4},{"transit":true,"is_transit":true,"station_name":"Kampung Bandan","i_long":106.826365,"distance":4102,"i_lat":-6.132549,"time":9,"line":4,"station_id":"KPB"},{"transit":false,"time":3,"i_lat":-6.14505,"distance":1444,"i_long":106.836569,"station_id":"RJW","is_transit":false,"line":11,"station_name":"Rajawali"},{"station_id":"KMO","time":5,"distance":1901,"transit":false,"station_name":"Kemayoran","i_long":106.839204,"is_transit":false,"line":11,"i_lat":-6.161728},{"time":4,"i_lat":-6.174784,"i_long":106.84368,"line":11,"station_name":"Pasar Senen","distance":1436,"station_id":"PSE","is_transit":false,"transit":false},{"station_name":"Gang Sentiong","i_long":106.850107,"is_transit":false,"line":11,"i_lat":-6.185975,"distance":1567,"station_id":"GST","time":8,"transit":false},{"distance":973,"transit":false,"time":1,"i_lat":-6.193792,"station_id":"KMT","line":11,"is_transit":false,"i_long":106.855437,"station_name":"Kramat"},{"distance":1829,"transit":false,"station_id":"POK","is_transit":false,"line":11,"i_long":106.861737,"time":2,"station_name":"Pondok Jati","i_lat":-6.209188},{"i_long":106.86807400000001,"transit":true,"line":1,"station_name":"Jatinegara","is_transit":true,"time":9,"i_lat":-6.215091,"station_id":"JNG","distance":1236},{"time":2,"line":1,"station_id":"MTR","distance":1377,"transit":false,"i_long":106.858896,"i_lat":-6.212485,"station_name":"Matraman","is_transit":false},{"is_transit":true,"distance":1275,"i_lat":-6.209883,"line":2,"station_name":"Manggarai","i_long":106.84912,"transit":true,"station_id":"MRI","time":2},{"line":2,"station_name":"Tebet","transit":false,"is_transit":false,"distance":2610,"time":4,"i_long":106.857948,"station_id":"TEB","i_lat":-6.226659},{"i_lat":-6.242512,"distance":1230,"station_id":"CW","station_name":"Cawang","time":2,"is_transit":false,"line":2,"i_long":106.856607,"transit":false},{"line":2,"time":3,"i_long":106.85449,"distance":1546,"transit":false,"station_id":"DRN","station_name":"Duren Kalibata","is_transit":false,"i_lat":-6.255332},{"transit":false,"distance":824,"i_lat":-6.263214,"time":2,"station_id":"PSMB","station_name":"Pasar Minggu Baru","is_transit":false,"i_long":106.851577,"line":2},{"i_lat":-6.2842400000000005,"time":2,"station_id":"PSM","station_name":"Pasar Minggu","i_long":106.843999,"is_transit":false,"line":2,"distance":2380,"transit":false},{"is_transit":false,"time":4,"transit":false,"line":2,"distance":2820,"i_long":106.838896,"station_id":"TNT","station_name":"Tanjung Barat","i_lat":-6.3080680000000005},{"i_long":106.832616,"is_transit":false,"transit":false,"distance":2671,"line":2,"station_name":"Lenteng Agung","station_id":"LNA","i_lat":-6.330363,"time":3},{"distance":1029,"i_long":106.834175,"line":2,"station_name":"Univ. Pancasila","time":2,"i_lat":-6.339291,"station_id":"UP","transit":false,"is_transit":false},{"transit":false,"line":2,"is_transit":false,"time":3,"distance":2264,"station_name":"Univ. Indonesia","i_long":106.831474,"i_lat":-6.360749,"station_id":"UI"}]]}