{"data":[[{"time":0,"distance":0,"is_transit":false,"station_id":"TTI","i_lat":-6.17331,"i_long":106.64657,"station_name":"Tanah Tinggi","line":5,"transit":false},{"line":5,"distance":2028,"station_name":"Batuceper","time":3,"is_transit":false,"i_long":106.665036,"station_id":"BPR","transit":false,"i_lat":-6.171811},{"transit":false,"i_lat":-6.169933,"line":5,"i_long":106.679458,"station_id":"PI","time":3,"station_name":"Poris","is_transit":false,"distance":1834},{"transit":false,"station_id":"KDS","i_lat":-6.166068,"time":3,"station_name":"Kalideres","is_transit":false,"i_long":106.701612,"distance":2548,"line":5},{"transit":false,"line":5,"i_lat":-6.162758,"station_name":"Rawa Buaya","distance":2504,"time":3,"i_long":106.723064,"is_transit":false,"station_id":"RW"},{"station_id":"BOI","time":4,"is_transit":false,"transit":false,"station_name":"Bojongindah","distance":1152,"i_long":106.737035,"line":5,"i_lat":-6.159876},{"is_transit":false,"i_long":106.756522,"line":5,"distance":2334,"i_lat":-6.1587309999999995,"transit":false,"time":2,"station_name":"Taman Kota","station_id":"TKO"},{"transit":false,"line":5,"i_lat":-6.161433,"i_long":106.771379,"station_id":"PSG","station_name":"Pesing","is_transit":false,"time":2,"distance":1614},{"i_lat":-6.162021,"station_id":"GGL","time":2,"station_name":"Grogol","is_transit":false,"transit":false,"i_long":106.788277,"line":5,"distance":2036},{"is_transit":true,"distance":1700,"i_lat":-6.155215,"station_id":"DU","line":1,"time":3,"station_name":"Duri","transit":true,"i_long":106.800832},{"station_name":"Tanah Abang","i_lat":-6.185545,"transit":true,"distance":3632,"line":1,"is_transit":true,"i_long":106.811091,"station_id":"THB","time":8},{"i_long":106.79689,"station_name":"Palmerah","distance":3191,"transit":false,"is_transit":false,"i_lat":-6.207404,"station_id":"PLM","time":6,"line":6},{"station_id":"KBY","is_transit":false,"distance":3737,"station_name":"Kebayoran","transit":false,"i_long":106.780334,"line":6,"i_lat":-6.237242,"time":7},{"station_name":"Pondokranji","i_lat":-6.276362,"i_long":106.74273,"time":8,"station_id":"PDJ","transit":false,"distance":6218,"line":6,"is_transit":false},{"i_lat":-6.288927,"i_long":106.728916,"line":6,"station_name":"Jurangmangu","distance":2179,"transit":false,"time":3,"is_transit":false,"station_id":"JMU"},{"time":4,"is_transit":false,"distance":1994,"station_id":"SDM","i_lat":-6.296963,"i_long":106.712277,"line":6,"station_name":"Sudimara","transit":false},{"distance":4566,"station_name":"Rawa Buntu","station_id":"RU","transit":false,"time":6,"i_lat":-6.314823,"is_transit":false,"i_long":106.675475,"line":6},{"is_transit":false,"time":4,"line":6,"station_name":"Serpong","transit":false,"distance":2413,"station_id":"SRP","i_lat":-6.319871,"i_long":106.66566},{"is_transit":false,"distance":1784,"line":3,"time":4,"i_long":106.640411,"i_lat":-6.32484,"station_name":"Cisauk","transit":false,"station_id":"CSK"},{"transit":false,"distance":2519,"i_long":106.617853,"time":4,"station_name":"Cicayur","i_lat":-6.329547,"station_id":"CC","is_transit":false,"line":3},{"transit":false,"i_long":106.568863,"station_name":"Parung Panjang","time":8,"i_lat":-6.3441410000000005,"distance":5968,"line":6,"station_id":"PRP","is_transit":false},{"station_id":"CJT","i_long":106.508482,"station_name":"Cilejit","time":9,"transit":false,"is_transit":false,"distance":7025,"line":3,"i_lat":-6.354349},{"transit":false,"i_long":106.491338,"line":0,"is_transit":false,"distance":2675,"station_name":"Daru","station_id":"DAR","i_lat":-6.338021,"time":6},{"line":6,"time":5,"transit":false,"i_lat":-6.327251,"is_transit":false,"station_id":"TEJ","distance":3902,"station_name":"Tenjo","i_long":106.460812},{"station_id":"TGS","is_transit":false,"transit":false,"time":5,"station_name":"Tigaraksa","i_lat":-6.328533,"i_long":106.425991,"distance":2974,"line":6},{"is_transit":false,"i_lat":-6.33561,"i_long":106.411216,"line":3,"station_name":"Cikoya","distance":2651,"station_id":"CKY","transit":false,"time":3}],[{"station_id":"TTI","is_transit":false,"time":0,"line":5,"i_lat":-6.17331,"transit":false,"distance":0,"i_long":106.64657,"station_name":"Tanah Tinggi"},{"line":5,"time":3,"is_transit":false,"i_lat":-6.171811,"i_long":106.665036,"station_name":"Batuceper","transit":false,"station_id":"BPR","distance":2028},{"is_transit":false,"i_long":106.679458,"station_id":"PI","distance":1834,"time":3,"i_lat":-6.169933,"station_name":"Poris","transit":false,"line":5},{"transit":false,"i_lat":-6.166068,"station_id":"KDS","is_transit":false,"distance":2548,"station_name":"Kalideres","time":3,"line":5,"i_long":106.701612},{"station_name":"Rawa Buaya","time":3,"distance":2504,"station_id":"RW","transit":false,"i_lat":-6.162758,"line":5,"is_transit":false,"i_long":106.723064},{"distance":1152,"station_id":"BOI","line":5,"i_long":106.737035,"is_transit":false,"station_name":"Bojongindah","time":4,"i_lat":-6.159876,"transit":false},{"time":2,"line":5,"transit":false,"is_transit":false,"i_lat":-6.1587309999999995,"station_name":"Taman Kota","i_long":106.756522,"distance":2334,"station_id":"TKO"},{"station_name":"Pesing","transit":false,"distance":1614,"station_id":"PSG","i_lat":-6.161433,"time":2,"line":5,"i_long":106.771379,"is_transit":false},{"i_lat":-6.162021,"is_transit":false,"station_name":"Grogol","line":5,"distance":2036,"i_long":106.788277,"station_id":"GGL","transit":false,"time":2},{"time":3,"is_transit":true,"transit":true,"station_id":"DU","distance":1700,"station_name":"Duri","i_lat":-6.155215,"line":1,"i_long":106.800832},{"line":1,"distance":1230,"time":4,"transit":false,"i_lat":-6.144674,"i_long":106.79867,"station_name":"Angke","station_id":"AK","is_transit":false},{"is_transit":true,"distance":4102,"station_name":"Kampung Bandan","transit":true,"station_id":"KPB","time":9,"i_long":106.826365,"line":4,"i_lat":-6.132549},{"i_lat":-6.137569,"time":3,"line":2,"station_name":"Jakarta Kota","station_id":"JAKK","transit":true,"distance":1364,"is_transit":true,"i_long":106.812439},{"station_name":"Jayakarta","line":2,"transit":false,"is_transit":false,"time":4,"station_id":"JAY","i_long":106.820901,"distance":1264,"i_lat":-6.141205},{"distance":1080,"station_id":"MGB","station_name":"Manggabesar","time":2,"is_transit":false,"i_lat":-6.149769,"line":2,"transit":false,"i_long":106.82482},{"station_id":"SW","i_long":106.827103,"time":2,"is_transit":false,"station_name":"Sawah Besar","line":2,"i_lat":-6.160725,"transit":false,"distance":906},{"is_transit":false,"time":2,"i_long":106.828284,"transit":false,"station_name":"Juanda","station_id":"JUA","distance":1149,"i_lat":-6.166716,"line":2},{"distance":2015,"transit":false,"station_name":"Gondangdia","is_transit":false,"time":4,"i_lat":-6.186295,"station_id":"GDD","i_long":106.832183,"line":2},{"i_lat":-6.198556,"is_transit":false,"station_name":"Cikini","line":2,"transit":false,"time":3,"i_long":106.840169,"station_id":"CKI","distance":1750},{"station_id":"MRI","i_lat":-6.209883,"time":4,"station_name":"Manggarai","is_transit":true,"distance":1590,"i_long":106.84912,"line":2,"transit":true},{"transit":false,"is_transit":false,"line":1,"time":4,"station_name":"Sudirman","station_id":"SUD","i_long":106.822649,"distance":3186,"i_lat":-6.202263},{"i_lat":-6.201433,"transit":false,"station_name":"Sudirman Baru","distance":280,"station_id":"SUDB","i_long":106.819881,"line":1,"time":1,"is_transit":false},{"transit":false,"station_name":"Karet","is_transit":false,"station_id":"KAT","distance":471,"time":1,"i_lat":-6.20132,"line":1,"i_long":106.816351},{"i_long":106.811091,"time":5,"i_lat":-6.185545,"line":1,"is_transit":true,"station_id":"THB","transit":true,"station_name":"Tanah Abang","distance":2029},{"is_transit":false,"time":6,"transit":false,"i_long":106.79689,"distance":3191,"line":6,"station_id":"PLM","i_lat":-6.207404,"station_name":"Palmerah"},{"i_lat":-6.237242,"transit":false,"line":6,"distance":3737,"time":7,"is_transit":false,"i_long":106.780334,"station_name":"Kebayoran","station_id":"KBY"},{"station_name":"Pondokranji","transit":false,"distance":6218,"station_id":"PDJ","i_long":106.74273,"time":8,"line":6,"i_lat":-6.276362,"is_transit":false},{"station_id":"JMU","station_name":"Jurangmangu","distance":2179,"i_long":106.728916,"line":6,"time":3,"transit":false,"i_lat":-6.288927,"is_transit":false},{"time":4,"station_name":"Sudimara","is_transit":false,"line":6,"i_long":106.712277,"distance":1994,"transit":false,"station_id":"SDM","i_lat":-6.296963},{"distance":4566,"i_lat":-6.314823,"line":6,"transit":false,"time":6,"i_long":106.675475,"station_id":"RU","is_transit":false,"station_name":"Rawa Buntu"},{"is_transit":false,"station_name":"Serpong","station_id":"SRP","transit":false,"i_long":106.66566,"time":4,"i_lat":-6.319871,"line":6,"distance":2413},{"i_long":106.640411,"transit":false,"i_lat":-6.32484,"station_id":"CSK","is_transit":false,"line":3,"time":4,"distance":1784,"station_name":"Cisauk"},{"line":3,"transit":false,"is_transit":false,"distance":2519,"time":4,"station_name":"Cicayur","station_id":"CC","i_long":106.617853,"i_lat":-6.329547},{"station_name":"Parung Panjang","transit":false,"time":8,"distance":5968,"i_lat":-6.3441410000000005,"i_long":106.568863,"station_id":"PRP","is_transit":false,"line":6},{"station_name":"Cilejit","is_transit":false,"i_lat":-6.354349,"station_id":"CJT","distance":7025,"time":9,"transit":false,"i_long":106.508482,"line":3},{"time":6,"i_lat":-6.338021,"i_long":106.491338,"line":0,"distance":2675,"transit":false,"station_name":"Daru","is_transit":false,"station_id":"DAR"},{"distance":3902,"line":6,"station_id":"TEJ","transit":false,"time":5,"is_transit":false,"i_lat":-6.327251,"i_long":106.460812,"station_name":"Tenjo"},{"i_long":106.425991,"line":6,"station_id":"TGS","station_name":"Tigaraksa","transit":false,"distance":2974,"is_transit":false,"time":5,"i_lat":-6.328533},{"line":3,"is_transit":false,"i_long":106.411216,"transit":false,"time":3,"station_name":"Cikoya","station_id":"CKY","distance":2651,"i_lat":-6.33561}],[{"transit":false,"i_lat":-6.17331,"line":5,"station_id":"TTI","distance":0,"is_transit":false,"time":0,"i_long":106.64657,"station_name":"Tanah Tinggi"},{"distance":2028,"time":3,"i_lat":-6.171811,"i_long":106.665036,"line":5,"station_name":"Batuceper","is_transit":false,"transit":false,"station_id":"BPR"},{"station_id":"PI","transit":false,"i_lat":-6.169933,"line":5,"time":3,"distance":1834,"station_name":"Poris","is_transit":false,"i_long":106.679458},{"i_lat":-6.166068,"time":3,"distance":2548,"transit":false,"is_transit":false,"station_name":"Kalideres","station_id":"KDS","i_long":106.701612,"line":5},{"station_name":"Rawa Buaya","line":5,"is_transit":false,"distance":2504,"time":3,"station_id":"RW","i_lat":-6.162758,"transit":false,"i_long":106.723064},{"distance":1152,"line":5,"station_name":"Bojongindah","station_id":"BOI","i_long":106.737035,"time":4,"is_transit":false,"transit":false,"i_lat":-6.159876},{"time":2,"is_transit":false,"transit":false,"i_lat":-6.1587309999999995,"i_long":106.756522,"line":5,"station_id":"TKO","station_name":"Taman Kota","distance":2334},{"transit":false,"station_id":"PSG","station_name":"Pesing","distance":1614,"i_lat":-6.161433,"i_long":106.771379,"line":5,"time":2,"is_transit":false},{"distance":2036,"station_name":"Grogol","station_id":"GGL","transit":false,"i_lat":-6.162021,"i_long":106.788277,"is_transit":false,"line":5,"time":2},{"line":1,"distance":1700,"time":3,"station_name":"Duri","station_id":"DU","transit":true,"i_lat":-6.155215,"is_transit":true,"i_long":106.800832},{"transit":false,"is_transit":false,"line":1,"station_id":"AK","distance":1230,"i_lat":-6.144674,"station_name":"Angke","time":4,"i_long":106.79867},{"distance":4102,"time":9,"i_long":106.826365,"transit":true,"is_transit":true,"i_lat":-6.132549,"station_name":"Kampung Bandan","station_id":"KPB","line":4},{"station_id":"RJW","transit":false,"time":3,"i_lat":-6.14505,"line":11,"i_long":106.836569,"station_name":"Rajawali","is_transit":false,"distance":1444},{"transit":false,"line":11,"station_name":"Kemayoran","time":5,"distance":1901,"i_long":106.839204,"station_id":"KMO","is_transit":false,"i_lat":-6.161728},{"distance":1436,"station_id":"PSE","transit":false,"line":11,"time":4,"station_name":"Pasar Senen","i_long":106.84368,"i_lat":-6.174784,"is_transit":false},{"distance":1567,"i_lat":-6.185975,"is_transit":false,"time":8,"i_long":106.850107,"line":11,"station_id":"GST","station_name":"Gang Sentiong","transit":false},{"station_name":"Kramat","distance":973,"transit":false,"i_long":106.855437,"time":1,"station_id":"KMT","i_lat":-6.193792,"is_transit":false,"line":11},{"is_transit":false,"transit":false,"distance":1829,"station_id":"POK","i_lat":-6.209188,"i_long":106.861737,"station_name":"Pondok Jati","time":2,"line":11},{"transit":true,"is_transit":true,"time":9,"line":1,"i_long":106.86807400000001,"distance":1236,"station_id":"JNG","station_name":"Jatinegara","i_lat":-6.215091},{"station_name":"Matraman","line":1,"i_lat":-6.212485,"station_id":"MTR","is_transit":false,"transit":false,"distance":1377,"i_long":106.858896,"time":2},{"i_lat":-6.209883,"is_transit":false,"time":2,"transit":false,"i_long":106.84912,"line":2,"station_name":"Manggarai","distance":1275,"station_id":"MRI"},{"is_transit":false,"transit":false,"line":1,"distance":3186,"time":4,"i_lat":-6.202263,"station_name":"Sudirman","i_long":106.822649,"station_id":"SUD"},{"station_id":"SUDB","i_lat":-6.201433,"station_name":"Sudirman Baru","transit":false,"time":1,"distance":280,"line":1,"is_transit":false,"i_long":106.819881},{"line":1,"is_transit":false,"station_name":"Karet","distance":471,"transit":false,"i_long":106.816351,"station_id":"KAT","time":1,"i_lat":-6.20132},{"station_id":"THB","is_transit":true,"i_lat":-6.185545,"i_long":106.811091,"line":1,"transit":true,"distance":2029,"time":5,"station_name":"Tanah Abang"},{"station_id":"PLM","line":6,"is_transit":false,"time":6,"i_lat":-6.207404,"transit":false,"station_name":"Palmerah","i_long":106.79689,"distance":3191},{"station_name":"Kebayoran","transit":false,"time":7,"is_transit":false,"line":6,"i_lat":-6.237242,"i_long":106.780334,"station_id":"KBY","distance":3737},{"line":6,"i_lat":-6.276362,"is_transit":false,"transit":false,"station_name":"Pondokranji","time":8,"distance":6218,"i_long":106.74273,"station_id":"PDJ"},{"time":3,"distance":2179,"i_lat":-6.288927,"i_long":106.728916,"transit":false,"is_transit":false,"station_id":"JMU","line":6,"station_name":"Jurangmangu"},{"transit":false,"distance":1994,"station_id":"SDM","time":4,"i_lat":-6.296963,"is_transit":false,"line":6,"station_name":"Sudimara","i_long":106.712277},{"i_long":106.675475,"is_transit":false,"line":6,"time":6,"station_id":"RU","distance":4566,"transit":false,"station_name":"Rawa Buntu","i_lat":-6.314823},{"station_name":"Serpong","is_transit":false,"i_long":106.66566,"distance":2413,"time":4,"station_id":"SRP","i_lat":-6.319871,"transit":false,"line":6},{"station_id":"CSK","station_name":"Cisauk","is_transit":false,"transit":false,"distance":1784,"i_lat":-6.32484,"i_long":106.640411,"line":3,"time":4},{"is_transit":false,"station_name":"Cicayur","transit":false,"time":4,"i_lat":-6.329547,"station_id":"CC","i_long":106.617853,"distance":2519,"line":3},{"time":8,"i_long":106.568863,"distance":5968,"is_transit":false,"station_name":"Parung Panjang","station_id":"PRP","i_lat":-6.3441410000000005,"transit":false,"line":6},{"station_id":"CJT","line":3,"is_transit":false,"station_name":"Cilejit","distance":7025,"i_lat":-6.354349,"time":9,"i_long":106.508482,"transit":false},{"line":0,"station_name":"Daru","time":6,"transit":false,"station_id":"DAR","is_transit":false,"distance":2675,"i_lat":-6.338021,"i_long":106.491338},{"is_transit":false,"station_id":"TEJ","i_long":106.460812,"line":6,"distance":3902,"i_lat":-6.327251,"station_name":"Tenjo","time":5,"transit":false},{"station_id":"TGS","station_name":"Tigaraksa","i_long":106.425991,"transit":false,"distance":2974,"time":5,"i_lat":-6.328533,"line":6,"is_transit":false},{"station_id":"CKY","is_transit":false,"i_long":106.411216,"line":3,"distance":2651,"station_name":"Cikoya","time":3,"transit":false,"i_lat":-6.33561}]]}