{"data":[[{"distance":0,"time":0,"station_name":"Tanah Tinggi","is_transit":false,"i_lat":-6.17331,"line":5,"station_id":"TTI","i_long":106.64657,"transit":false},{"line":0,"distance":2028,"is_transit":false,"station_name":"Batuceper","i_long":106.665036,"transit":false,"station_id":"BPR","i_lat":-6.171811,"time":3},{"time":3,"distance":1834,"line":5,"transit":false,"i_lat":-6.169933,"station_id":"PI","is_transit":false,"station_name":"Poris","i_long":106.679458},{"line":5,"time":3,"distance":2548,"is_transit":false,"station_id":"KDS","station_name":"Kalideres","transit":false,"i_lat":-6.166068,"i_long":106.701612},{"time":3,"is_transit":false,"i_long":106.723064,"distance":2504,"station_id":"RW","i_lat":-6.162758,"line":5,"station_name":"Rawa Buaya","transit":false},{"line":0,"station_id":"BOI","time":4,"station_name":"Bojongindah","transit":false,"is_transit":false,"distance":1152,"i_lat":-6.159876,"i_long":106.737035},{"transit":false,"distance":2334,"time":2,"i_lat":-6.1587309999999995,"i_long":106.756522,"station_name":"Taman Kota","line":5,"is_transit":false,"station_id":"TKO"},{"station_id":"PSG","is_transit":false,"station_name":"Pesing","i_lat":-6.161433,"time":2,"transit":false,"distance":1614,"i_long":106.771379,"line":5},{"is_transit":false,"station_id":"GGL","station_name":"Grogol","distance":2036,"transit":false,"i_long":106.788277,"i_lat":-6.162021,"line":5,"time":2},{"time":3,"i_long":106.800832,"station_name":"Duri","distance":1700,"line":1,"i_lat":-6.155215,"station_id":"DU","is_transit":true,"transit":true},{"station_id":"THB","distance":3632,"is_transit":true,"transit":false,"station_name":"Tanah Abang","time":8,"i_lat":-6.185545,"i_long":106.811091,"line":1},{"line":1,"time":5,"transit":false,"i_lat":-6.20132,"i_long":106.816351,"station_id":"KAT","is_transit":false,"distance":2029,"station_name":"Karet"},{"distance":471,"station_name":"Sudirman Baru","i_long":106.819881,"time":1,"is_transit":false,"transit":false,"station_id":"SUDB","i_lat":-6.201433,"line":1},{"distance":280,"i_long":106.822649,"line":1,"station_id":"SUD","i_lat":-6.202263,"time":1,"is_transit":false,"station_name":"Sudirman","transit":false},{"line":0,"station_id":"MRI","time":4,"i_long":106.84912,"station_name":"Manggarai","transit":true,"distance":3186,"i_lat":-6.209883,"is_transit":true},{"transit":false,"i_long":106.857948,"line":2,"is_transit":false,"time":4,"distance":2610,"station_id":"TEB","i_lat":-6.226659,"station_name":"Tebet"},{"line":0,"is_transit":false,"station_name":"Cawang","i_lat":-6.242512,"time":2,"transit":false,"distance":1230,"station_id":"CW","i_long":106.856607},{"distance":1546,"transit":false,"station_name":"Duren Kalibata","time":3,"i_lat":-6.255332,"is_transit":false,"station_id":"DRN","i_long":106.85449,"line":0},{"i_lat":-6.263214,"distance":824,"transit":false,"station_id":"PSMB","station_name":"Pasar Minggu Baru","i_long":106.851577,"time":2,"is_transit":false,"line":2},{"is_transit":false,"i_lat":-6.2842400000000005,"transit":false,"time":2,"i_long":106.843999,"station_id":"PSM","line":2,"distance":2380,"station_name":"Pasar Minggu"}],[{"time":0,"i_lat":-6.17331,"station_id":"TTI","i_long":106.64657,"line":5,"transit":false,"distance":0,"is_transit":false,"station_name":"Tanah Tinggi"},{"station_id":"BPR","time":3,"i_lat":-6.171811,"i_long":106.665036,"distance":2028,"is_transit":false,"line":0,"station_name":"Batuceper","transit":false},{"station_name":"Poris","time":3,"i_lat":-6.169933,"line":5,"i_long":106.679458,"distance":1834,"is_transit":false,"station_id":"PI","transit":false},{"station_id":"KDS","transit":false,"is_transit":false,"i_lat":-6.166068,"i_long":106.701612,"distance":2548,"time":3,"station_name":"Kalideres","line":5},{"distance":2504,"is_transit":false,"station_name":"Rawa Buaya","i_lat":-6.162758,"i_long":106.723064,"transit":false,"station_id":"RW","line":5,"time":3},{"distance":1152,"i_long":106.737035,"line":0,"is_transit":false,"transit":false,"station_id":"BOI","time":4,"station_name":"Bojongindah","i_lat":-6.159876},{"line":5,"distance":2334,"is_transit":false,"station_name":"Taman Kota","station_id":"TKO","transit":false,"time":2,"i_lat":-6.1587309999999995,"i_long":106.756522},{"transit":false,"station_name":"Pesing","time":2,"i_lat":-6.161433,"line":5,"i_long":106.771379,"distance":1614,"is_transit":false,"station_id":"PSG"},{"transit":false,"i_lat":-6.162021,"station_name":"Grogol","time":2,"distance":2036,"station_id":"GGL","line":5,"i_long":106.788277,"is_transit":false},{"i_long":106.800832,"is_transit":true,"station_id":"DU","transit":true,"time":3,"distance":1700,"i_lat":-6.155215,"station_name":"Duri","line":1},{"station_id":"AK","station_name":"Angke","transit":false,"line":0,"distance":1230,"i_long":106.79867,"time":4,"is_transit":false,"i_lat":-6.144674},{"line":0,"station_name":"Kampung Bandan","i_lat":-6.132549,"is_transit":true,"distance":4102,"i_long":106.826365,"station_id":"KPB","time":9,"transit":false},{"is_transit":true,"line":0,"distance":1364,"station_id":"JAKK","i_long":106.812439,"transit":true,"time":3,"i_lat":-6.137569,"station_name":"Jakarta Kota"},{"is_transit":false,"transit":false,"station_name":"Jayakarta","i_long":106.820901,"i_lat":-6.141205,"distance":1264,"station_id":"JAY","time":4,"line":7},{"is_transit":false,"station_id":"MGB","transit":false,"i_long":106.82482,"distance":1080,"station_name":"Manggabesar","time":2,"i_lat":-6.149769,"line":2},{"i_long":106.827103,"line":2,"i_lat":-6.160725,"distance":906,"station_id":"SW","station_name":"Sawah Besar","is_transit":false,"time":2,"transit":false},{"i_lat":-6.166716,"i_long":106.828284,"line":2,"time":2,"station_id":"JUA","transit":false,"station_name":"Juanda","distance":1149,"is_transit":false},{"i_lat":-6.186295,"i_long":106.832183,"is_transit":false,"line":2,"distance":2015,"transit":false,"station_id":"GDD","station_name":"Gondangdia","time":4},{"time":3,"i_long":106.840169,"is_transit":false,"station_id":"CKI","transit":false,"line":0,"distance":1750,"i_lat":-6.198556,"station_name":"Cikini"},{"i_long":106.84912,"line":0,"is_transit":true,"station_name":"Manggarai","time":4,"i_lat":-6.209883,"transit":true,"station_id":"MRI","distance":1590},{"i_long":106.857948,"time":4,"is_transit":false,"distance":2610,"station_name":"Tebet","transit":false,"i_lat":-6.226659,"line":2,"station_id":"TEB"},{"station_id":"CW","line":0,"time":2,"i_lat":-6.242512,"transit":false,"i_long":106.856607,"distance":1230,"station_name":"Cawang","is_transit":false},{"i_lat":-6.255332,"station_id":"DRN","distance":1546,"transit":false,"station_name":"Duren Kalibata","is_transit":false,"time":3,"line":0,"i_long":106.85449},{"line":2,"i_lat":-6.263214,"distance":824,"is_transit":false,"transit":false,"station_id":"PSMB","station_name":"Pasar Minggu Baru","time":2,"i_long":106.851577},{"i_lat":-6.2842400000000005,"is_transit":false,"station_id":"PSM","line":2,"distance":2380,"time":2,"i_long":106.843999,"station_name":"Pasar Minggu","transit":false}],[{"transit":false,"is_transit":false,"station_id":"TTI","station_name":"Tanah Tinggi","line":5,"i_lat":-6.17331,"i_long":106.64657,"distance":0,"time":0},{"station_name":"Batuceper","line":0,"transit":false,"station_id":"BPR","time":3,"distance":2028,"i_lat":-6.171811,"i_long":106.665036,"is_transit":false},{"i_long":106.679458,"station_id":"PI","station_name":"Poris","transit":false,"i_lat":-6.169933,"time":3,"distance":1834,"is_transit":false,"line":5},{"station_name":"Kalideres","station_id":"KDS","i_lat":-6.166068,"distance":2548,"is_transit":false,"time":3,"i_long":106.701612,"line":5,"transit":false},{"distance":2504,"transit":false,"time":3,"i_lat":-6.162758,"i_long":106.723064,"station_name":"Rawa Buaya","line":5,"station_id":"RW","is_transit":false},{"is_transit":false,"transit":false,"line":0,"distance":1152,"station_id":"BOI","time":4,"i_long":106.737035,"station_name":"Bojongindah","i_lat":-6.159876},{"station_name":"Taman Kota","station_id":"TKO","transit":false,"time":2,"distance":2334,"i_lat":-6.1587309999999995,"i_long":106.756522,"is_transit":false,"line":5},{"station_id":"PSG","line":5,"station_name":"Pesing","i_lat":-6.161433,"distance":1614,"transit":false,"i_long":106.771379,"time":2,"is_transit":false},{"station_id":"GGL","station_name":"Grogol","transit":false,"is_transit":false,"i_lat":-6.162021,"i_long":106.788277,"distance":2036,"line":5,"time":2},{"station_id":"DU","is_transit":true,"distance":1700,"transit":true,"i_lat":-6.155215,"i_long":106.800832,"line":1,"time":3,"station_name":"Duri"},{"line":0,"is_transit":false,"station_id":"AK","i_long":106.79867,"station_name":"Angke","distance":1230,"i_lat":-6.144674,"transit":false,"time":4},{"line":0,"distance":4102,"station_name":"Kampung Bandan","i_lat":-6.132549,"i_long":106.826365,"transit":true,"station_id":"KPB","is_transit":true,"time":9},{"station_name":"Rajawali","transit":false,"time":3,"station_id":"RJW","i_long":106.836569,"is_transit":false,"line":11,"distance":1444,"i_lat":-6.14505},{"i_lat":-6.161728,"station_id":"KMO","station_name":"Kemayoran","distance":1901,"is_transit":false,"transit":false,"time":5,"i_long":106.839204,"line":11},{"time":4,"station_name":"Pasar Senen","distance":1436,"is_transit":false,"i_long":106.84368,"line":11,"transit":false,"station_id":"PSE","i_lat":-6.174784},{"station_id":"GST","i_lat":-6.185975,"transit":false,"distance":1567,"station_name":"Gang Sentiong","i_long":106.850107,"is_transit":false,"time":8,"line":11},{"is_transit":false,"i_lat":-6.193792,"time":1,"i_long":106.855437,"line":11,"station_id":"KMT","station_name":"Kramat","transit":false,"distance":973},{"station_id":"POK","transit":false,"i_lat":-6.209188,"i_long":106.861737,"line":11,"station_name":"Pondok Jati","is_transit":false,"time":2,"distance":1829},{"is_transit":true,"time":9,"line":0,"station_id":"JNG","transit":true,"station_name":"Jatinegara","distance":1236,"i_lat":-6.215091,"i_long":106.86807400000001},{"transit":false,"i_long":106.858896,"i_lat":-6.212485,"line":1,"time":2,"distance":1377,"station_id":"MTR","is_transit":false,"station_name":"Matraman"},{"i_long":106.84912,"distance":1275,"station_name":"Manggarai","station_id":"MRI","time":2,"line":0,"i_lat":-6.209883,"is_transit":true,"transit":true},{"is_transit":false,"time":4,"transit":false,"i_long":106.857948,"line":2,"station_id":"TEB","distance":2610,"i_lat":-6.226659,"station_name":"Tebet"},{"station_id":"CW","time":2,"transit":false,"station_name":"Cawang","i_lat":-6.242512,"is_transit":false,"i_long":106.856607,"distance":1230,"line":0},{"transit":false,"i_long":106.85449,"station_id":"DRN","distance":1546,"time":3,"line":0,"i_lat":-6.255332,"is_transit":false,"station_name":"Duren Kalibata"},{"i_long":106.851577,"line":2,"distance":824,"is_transit":false,"time":2,"i_lat":-6.263214,"station_id":"PSMB","station_name":"Pasar Minggu Baru","transit":false},{"line":2,"station_id":"PSM","distance":2380,"i_lat":-6.2842400000000005,"is_transit":false,"transit":false,"time":2,"i_long":106.843999,"station_name":"Pasar Minggu"}]]}