{"data":[[{"i_lat":-6.17331,"distance":0,"i_long":106.64657,"line":5,"station_name":"Tanah Tinggi","time":0,"transit":false,"station_id":"TTI","is_transit":false},{"distance":2028,"is_transit":false,"i_lat":-6.171811,"station_id":"BPR","i_long":106.665036,"time":3,"station_name":"Batuceper","line":5,"transit":false},{"i_long":106.679458,"station_name":"Poris","is_transit":false,"station_id":"PI","line":5,"time":3,"distance":1834,"i_lat":-6.169933,"transit":false},{"station_id":"KDS","station_name":"Kalideres","transit":false,"i_lat":-6.166068,"distance":2548,"line":5,"i_long":106.701612,"time":3,"is_transit":false},{"i_lat":-6.162758,"i_long":106.723064,"distance":2504,"transit":false,"station_id":"RW","line":5,"is_transit":false,"time":3,"station_name":"Rawa Buaya"},{"station_name":"Bojongindah","transit":false,"i_long":106.737035,"i_lat":-6.159876,"line":5,"distance":1152,"time":4,"is_transit":false,"station_id":"BOI"},{"distance":2334,"transit":false,"i_lat":-6.1587309999999995,"station_id":"TKO","time":2,"line":5,"station_name":"Taman Kota","is_transit":false,"i_long":106.756522},{"i_long":106.771379,"distance":1614,"station_id":"PSG","station_name":"Pesing","time":2,"transit":false,"i_lat":-6.161433,"line":5,"is_transit":false},{"i_long":106.788277,"distance":2036,"station_name":"Grogol","transit":false,"station_id":"GRG","line":5,"is_transit":false,"i_lat":-6.162021,"time":2},{"time":3,"station_name":"Duri","transit":true,"distance":1700,"is_transit":true,"station_id":"DU","i_long":106.800832,"line":1,"i_lat":-6.155215},{"time":8,"i_long":106.811091,"transit":true,"is_transit":true,"line":1,"station_name":"Tanah Abang","station_id":"THB","distance":3632,"i_lat":-6.185545},{"distance":3191,"transit":false,"i_long":106.79689,"is_transit":false,"station_id":"PLM","line":6,"i_lat":-6.207404,"time":6,"station_name":"Palmerah"},{"station_id":"KBY","i_long":106.780334,"i_lat":-6.237242,"time":7,"is_transit":false,"distance":3737,"line":6,"station_name":"Kebayoran","transit":false},{"line":6,"is_transit":false,"i_lat":-6.276362,"station_name":"Pondokranji","i_long":106.74273,"time":8,"station_id":"PDJ","distance":6218,"transit":false},{"station_name":"Jurangmangu","distance":2179,"i_lat":-6.288927,"i_long":106.728916,"line":6,"transit":false,"time":3,"station_id":"JMU","is_transit":false},{"distance":1994,"station_name":"Sudimara","i_long":106.712277,"transit":false,"is_transit":false,"i_lat":-6.296963,"time":4,"line":6,"station_id":"SDM"},{"time":6,"i_long":106.675475,"i_lat":-6.314823,"distance":4566,"station_name":"Rawa Buntu","is_transit":false,"line":6,"transit":false,"station_id":"RU"},{"transit":false,"i_long":106.66566,"line":6,"i_lat":-6.319871,"station_id":"SRP","time":4,"is_transit":false,"distance":2413,"station_name":"Serpong"},{"is_transit":false,"time":4,"distance":1784,"i_lat":-6.32484,"i_long":106.640411,"station_name":"Cisauk","transit":false,"station_id":"CSK","line":3},{"station_name":"Cicayur","time":4,"line":3,"station_id":"CC","is_transit":false,"distance":2519,"transit":false,"i_long":106.617853,"i_lat":-6.329547},{"station_name":"Parung Panjang","station_id":"PRP","time":8,"is_transit":false,"i_long":106.568863,"i_lat":-6.3441410000000005,"distance":5968,"line":6,"transit":false},{"is_transit":false,"transit":false,"station_name":"Cilejit","i_long":106.508482,"distance":7025,"time":9,"station_id":"CJT","i_lat":-6.354349,"line":3},{"station_id":"DAR","i_long":106.491338,"distance":2675,"is_transit":false,"transit":false,"line":0,"i_lat":-6.338021,"time":6,"station_name":"Daru"}],[{"time":0,"transit":false,"line":5,"station_id":"TTI","distance":0,"station_name":"Tanah Tinggi","i_long":106.64657,"i_lat":-6.17331,"is_transit":false},{"i_long":106.665036,"time":3,"station_name":"Batuceper","station_id":"BPR","line":5,"i_lat":-6.171811,"transit":false,"is_transit":false,"distance":2028},{"line":5,"transit":false,"station_name":"Poris","station_id":"PI","distance":1834,"i_lat":-6.169933,"time":3,"i_long":106.679458,"is_transit":false},{"station_id":"KDS","line":5,"station_name":"Kalideres","is_transit":false,"i_long":106.701612,"i_lat":-6.166068,"distance":2548,"transit":false,"time":3},{"station_name":"Rawa Buaya","transit":false,"distance":2504,"is_transit":false,"station_id":"RW","line":5,"i_long":106.723064,"time":3,"i_lat":-6.162758},{"i_long":106.737035,"transit":false,"is_transit":false,"station_name":"Bojongindah","station_id":"BOI","distance":1152,"line":5,"i_lat":-6.159876,"time":4},{"distance":2334,"time":2,"i_lat":-6.1587309999999995,"line":5,"station_name":"Taman Kota","is_transit":false,"station_id":"TKO","transit":false,"i_long":106.756522},{"transit":false,"i_long":106.771379,"i_lat":-6.161433,"station_id":"PSG","distance":1614,"line":5,"time":2,"is_transit":false,"station_name":"Pesing"},{"transit":false,"station_id":"GRG","line":5,"i_long":106.788277,"i_lat":-6.162021,"is_transit":false,"station_name":"Grogol","time":2,"distance":2036},{"is_transit":true,"distance":1700,"time":3,"i_lat":-6.155215,"i_long":106.800832,"line":1,"station_id":"DU","transit":true,"station_name":"Duri"},{"station_id":"AK","is_transit":false,"time":4,"i_lat":-6.144674,"distance":1230,"station_name":"Angke","line":1,"transit":false,"i_long":106.79867},{"transit":true,"station_id":"KPB","i_long":106.826365,"time":9,"line":4,"distance":4102,"is_transit":true,"station_name":"Kampung Bandan","i_lat":-6.132549},{"is_transit":true,"i_lat":-6.137569,"line":2,"station_id":"JAKK","i_long":106.812439,"distance":1364,"time":3,"transit":true,"station_name":"Jakarta Kota"},{"station_name":"Jayakarta","time":4,"i_lat":-6.141205,"is_transit":false,"distance":1264,"line":2,"station_id":"JAY","i_long":106.820901,"transit":false},{"station_name":"Manggabesar","i_lat":-6.149769,"transit":false,"line":2,"distance":1080,"time":2,"is_transit":false,"station_id":"MGB","i_long":106.82482},{"station_name":"Sawah Besar","time":2,"transit":false,"i_lat":-6.160725,"station_id":"SW","line":2,"is_transit":false,"i_long":106.827103,"distance":906},{"distance":1149,"is_transit":false,"station_name":"Juanda","station_id":"JUA","time":2,"line":2,"i_lat":-6.166716,"transit":false,"i_long":106.828284},{"transit":false,"i_lat":-6.186295,"line":2,"distance":2015,"i_long":106.832183,"station_name":"Gondangdia","station_id":"GDD","time":4,"is_transit":false},{"is_transit":false,"i_long":106.840169,"time":3,"line":2,"distance":1750,"transit":false,"i_lat":-6.198556,"station_id":"CKI","station_name":"Cikini"},{"time":4,"is_transit":true,"transit":true,"station_id":"MRI","i_lat":-6.209883,"distance":1590,"station_name":"Manggarai","i_long":106.84912,"line":2},{"station_name":"Sudirman","distance":3186,"i_long":106.822649,"station_id":"SUD","transit":false,"is_transit":false,"i_lat":-6.202263,"time":4,"line":1},{"i_lat":-6.201433,"is_transit":false,"transit":false,"time":1,"distance":280,"i_long":106.819881,"station_name":"Sudirman Baru","line":1,"station_id":"SUDB"},{"transit":false,"distance":471,"time":1,"i_lat":-6.20132,"i_long":106.816351,"line":1,"station_id":"KAT","station_name":"Karet","is_transit":false},{"station_name":"Tanah Abang","i_long":106.811091,"i_lat":-6.185545,"time":5,"transit":true,"is_transit":true,"distance":2029,"station_id":"THB","line":1},{"distance":3191,"time":6,"station_name":"Palmerah","is_transit":false,"i_lat":-6.207404,"line":6,"i_long":106.79689,"station_id":"PLM","transit":false},{"time":7,"is_transit":false,"station_id":"KBY","distance":3737,"line":6,"station_name":"Kebayoran","transit":false,"i_long":106.780334,"i_lat":-6.237242},{"time":8,"station_name":"Pondokranji","is_transit":false,"i_long":106.74273,"transit":false,"distance":6218,"line":6,"i_lat":-6.276362,"station_id":"PDJ"},{"station_id":"JMU","station_name":"Jurangmangu","i_lat":-6.288927,"is_transit":false,"transit":false,"time":3,"line":6,"distance":2179,"i_long":106.728916},{"i_lat":-6.296963,"time":4,"station_name":"Sudimara","i_long":106.712277,"is_transit":false,"line":6,"station_id":"SDM","distance":1994,"transit":false},{"transit":false,"i_long":106.675475,"station_name":"Rawa Buntu","is_transit":false,"station_id":"RU","line":6,"time":6,"distance":4566,"i_lat":-6.314823},{"line":6,"station_id":"SRP","i_lat":-6.319871,"time":4,"station_name":"Serpong","is_transit":false,"transit":false,"distance":2413,"i_long":106.66566},{"transit":false,"i_lat":-6.32484,"i_long":106.640411,"time":4,"line":3,"is_transit":false,"station_id":"CSK","station_name":"Cisauk","distance":1784},{"station_name":"Cicayur","i_long":106.617853,"station_id":"CC","transit":false,"time":4,"distance":2519,"i_lat":-6.329547,"line":3,"is_transit":false},{"time":8,"line":6,"transit":false,"station_id":"PRP","i_lat":-6.3441410000000005,"is_transit":false,"distance":5968,"i_long":106.568863,"station_name":"Parung Panjang"},{"station_name":"Cilejit","station_id":"CJT","transit":false,"i_lat":-6.354349,"i_long":106.508482,"time":9,"is_transit":false,"line":3,"distance":7025},{"station_name":"Daru","distance":2675,"is_transit":false,"time":6,"transit":false,"station_id":"DAR","line":0,"i_lat":-6.338021,"i_long":106.491338}],[{"transit":false,"station_id":"TTI","station_name":"Tanah Tinggi","i_long":106.64657,"is_transit":false,"distance":0,"line":5,"time":0,"i_lat":-6.17331},{"i_lat":-6.171811,"is_transit":false,"transit":false,"station_name":"Batuceper","distance":2028,"station_id":"BPR","i_long":106.665036,"time":3,"line":5},{"station_name":"Poris","station_id":"PI","i_lat":-6.169933,"i_long":106.679458,"is_transit":false,"line":5,"time":3,"distance":1834,"transit":false},{"i_long":106.701612,"station_name":"Kalideres","is_transit":false,"station_id":"KDS","time":3,"distance":2548,"transit":false,"i_lat":-6.166068,"line":5},{"station_id":"RW","station_name":"Rawa Buaya","i_lat":-6.162758,"i_long":106.723064,"line":5,"time":3,"transit":false,"distance":2504,"is_transit":false},{"line":5,"i_long":106.737035,"distance":1152,"station_name":"Bojongindah","transit":false,"time":4,"i_lat":-6.159876,"is_transit":false,"station_id":"BOI"},{"station_name":"Taman Kota","time":2,"i_lat":-6.1587309999999995,"distance":2334,"is_transit":false,"i_long":106.756522,"transit":false,"line":5,"station_id":"TKO"},{"time":2,"transit":false,"i_long":106.771379,"station_name":"Pesing","i_lat":-6.161433,"line":5,"station_id":"PSG","is_transit":false,"distance":1614},{"transit":false,"is_transit":false,"station_id":"GRG","time":2,"distance":2036,"station_name":"Grogol","i_lat":-6.162021,"i_long":106.788277,"line":5},{"time":3,"transit":true,"station_id":"DU","i_lat":-6.155215,"distance":1700,"i_long":106.800832,"line":1,"station_name":"Duri","is_transit":true},{"station_id":"AK","station_name":"Angke","i_long":106.79867,"transit":false,"time":4,"distance":1230,"line":1,"is_transit":false,"i_lat":-6.144674},{"is_transit":true,"line":4,"time":9,"i_lat":-6.132549,"i_long":106.826365,"station_id":"KPB","station_name":"Kampung Bandan","distance":4102,"transit":true},{"i_long":106.836569,"station_name":"Rajawali","distance":1444,"i_lat":-6.14505,"line":11,"station_id":"RJW","is_transit":false,"transit":false,"time":3},{"line":11,"station_id":"KMO","i_long":106.839204,"i_lat":-6.161728,"transit":false,"is_transit":false,"station_name":"Kemayoran","time":5,"distance":1901},{"time":4,"i_long":106.84368,"station_id":"PSE","is_transit":false,"distance":1436,"transit":false,"station_name":"Pasar Senen","i_lat":-6.174784,"line":11},{"i_lat":-6.185975,"station_id":"GST","transit":false,"line":11,"station_name":"Gang Sentiong","time":8,"distance":1567,"is_transit":false,"i_long":106.850107},{"time":1,"i_long":106.855437,"transit":false,"distance":973,"station_id":"KMT","i_lat":-6.193792,"station_name":"Kramat","line":11,"is_transit":false},{"i_lat":-6.209188,"station_id":"POK","is_transit":false,"time":2,"distance":1829,"station_name":"Pondok Jati","i_long":106.861737,"transit":false,"line":11},{"time":9,"station_name":"Jatinegara","is_transit":true,"transit":true,"i_lat":-6.215091,"station_id":"JNG","i_long":106.86807400000001,"distance":1236,"line":1},{"distance":1377,"transit":false,"station_name":"Matraman","i_lat":-6.212485,"time":2,"station_id":"MTR","i_long":106.858896,"is_transit":false,"line":1},{"time":2,"station_name":"Manggarai","is_transit":false,"distance":1275,"transit":false,"station_id":"MRI","line":2,"i_lat":-6.209883,"i_long":106.84912},{"is_transit":false,"station_name":"Sudirman","time":4,"line":1,"station_id":"SUD","transit":false,"i_long":106.822649,"i_lat":-6.202263,"distance":3186},{"is_transit":false,"i_lat":-6.201433,"line":1,"station_id":"SUDB","i_long":106.819881,"transit":false,"time":1,"station_name":"Sudirman Baru","distance":280},{"transit":false,"is_transit":false,"station_name":"Karet","line":1,"time":1,"i_lat":-6.20132,"station_id":"KAT","distance":471,"i_long":106.816351},{"line":1,"distance":2029,"i_lat":-6.185545,"i_long":106.811091,"station_name":"Tanah Abang","is_transit":true,"transit":true,"time":5,"station_id":"THB"},{"distance":3191,"is_transit":false,"station_name":"Palmerah","i_long":106.79689,"station_id":"PLM","i_lat":-6.207404,"line":6,"transit":false,"time":6},{"station_id":"KBY","station_name":"Kebayoran","distance":3737,"i_long":106.780334,"line":6,"transit":false,"i_lat":-6.237242,"time":7,"is_transit":false},{"distance":6218,"station_name":"Pondokranji","line":6,"is_transit":false,"transit":false,"i_long":106.74273,"time":8,"station_id":"PDJ","i_lat":-6.276362},{"line":6,"station_id":"JMU","is_transit":false,"transit":false,"i_lat":-6.288927,"distance":2179,"station_name":"Jurangmangu","i_long":106.728916,"time":3},{"station_name":"Sudimara","i_lat":-6.296963,"transit":false,"is_transit":false,"line":6,"distance":1994,"time":4,"station_id":"SDM","i_long":106.712277},{"i_long":106.675475,"i_lat":-6.314823,"line":6,"transit":false,"station_id":"RU","time":6,"station_name":"Rawa Buntu","distance":4566,"is_transit":false},{"transit":false,"station_id":"SRP","time":4,"distance":2413,"i_lat":-6.319871,"i_long":106.66566,"station_name":"Serpong","is_transit":false,"line":6},{"station_name":"Cisauk","is_transit":false,"i_lat":-6.32484,"i_long":106.640411,"distance":1784,"transit":false,"station_id":"CSK","line":3,"time":4},{"station_id":"CC","station_name":"Cicayur","is_transit":false,"line":3,"time":4,"transit":false,"distance":2519,"i_lat":-6.329547,"i_long":106.617853},{"i_long":106.568863,"distance":5968,"transit":false,"station_id":"PRP","line":6,"time":8,"station_name":"Parung Panjang","is_transit":false,"i_lat":-6.3441410000000005},{"time":9,"station_name":"Cilejit","station_id":"CJT","distance":7025,"i_long":106.508482,"transit":false,"line":3,"is_transit":false,"i_lat":-6.354349},{"i_long":106.491338,"transit":false,"i_lat":-6.338021,"is_transit":false,"time":6,"station_id":"DAR","distance":2675,"station_name":"Daru","line":0}]]}