{"data":[[{"distance":0,"station_id":"TTI","is_transit":false,"station_name":"Tanah Tinggi","i_long":106.64657,"transit":false,"time":0,"line":5,"i_lat":-6.17331},{"is_transit":false,"time":3,"distance":2028,"i_lat":-6.171811,"station_id":"BPR","transit":false,"line":0,"station_name":"Batuceper","i_long":106.665036},{"time":3,"distance":1834,"station_id":"PI","line":5,"i_long":106.679458,"transit":false,"station_name":"Poris","is_transit":false,"i_lat":-6.169933},{"distance":2548,"station_name":"Kalideres","time":3,"is_transit":false,"i_lat":-6.166068,"i_long":106.701612,"station_id":"KDS","line":5,"transit":false},{"distance":2504,"line":5,"transit":false,"station_id":"RW","is_transit":false,"i_long":106.723064,"time":3,"station_name":"Rawa Buaya","i_lat":-6.162758},{"i_long":106.737035,"time":4,"station_id":"BOI","line":0,"i_lat":-6.159876,"transit":false,"station_name":"Bojongindah","distance":1152,"is_transit":false},{"time":2,"transit":false,"i_lat":-6.1587309999999995,"i_long":106.756522,"station_id":"TKO","distance":2334,"station_name":"Taman Kota","line":5,"is_transit":false},{"i_long":106.771379,"line":5,"station_id":"PSG","is_transit":false,"time":2,"transit":false,"distance":1614,"station_name":"Pesing","i_lat":-6.161433},{"distance":2036,"time":2,"i_lat":-6.162021,"i_long":106.788277,"line":5,"station_id":"GGL","station_name":"Grogol","transit":false,"is_transit":false},{"line":1,"distance":1700,"station_name":"Duri","is_transit":true,"transit":true,"i_long":106.800832,"i_lat":-6.155215,"time":3,"station_id":"DU"},{"is_transit":true,"distance":3632,"station_id":"THB","station_name":"Tanah Abang","time":8,"i_lat":-6.185545,"line":1,"i_long":106.811091,"transit":true},{"is_transit":false,"transit":false,"i_lat":-6.207404,"station_name":"Palmerah","time":6,"i_long":106.79689,"station_id":"PLM","distance":3191,"line":6},{"station_id":"KBY","transit":false,"i_lat":-6.237242,"distance":3737,"line":6,"is_transit":false,"i_long":106.780334,"station_name":"Kebayoran","time":7},{"i_lat":-6.276362,"distance":6218,"is_transit":false,"station_name":"Pondokranji","transit":false,"i_long":106.74273,"time":8,"station_id":"PDJ","line":6},{"station_name":"Jurangmangu","transit":false,"i_long":106.728916,"is_transit":false,"line":6,"i_lat":-6.288927,"station_id":"JMU","distance":2179,"time":3},{"is_transit":false,"line":6,"i_lat":-6.296963,"station_name":"Sudimara","i_long":106.712277,"station_id":"SDM","time":4,"distance":1994,"transit":false},{"line":6,"is_transit":false,"i_lat":-6.314823,"i_long":106.675475,"distance":4566,"station_name":"Rawa Buntu","station_id":"RU","time":6,"transit":false},{"is_transit":false,"i_long":106.66566,"distance":2413,"line":6,"station_id":"SRP","station_name":"Serpong","time":4,"transit":false,"i_lat":-6.319871},{"line":0,"i_long":106.640411,"i_lat":-6.32484,"is_transit":false,"station_id":"CSK","station_name":"Cisauk","transit":false,"time":4,"distance":1784},{"i_lat":-6.329547,"line":0,"i_long":106.617853,"station_name":"Cicayur","transit":false,"time":4,"distance":2519,"is_transit":false,"station_id":"CC"},{"station_id":"PRP","is_transit":false,"distance":5968,"i_lat":-6.3441410000000005,"i_long":106.568863,"transit":false,"line":6,"station_name":"Parung Panjang","time":8},{"transit":false,"distance":7025,"time":9,"station_name":"Cilejit","is_transit":false,"i_lat":-6.354349,"i_long":106.508482,"station_id":"CJT","line":0},{"i_long":106.491338,"station_name":"Daru","is_transit":false,"transit":false,"distance":2675,"time":6,"line":0,"station_id":"DAR","i_lat":-6.338021},{"station_name":"Tenjo","i_lat":-6.327251,"line":6,"is_transit":false,"i_long":106.460812,"time":5,"station_id":"TEJ","distance":3902,"transit":false},{"transit":false,"is_transit":false,"station_id":"TGS","distance":2974,"time":5,"i_lat":-6.328533,"i_long":106.425991,"station_name":"Tigaraksa","line":6},{"station_id":"CKY","station_name":"Cikoya","time":3,"transit":false,"distance":2651,"i_long":106.411216,"line":0,"i_lat":-6.33561,"is_transit":false},{"transit":false,"distance":1853,"i_long":106.394373,"station_name":"Maja","line":6,"time":4,"station_id":"MJ","i_lat":-6.332307,"is_transit":false},{"i_long":106.332092,"time":10,"distance":7293,"transit":false,"station_name":"Citeras","station_id":"CTR","is_transit":false,"i_lat":-6.334892,"line":0}],[{"station_id":"TTI","station_name":"Tanah Tinggi","i_long":106.64657,"line":5,"i_lat":-6.17331,"distance":0,"time":0,"is_transit":false,"transit":false},{"station_name":"Batuceper","station_id":"BPR","line":0,"distance":2028,"i_lat":-6.171811,"i_long":106.665036,"is_transit":false,"transit":false,"time":3},{"transit":false,"distance":1834,"station_id":"PI","is_transit":false,"i_lat":-6.169933,"line":5,"station_name":"Poris","time":3,"i_long":106.679458},{"distance":2548,"transit":false,"time":3,"is_transit":false,"station_name":"Kalideres","line":5,"station_id":"KDS","i_long":106.701612,"i_lat":-6.166068},{"transit":false,"i_long":106.723064,"station_name":"Rawa Buaya","time":3,"distance":2504,"is_transit":false,"line":5,"station_id":"RW","i_lat":-6.162758},{"i_lat":-6.159876,"is_transit":false,"line":0,"i_long":106.737035,"time":4,"distance":1152,"transit":false,"station_name":"Bojongindah","station_id":"BOI"},{"line":5,"transit":false,"station_name":"Taman Kota","time":2,"i_lat":-6.1587309999999995,"is_transit":false,"station_id":"TKO","distance":2334,"i_long":106.756522},{"is_transit":false,"transit":false,"time":2,"i_lat":-6.161433,"line":5,"station_id":"PSG","distance":1614,"i_long":106.771379,"station_name":"Pesing"},{"i_long":106.788277,"time":2,"station_id":"GGL","station_name":"Grogol","distance":2036,"is_transit":false,"transit":false,"i_lat":-6.162021,"line":5},{"distance":1700,"transit":true,"line":1,"is_transit":true,"station_id":"DU","i_long":106.800832,"station_name":"Duri","i_lat":-6.155215,"time":3},{"is_transit":false,"i_long":106.79867,"distance":1230,"station_id":"AK","line":0,"i_lat":-6.144674,"transit":false,"station_name":"Angke","time":4},{"transit":false,"distance":4102,"i_long":106.826365,"time":9,"line":0,"station_name":"Kampung Bandan","station_id":"KPB","is_transit":true,"i_lat":-6.132549},{"i_long":106.812439,"i_lat":-6.137569,"line":0,"station_name":"Jakarta Kota","distance":1364,"time":3,"is_transit":true,"transit":true,"station_id":"JAKK"},{"line":7,"transit":false,"i_long":106.820901,"is_transit":false,"station_id":"JAY","time":4,"i_lat":-6.141205,"station_name":"Jayakarta","distance":1264},{"station_name":"Manggabesar","station_id":"MGB","time":2,"i_lat":-6.149769,"line":2,"transit":false,"i_long":106.82482,"distance":1080,"is_transit":false},{"i_lat":-6.160725,"station_id":"SW","i_long":106.827103,"transit":false,"distance":906,"time":2,"line":2,"station_name":"Sawah Besar","is_transit":false},{"distance":1149,"time":2,"transit":false,"station_id":"JUA","is_transit":false,"station_name":"Juanda","i_lat":-6.166716,"i_long":106.828284,"line":2},{"i_long":106.832183,"station_id":"GDD","transit":false,"time":4,"i_lat":-6.186295,"distance":2015,"is_transit":false,"station_name":"Gondangdia","line":2},{"transit":false,"line":0,"station_id":"CKI","i_lat":-6.198556,"is_transit":false,"i_long":106.840169,"time":3,"station_name":"Cikini","distance":1750},{"time":4,"transit":true,"i_long":106.84912,"line":0,"i_lat":-6.209883,"distance":1590,"is_transit":true,"station_id":"MRI","station_name":"Manggarai"},{"is_transit":false,"station_name":"Sudirman","transit":false,"line":1,"time":4,"i_long":106.822649,"distance":3186,"station_id":"SUD","i_lat":-6.202263},{"station_id":"SUDB","is_transit":false,"i_lat":-6.201433,"distance":280,"station_name":"Sudirman Baru","i_long":106.819881,"line":1,"time":1,"transit":false},{"station_id":"KAT","transit":false,"distance":471,"i_long":106.816351,"is_transit":false,"i_lat":-6.20132,"time":1,"line":1,"station_name":"Karet"},{"i_lat":-6.185545,"time":5,"transit":true,"distance":2029,"is_transit":true,"i_long":106.811091,"line":1,"station_name":"Tanah Abang","station_id":"THB"},{"i_lat":-6.207404,"is_transit":false,"station_name":"Palmerah","time":6,"distance":3191,"station_id":"PLM","line":6,"transit":false,"i_long":106.79689},{"station_id":"KBY","line":6,"distance":3737,"is_transit":false,"station_name":"Kebayoran","transit":false,"i_lat":-6.237242,"i_long":106.780334,"time":7},{"i_lat":-6.276362,"i_long":106.74273,"is_transit":false,"line":6,"station_name":"Pondokranji","distance":6218,"station_id":"PDJ","time":8,"transit":false},{"station_name":"Jurangmangu","time":3,"i_lat":-6.288927,"line":6,"i_long":106.728916,"distance":2179,"is_transit":false,"transit":false,"station_id":"JMU"},{"i_lat":-6.296963,"is_transit":false,"station_name":"Sudimara","time":4,"i_long":106.712277,"line":6,"station_id":"SDM","distance":1994,"transit":false},{"is_transit":false,"distance":4566,"station_name":"Rawa Buntu","time":6,"line":6,"station_id":"RU","i_long":106.675475,"transit":false,"i_lat":-6.314823},{"line":6,"is_transit":false,"transit":false,"time":4,"station_id":"SRP","distance":2413,"station_name":"Serpong","i_lat":-6.319871,"i_long":106.66566},{"i_lat":-6.32484,"station_id":"CSK","transit":false,"station_name":"Cisauk","time":4,"distance":1784,"line":0,"is_transit":false,"i_long":106.640411},{"is_transit":false,"station_name":"Cicayur","transit":false,"i_lat":-6.329547,"distance":2519,"time":4,"i_long":106.617853,"station_id":"CC","line":0},{"station_id":"PRP","i_lat":-6.3441410000000005,"i_long":106.568863,"station_name":"Parung Panjang","transit":false,"distance":5968,"time":8,"line":6,"is_transit":false},{"i_long":106.508482,"line":0,"distance":7025,"time":9,"station_name":"Cilejit","station_id":"CJT","is_transit":false,"transit":false,"i_lat":-6.354349},{"i_lat":-6.338021,"line":0,"distance":2675,"station_id":"DAR","is_transit":false,"station_name":"Daru","transit":false,"i_long":106.491338,"time":6},{"time":5,"distance":3902,"station_name":"Tenjo","transit":false,"i_lat":-6.327251,"i_long":106.460812,"station_id":"TEJ","line":6,"is_transit":false},{"is_transit":false,"i_lat":-6.328533,"i_long":106.425991,"distance":2974,"station_id":"TGS","time":5,"transit":false,"line":6,"station_name":"Tigaraksa"},{"transit":false,"line":0,"station_id":"CKY","time":3,"i_long":106.411216,"i_lat":-6.33561,"distance":2651,"is_transit":false,"station_name":"Cikoya"},{"station_id":"MJ","distance":1853,"is_transit":false,"transit":false,"i_long":106.394373,"line":6,"station_name":"Maja","time":4,"i_lat":-6.332307},{"line":0,"station_id":"CTR","is_transit":false,"time":10,"i_lat":-6.334892,"station_name":"Citeras","transit":false,"distance":7293,"i_long":106.332092}],[{"station_name":"Tanah Tinggi","i_long":106.64657,"is_transit":false,"station_id":"TTI","line":5,"distance":0,"transit":false,"time":0,"i_lat":-6.17331},{"station_name":"Batuceper","transit":false,"i_lat":-6.171811,"i_long":106.665036,"line":0,"distance":2028,"time":3,"is_transit":false,"station_id":"BPR"},{"distance":1834,"station_id":"PI","line":5,"i_lat":-6.169933,"is_transit":false,"i_long":106.679458,"station_name":"Poris","time":3,"transit":false},{"is_transit":false,"station_id":"KDS","transit":false,"i_lat":-6.166068,"i_long":106.701612,"distance":2548,"station_name":"Kalideres","time":3,"line":5},{"is_transit":false,"station_id":"RW","line":5,"time":3,"i_lat":-6.162758,"transit":false,"i_long":106.723064,"station_name":"Rawa Buaya","distance":2504},{"is_transit":false,"distance":1152,"station_id":"BOI","station_name":"Bojongindah","time":4,"transit":false,"line":0,"i_long":106.737035,"i_lat":-6.159876},{"distance":2334,"time":2,"line":5,"i_long":106.756522,"is_transit":false,"station_id":"TKO","station_name":"Taman Kota","transit":false,"i_lat":-6.1587309999999995},{"transit":false,"i_long":106.771379,"distance":1614,"time":2,"i_lat":-6.161433,"station_id":"PSG","line":5,"is_transit":false,"station_name":"Pesing"},{"transit":false,"station_name":"Grogol","is_transit":false,"distance":2036,"time":2,"station_id":"GGL","i_lat":-6.162021,"i_long":106.788277,"line":5},{"transit":true,"station_name":"Duri","is_transit":true,"i_lat":-6.155215,"distance":1700,"time":3,"i_long":106.800832,"station_id":"DU","line":1},{"time":4,"station_id":"AK","i_long":106.79867,"distance":1230,"is_transit":false,"transit":false,"i_lat":-6.144674,"station_name":"Angke","line":0},{"station_name":"Kampung Bandan","station_id":"KPB","time":9,"i_long":106.826365,"line":0,"i_lat":-6.132549,"distance":4102,"is_transit":true,"transit":true},{"i_long":106.836569,"i_lat":-6.14505,"distance":1444,"is_transit":false,"transit":false,"station_id":"RJW","station_name":"Rajawali","line":11,"time":3},{"time":5,"transit":false,"station_name":"Kemayoran","i_long":106.839204,"i_lat":-6.161728,"station_id":"KMO","is_transit":false,"line":11,"distance":1901},{"station_name":"Pasar Senen","is_transit":false,"distance":1436,"transit":false,"station_id":"PSE","i_long":106.84368,"line":11,"i_lat":-6.174784,"time":4},{"i_lat":-6.185975,"distance":1567,"i_long":106.850107,"transit":false,"station_name":"Gang Sentiong","line":11,"station_id":"GST","time":8,"is_transit":false},{"i_long":106.855437,"is_transit":false,"station_name":"Kramat","time":1,"transit":false,"i_lat":-6.193792,"line":11,"station_id":"KMT","distance":973},{"transit":false,"line":11,"i_long":106.861737,"i_lat":-6.209188,"time":2,"distance":1829,"is_transit":false,"station_id":"POK","station_name":"Pondok Jati"},{"line":0,"station_id":"JNG","time":9,"distance":1236,"is_transit":true,"i_lat":-6.215091,"transit":true,"i_long":106.86807400000001,"station_name":"Jatinegara"},{"station_name":"Matraman","i_lat":-6.212485,"transit":false,"station_id":"MTR","time":2,"distance":1377,"i_long":106.858896,"is_transit":false,"line":1},{"time":2,"transit":false,"i_long":106.84912,"line":0,"distance":1275,"i_lat":-6.209883,"is_transit":true,"station_name":"Manggarai","station_id":"MRI"},{"i_long":106.822649,"distance":3186,"line":1,"time":4,"is_transit":false,"station_id":"SUD","i_lat":-6.202263,"station_name":"Sudirman","transit":false},{"i_lat":-6.201433,"i_long":106.819881,"distance":280,"time":1,"station_name":"Sudirman Baru","transit":false,"station_id":"SUDB","is_transit":false,"line":1},{"i_long":106.816351,"station_name":"Karet","line":1,"is_transit":false,"station_id":"KAT","i_lat":-6.20132,"transit":false,"time":1,"distance":471},{"station_id":"THB","line":1,"i_lat":-6.185545,"distance":2029,"transit":true,"station_name":"Tanah Abang","time":5,"is_transit":true,"i_long":106.811091},{"distance":3191,"i_lat":-6.207404,"line":6,"station_name":"Palmerah","station_id":"PLM","is_transit":false,"time":6,"transit":false,"i_long":106.79689},{"i_long":106.780334,"is_transit":false,"distance":3737,"i_lat":-6.237242,"station_name":"Kebayoran","time":7,"line":6,"station_id":"KBY","transit":false},{"time":8,"i_long":106.74273,"distance":6218,"station_name":"Pondokranji","station_id":"PDJ","transit":false,"i_lat":-6.276362,"line":6,"is_transit":false},{"i_lat":-6.288927,"distance":2179,"station_id":"JMU","station_name":"Jurangmangu","transit":false,"line":6,"i_long":106.728916,"is_transit":false,"time":3},{"transit":false,"is_transit":false,"station_id":"SDM","i_lat":-6.296963,"distance":1994,"time":4,"i_long":106.712277,"station_name":"Sudimara","line":6},{"distance":4566,"is_transit":false,"station_name":"Rawa Buntu","i_lat":-6.314823,"transit":false,"line":6,"i_long":106.675475,"station_id":"RU","time":6},{"distance":2413,"is_transit":false,"station_name":"Serpong","station_id":"SRP","transit":false,"time":4,"i_lat":-6.319871,"i_long":106.66566,"line":6},{"station_name":"Cisauk","is_transit":false,"i_lat":-6.32484,"i_long":106.640411,"line":0,"time":4,"distance":1784,"station_id":"CSK","transit":false},{"is_transit":false,"time":4,"station_name":"Cicayur","i_lat":-6.329547,"station_id":"CC","i_long":106.617853,"transit":false,"distance":2519,"line":0},{"time":8,"distance":5968,"is_transit":false,"station_id":"PRP","transit":false,"line":6,"i_long":106.568863,"station_name":"Parung Panjang","i_lat":-6.3441410000000005},{"transit":false,"station_id":"CJT","time":9,"i_lat":-6.354349,"line":0,"i_long":106.508482,"is_transit":false,"distance":7025,"station_name":"Cilejit"},{"time":6,"transit":false,"line":0,"station_name":"Daru","is_transit":false,"station_id":"DAR","distance":2675,"i_lat":-6.338021,"i_long":106.491338},{"transit":false,"time":5,"i_lat":-6.327251,"is_transit":false,"station_id":"TEJ","line":6,"distance":3902,"i_long":106.460812,"station_name":"Tenjo"},{"time":5,"distance":2974,"transit":false,"line":6,"station_name":"Tigaraksa","i_lat":-6.328533,"i_long":106.425991,"is_transit":false,"station_id":"TGS"},{"station_id":"CKY","is_transit":false,"i_lat":-6.33561,"i_long":106.411216,"station_name":"Cikoya","transit":false,"time":3,"distance":2651,"line":0},{"distance":1853,"time":4,"station_id":"MJ","line":6,"is_transit":false,"transit":false,"station_name":"Maja","i_lat":-6.332307,"i_long":106.394373},{"station_id":"CTR","time":10,"i_long":106.332092,"is_transit":false,"station_name":"Citeras","distance":7293,"transit":false,"line":0,"i_lat":-6.334892}]]}