{"data":[[{"line":2,"time":0,"station_id":"UI","is_transit":false,"station_name":"Univ. Indonesia","i_long":106.831474,"transit":false,"i_lat":-6.360749,"distance":0},{"transit":false,"line":2,"i_lat":-6.339291,"i_long":106.834175,"time":3,"is_transit":false,"distance":2264,"station_id":"UP","station_name":"Univ. Pancasila"},{"station_id":"LNA","is_transit":false,"transit":false,"line":2,"distance":1029,"station_name":"Lenteng Agung","i_long":106.832616,"i_lat":-6.330363,"time":2},{"i_long":106.838896,"line":2,"station_name":"Tanjung Barat","i_lat":-6.3080680000000005,"station_id":"TNT","distance":2671,"is_transit":false,"transit":false,"time":3},{"i_long":106.843999,"is_transit":false,"i_lat":-6.2842400000000005,"line":2,"station_id":"PSM","station_name":"Pasar Minggu","transit":false,"time":4,"distance":2820},{"time":2,"is_transit":false,"line":2,"distance":2380,"station_id":"PSMB","i_lat":-6.263214,"i_long":106.851577,"station_name":"Pasar Minggu Baru","transit":false},{"line":2,"i_long":106.85449,"distance":824,"time":2,"transit":false,"station_id":"DRN","i_lat":-6.255332,"station_name":"Duren Kalibata","is_transit":false},{"line":2,"i_lat":-6.242512,"station_id":"CW","station_name":"Cawang","time":3,"i_long":106.856607,"distance":1546,"transit":false,"is_transit":false},{"i_long":106.857948,"line":2,"distance":1230,"is_transit":false,"time":2,"station_id":"TEB","i_lat":-6.226659,"transit":false,"station_name":"Tebet"},{"station_id":"MRI","is_transit":true,"station_name":"Manggarai","transit":true,"line":2,"i_long":106.84912,"distance":2610,"time":4,"i_lat":-6.209883},{"time":4,"line":1,"i_lat":-6.202263,"i_long":106.822649,"transit":false,"distance":3186,"is_transit":false,"station_name":"Sudirman","station_id":"SUD"},{"i_lat":-6.201433,"time":1,"station_id":"SUDB","i_long":106.819881,"station_name":"Sudirman Baru","transit":false,"distance":280,"line":1,"is_transit":false},{"station_id":"KAT","is_transit":false,"i_lat":-6.20132,"line":1,"transit":false,"station_name":"Karet","i_long":106.816351,"time":1,"distance":471},{"transit":false,"line":1,"station_name":"Tanah Abang","i_long":106.811091,"time":5,"distance":2029,"station_id":"THB","is_transit":false,"i_lat":-6.185545},{"station_name":"Duri","i_lat":-6.155215,"transit":false,"i_long":106.800832,"line":1,"distance":3632,"time":8,"is_transit":false,"station_id":"DU"},{"is_transit":false,"distance":1230,"station_name":"Angke","i_long":106.79867,"line":1,"i_lat":-6.144674,"transit":false,"time":4,"station_id":"AK"}],[{"line":2,"station_name":"Univ. Indonesia","station_id":"UI","time":0,"transit":false,"is_transit":false,"i_lat":-6.360749,"i_long":106.831474,"distance":0},{"line":2,"station_id":"UP","i_long":106.834175,"station_name":"Univ. Pancasila","i_lat":-6.339291,"time":3,"distance":2264,"transit":false,"is_transit":false},{"station_id":"LNA","distance":1029,"i_lat":-6.330363,"i_long":106.832616,"time":2,"line":2,"station_name":"Lenteng Agung","is_transit":false,"transit":false},{"distance":2671,"station_id":"TNT","i_lat":-6.3080680000000005,"line":2,"time":3,"is_transit":false,"i_long":106.838896,"transit":false,"station_name":"Tanjung Barat"},{"distance":2820,"station_name":"Pasar Minggu","line":2,"station_id":"PSM","time":4,"i_lat":-6.2842400000000005,"transit":false,"is_transit":false,"i_long":106.843999},{"time":2,"is_transit":false,"station_name":"Pasar Minggu Baru","distance":2380,"i_long":106.851577,"transit":false,"i_lat":-6.263214,"line":2,"station_id":"PSMB"},{"is_transit":false,"time":2,"station_name":"Duren Kalibata","i_long":106.85449,"station_id":"DRN","line":2,"distance":824,"i_lat":-6.255332,"transit":false},{"transit":false,"line":2,"i_lat":-6.242512,"distance":1546,"time":3,"station_id":"CW","is_transit":false,"station_name":"Cawang","i_long":106.856607},{"line":2,"transit":false,"station_id":"TEB","station_name":"Tebet","i_lat":-6.226659,"time":2,"distance":1230,"is_transit":false,"i_long":106.857948},{"line":2,"station_id":"MRI","station_name":"Manggarai","time":4,"distance":2610,"i_lat":-6.209883,"i_long":106.84912,"transit":false,"is_transit":false},{"station_name":"Cikini","i_lat":-6.198556,"time":4,"line":2,"transit":false,"i_long":106.840169,"is_transit":false,"distance":1590,"station_id":"CKI"},{"line":2,"is_transit":false,"transit":false,"i_long":106.832183,"station_id":"GDD","distance":1750,"time":3,"i_lat":-6.186295,"station_name":"Gondangdia"},{"transit":false,"station_id":"JUA","is_transit":false,"station_name":"Juanda","line":2,"i_long":106.828284,"distance":2015,"i_lat":-6.166716,"time":4},{"line":2,"time":2,"is_transit":false,"i_lat":-6.160725,"i_long":106.827103,"distance":1149,"station_name":"Sawah Besar","station_id":"SW","transit":false},{"line":2,"distance":906,"time":2,"is_transit":false,"transit":false,"i_long":106.82482,"i_lat":-6.149769,"station_id":"MGB","station_name":"Manggabesar"},{"is_transit":false,"station_name":"Jayakarta","i_long":106.820901,"i_lat":-6.141205,"line":2,"station_id":"JAY","distance":1080,"transit":false,"time":2},{"line":2,"time":4,"transit":true,"is_transit":true,"i_lat":-6.137569,"i_long":106.812439,"station_name":"Jakarta Kota","station_id":"JAKK","distance":1264},{"distance":1364,"time":3,"line":4,"station_name":"Kampung Bandan","i_long":106.826365,"i_lat":-6.132549,"is_transit":true,"transit":true,"station_id":"KPB"},{"is_transit":false,"i_lat":-6.144674,"station_name":"Angke","i_long":106.79867,"distance":4102,"transit":false,"station_id":"AK","time":9,"line":1}],[{"i_lat":-6.360749,"line":2,"distance":0,"i_long":106.831474,"station_id":"UI","station_name":"Univ. Indonesia","is_transit":false,"transit":false,"time":0},{"i_long":106.834175,"transit":false,"is_transit":false,"distance":2264,"i_lat":-6.339291,"station_id":"UP","station_name":"Univ. Pancasila","line":2,"time":3},{"station_name":"Lenteng Agung","time":2,"is_transit":false,"transit":false,"distance":1029,"i_long":106.832616,"i_lat":-6.330363,"line":2,"station_id":"LNA"},{"transit":false,"time":3,"distance":2671,"line":2,"i_lat":-6.3080680000000005,"i_long":106.838896,"station_id":"TNT","station_name":"Tanjung Barat","is_transit":false},{"line":2,"station_name":"Pasar Minggu","i_lat":-6.2842400000000005,"station_id":"PSM","distance":2820,"transit":false,"i_long":106.843999,"time":4,"is_transit":false},{"station_name":"Pasar Minggu Baru","transit":false,"distance":2380,"i_lat":-6.263214,"is_transit":false,"i_long":106.851577,"time":2,"station_id":"PSMB","line":2},{"i_lat":-6.255332,"time":2,"i_long":106.85449,"distance":824,"station_id":"DRN","transit":false,"station_name":"Duren Kalibata","is_transit":false,"line":2},{"station_name":"Cawang","distance":1546,"station_id":"CW","time":3,"i_lat":-6.242512,"i_long":106.856607,"line":2,"transit":false,"is_transit":false},{"station_name":"Tebet","station_id":"TEB","i_long":106.857948,"distance":1230,"time":2,"line":2,"transit":false,"is_transit":false,"i_lat":-6.226659},{"time":4,"i_lat":-6.209883,"line":2,"station_name":"Manggarai","distance":2610,"i_long":106.84912,"station_id":"MRI","transit":true,"is_transit":true},{"is_transit":false,"i_long":106.858896,"line":1,"station_name":"Matraman","station_id":"MTR","distance":1275,"time":2,"transit":false,"i_lat":-6.212485},{"transit":true,"station_id":"JNG","distance":1377,"i_lat":-6.215091,"i_long":106.86807400000001,"line":1,"station_name":"Jatinegara","is_transit":true,"time":8},{"distance":1236,"is_transit":false,"station_name":"Pondok Jati","station_id":"POK","transit":false,"i_lat":-6.209188,"i_long":106.861737,"line":11,"time":2},{"distance":1829,"station_id":"KMT","station_name":"Kramat","line":11,"is_transit":false,"time":2,"i_lat":-6.193792,"i_long":106.855437,"transit":false},{"station_id":"GST","i_long":106.850107,"station_name":"Gang Sentiong","transit":false,"is_transit":false,"line":11,"i_lat":-6.185975,"distance":973,"time":1},{"distance":1567,"station_name":"Pasar Senen","is_transit":false,"station_id":"PSE","transit":false,"i_lat":-6.174784,"i_long":106.84368,"time":8,"line":11},{"station_name":"Kemayoran","is_transit":false,"station_id":"KMO","transit":false,"distance":1436,"i_long":106.839204,"line":11,"time":4,"i_lat":-6.161728},{"distance":1901,"station_id":"RJW","time":5,"i_long":106.836569,"station_name":"Rajawali","is_transit":false,"transit":false,"i_lat":-6.14505,"line":11},{"transit":true,"i_long":106.826365,"time":3,"station_name":"Kampung Bandan","is_transit":true,"distance":1444,"i_lat":-6.132549,"station_id":"KPB","line":4},{"time":9,"transit":false,"i_long":106.79867,"station_name":"Angke","station_id":"AK","i_lat":-6.144674,"is_transit":false,"line":1,"distance":4102}]]}