{"data":[[{"transit":false,"line":2,"i_long":106.831474,"is_transit":false,"time":0,"distance":0,"i_lat":-6.360749,"station_name":"Univ. Indonesia","station_id":"UI"},{"station_id":"UP","time":3,"distance":2264,"station_name":"Univ. Pancasila","line":2,"i_lat":-6.339291,"is_transit":false,"transit":false,"i_long":106.834175},{"station_id":"LNA","time":2,"is_transit":false,"distance":1029,"i_long":106.832616,"transit":false,"line":2,"station_name":"Lenteng Agung","i_lat":-6.330363},{"transit":false,"station_id":"TNT","time":3,"station_name":"Tanjung Barat","line":2,"distance":2671,"i_long":106.838896,"is_transit":false,"i_lat":-6.3080680000000005},{"station_id":"PSM","distance":2820,"transit":false,"is_transit":false,"time":4,"i_lat":-6.2842400000000005,"station_name":"Pasar Minggu","i_long":106.843999,"line":2},{"station_name":"Pasar Minggu Baru","line":2,"time":2,"distance":2380,"station_id":"PSMB","i_lat":-6.263214,"is_transit":false,"i_long":106.851577,"transit":false},{"distance":824,"is_transit":false,"station_id":"DRN","transit":false,"station_name":"Duren Kalibata","line":0,"i_lat":-6.255332,"i_long":106.85449,"time":2},{"i_lat":-6.242512,"time":3,"i_long":106.856607,"distance":1546,"line":0,"is_transit":false,"station_id":"CW","station_name":"Cawang","transit":false},{"is_transit":false,"i_lat":-6.226659,"transit":false,"station_id":"TEB","time":2,"distance":1230,"i_long":106.857948,"station_name":"Tebet","line":2},{"station_name":"Manggarai","i_lat":-6.209883,"distance":2610,"station_id":"MRI","is_transit":true,"transit":true,"line":0,"i_long":106.84912,"time":4},{"time":4,"distance":3186,"i_lat":-6.202263,"line":1,"is_transit":false,"i_long":106.822649,"station_name":"Sudirman","transit":false,"station_id":"SUD"},{"transit":false,"time":1,"line":1,"station_id":"SUDB","i_lat":-6.201433,"i_long":106.819881,"is_transit":false,"distance":280,"station_name":"Sudirman Baru"},{"station_name":"Karet","i_lat":-6.20132,"is_transit":false,"transit":false,"line":1,"station_id":"KAT","time":1,"distance":471,"i_long":106.816351},{"i_lat":-6.185545,"line":1,"station_name":"Tanah Abang","i_long":106.811091,"transit":false,"is_transit":true,"time":5,"distance":2029,"station_id":"THB"},{"is_transit":true,"station_name":"Duri","distance":3632,"i_lat":-6.155215,"line":1,"time":8,"station_id":"DU","transit":true,"i_long":106.800832},{"distance":1230,"i_lat":-6.144674,"is_transit":false,"i_long":106.79867,"station_id":"AK","transit":false,"line":0,"station_name":"Angke","time":4}],[{"station_name":"Univ. Indonesia","i_lat":-6.360749,"time":0,"distance":0,"line":2,"station_id":"UI","is_transit":false,"transit":false,"i_long":106.831474},{"line":2,"transit":false,"is_transit":false,"station_id":"UP","i_long":106.834175,"time":3,"distance":2264,"station_name":"Univ. Pancasila","i_lat":-6.339291},{"station_id":"LNA","line":2,"station_name":"Lenteng Agung","transit":false,"i_long":106.832616,"time":2,"is_transit":false,"distance":1029,"i_lat":-6.330363},{"is_transit":false,"time":3,"i_lat":-6.3080680000000005,"station_name":"Tanjung Barat","station_id":"TNT","i_long":106.838896,"line":2,"distance":2671,"transit":false},{"station_name":"Pasar Minggu","time":4,"is_transit":false,"distance":2820,"i_long":106.843999,"line":2,"transit":false,"station_id":"PSM","i_lat":-6.2842400000000005},{"time":2,"i_lat":-6.263214,"transit":false,"station_id":"PSMB","distance":2380,"i_long":106.851577,"is_transit":false,"line":2,"station_name":"Pasar Minggu Baru"},{"i_lat":-6.255332,"transit":false,"distance":824,"i_long":106.85449,"station_id":"DRN","station_name":"Duren Kalibata","line":0,"time":2,"is_transit":false},{"time":3,"transit":false,"station_id":"CW","station_name":"Cawang","is_transit":false,"distance":1546,"i_long":106.856607,"i_lat":-6.242512,"line":0},{"station_name":"Tebet","distance":1230,"line":2,"is_transit":false,"station_id":"TEB","time":2,"i_long":106.857948,"transit":false,"i_lat":-6.226659},{"station_id":"MRI","station_name":"Manggarai","distance":2610,"time":4,"i_lat":-6.209883,"i_long":106.84912,"line":0,"is_transit":true,"transit":true},{"is_transit":false,"line":0,"transit":false,"station_id":"CKI","time":4,"station_name":"Cikini","i_long":106.840169,"distance":1590,"i_lat":-6.198556},{"station_name":"Gondangdia","i_lat":-6.186295,"distance":1750,"is_transit":false,"station_id":"GDD","transit":false,"time":3,"i_long":106.832183,"line":2},{"is_transit":false,"time":4,"transit":false,"i_lat":-6.166716,"line":2,"station_id":"JUA","station_name":"Juanda","i_long":106.828284,"distance":2015},{"line":2,"is_transit":false,"station_name":"Sawah Besar","transit":false,"i_lat":-6.160725,"station_id":"SW","distance":1149,"i_long":106.827103,"time":2},{"i_long":106.82482,"line":2,"time":2,"is_transit":false,"i_lat":-6.149769,"station_id":"MGB","station_name":"Manggabesar","distance":906,"transit":false},{"distance":1080,"transit":false,"line":7,"i_lat":-6.141205,"time":2,"i_long":106.820901,"station_id":"JAY","is_transit":false,"station_name":"Jayakarta"},{"station_name":"Jakarta Kota","distance":1264,"transit":true,"line":0,"station_id":"JAKK","time":4,"i_lat":-6.137569,"is_transit":true,"i_long":106.812439},{"station_name":"Kampung Bandan","i_long":106.826365,"line":0,"distance":1364,"time":3,"station_id":"KPB","i_lat":-6.132549,"transit":false,"is_transit":true},{"station_name":"Angke","station_id":"AK","line":0,"transit":false,"distance":4102,"i_lat":-6.144674,"i_long":106.79867,"is_transit":false,"time":9}],[{"station_id":"UI","i_lat":-6.360749,"i_long":106.831474,"is_transit":false,"line":2,"transit":false,"station_name":"Univ. Indonesia","time":0,"distance":0},{"station_id":"UP","transit":false,"time":3,"i_lat":-6.339291,"i_long":106.834175,"distance":2264,"station_name":"Univ. Pancasila","is_transit":false,"line":2},{"time":2,"i_long":106.832616,"line":2,"transit":false,"is_transit":false,"station_name":"Lenteng Agung","distance":1029,"station_id":"LNA","i_lat":-6.330363},{"i_long":106.838896,"station_id":"TNT","i_lat":-6.3080680000000005,"station_name":"Tanjung Barat","time":3,"line":2,"distance":2671,"transit":false,"is_transit":false},{"i_long":106.843999,"station_id":"PSM","transit":false,"line":2,"distance":2820,"is_transit":false,"time":4,"station_name":"Pasar Minggu","i_lat":-6.2842400000000005},{"station_id":"PSMB","transit":false,"is_transit":false,"station_name":"Pasar Minggu Baru","i_long":106.851577,"time":2,"i_lat":-6.263214,"distance":2380,"line":2},{"line":0,"i_lat":-6.255332,"station_name":"Duren Kalibata","station_id":"DRN","transit":false,"distance":824,"i_long":106.85449,"time":2,"is_transit":false},{"time":3,"i_long":106.856607,"line":0,"distance":1546,"station_name":"Cawang","transit":false,"i_lat":-6.242512,"station_id":"CW","is_transit":false},{"station_id":"TEB","line":2,"time":2,"i_lat":-6.226659,"i_long":106.857948,"transit":false,"station_name":"Tebet","distance":1230,"is_transit":false},{"time":4,"transit":true,"distance":2610,"i_lat":-6.209883,"i_long":106.84912,"line":0,"station_name":"Manggarai","station_id":"MRI","is_transit":true},{"i_long":106.858896,"distance":1275,"transit":false,"i_lat":-6.212485,"station_name":"Matraman","station_id":"MTR","is_transit":false,"line":1,"time":2},{"station_id":"JNG","i_long":106.86807400000001,"station_name":"Jatinegara","time":8,"is_transit":true,"distance":1377,"i_lat":-6.215091,"line":0,"transit":true},{"is_transit":false,"time":2,"transit":false,"station_id":"POK","station_name":"Pondok Jati","distance":1236,"i_lat":-6.209188,"i_long":106.861737,"line":11},{"i_lat":-6.193792,"time":2,"is_transit":false,"distance":1829,"transit":false,"station_name":"Kramat","i_long":106.855437,"line":11,"station_id":"KMT"},{"station_id":"GST","transit":false,"station_name":"Gang Sentiong","time":1,"distance":973,"line":11,"i_lat":-6.185975,"i_long":106.850107,"is_transit":false},{"station_name":"Pasar Senen","is_transit":false,"time":8,"distance":1567,"i_lat":-6.174784,"i_long":106.84368,"station_id":"PSE","transit":false,"line":11},{"i_long":106.839204,"is_transit":false,"line":11,"station_name":"Kemayoran","time":4,"distance":1436,"station_id":"KMO","i_lat":-6.161728,"transit":false},{"distance":1901,"is_transit":false,"time":5,"i_lat":-6.14505,"station_id":"RJW","line":11,"transit":false,"station_name":"Rajawali","i_long":106.836569},{"i_lat":-6.132549,"i_long":106.826365,"time":3,"is_transit":true,"station_id":"KPB","distance":1444,"line":0,"station_name":"Kampung Bandan","transit":true},{"station_id":"AK","distance":4102,"i_lat":-6.144674,"time":9,"i_long":106.79867,"station_name":"Angke","is_transit":false,"transit":false,"line":0}]]}