{"data":[[{"station_name":"Univ. Indonesia","distance":0,"i_long":106.831474,"time":0,"station_id":"UI","is_transit":false,"i_lat":-6.360749,"line":2,"transit":false},{"distance":2264,"i_lat":-6.339291,"is_transit":false,"time":3,"line":2,"transit":false,"station_name":"Univ. Pancasila","station_id":"UP","i_long":106.834175},{"station_name":"Lenteng Agung","is_transit":false,"i_long":106.832616,"i_lat":-6.330363,"line":2,"distance":1029,"time":2,"station_id":"LNA","transit":false},{"i_long":106.838896,"is_transit":false,"station_name":"Tanjung Barat","station_id":"TNT","time":3,"distance":2671,"i_lat":-6.3080680000000005,"transit":false,"line":2},{"distance":2820,"i_long":106.843999,"transit":false,"time":4,"i_lat":-6.2842400000000005,"station_id":"PSM","line":2,"station_name":"Pasar Minggu","is_transit":false},{"is_transit":false,"time":2,"i_long":106.851577,"station_id":"PSMB","i_lat":-6.263214,"station_name":"Pasar Minggu Baru","line":2,"transit":false,"distance":2380},{"station_id":"DRN","distance":824,"line":2,"transit":false,"station_name":"Duren Kalibata","is_transit":false,"i_long":106.85449,"i_lat":-6.255332,"time":2},{"transit":false,"i_long":106.856607,"line":2,"station_id":"CW","time":3,"distance":1546,"i_lat":-6.242512,"station_name":"Cawang","is_transit":false},{"time":2,"transit":false,"i_lat":-6.226659,"is_transit":false,"distance":1230,"i_long":106.857948,"station_name":"Tebet","station_id":"TEB","line":2},{"i_lat":-6.209883,"is_transit":true,"i_long":106.84912,"line":2,"time":4,"transit":true,"station_id":"MRI","station_name":"Manggarai","distance":2610},{"line":1,"i_long":106.822649,"station_id":"SUD","station_name":"Sudirman","is_transit":false,"time":4,"distance":3186,"i_lat":-6.202263,"transit":false},{"line":1,"is_transit":false,"transit":false,"station_name":"Sudirman Baru","i_lat":-6.201433,"distance":280,"i_long":106.819881,"station_id":"SUDB","time":1},{"transit":false,"i_lat":-6.20132,"time":1,"distance":471,"line":1,"station_name":"Karet","station_id":"KAT","is_transit":false,"i_long":106.816351},{"station_id":"THB","time":5,"distance":2029,"i_long":106.811091,"i_lat":-6.185545,"transit":false,"is_transit":false,"line":1,"station_name":"Tanah Abang"},{"distance":3632,"line":1,"station_id":"DU","transit":false,"station_name":"Duri","time":8,"i_lat":-6.155215,"is_transit":false,"i_long":106.800832},{"i_long":106.79867,"transit":false,"line":1,"distance":1230,"station_id":"AK","station_name":"Angke","time":4,"is_transit":false,"i_lat":-6.144674}],[{"transit":false,"station_id":"UI","time":0,"station_name":"Univ. Indonesia","i_long":106.831474,"line":2,"is_transit":false,"i_lat":-6.360749,"distance":0},{"distance":2264,"line":2,"station_name":"Univ. Pancasila","station_id":"UP","is_transit":false,"time":3,"transit":false,"i_lat":-6.339291,"i_long":106.834175},{"line":2,"i_lat":-6.330363,"is_transit":false,"distance":1029,"time":2,"station_id":"LNA","i_long":106.832616,"transit":false,"station_name":"Lenteng Agung"},{"transit":false,"time":3,"i_lat":-6.3080680000000005,"station_name":"Tanjung Barat","station_id":"TNT","i_long":106.838896,"line":2,"distance":2671,"is_transit":false},{"station_id":"PSM","transit":false,"is_transit":false,"i_lat":-6.2842400000000005,"i_long":106.843999,"station_name":"Pasar Minggu","distance":2820,"line":2,"time":4},{"distance":2380,"station_id":"PSMB","time":2,"line":2,"station_name":"Pasar Minggu Baru","i_long":106.851577,"is_transit":false,"transit":false,"i_lat":-6.263214},{"line":2,"is_transit":false,"i_lat":-6.255332,"i_long":106.85449,"station_id":"DRN","time":2,"distance":824,"transit":false,"station_name":"Duren Kalibata"},{"i_lat":-6.242512,"line":2,"station_id":"CW","time":3,"distance":1546,"i_long":106.856607,"is_transit":false,"transit":false,"station_name":"Cawang"},{"station_id":"TEB","i_long":106.857948,"time":2,"line":2,"i_lat":-6.226659,"distance":1230,"is_transit":false,"station_name":"Tebet","transit":false},{"station_name":"Manggarai","distance":2610,"station_id":"MRI","line":2,"transit":false,"is_transit":false,"time":4,"i_long":106.84912,"i_lat":-6.209883},{"station_name":"Cikini","station_id":"CKI","is_transit":false,"line":2,"transit":false,"i_long":106.840169,"time":4,"i_lat":-6.198556,"distance":1590},{"station_name":"Gondangdia","distance":1750,"line":2,"station_id":"GDD","transit":false,"is_transit":false,"time":3,"i_long":106.832183,"i_lat":-6.186295},{"i_lat":-6.166716,"transit":false,"station_id":"JUA","distance":2015,"i_long":106.828284,"time":4,"station_name":"Juanda","line":2,"is_transit":false},{"station_name":"Sawah Besar","station_id":"SW","distance":1149,"line":2,"is_transit":false,"time":2,"i_lat":-6.160725,"i_long":106.827103,"transit":false},{"i_long":106.82482,"station_id":"MGB","distance":906,"i_lat":-6.149769,"station_name":"Manggabesar","is_transit":false,"time":2,"line":2,"transit":false},{"time":2,"distance":1080,"line":2,"i_lat":-6.141205,"station_name":"Jayakarta","i_long":106.820901,"transit":false,"is_transit":false,"station_id":"JAY"},{"transit":true,"is_transit":true,"station_id":"JAKK","line":2,"station_name":"Jakarta Kota","distance":1264,"time":4,"i_long":106.812439,"i_lat":-6.137569},{"is_transit":true,"station_name":"Kampung Bandan","time":3,"distance":1364,"i_lat":-6.132549,"i_long":106.826365,"station_id":"KPB","line":4,"transit":true},{"is_transit":false,"station_id":"AK","station_name":"Angke","time":9,"distance":4102,"i_long":106.79867,"i_lat":-6.144674,"line":1,"transit":false}],[{"is_transit":false,"i_lat":-6.360749,"line":2,"distance":0,"station_name":"Univ. Indonesia","transit":false,"time":0,"i_long":106.831474,"station_id":"UI"},{"transit":false,"i_long":106.834175,"is_transit":false,"i_lat":-6.339291,"station_id":"UP","station_name":"Univ. Pancasila","distance":2264,"line":2,"time":3},{"is_transit":false,"distance":1029,"time":2,"i_lat":-6.330363,"station_name":"Lenteng Agung","transit":false,"station_id":"LNA","i_long":106.832616,"line":2},{"i_long":106.838896,"time":3,"transit":false,"station_name":"Tanjung Barat","i_lat":-6.3080680000000005,"station_id":"TNT","line":2,"distance":2671,"is_transit":false},{"is_transit":false,"time":4,"transit":false,"i_long":106.843999,"station_id":"PSM","station_name":"Pasar Minggu","distance":2820,"line":2,"i_lat":-6.2842400000000005},{"transit":false,"distance":2380,"station_id":"PSMB","i_lat":-6.263214,"i_long":106.851577,"station_name":"Pasar Minggu Baru","line":2,"is_transit":false,"time":2},{"time":2,"line":2,"station_name":"Duren Kalibata","distance":824,"i_long":106.85449,"station_id":"DRN","is_transit":false,"i_lat":-6.255332,"transit":false},{"time":3,"i_lat":-6.242512,"station_name":"Cawang","transit":false,"station_id":"CW","line":2,"is_transit":false,"distance":1546,"i_long":106.856607},{"i_lat":-6.226659,"line":2,"distance":1230,"transit":false,"i_long":106.857948,"is_transit":false,"time":2,"station_id":"TEB","station_name":"Tebet"},{"i_lat":-6.209883,"station_id":"MRI","time":4,"transit":true,"line":2,"i_long":106.84912,"distance":2610,"station_name":"Manggarai","is_transit":true},{"i_long":106.858896,"transit":false,"station_name":"Matraman","station_id":"MTR","line":1,"time":2,"is_transit":false,"distance":1275,"i_lat":-6.212485},{"is_transit":true,"station_name":"Jatinegara","i_long":106.86807400000001,"transit":true,"station_id":"JNG","line":1,"i_lat":-6.215091,"distance":1377,"time":8},{"is_transit":false,"time":2,"distance":1236,"i_long":106.861737,"line":11,"transit":false,"i_lat":-6.209188,"station_name":"Pondok Jati","station_id":"POK"},{"transit":false,"i_long":106.855437,"station_name":"Kramat","distance":1829,"line":11,"is_transit":false,"time":2,"station_id":"KMT","i_lat":-6.193792},{"distance":973,"transit":false,"station_name":"Gang Sentiong","is_transit":false,"line":11,"i_long":106.850107,"station_id":"GST","i_lat":-6.185975,"time":1},{"i_lat":-6.174784,"station_name":"Pasar Senen","is_transit":false,"line":11,"i_long":106.84368,"distance":1567,"time":8,"transit":false,"station_id":"PSE"},{"is_transit":false,"i_long":106.839204,"distance":1436,"line":11,"station_id":"KMO","station_name":"Kemayoran","transit":false,"time":4,"i_lat":-6.161728},{"transit":false,"is_transit":false,"line":11,"distance":1901,"station_name":"Rajawali","time":5,"i_lat":-6.14505,"i_long":106.836569,"station_id":"RJW"},{"line":4,"station_name":"Kampung Bandan","station_id":"KPB","time":3,"i_lat":-6.132549,"distance":1444,"transit":true,"is_transit":true,"i_long":106.826365},{"i_long":106.79867,"station_id":"AK","distance":4102,"i_lat":-6.144674,"station_name":"Angke","line":1,"transit":false,"is_transit":false,"time":9}]]}