{"data":[[{"line":2,"i_long":106.831474,"time":0,"i_lat":-6.360749,"station_id":"UI","transit":false,"distance":0,"is_transit":false,"station_name":"Univ. Indonesia"},{"transit":false,"station_name":"Univ. Pancasila","i_lat":-6.339291,"i_long":106.834175,"time":3,"is_transit":false,"station_id":"UP","line":2,"distance":2264},{"transit":false,"i_long":106.832616,"distance":1029,"line":2,"is_transit":false,"i_lat":-6.330363,"time":2,"station_id":"LNA","station_name":"Lenteng Agung"},{"time":3,"distance":2671,"is_transit":false,"station_id":"TNT","transit":false,"station_name":"Tanjung Barat","line":2,"i_lat":-6.3080680000000005,"i_long":106.838896},{"i_long":106.843999,"station_id":"PSM","is_transit":false,"station_name":"Pasar Minggu","i_lat":-6.2842400000000005,"transit":false,"time":4,"distance":2820,"line":2},{"i_long":106.851577,"distance":2380,"time":2,"station_id":"PSMB","transit":false,"i_lat":-6.263214,"line":2,"station_name":"Pasar Minggu Baru","is_transit":false},{"line":2,"distance":824,"is_transit":false,"i_lat":-6.255332,"station_id":"DRN","station_name":"Duren Kalibata","time":2,"i_long":106.85449,"transit":false},{"i_long":106.856607,"distance":1546,"transit":false,"time":3,"station_name":"Cawang","station_id":"CW","is_transit":false,"line":2,"i_lat":-6.242512},{"time":2,"i_long":106.857948,"line":2,"is_transit":false,"station_name":"Tebet","station_id":"TEB","i_lat":-6.226659,"distance":1230,"transit":false},{"is_transit":true,"time":4,"station_id":"MRI","i_long":106.84912,"line":2,"station_name":"Manggarai","i_lat":-6.209883,"distance":2610,"transit":true},{"i_long":106.822649,"distance":3186,"transit":false,"station_name":"Sudirman","time":4,"line":1,"is_transit":false,"i_lat":-6.202263,"station_id":"SUD"},{"line":1,"time":1,"station_name":"Sudirman Baru","is_transit":false,"i_long":106.819881,"distance":280,"i_lat":-6.201433,"transit":false,"station_id":"SUDB"},{"i_long":106.816351,"is_transit":false,"i_lat":-6.20132,"line":1,"time":1,"station_id":"KAT","distance":471,"transit":false,"station_name":"Karet"},{"station_name":"Tanah Abang","is_transit":false,"transit":false,"i_lat":-6.185545,"line":1,"station_id":"THB","distance":2029,"i_long":106.811091,"time":5},{"line":1,"distance":3632,"transit":true,"station_id":"DU","i_long":106.800832,"time":8,"station_name":"Duri","is_transit":true,"i_lat":-6.155215},{"line":5,"i_lat":-6.162021,"station_id":"GGL","transit":false,"distance":1700,"is_transit":false,"time":3,"station_name":"Grogol","i_long":106.788277},{"is_transit":false,"station_name":"Pesing","station_id":"PSG","transit":false,"distance":2036,"time":2,"i_lat":-6.161433,"i_long":106.771379,"line":5},{"line":5,"station_id":"TKO","i_lat":-6.1587309999999995,"transit":false,"i_long":106.756522,"time":2,"distance":1614,"station_name":"Taman Kota","is_transit":false},{"station_id":"BOI","transit":false,"i_lat":-6.159876,"i_long":106.737035,"time":2,"is_transit":false,"line":5,"station_name":"Bojongindah","distance":2334}],[{"distance":0,"is_transit":false,"time":0,"transit":false,"station_id":"UI","i_lat":-6.360749,"line":2,"i_long":106.831474,"station_name":"Univ. Indonesia"},{"is_transit":false,"i_lat":-6.339291,"station_id":"UP","line":2,"i_long":106.834175,"distance":2264,"station_name":"Univ. Pancasila","transit":false,"time":3},{"time":2,"station_name":"Lenteng Agung","distance":1029,"i_long":106.832616,"transit":false,"is_transit":false,"station_id":"LNA","line":2,"i_lat":-6.330363},{"station_name":"Tanjung Barat","is_transit":false,"time":3,"distance":2671,"station_id":"TNT","i_long":106.838896,"line":2,"i_lat":-6.3080680000000005,"transit":false},{"transit":false,"is_transit":false,"station_id":"PSM","i_lat":-6.2842400000000005,"i_long":106.843999,"line":2,"time":4,"distance":2820,"station_name":"Pasar Minggu"},{"is_transit":false,"i_long":106.851577,"station_name":"Pasar Minggu Baru","time":2,"line":2,"i_lat":-6.263214,"station_id":"PSMB","transit":false,"distance":2380},{"line":2,"i_lat":-6.255332,"i_long":106.85449,"is_transit":false,"station_id":"DRN","transit":false,"station_name":"Duren Kalibata","distance":824,"time":2},{"station_name":"Cawang","i_lat":-6.242512,"distance":1546,"line":2,"is_transit":false,"time":3,"i_long":106.856607,"transit":false,"station_id":"CW"},{"station_name":"Tebet","distance":1230,"is_transit":false,"station_id":"TEB","transit":false,"i_lat":-6.226659,"time":2,"line":2,"i_long":106.857948},{"is_transit":false,"i_lat":-6.209883,"distance":2610,"time":4,"line":2,"i_long":106.84912,"station_name":"Manggarai","transit":false,"station_id":"MRI"},{"transit":false,"line":2,"i_lat":-6.198556,"is_transit":false,"station_name":"Cikini","station_id":"CKI","distance":1590,"i_long":106.840169,"time":4},{"transit":false,"i_long":106.832183,"line":2,"distance":1750,"i_lat":-6.186295,"time":3,"station_name":"Gondangdia","station_id":"GDD","is_transit":false},{"transit":false,"distance":2015,"station_id":"JUA","is_transit":false,"i_long":106.828284,"time":4,"station_name":"Juanda","line":2,"i_lat":-6.166716},{"distance":1149,"i_lat":-6.160725,"i_long":106.827103,"station_name":"Sawah Besar","transit":false,"station_id":"SW","is_transit":false,"time":2,"line":2},{"is_transit":false,"transit":false,"station_name":"Manggabesar","station_id":"MGB","i_long":106.82482,"i_lat":-6.149769,"distance":906,"time":2,"line":2},{"is_transit":false,"station_name":"Jayakarta","line":2,"i_long":106.820901,"distance":1080,"transit":false,"time":2,"i_lat":-6.141205,"station_id":"JAY"},{"station_name":"Jakarta Kota","line":2,"time":4,"is_transit":true,"transit":true,"distance":1264,"i_lat":-6.137569,"i_long":106.812439,"station_id":"JAKK"},{"i_long":106.826365,"distance":1364,"is_transit":true,"station_name":"Kampung Bandan","transit":true,"station_id":"KPB","line":4,"time":3,"i_lat":-6.132549},{"i_lat":-6.144674,"station_id":"AK","i_long":106.79867,"station_name":"Angke","is_transit":false,"time":9,"transit":false,"distance":4102,"line":1},{"is_transit":true,"station_id":"DU","i_lat":-6.155215,"i_long":106.800832,"distance":1230,"transit":true,"time":4,"station_name":"Duri","line":1},{"is_transit":false,"station_id":"GGL","i_lat":-6.162021,"i_long":106.788277,"transit":false,"time":3,"distance":1700,"line":5,"station_name":"Grogol"},{"distance":2036,"transit":false,"i_lat":-6.161433,"station_name":"Pesing","is_transit":false,"station_id":"PSG","line":5,"time":2,"i_long":106.771379},{"time":2,"station_id":"TKO","transit":false,"i_lat":-6.1587309999999995,"i_long":106.756522,"station_name":"Taman Kota","is_transit":false,"line":5,"distance":1614},{"station_name":"Bojongindah","time":2,"transit":false,"distance":2334,"is_transit":false,"line":5,"i_lat":-6.159876,"station_id":"BOI","i_long":106.737035}],[{"i_lat":-6.360749,"transit":false,"time":0,"line":2,"distance":0,"station_id":"UI","station_name":"Univ. Indonesia","is_transit":false,"i_long":106.831474},{"line":2,"distance":2264,"station_name":"Univ. Pancasila","is_transit":false,"station_id":"UP","transit":false,"i_lat":-6.339291,"time":3,"i_long":106.834175},{"i_lat":-6.330363,"station_id":"LNA","station_name":"Lenteng Agung","distance":1029,"time":2,"transit":false,"i_long":106.832616,"is_transit":false,"line":2},{"i_lat":-6.3080680000000005,"transit":false,"i_long":106.838896,"time":3,"distance":2671,"line":2,"station_id":"TNT","is_transit":false,"station_name":"Tanjung Barat"},{"transit":false,"distance":2820,"time":4,"station_id":"PSM","i_lat":-6.2842400000000005,"line":2,"i_long":106.843999,"station_name":"Pasar Minggu","is_transit":false},{"time":2,"station_id":"PSMB","line":2,"transit":false,"distance":2380,"i_lat":-6.263214,"is_transit":false,"station_name":"Pasar Minggu Baru","i_long":106.851577},{"distance":824,"is_transit":false,"time":2,"line":2,"station_name":"Duren Kalibata","i_lat":-6.255332,"station_id":"DRN","i_long":106.85449,"transit":false},{"station_id":"CW","transit":false,"line":2,"is_transit":false,"i_long":106.856607,"station_name":"Cawang","i_lat":-6.242512,"time":3,"distance":1546},{"time":2,"transit":false,"station_name":"Tebet","i_lat":-6.226659,"distance":1230,"is_transit":false,"station_id":"TEB","i_long":106.857948,"line":2},{"transit":true,"distance":2610,"is_transit":true,"station_name":"Manggarai","i_long":106.84912,"i_lat":-6.209883,"line":2,"time":4,"station_id":"MRI"},{"transit":false,"time":2,"i_lat":-6.212485,"i_long":106.858896,"station_name":"Matraman","line":1,"is_transit":false,"distance":1275,"station_id":"MTR"},{"line":1,"distance":1377,"station_id":"JNG","i_long":106.86807400000001,"transit":true,"is_transit":true,"time":8,"station_name":"Jatinegara","i_lat":-6.215091},{"time":2,"station_id":"POK","distance":1236,"line":11,"station_name":"Pondok Jati","is_transit":false,"i_lat":-6.209188,"transit":false,"i_long":106.861737},{"transit":false,"i_lat":-6.193792,"station_name":"Kramat","time":2,"line":11,"station_id":"KMT","distance":1829,"i_long":106.855437,"is_transit":false},{"transit":false,"line":11,"distance":973,"time":1,"station_name":"Gang Sentiong","i_lat":-6.185975,"i_long":106.850107,"station_id":"GST","is_transit":false},{"is_transit":false,"station_name":"Pasar Senen","line":11,"distance":1567,"time":8,"i_long":106.84368,"transit":false,"i_lat":-6.174784,"station_id":"PSE"},{"distance":1436,"is_transit":false,"time":4,"station_name":"Kemayoran","station_id":"KMO","transit":false,"i_lat":-6.161728,"i_long":106.839204,"line":11},{"distance":1901,"time":5,"line":11,"station_id":"RJW","i_lat":-6.14505,"is_transit":false,"station_name":"Rajawali","transit":false,"i_long":106.836569},{"station_name":"Kampung Bandan","line":4,"distance":1444,"station_id":"KPB","i_lat":-6.132549,"transit":true,"time":3,"i_long":106.826365,"is_transit":true},{"transit":false,"is_transit":false,"time":9,"station_name":"Angke","distance":4102,"line":1,"station_id":"AK","i_lat":-6.144674,"i_long":106.79867},{"is_transit":true,"station_name":"Duri","i_long":106.800832,"line":1,"i_lat":-6.155215,"transit":true,"station_id":"DU","time":4,"distance":1230},{"distance":1700,"station_id":"GGL","is_transit":false,"i_lat":-6.162021,"time":3,"transit":false,"station_name":"Grogol","i_long":106.788277,"line":5},{"line":5,"station_name":"Pesing","distance":2036,"time":2,"transit":false,"is_transit":false,"station_id":"PSG","i_long":106.771379,"i_lat":-6.161433},{"station_name":"Taman Kota","i_long":106.756522,"is_transit":false,"transit":false,"i_lat":-6.1587309999999995,"station_id":"TKO","line":5,"distance":1614,"time":2},{"i_lat":-6.159876,"time":2,"i_long":106.737035,"line":5,"transit":false,"distance":2334,"is_transit":false,"station_name":"Bojongindah","station_id":"BOI"}]]}