{"data":[[{"station_id":"UI","transit":false,"time":0,"i_lat":-6.360749,"station_name":"Univ. Indonesia","distance":0,"is_transit":false,"i_long":106.831474,"line":2},{"is_transit":false,"transit":false,"time":2,"line":2,"i_lat":-6.369073,"distance":1109,"i_long":106.831114,"station_name":"Pondok Cina","station_id":"POC"},{"transit":false,"line":0,"time":4,"is_transit":false,"i_long":106.819451,"i_lat":-6.391065,"distance":2727,"station_name":"Depokbaru","station_id":"DPB"},{"line":0,"station_name":"Depok","distance":1584,"station_id":"DP","transit":false,"is_transit":false,"time":3,"i_long":106.816926,"i_lat":-6.405256},{"distance":5084,"line":1,"i_long":106.800298,"time":6,"station_id":"CTA","station_name":"Citayam","is_transit":true,"transit":false,"i_lat":-6.448811},{"transit":false,"station_id":"BJD","station_name":"Bojonggede","i_long":106.792719,"line":0,"time":5,"i_lat":-6.493243,"distance":5197,"is_transit":false},{"distance":4331,"i_long":106.800016,"is_transit":false,"station_name":"Cilebut","transit":false,"station_id":"CLT","time":5,"i_lat":-6.530544,"line":0},{"station_id":"BOO","time":9,"i_lat":-6.594596,"is_transit":true,"station_name":"Bogor","distance":7514,"transit":false,"i_long":106.790574,"line":1}]]}