{"data":[[{"distance":0,"time":0,"i_long":106.831474,"station_id":"UI","i_lat":-6.360749,"station_name":"Univ. Indonesia","transit":false,"is_transit":false,"line":2},{"distance":1109,"i_lat":-6.369073,"station_id":"POC","i_long":106.831114,"station_name":"Pondok Cina","time":2,"transit":false,"line":2,"is_transit":false},{"station_id":"DPB","is_transit":false,"transit":false,"station_name":"Depokbaru","i_long":106.819451,"i_lat":-6.391065,"line":2,"time":4,"distance":2727},{"station_id":"DP","time":3,"station_name":"Depok","distance":1584,"i_long":106.816926,"i_lat":-6.405256,"is_transit":false,"transit":false,"line":2},{"line":2,"distance":5084,"time":6,"station_id":"CTA","transit":false,"is_transit":false,"i_lat":-6.448811,"station_name":"Citayam","i_long":106.800298},{"station_name":"Bojonggede","time":5,"station_id":"BJD","is_transit":false,"i_long":106.792719,"i_lat":-6.493243,"line":2,"distance":5197,"transit":false},{"is_transit":false,"i_long":106.800016,"time":5,"station_id":"CLT","line":2,"i_lat":-6.530544,"transit":false,"station_name":"Cilebut","distance":4331},{"station_name":"Bogor","is_transit":false,"distance":7514,"i_long":106.790574,"transit":false,"time":9,"line":2,"station_id":"BOO","i_lat":-6.594596}]]}