{"data":[[{"station_name":"Univ. Indonesia","line":2,"transit":false,"i_lat":-6.360749,"station_id":"UI","is_transit":false,"distance":0,"time":0,"i_long":106.831474},{"station_id":"UP","i_lat":-6.339291,"line":2,"distance":2264,"time":3,"i_long":106.834175,"is_transit":false,"station_name":"Univ. Pancasila","transit":false},{"line":2,"time":2,"station_name":"Lenteng Agung","transit":false,"i_lat":-6.330363,"i_long":106.832616,"is_transit":false,"distance":1029,"station_id":"LNA"},{"transit":false,"station_name":"Tanjung Barat","time":3,"i_lat":-6.3080680000000005,"line":2,"station_id":"TNT","is_transit":false,"distance":2671,"i_long":106.838896},{"transit":false,"time":4,"is_transit":false,"i_lat":-6.2842400000000005,"i_long":106.843999,"station_id":"PSM","station_name":"Pasar Minggu","distance":2820,"line":2},{"time":2,"is_transit":false,"station_id":"PSMB","distance":2380,"i_lat":-6.263214,"station_name":"Pasar Minggu Baru","i_long":106.851577,"transit":false,"line":2},{"line":2,"station_id":"DRN","is_transit":false,"i_lat":-6.255332,"distance":824,"time":2,"transit":false,"i_long":106.85449,"station_name":"Duren Kalibata"},{"station_id":"CW","time":3,"line":2,"i_lat":-6.242512,"is_transit":false,"distance":1546,"station_name":"Cawang","transit":false,"i_long":106.856607},{"transit":false,"i_long":106.857948,"station_id":"TEB","i_lat":-6.226659,"line":2,"station_name":"Tebet","distance":1230,"is_transit":false,"time":2},{"transit":true,"i_long":106.84912,"station_name":"Manggarai","line":2,"i_lat":-6.209883,"is_transit":true,"station_id":"MRI","distance":2610,"time":4},{"i_lat":-6.212485,"line":1,"distance":1275,"is_transit":false,"time":2,"transit":false,"station_name":"Matraman","i_long":106.858896,"station_id":"MTR"},{"i_lat":-6.215091,"time":8,"station_id":"JNG","line":1,"distance":1377,"station_name":"Jatinegara","i_long":106.86807400000001,"transit":false,"is_transit":false},{"i_lat":-6.2135,"line":1,"is_transit":false,"station_id":"KLD","time":3,"i_long":106.899548,"station_name":"Klender","distance":3395,"transit":false},{"is_transit":false,"transit":false,"i_lat":-6.215568,"i_long":106.922662,"time":2,"station_name":"Buaran","distance":3100,"line":1,"station_id":"BUA"},{"time":1,"station_name":"Klenderbaru","is_transit":false,"station_id":"KLDB","transit":false,"distance":1305,"i_lat":-6.217455,"i_long":106.939679,"line":1},{"i_lat":-6.219053,"line":1,"is_transit":false,"station_name":"Cakung","distance":1385,"i_long":106.951283,"station_id":"CUK","transit":false,"time":8},{"i_lat":-6.224515,"line":1,"distance":3097,"station_id":"KRI","time":3,"transit":false,"i_long":106.977657,"is_transit":false,"station_name":"Kranji"},{"line":1,"transit":false,"distance":2520,"i_lat":-6.236616,"time":4,"is_transit":false,"station_name":"Bekasi","i_long":106.997013,"station_id":"BKS"}],[{"distance":0,"is_transit":false,"station_id":"UI","transit":false,"i_lat":-6.360749,"line":2,"time":0,"station_name":"Univ. Indonesia","i_long":106.831474},{"station_name":"Univ. Pancasila","station_id":"UP","transit":false,"i_lat":-6.339291,"line":2,"time":3,"is_transit":false,"distance":2264,"i_long":106.834175},{"time":2,"distance":1029,"station_name":"Lenteng Agung","i_long":106.832616,"station_id":"LNA","transit":false,"is_transit":false,"line":2,"i_lat":-6.330363},{"time":3,"distance":2671,"station_id":"TNT","is_transit":false,"i_long":106.838896,"transit":false,"i_lat":-6.3080680000000005,"line":2,"station_name":"Tanjung Barat"},{"i_lat":-6.2842400000000005,"i_long":106.843999,"line":2,"time":4,"station_name":"Pasar Minggu","station_id":"PSM","distance":2820,"transit":false,"is_transit":false},{"line":2,"i_lat":-6.263214,"station_id":"PSMB","transit":false,"distance":2380,"i_long":106.851577,"time":2,"is_transit":false,"station_name":"Pasar Minggu Baru"},{"i_long":106.85449,"transit":false,"time":2,"station_id":"DRN","station_name":"Duren Kalibata","i_lat":-6.255332,"is_transit":false,"distance":824,"line":2},{"line":2,"time":3,"i_long":106.856607,"i_lat":-6.242512,"distance":1546,"station_name":"Cawang","station_id":"CW","is_transit":false,"transit":false},{"time":2,"station_name":"Tebet","station_id":"TEB","i_long":106.857948,"is_transit":false,"line":2,"i_lat":-6.226659,"transit":false,"distance":1230},{"station_id":"MRI","is_transit":true,"i_long":106.84912,"time":4,"line":2,"distance":2610,"station_name":"Manggarai","transit":true,"i_lat":-6.209883},{"station_id":"SUD","is_transit":false,"distance":3186,"transit":false,"station_name":"Sudirman","i_long":106.822649,"line":1,"i_lat":-6.202263,"time":4},{"transit":false,"station_name":"Sudirman Baru","i_lat":-6.201433,"time":1,"line":1,"is_transit":false,"distance":280,"i_long":106.819881,"station_id":"SUDB"},{"i_long":106.816351,"i_lat":-6.20132,"distance":471,"station_name":"Karet","transit":false,"line":1,"time":1,"is_transit":false,"station_id":"KAT"},{"i_long":106.811091,"is_transit":false,"distance":2029,"transit":false,"time":5,"station_name":"Tanah Abang","i_lat":-6.185545,"station_id":"THB","line":1},{"i_lat":-6.155215,"line":1,"station_id":"DU","transit":false,"distance":3632,"is_transit":false,"i_long":106.800832,"station_name":"Duri","time":8},{"is_transit":false,"line":1,"station_id":"AK","transit":false,"i_lat":-6.144674,"time":4,"i_long":106.79867,"station_name":"Angke","distance":1230},{"is_transit":true,"transit":true,"station_id":"KPB","line":4,"i_lat":-6.132549,"time":9,"station_name":"Kampung Bandan","distance":4102,"i_long":106.826365},{"station_name":"Rajawali","i_lat":-6.14505,"distance":1444,"transit":false,"line":11,"i_long":106.836569,"time":3,"station_id":"RJW","is_transit":false},{"is_transit":false,"line":11,"station_name":"Kemayoran","i_lat":-6.161728,"station_id":"KMO","distance":1901,"i_long":106.839204,"transit":false,"time":5},{"station_name":"Pasar Senen","distance":1436,"is_transit":false,"time":4,"station_id":"PSE","transit":false,"i_lat":-6.174784,"i_long":106.84368,"line":11},{"transit":false,"is_transit":false,"distance":1567,"time":8,"station_name":"Gang Sentiong","station_id":"GST","i_lat":-6.185975,"line":11,"i_long":106.850107},{"station_id":"KMT","line":11,"transit":false,"is_transit":false,"distance":973,"station_name":"Kramat","i_long":106.855437,"time":1,"i_lat":-6.193792},{"station_id":"POK","time":2,"distance":1829,"is_transit":false,"station_name":"Pondok Jati","transit":false,"line":11,"i_lat":-6.209188,"i_long":106.861737},{"station_id":"JNG","i_lat":-6.215091,"line":1,"time":9,"i_long":106.86807400000001,"is_transit":true,"distance":1236,"station_name":"Jatinegara","transit":true},{"distance":3395,"time":3,"station_name":"Klender","line":1,"i_lat":-6.2135,"is_transit":false,"transit":false,"station_id":"KLD","i_long":106.899548},{"distance":3100,"i_long":106.922662,"station_id":"BUA","is_transit":false,"time":2,"i_lat":-6.215568,"line":1,"transit":false,"station_name":"Buaran"},{"station_name":"Klenderbaru","i_long":106.939679,"transit":false,"line":1,"i_lat":-6.217455,"time":1,"station_id":"KLDB","distance":1305,"is_transit":false},{"station_name":"Cakung","i_long":106.951283,"transit":false,"line":1,"time":8,"i_lat":-6.219053,"station_id":"CUK","is_transit":false,"distance":1385},{"is_transit":false,"station_name":"Kranji","line":1,"i_long":106.977657,"i_lat":-6.224515,"station_id":"KRI","transit":false,"distance":3097,"time":3},{"i_long":106.997013,"time":4,"transit":false,"station_id":"BKS","is_transit":false,"distance":2520,"station_name":"Bekasi","i_lat":-6.236616,"line":1}],[{"is_transit":false,"distance":0,"line":2,"time":0,"i_lat":-6.360749,"station_name":"Univ. Indonesia","i_long":106.831474,"transit":false,"station_id":"UI"},{"i_lat":-6.339291,"distance":2264,"i_long":106.834175,"line":2,"time":3,"is_transit":false,"station_id":"UP","station_name":"Univ. Pancasila","transit":false},{"time":2,"line":2,"i_lat":-6.330363,"is_transit":false,"station_name":"Lenteng Agung","distance":1029,"transit":false,"station_id":"LNA","i_long":106.832616},{"station_name":"Tanjung Barat","time":3,"i_long":106.838896,"transit":false,"line":2,"i_lat":-6.3080680000000005,"distance":2671,"station_id":"TNT","is_transit":false},{"distance":2820,"station_name":"Pasar Minggu","is_transit":false,"i_lat":-6.2842400000000005,"transit":false,"station_id":"PSM","time":4,"i_long":106.843999,"line":2},{"is_transit":false,"station_id":"PSMB","distance":2380,"i_lat":-6.263214,"station_name":"Pasar Minggu Baru","time":2,"transit":false,"line":2,"i_long":106.851577},{"is_transit":false,"time":2,"station_name":"Duren Kalibata","i_lat":-6.255332,"station_id":"DRN","line":2,"transit":false,"distance":824,"i_long":106.85449},{"i_lat":-6.242512,"distance":1546,"is_transit":false,"transit":false,"station_name":"Cawang","line":2,"time":3,"i_long":106.856607,"station_id":"CW"},{"is_transit":false,"i_lat":-6.226659,"transit":false,"line":2,"distance":1230,"station_name":"Tebet","time":2,"station_id":"TEB","i_long":106.857948},{"i_lat":-6.209883,"distance":2610,"time":4,"i_long":106.84912,"line":2,"station_name":"Manggarai","transit":false,"station_id":"MRI","is_transit":false},{"is_transit":false,"line":2,"i_lat":-6.198556,"distance":1590,"i_long":106.840169,"time":4,"station_name":"Cikini","station_id":"CKI","transit":false},{"distance":1750,"time":3,"is_transit":false,"transit":false,"line":2,"station_name":"Gondangdia","station_id":"GDD","i_lat":-6.186295,"i_long":106.832183},{"transit":false,"station_name":"Juanda","i_long":106.828284,"line":2,"station_id":"JUA","is_transit":false,"i_lat":-6.166716,"time":4,"distance":2015},{"distance":1149,"station_id":"SW","i_long":106.827103,"time":2,"station_name":"Sawah Besar","line":2,"is_transit":false,"transit":false,"i_lat":-6.160725},{"transit":false,"distance":906,"is_transit":false,"station_name":"Manggabesar","station_id":"MGB","time":2,"line":2,"i_lat":-6.149769,"i_long":106.82482},{"i_long":106.820901,"distance":1080,"time":2,"is_transit":false,"transit":false,"i_lat":-6.141205,"station_name":"Jayakarta","line":2,"station_id":"JAY"},{"time":4,"i_long":106.812439,"station_id":"JAKK","station_name":"Jakarta Kota","transit":true,"i_lat":-6.137569,"line":2,"is_transit":true,"distance":1264},{"distance":1364,"time":3,"station_id":"KPB","station_name":"Kampung Bandan","is_transit":true,"i_lat":-6.132549,"line":4,"transit":true,"i_long":106.826365},{"distance":1444,"transit":false,"i_lat":-6.14505,"time":3,"is_transit":false,"station_id":"RJW","station_name":"Rajawali","i_long":106.836569,"line":11},{"distance":1901,"time":5,"transit":false,"station_name":"Kemayoran","is_transit":false,"i_long":106.839204,"station_id":"KMO","i_lat":-6.161728,"line":11},{"station_id":"PSE","distance":1436,"i_lat":-6.174784,"line":11,"time":4,"transit":false,"is_transit":false,"i_long":106.84368,"station_name":"Pasar Senen"},{"is_transit":false,"distance":1567,"time":8,"station_id":"GST","i_long":106.850107,"line":11,"transit":false,"station_name":"Gang Sentiong","i_lat":-6.185975},{"i_lat":-6.193792,"i_long":106.855437,"station_id":"KMT","line":11,"distance":973,"is_transit":false,"time":1,"transit":false,"station_name":"Kramat"},{"station_name":"Pondok Jati","time":2,"i_long":106.861737,"transit":false,"is_transit":false,"distance":1829,"station_id":"POK","i_lat":-6.209188,"line":11},{"is_transit":true,"time":9,"transit":true,"line":1,"i_long":106.86807400000001,"station_name":"Jatinegara","station_id":"JNG","i_lat":-6.215091,"distance":1236},{"distance":3395,"i_lat":-6.2135,"station_id":"KLD","time":3,"is_transit":false,"transit":false,"i_long":106.899548,"line":1,"station_name":"Klender"},{"distance":3100,"is_transit":false,"station_id":"BUA","i_long":106.922662,"line":1,"time":2,"station_name":"Buaran","transit":false,"i_lat":-6.215568},{"line":1,"is_transit":false,"station_name":"Klenderbaru","transit":false,"time":1,"station_id":"KLDB","i_lat":-6.217455,"distance":1305,"i_long":106.939679},{"is_transit":false,"line":1,"time":8,"transit":false,"distance":1385,"station_name":"Cakung","station_id":"CUK","i_lat":-6.219053,"i_long":106.951283},{"i_lat":-6.224515,"is_transit":false,"distance":3097,"time":3,"line":1,"station_name":"Kranji","i_long":106.977657,"station_id":"KRI","transit":false},{"distance":2520,"line":1,"i_lat":-6.236616,"station_id":"BKS","time":4,"is_transit":false,"transit":false,"i_long":106.997013,"station_name":"Bekasi"}]]}