{"data":[[{"station_id":"UI","line":2,"i_lat":-6.360749,"distance":0,"station_name":"Univ. Indonesia","transit":false,"time":0,"i_long":106.831474,"is_transit":false},{"transit":false,"is_transit":false,"station_name":"Pondok Cina","distance":1109,"line":2,"i_long":106.831114,"time":2,"station_id":"POC","i_lat":-6.369073},{"line":2,"station_name":"Depokbaru","is_transit":false,"transit":false,"station_id":"DPB","i_long":106.819451,"i_lat":-6.391065,"time":4,"distance":2727},{"station_id":"DP","transit":false,"is_transit":false,"distance":1584,"station_name":"Depok","i_lat":-6.405256,"i_long":106.816926,"line":2,"time":3},{"i_long":106.800298,"distance":5084,"line":2,"station_name":"Citayam","time":6,"i_lat":-6.448811,"transit":false,"is_transit":false,"station_id":"CTA"},{"is_transit":false,"time":5,"i_long":106.792719,"transit":false,"station_id":"BJD","line":2,"distance":5197,"i_lat":-6.493243,"station_name":"Bojonggede"},{"station_id":"CLT","station_name":"Cilebut","time":5,"i_lat":-6.530544,"distance":4331,"is_transit":false,"i_long":106.800016,"transit":false,"line":2},{"transit":false,"i_long":106.790574,"distance":7514,"line":2,"station_name":"Bogor","is_transit":false,"time":9,"i_lat":-6.594596,"station_id":"BOO"}]]}