{"data":[[{"station_id":"UI","is_transit":false,"line":2,"time":0,"transit":false,"i_long":106.831474,"distance":0,"station_name":"Univ. Indonesia","i_lat":-6.360749},{"i_long":106.831114,"is_transit":false,"station_name":"Pondok Cina","distance":1109,"line":2,"time":2,"transit":false,"i_lat":-6.369073,"station_id":"POC"},{"distance":2727,"i_lat":-6.391065,"station_name":"Depokbaru","time":4,"station_id":"DPB","is_transit":false,"transit":false,"line":2,"i_long":106.819451},{"transit":false,"station_id":"DP","line":2,"i_long":106.816926,"time":3,"distance":1584,"station_name":"Depok","is_transit":false,"i_lat":-6.405256},{"transit":false,"time":6,"is_transit":false,"line":2,"i_lat":-6.448811,"distance":5084,"station_name":"Citayam","station_id":"CTA","i_long":106.800298},{"i_long":106.792719,"is_transit":false,"station_name":"Bojonggede","i_lat":-6.493243,"station_id":"BJD","distance":5197,"line":2,"transit":false,"time":5},{"station_name":"Cilebut","time":5,"i_lat":-6.530544,"is_transit":false,"transit":false,"distance":4331,"i_long":106.800016,"line":2,"station_id":"CLT"},{"distance":7514,"station_name":"Bogor","line":2,"i_long":106.790574,"transit":false,"i_lat":-6.594596,"is_transit":false,"station_id":"BOO","time":9}]]}