{"data":[[{"time":0,"i_lat":-6.360749,"distance":0,"station_id":"UI","transit":false,"i_long":106.831474,"station_name":"Univ. Indonesia","line":2,"is_transit":false},{"line":2,"distance":2264,"is_transit":false,"i_long":106.834175,"station_id":"UP","time":3,"transit":false,"station_name":"Univ. Pancasila","i_lat":-6.339291},{"station_id":"LNA","station_name":"Lenteng Agung","transit":false,"is_transit":false,"distance":1029,"i_lat":-6.330363,"i_long":106.832616,"line":2,"time":2},{"i_lat":-6.3080680000000005,"line":2,"time":3,"transit":false,"station_id":"TNT","distance":2671,"is_transit":false,"i_long":106.838896,"station_name":"Tanjung Barat"},{"station_id":"PSM","transit":false,"distance":2820,"i_long":106.843999,"is_transit":false,"time":4,"line":2,"i_lat":-6.2842400000000005,"station_name":"Pasar Minggu"},{"transit":false,"i_long":106.851577,"distance":2380,"is_transit":false,"station_name":"Pasar Minggu Baru","line":2,"station_id":"PSMB","time":2,"i_lat":-6.263214},{"station_name":"Duren Kalibata","i_lat":-6.255332,"transit":false,"is_transit":false,"distance":824,"station_id":"DRN","i_long":106.85449,"time":2,"line":2},{"station_id":"CW","time":3,"transit":false,"is_transit":false,"station_name":"Cawang","distance":1546,"i_lat":-6.242512,"i_long":106.856607,"line":2},{"i_lat":-6.226659,"transit":false,"line":2,"station_name":"Tebet","i_long":106.857948,"is_transit":false,"station_id":"TEB","time":2,"distance":1230},{"distance":2610,"station_name":"Manggarai","is_transit":true,"i_lat":-6.209883,"transit":true,"line":2,"i_long":106.84912,"time":4,"station_id":"MRI"},{"station_id":"MTR","is_transit":false,"time":2,"line":1,"station_name":"Matraman","distance":1275,"i_long":106.858896,"i_lat":-6.212485,"transit":false},{"i_lat":-6.215091,"line":1,"transit":false,"distance":1377,"is_transit":false,"station_id":"JNG","time":8,"station_name":"Jatinegara","i_long":106.86807400000001},{"transit":false,"time":3,"distance":3395,"i_long":106.899548,"line":1,"is_transit":false,"i_lat":-6.2135,"station_id":"KLD","station_name":"Klender"},{"is_transit":false,"i_lat":-6.215568,"station_name":"Buaran","time":2,"station_id":"BUA","line":1,"distance":3100,"transit":false,"i_long":106.922662},{"station_name":"Klenderbaru","line":1,"i_lat":-6.217455,"distance":1305,"i_long":106.939679,"station_id":"KLDB","is_transit":false,"transit":false,"time":1},{"is_transit":false,"time":8,"line":1,"station_id":"CUK","distance":1385,"transit":false,"i_long":106.951283,"station_name":"Cakung","i_lat":-6.219053},{"transit":false,"station_name":"Kranji","is_transit":false,"i_lat":-6.224515,"station_id":"KRI","i_long":106.977657,"time":3,"distance":3097,"line":1},{"line":1,"time":4,"i_lat":-6.236616,"is_transit":false,"i_long":106.997013,"station_name":"Bekasi","station_id":"BKS","transit":false,"distance":2520}],[{"time":0,"i_long":106.831474,"transit":false,"is_transit":false,"line":2,"i_lat":-6.360749,"station_id":"UI","station_name":"Univ. Indonesia","distance":0},{"station_id":"UP","i_lat":-6.339291,"transit":false,"i_long":106.834175,"station_name":"Univ. Pancasila","time":3,"is_transit":false,"distance":2264,"line":2},{"i_long":106.832616,"station_id":"LNA","line":2,"transit":false,"distance":1029,"is_transit":false,"station_name":"Lenteng Agung","time":2,"i_lat":-6.330363},{"is_transit":false,"time":3,"i_long":106.838896,"transit":false,"distance":2671,"line":2,"station_name":"Tanjung Barat","i_lat":-6.3080680000000005,"station_id":"TNT"},{"is_transit":false,"station_id":"PSM","transit":false,"distance":2820,"time":4,"station_name":"Pasar Minggu","i_lat":-6.2842400000000005,"i_long":106.843999,"line":2},{"line":2,"is_transit":false,"time":2,"station_id":"PSMB","i_long":106.851577,"transit":false,"station_name":"Pasar Minggu Baru","distance":2380,"i_lat":-6.263214},{"time":2,"is_transit":false,"i_long":106.85449,"station_id":"DRN","line":2,"transit":false,"i_lat":-6.255332,"station_name":"Duren Kalibata","distance":824},{"line":2,"is_transit":false,"i_long":106.856607,"distance":1546,"station_id":"CW","i_lat":-6.242512,"transit":false,"station_name":"Cawang","time":3},{"line":2,"transit":false,"is_transit":false,"distance":1230,"i_long":106.857948,"station_id":"TEB","time":2,"i_lat":-6.226659,"station_name":"Tebet"},{"transit":true,"i_lat":-6.209883,"line":2,"station_name":"Manggarai","station_id":"MRI","is_transit":true,"time":4,"distance":2610,"i_long":106.84912},{"i_lat":-6.202263,"distance":3186,"is_transit":false,"station_id":"SUD","time":4,"station_name":"Sudirman","i_long":106.822649,"line":1,"transit":false},{"line":1,"i_lat":-6.201433,"station_id":"SUDB","transit":false,"station_name":"Sudirman Baru","time":1,"distance":280,"i_long":106.819881,"is_transit":false},{"station_id":"KAT","transit":false,"distance":471,"i_long":106.816351,"station_name":"Karet","time":1,"i_lat":-6.20132,"is_transit":false,"line":1},{"i_lat":-6.185545,"station_name":"Tanah Abang","is_transit":false,"i_long":106.811091,"time":5,"distance":2029,"station_id":"THB","line":1,"transit":false},{"i_long":106.800832,"distance":3632,"station_id":"DU","transit":false,"is_transit":false,"station_name":"Duri","line":1,"time":8,"i_lat":-6.155215},{"transit":false,"station_name":"Angke","i_lat":-6.144674,"is_transit":false,"i_long":106.79867,"line":1,"time":4,"distance":1230,"station_id":"AK"},{"distance":4102,"station_name":"Kampung Bandan","is_transit":true,"time":9,"station_id":"KPB","i_long":106.826365,"line":4,"i_lat":-6.132549,"transit":true},{"station_id":"RJW","distance":1444,"time":3,"i_long":106.836569,"station_name":"Rajawali","line":11,"is_transit":false,"transit":false,"i_lat":-6.14505},{"transit":false,"station_id":"KMO","is_transit":false,"time":5,"distance":1901,"i_long":106.839204,"line":11,"i_lat":-6.161728,"station_name":"Kemayoran"},{"station_name":"Pasar Senen","distance":1436,"time":4,"transit":false,"station_id":"PSE","is_transit":false,"i_lat":-6.174784,"i_long":106.84368,"line":11},{"transit":false,"distance":1567,"line":11,"i_lat":-6.185975,"station_id":"GST","is_transit":false,"time":8,"station_name":"Gang Sentiong","i_long":106.850107},{"station_id":"KMT","transit":false,"is_transit":false,"time":1,"station_name":"Kramat","distance":973,"i_long":106.855437,"line":11,"i_lat":-6.193792},{"distance":1829,"station_id":"POK","line":11,"time":2,"i_lat":-6.209188,"station_name":"Pondok Jati","transit":false,"i_long":106.861737,"is_transit":false},{"station_id":"JNG","i_lat":-6.215091,"time":9,"transit":true,"is_transit":true,"distance":1236,"line":1,"i_long":106.86807400000001,"station_name":"Jatinegara"},{"i_long":106.899548,"distance":3395,"is_transit":false,"line":1,"station_id":"KLD","station_name":"Klender","i_lat":-6.2135,"time":3,"transit":false},{"station_name":"Buaran","time":2,"transit":false,"is_transit":false,"distance":3100,"i_lat":-6.215568,"i_long":106.922662,"station_id":"BUA","line":1},{"transit":false,"is_transit":false,"time":1,"line":1,"distance":1305,"station_id":"KLDB","i_long":106.939679,"i_lat":-6.217455,"station_name":"Klenderbaru"},{"station_id":"CUK","line":1,"station_name":"Cakung","transit":false,"i_lat":-6.219053,"i_long":106.951283,"is_transit":false,"time":8,"distance":1385},{"is_transit":false,"time":3,"line":1,"transit":false,"station_id":"KRI","station_name":"Kranji","i_lat":-6.224515,"i_long":106.977657,"distance":3097},{"station_id":"BKS","transit":false,"is_transit":false,"distance":2520,"station_name":"Bekasi","i_lat":-6.236616,"line":1,"i_long":106.997013,"time":4}],[{"time":0,"station_name":"Univ. Indonesia","station_id":"UI","is_transit":false,"distance":0,"line":2,"i_long":106.831474,"i_lat":-6.360749,"transit":false},{"is_transit":false,"line":2,"distance":2264,"i_lat":-6.339291,"transit":false,"station_name":"Univ. Pancasila","station_id":"UP","time":3,"i_long":106.834175},{"transit":false,"station_name":"Lenteng Agung","is_transit":false,"distance":1029,"i_long":106.832616,"time":2,"i_lat":-6.330363,"station_id":"LNA","line":2},{"is_transit":false,"i_lat":-6.3080680000000005,"transit":false,"station_id":"TNT","distance":2671,"i_long":106.838896,"line":2,"time":3,"station_name":"Tanjung Barat"},{"transit":false,"i_lat":-6.2842400000000005,"station_id":"PSM","is_transit":false,"i_long":106.843999,"time":4,"line":2,"station_name":"Pasar Minggu","distance":2820},{"is_transit":false,"transit":false,"distance":2380,"station_name":"Pasar Minggu Baru","i_long":106.851577,"station_id":"PSMB","time":2,"i_lat":-6.263214,"line":2},{"time":2,"i_lat":-6.255332,"line":2,"i_long":106.85449,"distance":824,"station_id":"DRN","transit":false,"station_name":"Duren Kalibata","is_transit":false},{"station_id":"CW","line":2,"is_transit":false,"distance":1546,"transit":false,"station_name":"Cawang","i_lat":-6.242512,"time":3,"i_long":106.856607},{"line":2,"station_id":"TEB","distance":1230,"i_lat":-6.226659,"i_long":106.857948,"is_transit":false,"transit":false,"time":2,"station_name":"Tebet"},{"is_transit":false,"time":4,"station_name":"Manggarai","transit":false,"station_id":"MRI","line":2,"i_lat":-6.209883,"i_long":106.84912,"distance":2610},{"time":4,"station_id":"CKI","transit":false,"line":2,"station_name":"Cikini","i_lat":-6.198556,"i_long":106.840169,"distance":1590,"is_transit":false},{"is_transit":false,"time":3,"line":2,"distance":1750,"transit":false,"i_lat":-6.186295,"station_id":"GDD","station_name":"Gondangdia","i_long":106.832183},{"i_lat":-6.166716,"transit":false,"station_name":"Juanda","time":4,"distance":2015,"station_id":"JUA","line":2,"is_transit":false,"i_long":106.828284},{"line":2,"is_transit":false,"transit":false,"i_lat":-6.160725,"distance":1149,"station_id":"SW","time":2,"i_long":106.827103,"station_name":"Sawah Besar"},{"distance":906,"i_lat":-6.149769,"station_name":"Manggabesar","is_transit":false,"i_long":106.82482,"line":2,"station_id":"MGB","transit":false,"time":2},{"time":2,"station_name":"Jayakarta","station_id":"JAY","distance":1080,"i_long":106.820901,"transit":false,"i_lat":-6.141205,"is_transit":false,"line":2},{"station_name":"Jakarta Kota","distance":1264,"transit":true,"station_id":"JAKK","is_transit":true,"line":2,"time":4,"i_lat":-6.137569,"i_long":106.812439},{"station_name":"Kampung Bandan","station_id":"KPB","i_lat":-6.132549,"line":4,"transit":true,"is_transit":true,"i_long":106.826365,"distance":1364,"time":3},{"line":11,"time":3,"is_transit":false,"station_name":"Rajawali","i_lat":-6.14505,"station_id":"RJW","distance":1444,"i_long":106.836569,"transit":false},{"time":5,"i_lat":-6.161728,"i_long":106.839204,"station_name":"Kemayoran","is_transit":false,"distance":1901,"station_id":"KMO","line":11,"transit":false},{"station_id":"PSE","time":4,"transit":false,"i_long":106.84368,"is_transit":false,"distance":1436,"i_lat":-6.174784,"line":11,"station_name":"Pasar Senen"},{"line":11,"distance":1567,"is_transit":false,"i_long":106.850107,"i_lat":-6.185975,"station_name":"Gang Sentiong","transit":false,"station_id":"GST","time":8},{"i_long":106.855437,"line":11,"transit":false,"time":1,"station_id":"KMT","distance":973,"station_name":"Kramat","i_lat":-6.193792,"is_transit":false},{"i_long":106.861737,"time":2,"is_transit":false,"distance":1829,"i_lat":-6.209188,"line":11,"transit":false,"station_id":"POK","station_name":"Pondok Jati"},{"line":1,"station_name":"Jatinegara","i_long":106.86807400000001,"distance":1236,"transit":true,"i_lat":-6.215091,"time":9,"is_transit":true,"station_id":"JNG"},{"station_name":"Klender","is_transit":false,"line":1,"distance":3395,"transit":false,"time":3,"station_id":"KLD","i_lat":-6.2135,"i_long":106.899548},{"transit":false,"line":1,"station_name":"Buaran","station_id":"BUA","distance":3100,"is_transit":false,"time":2,"i_long":106.922662,"i_lat":-6.215568},{"i_lat":-6.217455,"is_transit":false,"transit":false,"time":1,"i_long":106.939679,"station_name":"Klenderbaru","station_id":"KLDB","line":1,"distance":1305},{"is_transit":false,"i_lat":-6.219053,"transit":false,"line":1,"time":8,"station_id":"CUK","distance":1385,"i_long":106.951283,"station_name":"Cakung"},{"distance":3097,"i_lat":-6.224515,"station_name":"Kranji","station_id":"KRI","i_long":106.977657,"is_transit":false,"line":1,"transit":false,"time":3},{"distance":2520,"i_lat":-6.236616,"station_name":"Bekasi","time":4,"station_id":"BKS","is_transit":false,"i_long":106.997013,"line":1,"transit":false}]]}