{"data":[[{"i_lat":-6.360749,"line":2,"station_id":"UI","transit":false,"station_name":"Univ. Indonesia","time":0,"is_transit":false,"distance":0,"i_long":106.831474},{"station_id":"UP","is_transit":false,"i_long":106.834175,"i_lat":-6.339291,"time":3,"distance":2264,"station_name":"Univ. Pancasila","line":2,"transit":false},{"station_id":"LNA","i_long":106.832616,"time":2,"line":2,"is_transit":false,"transit":false,"i_lat":-6.330363,"station_name":"Lenteng Agung","distance":1029},{"station_name":"Tanjung Barat","is_transit":false,"line":2,"station_id":"TNT","time":3,"i_lat":-6.3080680000000005,"transit":false,"i_long":106.838896,"distance":2671},{"time":4,"station_name":"Pasar Minggu","i_lat":-6.2842400000000005,"i_long":106.843999,"transit":false,"line":2,"is_transit":false,"station_id":"PSM","distance":2820},{"transit":false,"station_id":"PSMB","distance":2380,"line":2,"is_transit":false,"i_lat":-6.263214,"station_name":"Pasar Minggu Baru","time":2,"i_long":106.851577},{"station_id":"DRN","i_long":106.85449,"transit":false,"time":2,"distance":824,"i_lat":-6.255332,"is_transit":false,"station_name":"Duren Kalibata","line":2},{"i_lat":-6.242512,"is_transit":false,"i_long":106.856607,"line":2,"transit":false,"station_id":"CW","distance":1546,"station_name":"Cawang","time":3},{"distance":1230,"transit":false,"is_transit":false,"time":2,"i_long":106.857948,"i_lat":-6.226659,"line":2,"station_name":"Tebet","station_id":"TEB"},{"time":4,"station_name":"Manggarai","i_lat":-6.209883,"line":2,"transit":true,"i_long":106.84912,"station_id":"MRI","distance":2610,"is_transit":true},{"i_lat":-6.202263,"i_long":106.822649,"transit":false,"is_transit":false,"distance":3186,"station_id":"SUD","time":4,"line":1,"station_name":"Sudirman"},{"distance":280,"is_transit":false,"i_long":106.819881,"i_lat":-6.201433,"transit":false,"station_id":"SUDB","time":1,"line":1,"station_name":"Sudirman Baru"},{"station_name":"Karet","i_long":106.816351,"is_transit":false,"station_id":"KAT","distance":471,"i_lat":-6.20132,"line":1,"transit":false,"time":1},{"station_id":"THB","time":5,"i_lat":-6.185545,"is_transit":false,"transit":false,"i_long":106.811091,"distance":2029,"station_name":"Tanah Abang","line":1},{"is_transit":true,"line":1,"transit":true,"station_id":"DU","i_lat":-6.155215,"station_name":"Duri","time":8,"distance":3632,"i_long":106.800832},{"distance":1700,"station_name":"Grogol","transit":false,"station_id":"GGL","i_lat":-6.162021,"i_long":106.788277,"time":3,"is_transit":false,"line":5},{"i_long":106.771379,"station_name":"Pesing","is_transit":false,"line":5,"i_lat":-6.161433,"time":2,"transit":false,"distance":2036,"station_id":"PSG"},{"is_transit":false,"line":5,"time":2,"i_lat":-6.1587309999999995,"distance":1614,"transit":false,"i_long":106.756522,"station_id":"TKO","station_name":"Taman Kota"},{"transit":false,"i_long":106.737035,"line":5,"is_transit":false,"time":2,"station_name":"Bojongindah","station_id":"BOI","i_lat":-6.159876,"distance":2334}],[{"is_transit":false,"station_name":"Univ. Indonesia","i_long":106.831474,"transit":false,"line":2,"i_lat":-6.360749,"station_id":"UI","distance":0,"time":0},{"line":2,"i_lat":-6.339291,"transit":false,"time":3,"station_name":"Univ. Pancasila","i_long":106.834175,"is_transit":false,"station_id":"UP","distance":2264},{"time":2,"i_lat":-6.330363,"station_name":"Lenteng Agung","i_long":106.832616,"line":2,"distance":1029,"transit":false,"station_id":"LNA","is_transit":false},{"i_lat":-6.3080680000000005,"i_long":106.838896,"station_id":"TNT","time":3,"distance":2671,"line":2,"is_transit":false,"station_name":"Tanjung Barat","transit":false},{"station_id":"PSM","i_lat":-6.2842400000000005,"station_name":"Pasar Minggu","time":4,"is_transit":false,"i_long":106.843999,"transit":false,"distance":2820,"line":2},{"station_id":"PSMB","i_long":106.851577,"line":2,"distance":2380,"transit":false,"station_name":"Pasar Minggu Baru","i_lat":-6.263214,"time":2,"is_transit":false},{"transit":false,"station_name":"Duren Kalibata","distance":824,"i_lat":-6.255332,"time":2,"is_transit":false,"station_id":"DRN","i_long":106.85449,"line":2},{"station_name":"Cawang","is_transit":false,"line":2,"transit":false,"time":3,"i_long":106.856607,"station_id":"CW","distance":1546,"i_lat":-6.242512},{"is_transit":false,"station_name":"Tebet","i_long":106.857948,"line":2,"time":2,"transit":false,"station_id":"TEB","distance":1230,"i_lat":-6.226659},{"station_name":"Manggarai","is_transit":false,"transit":false,"station_id":"MRI","i_lat":-6.209883,"i_long":106.84912,"line":2,"time":4,"distance":2610},{"is_transit":false,"i_long":106.840169,"i_lat":-6.198556,"transit":false,"station_id":"CKI","station_name":"Cikini","line":2,"distance":1590,"time":4},{"i_long":106.832183,"transit":false,"time":3,"is_transit":false,"station_name":"Gondangdia","distance":1750,"i_lat":-6.186295,"line":2,"station_id":"GDD"},{"time":4,"line":2,"is_transit":false,"station_name":"Juanda","distance":2015,"station_id":"JUA","i_lat":-6.166716,"i_long":106.828284,"transit":false},{"transit":false,"station_id":"SW","i_long":106.827103,"i_lat":-6.160725,"line":2,"is_transit":false,"time":2,"distance":1149,"station_name":"Sawah Besar"},{"i_lat":-6.149769,"station_name":"Manggabesar","is_transit":false,"transit":false,"line":2,"station_id":"MGB","time":2,"distance":906,"i_long":106.82482},{"i_long":106.820901,"transit":false,"time":2,"station_name":"Jayakarta","station_id":"JAY","distance":1080,"is_transit":false,"i_lat":-6.141205,"line":2},{"station_name":"Jakarta Kota","transit":true,"station_id":"JAKK","i_long":106.812439,"line":2,"time":4,"is_transit":true,"i_lat":-6.137569,"distance":1264},{"distance":1364,"i_lat":-6.132549,"i_long":106.826365,"station_name":"Kampung Bandan","transit":true,"station_id":"KPB","line":4,"time":3,"is_transit":true},{"i_lat":-6.144674,"line":1,"station_id":"AK","is_transit":false,"i_long":106.79867,"station_name":"Angke","transit":false,"time":9,"distance":4102},{"i_long":106.800832,"i_lat":-6.155215,"station_id":"DU","line":1,"distance":1230,"transit":true,"station_name":"Duri","is_transit":true,"time":4},{"transit":false,"time":3,"station_name":"Grogol","i_lat":-6.162021,"i_long":106.788277,"station_id":"GGL","is_transit":false,"line":5,"distance":1700},{"station_id":"PSG","i_lat":-6.161433,"is_transit":false,"transit":false,"i_long":106.771379,"time":2,"distance":2036,"station_name":"Pesing","line":5},{"is_transit":false,"station_name":"Taman Kota","i_lat":-6.1587309999999995,"i_long":106.756522,"transit":false,"station_id":"TKO","time":2,"line":5,"distance":1614},{"transit":false,"station_name":"Bojongindah","line":5,"station_id":"BOI","i_long":106.737035,"distance":2334,"is_transit":false,"i_lat":-6.159876,"time":2}],[{"line":2,"transit":false,"distance":0,"i_long":106.831474,"station_id":"UI","time":0,"station_name":"Univ. Indonesia","i_lat":-6.360749,"is_transit":false},{"distance":2264,"i_long":106.834175,"line":2,"i_lat":-6.339291,"transit":false,"station_id":"UP","is_transit":false,"station_name":"Univ. Pancasila","time":3},{"station_name":"Lenteng Agung","line":2,"transit":false,"is_transit":false,"distance":1029,"i_lat":-6.330363,"time":2,"station_id":"LNA","i_long":106.832616},{"time":3,"i_long":106.838896,"is_transit":false,"station_id":"TNT","station_name":"Tanjung Barat","distance":2671,"i_lat":-6.3080680000000005,"line":2,"transit":false},{"transit":false,"station_name":"Pasar Minggu","time":4,"is_transit":false,"line":2,"distance":2820,"i_lat":-6.2842400000000005,"i_long":106.843999,"station_id":"PSM"},{"distance":2380,"station_name":"Pasar Minggu Baru","is_transit":false,"station_id":"PSMB","time":2,"i_long":106.851577,"transit":false,"i_lat":-6.263214,"line":2},{"transit":false,"station_id":"DRN","station_name":"Duren Kalibata","is_transit":false,"distance":824,"i_lat":-6.255332,"time":2,"i_long":106.85449,"line":2},{"line":2,"station_id":"CW","i_long":106.856607,"transit":false,"station_name":"Cawang","distance":1546,"time":3,"is_transit":false,"i_lat":-6.242512},{"i_long":106.857948,"line":2,"station_name":"Tebet","i_lat":-6.226659,"is_transit":false,"distance":1230,"transit":false,"time":2,"station_id":"TEB"},{"station_name":"Manggarai","time":4,"station_id":"MRI","transit":true,"i_long":106.84912,"i_lat":-6.209883,"line":2,"is_transit":true,"distance":2610},{"station_id":"MTR","line":1,"distance":1275,"i_long":106.858896,"time":2,"station_name":"Matraman","i_lat":-6.212485,"transit":false,"is_transit":false},{"station_id":"JNG","station_name":"Jatinegara","i_lat":-6.215091,"i_long":106.86807400000001,"distance":1377,"time":8,"line":1,"transit":true,"is_transit":true},{"i_long":106.861737,"is_transit":false,"transit":false,"station_name":"Pondok Jati","line":11,"i_lat":-6.209188,"time":2,"distance":1236,"station_id":"POK"},{"line":11,"i_lat":-6.193792,"distance":1829,"station_name":"Kramat","station_id":"KMT","i_long":106.855437,"is_transit":false,"transit":false,"time":2},{"station_name":"Gang Sentiong","distance":973,"is_transit":false,"i_lat":-6.185975,"time":1,"i_long":106.850107,"line":11,"transit":false,"station_id":"GST"},{"station_id":"PSE","is_transit":false,"i_long":106.84368,"distance":1567,"station_name":"Pasar Senen","time":8,"i_lat":-6.174784,"line":11,"transit":false},{"i_lat":-6.161728,"station_name":"Kemayoran","i_long":106.839204,"transit":false,"is_transit":false,"distance":1436,"station_id":"KMO","line":11,"time":4},{"distance":1901,"is_transit":false,"transit":false,"i_lat":-6.14505,"time":5,"i_long":106.836569,"station_name":"Rajawali","line":11,"station_id":"RJW"},{"transit":true,"station_id":"KPB","is_transit":true,"time":3,"i_lat":-6.132549,"i_long":106.826365,"line":4,"station_name":"Kampung Bandan","distance":1444},{"station_name":"Angke","distance":4102,"is_transit":false,"time":9,"line":1,"station_id":"AK","i_lat":-6.144674,"transit":false,"i_long":106.79867},{"station_name":"Duri","transit":true,"is_transit":true,"distance":1230,"i_lat":-6.155215,"line":1,"station_id":"DU","time":4,"i_long":106.800832},{"time":3,"distance":1700,"i_long":106.788277,"transit":false,"station_id":"GGL","station_name":"Grogol","is_transit":false,"line":5,"i_lat":-6.162021},{"i_long":106.771379,"time":2,"line":5,"is_transit":false,"station_name":"Pesing","i_lat":-6.161433,"distance":2036,"transit":false,"station_id":"PSG"},{"transit":false,"line":5,"station_id":"TKO","is_transit":false,"time":2,"i_lat":-6.1587309999999995,"i_long":106.756522,"station_name":"Taman Kota","distance":1614},{"transit":false,"distance":2334,"is_transit":false,"i_lat":-6.159876,"i_long":106.737035,"station_name":"Bojongindah","line":5,"station_id":"BOI","time":2}]]}