{"data":[[{"is_transit":false,"transit":false,"i_lat":-6.360749,"i_long":106.831474,"station_name":"Univ. Indonesia","line":2,"time":0,"distance":0,"station_id":"UI"},{"station_name":"Univ. Pancasila","time":3,"i_lat":-6.339291,"transit":false,"is_transit":false,"i_long":106.834175,"distance":2264,"station_id":"UP","line":2},{"station_name":"Lenteng Agung","transit":false,"is_transit":false,"time":2,"i_lat":-6.330363,"distance":1029,"station_id":"LNA","i_long":106.832616,"line":2},{"transit":false,"station_name":"Tanjung Barat","i_lat":-6.3080680000000005,"time":3,"distance":2671,"station_id":"TNT","i_long":106.838896,"is_transit":false,"line":2},{"time":4,"distance":2820,"line":2,"i_long":106.843999,"is_transit":false,"station_id":"PSM","transit":false,"station_name":"Pasar Minggu","i_lat":-6.2842400000000005},{"station_id":"PSMB","is_transit":false,"i_lat":-6.263214,"line":2,"transit":false,"time":2,"station_name":"Pasar Minggu Baru","i_long":106.851577,"distance":2380},{"station_id":"DRN","station_name":"Duren Kalibata","distance":824,"line":2,"i_long":106.85449,"time":2,"is_transit":false,"transit":false,"i_lat":-6.255332},{"station_id":"CW","transit":false,"i_long":106.856607,"distance":1546,"time":3,"i_lat":-6.242512,"is_transit":false,"station_name":"Cawang","line":2},{"i_lat":-6.226659,"i_long":106.857948,"distance":1230,"transit":false,"station_name":"Tebet","time":2,"station_id":"TEB","line":2,"is_transit":false},{"i_long":106.84912,"transit":true,"time":4,"distance":2610,"station_id":"MRI","i_lat":-6.209883,"station_name":"Manggarai","line":2,"is_transit":true},{"station_id":"SUD","i_long":106.822649,"i_lat":-6.202263,"time":4,"is_transit":false,"transit":false,"line":1,"distance":3186,"station_name":"Sudirman"},{"i_long":106.819881,"time":1,"distance":280,"i_lat":-6.201433,"line":1,"station_name":"Sudirman Baru","is_transit":false,"station_id":"SUDB","transit":false},{"station_id":"KAT","distance":471,"i_long":106.816351,"is_transit":false,"station_name":"Karet","i_lat":-6.20132,"line":1,"transit":false,"time":1},{"distance":2029,"station_id":"THB","i_lat":-6.185545,"line":1,"transit":false,"i_long":106.811091,"time":5,"station_name":"Tanah Abang","is_transit":false},{"i_lat":-6.155215,"line":1,"station_id":"DU","distance":3632,"is_transit":true,"i_long":106.800832,"time":8,"transit":true,"station_name":"Duri"},{"i_long":106.788277,"station_id":"GRG","is_transit":false,"transit":false,"i_lat":-6.162021,"line":5,"distance":1700,"time":3,"station_name":"Grogol"},{"station_id":"PSG","station_name":"Pesing","i_long":106.771379,"time":2,"transit":false,"is_transit":false,"i_lat":-6.161433,"distance":2036,"line":5},{"transit":false,"distance":1614,"station_name":"Taman Kota","station_id":"TKO","i_long":106.756522,"is_transit":false,"time":2,"line":5,"i_lat":-6.1587309999999995},{"transit":false,"i_lat":-6.159876,"station_id":"BOI","line":5,"station_name":"Bojongindah","is_transit":false,"distance":2334,"i_long":106.737035,"time":2}],[{"distance":0,"is_transit":false,"station_id":"UI","transit":false,"station_name":"Univ. Indonesia","i_long":106.831474,"line":2,"i_lat":-6.360749,"time":0},{"is_transit":false,"station_name":"Univ. Pancasila","i_lat":-6.339291,"i_long":106.834175,"transit":false,"line":2,"distance":2264,"time":3,"station_id":"UP"},{"station_id":"LNA","line":2,"is_transit":false,"time":2,"distance":1029,"station_name":"Lenteng Agung","i_long":106.832616,"transit":false,"i_lat":-6.330363},{"distance":2671,"station_name":"Tanjung Barat","line":2,"time":3,"i_lat":-6.3080680000000005,"transit":false,"is_transit":false,"i_long":106.838896,"station_id":"TNT"},{"is_transit":false,"time":4,"transit":false,"station_id":"PSM","i_long":106.843999,"station_name":"Pasar Minggu","distance":2820,"line":2,"i_lat":-6.2842400000000005},{"time":2,"station_name":"Pasar Minggu Baru","is_transit":false,"line":2,"distance":2380,"i_lat":-6.263214,"station_id":"PSMB","transit":false,"i_long":106.851577},{"distance":824,"i_lat":-6.255332,"line":2,"time":2,"transit":false,"i_long":106.85449,"station_id":"DRN","station_name":"Duren Kalibata","is_transit":false},{"transit":false,"is_transit":false,"time":3,"station_name":"Cawang","line":2,"distance":1546,"station_id":"CW","i_lat":-6.242512,"i_long":106.856607},{"is_transit":false,"station_name":"Tebet","station_id":"TEB","transit":false,"time":2,"i_lat":-6.226659,"i_long":106.857948,"line":2,"distance":1230},{"line":2,"i_long":106.84912,"i_lat":-6.209883,"is_transit":false,"transit":false,"time":4,"station_name":"Manggarai","distance":2610,"station_id":"MRI"},{"i_lat":-6.198556,"distance":1590,"station_name":"Cikini","i_long":106.840169,"line":2,"time":4,"is_transit":false,"station_id":"CKI","transit":false},{"distance":1750,"transit":false,"i_lat":-6.186295,"i_long":106.832183,"line":2,"station_id":"GDD","is_transit":false,"station_name":"Gondangdia","time":3},{"i_lat":-6.166716,"line":2,"i_long":106.828284,"station_id":"JUA","transit":false,"station_name":"Juanda","time":4,"is_transit":false,"distance":2015},{"is_transit":false,"time":2,"station_name":"Sawah Besar","transit":false,"station_id":"SW","i_lat":-6.160725,"distance":1149,"i_long":106.827103,"line":2},{"transit":false,"station_id":"MGB","is_transit":false,"time":2,"distance":906,"line":2,"station_name":"Manggabesar","i_lat":-6.149769,"i_long":106.82482},{"station_id":"JAY","i_long":106.820901,"i_lat":-6.141205,"is_transit":false,"distance":1080,"line":2,"transit":false,"station_name":"Jayakarta","time":2},{"distance":1264,"station_id":"JAKK","i_lat":-6.137569,"i_long":106.812439,"is_transit":true,"transit":true,"station_name":"Jakarta Kota","line":2,"time":4},{"i_long":106.826365,"distance":1364,"i_lat":-6.132549,"station_id":"KPB","line":4,"time":3,"station_name":"Kampung Bandan","transit":true,"is_transit":true},{"station_id":"AK","distance":4102,"station_name":"Angke","i_lat":-6.144674,"time":9,"i_long":106.79867,"line":1,"is_transit":false,"transit":false},{"distance":1230,"station_id":"DU","i_lat":-6.155215,"i_long":106.800832,"station_name":"Duri","is_transit":true,"transit":true,"line":1,"time":4},{"distance":1700,"station_id":"GRG","station_name":"Grogol","time":3,"i_lat":-6.162021,"is_transit":false,"line":5,"i_long":106.788277,"transit":false},{"distance":2036,"is_transit":false,"time":2,"transit":false,"i_lat":-6.161433,"i_long":106.771379,"line":5,"station_id":"PSG","station_name":"Pesing"},{"station_id":"TKO","line":5,"is_transit":false,"transit":false,"station_name":"Taman Kota","time":2,"i_lat":-6.1587309999999995,"i_long":106.756522,"distance":1614},{"transit":false,"station_name":"Bojongindah","is_transit":false,"station_id":"BOI","distance":2334,"time":2,"i_long":106.737035,"line":5,"i_lat":-6.159876}],[{"station_id":"UI","station_name":"Univ. Indonesia","i_lat":-6.360749,"transit":false,"i_long":106.831474,"line":2,"is_transit":false,"distance":0,"time":0},{"station_name":"Univ. Pancasila","time":3,"i_long":106.834175,"is_transit":false,"distance":2264,"i_lat":-6.339291,"line":2,"transit":false,"station_id":"UP"},{"is_transit":false,"i_lat":-6.330363,"i_long":106.832616,"line":2,"distance":1029,"transit":false,"time":2,"station_id":"LNA","station_name":"Lenteng Agung"},{"i_long":106.838896,"time":3,"station_name":"Tanjung Barat","line":2,"station_id":"TNT","transit":false,"is_transit":false,"i_lat":-6.3080680000000005,"distance":2671},{"transit":false,"time":4,"line":2,"station_name":"Pasar Minggu","i_lat":-6.2842400000000005,"distance":2820,"station_id":"PSM","is_transit":false,"i_long":106.843999},{"line":2,"time":2,"station_id":"PSMB","distance":2380,"station_name":"Pasar Minggu Baru","i_long":106.851577,"transit":false,"is_transit":false,"i_lat":-6.263214},{"distance":824,"station_id":"DRN","station_name":"Duren Kalibata","line":2,"transit":false,"i_long":106.85449,"i_lat":-6.255332,"time":2,"is_transit":false},{"station_id":"CW","time":3,"station_name":"Cawang","i_lat":-6.242512,"line":2,"i_long":106.856607,"distance":1546,"transit":false,"is_transit":false},{"i_long":106.857948,"time":2,"distance":1230,"i_lat":-6.226659,"station_id":"TEB","line":2,"transit":false,"is_transit":false,"station_name":"Tebet"},{"time":4,"station_id":"MRI","is_transit":true,"line":2,"station_name":"Manggarai","i_long":106.84912,"i_lat":-6.209883,"transit":true,"distance":2610},{"station_id":"MTR","station_name":"Matraman","is_transit":false,"i_lat":-6.212485,"i_long":106.858896,"line":1,"time":2,"transit":false,"distance":1275},{"station_name":"Jatinegara","station_id":"JNG","i_long":106.86807400000001,"is_transit":true,"line":1,"distance":1377,"transit":true,"i_lat":-6.215091,"time":8},{"station_name":"Pondok Jati","distance":1236,"i_long":106.861737,"is_transit":false,"line":11,"transit":false,"station_id":"POK","i_lat":-6.209188,"time":2},{"time":2,"station_id":"KMT","distance":1829,"is_transit":false,"transit":false,"line":11,"i_long":106.855437,"i_lat":-6.193792,"station_name":"Kramat"},{"station_id":"GST","line":11,"i_lat":-6.185975,"station_name":"Gang Sentiong","i_long":106.850107,"is_transit":false,"distance":973,"time":1,"transit":false},{"transit":false,"i_long":106.84368,"station_name":"Pasar Senen","time":8,"station_id":"PSE","distance":1567,"is_transit":false,"i_lat":-6.174784,"line":11},{"time":4,"transit":false,"is_transit":false,"distance":1436,"station_name":"Kemayoran","line":11,"i_long":106.839204,"station_id":"KMO","i_lat":-6.161728},{"transit":false,"line":11,"i_lat":-6.14505,"distance":1901,"time":5,"is_transit":false,"i_long":106.836569,"station_id":"RJW","station_name":"Rajawali"},{"is_transit":true,"i_lat":-6.132549,"i_long":106.826365,"line":4,"time":3,"station_name":"Kampung Bandan","distance":1444,"transit":true,"station_id":"KPB"},{"distance":4102,"station_id":"AK","line":1,"transit":false,"station_name":"Angke","is_transit":false,"i_long":106.79867,"time":9,"i_lat":-6.144674},{"station_name":"Duri","station_id":"DU","line":1,"i_lat":-6.155215,"distance":1230,"time":4,"i_long":106.800832,"is_transit":true,"transit":true},{"is_transit":false,"i_long":106.788277,"station_id":"GRG","transit":false,"time":3,"station_name":"Grogol","i_lat":-6.162021,"distance":1700,"line":5},{"line":5,"time":2,"i_lat":-6.161433,"i_long":106.771379,"distance":2036,"is_transit":false,"transit":false,"station_id":"PSG","station_name":"Pesing"},{"line":5,"i_long":106.756522,"distance":1614,"station_name":"Taman Kota","station_id":"TKO","is_transit":false,"i_lat":-6.1587309999999995,"time":2,"transit":false},{"distance":2334,"transit":false,"line":5,"station_id":"BOI","i_long":106.737035,"station_name":"Bojongindah","is_transit":false,"i_lat":-6.159876,"time":2}]]}