{"data":[[{"is_transit":false,"i_lat":-6.360749,"station_id":"UI","time":0,"i_long":106.831474,"line":2,"transit":false,"station_name":"Univ. Indonesia","distance":0},{"line":2,"distance":2264,"time":3,"station_id":"UP","station_name":"Univ. Pancasila","i_lat":-6.339291,"is_transit":false,"transit":false,"i_long":106.834175},{"is_transit":false,"transit":false,"station_name":"Lenteng Agung","station_id":"LNA","distance":1029,"time":2,"i_lat":-6.330363,"i_long":106.832616,"line":2},{"i_lat":-6.3080680000000005,"distance":2671,"is_transit":false,"transit":false,"time":3,"i_long":106.838896,"line":2,"station_id":"TNT","station_name":"Tanjung Barat"},{"distance":2820,"transit":false,"time":4,"i_long":106.843999,"line":2,"station_id":"PSM","i_lat":-6.2842400000000005,"station_name":"Pasar Minggu","is_transit":false},{"line":2,"distance":2380,"is_transit":false,"station_name":"Pasar Minggu Baru","station_id":"PSMB","time":2,"transit":false,"i_lat":-6.263214,"i_long":106.851577},{"time":2,"station_id":"DRN","station_name":"Duren Kalibata","is_transit":false,"i_long":106.85449,"line":0,"distance":824,"transit":false,"i_lat":-6.255332},{"time":3,"i_lat":-6.242512,"station_id":"CW","line":0,"distance":1546,"i_long":106.856607,"station_name":"Cawang","is_transit":false,"transit":false},{"i_long":106.857948,"line":2,"station_id":"TEB","i_lat":-6.226659,"is_transit":false,"station_name":"Tebet","transit":false,"distance":1230,"time":2},{"line":0,"i_lat":-6.209883,"is_transit":true,"station_name":"Manggarai","transit":true,"i_long":106.84912,"station_id":"MRI","distance":2610,"time":4},{"station_id":"SUD","station_name":"Sudirman","transit":false,"distance":3186,"time":4,"i_lat":-6.202263,"i_long":106.822649,"line":1,"is_transit":false},{"transit":false,"line":1,"distance":280,"i_lat":-6.201433,"is_transit":false,"station_id":"SUDB","time":1,"i_long":106.819881,"station_name":"Sudirman Baru"},{"i_lat":-6.20132,"i_long":106.816351,"is_transit":false,"station_id":"KAT","station_name":"Karet","time":1,"line":1,"distance":471,"transit":false},{"station_id":"THB","station_name":"Tanah Abang","is_transit":true,"transit":false,"distance":2029,"time":5,"i_long":106.811091,"line":1,"i_lat":-6.185545},{"station_id":"DU","distance":3632,"line":1,"time":8,"transit":true,"is_transit":true,"i_lat":-6.155215,"station_name":"Duri","i_long":106.800832},{"station_name":"Grogol","time":3,"station_id":"GGL","i_long":106.788277,"distance":1700,"transit":false,"line":5,"is_transit":false,"i_lat":-6.162021},{"line":5,"transit":false,"station_id":"PSG","i_long":106.771379,"is_transit":false,"i_lat":-6.161433,"distance":2036,"time":2,"station_name":"Pesing"},{"i_long":106.756522,"station_name":"Taman Kota","time":2,"distance":1614,"station_id":"TKO","transit":false,"is_transit":false,"line":5,"i_lat":-6.1587309999999995},{"station_name":"Bojongindah","i_lat":-6.159876,"i_long":106.737035,"is_transit":false,"station_id":"BOI","line":0,"transit":false,"time":2,"distance":2334}],[{"i_lat":-6.360749,"station_name":"Univ. Indonesia","line":2,"i_long":106.831474,"distance":0,"is_transit":false,"transit":false,"station_id":"UI","time":0},{"transit":false,"time":3,"i_lat":-6.339291,"station_id":"UP","is_transit":false,"line":2,"i_long":106.834175,"distance":2264,"station_name":"Univ. Pancasila"},{"station_name":"Lenteng Agung","i_long":106.832616,"is_transit":false,"transit":false,"line":2,"time":2,"station_id":"LNA","i_lat":-6.330363,"distance":1029},{"i_lat":-6.3080680000000005,"line":2,"station_id":"TNT","transit":false,"is_transit":false,"time":3,"distance":2671,"i_long":106.838896,"station_name":"Tanjung Barat"},{"i_long":106.843999,"line":2,"station_id":"PSM","distance":2820,"time":4,"transit":false,"station_name":"Pasar Minggu","i_lat":-6.2842400000000005,"is_transit":false},{"time":2,"transit":false,"is_transit":false,"station_id":"PSMB","line":2,"distance":2380,"station_name":"Pasar Minggu Baru","i_long":106.851577,"i_lat":-6.263214},{"station_id":"DRN","i_lat":-6.255332,"i_long":106.85449,"distance":824,"time":2,"transit":false,"station_name":"Duren Kalibata","line":0,"is_transit":false},{"transit":false,"distance":1546,"is_transit":false,"station_name":"Cawang","line":0,"time":3,"station_id":"CW","i_lat":-6.242512,"i_long":106.856607},{"distance":1230,"transit":false,"time":2,"station_name":"Tebet","station_id":"TEB","i_long":106.857948,"line":2,"is_transit":false,"i_lat":-6.226659},{"is_transit":true,"i_long":106.84912,"station_id":"MRI","i_lat":-6.209883,"line":0,"time":4,"station_name":"Manggarai","transit":true,"distance":2610},{"i_long":106.840169,"time":4,"station_name":"Cikini","i_lat":-6.198556,"distance":1590,"station_id":"CKI","is_transit":false,"transit":false,"line":0},{"station_id":"GDD","transit":false,"station_name":"Gondangdia","line":2,"i_long":106.832183,"i_lat":-6.186295,"distance":1750,"time":3,"is_transit":false},{"time":4,"station_id":"JUA","transit":false,"distance":2015,"is_transit":false,"i_lat":-6.166716,"station_name":"Juanda","i_long":106.828284,"line":2},{"transit":false,"is_transit":false,"i_long":106.827103,"i_lat":-6.160725,"distance":1149,"station_id":"SW","station_name":"Sawah Besar","time":2,"line":2},{"station_name":"Manggabesar","transit":false,"line":2,"i_long":106.82482,"i_lat":-6.149769,"distance":906,"is_transit":false,"time":2,"station_id":"MGB"},{"distance":1080,"station_id":"JAY","i_lat":-6.141205,"station_name":"Jayakarta","line":7,"i_long":106.820901,"is_transit":false,"transit":false,"time":2},{"time":4,"i_long":106.812439,"i_lat":-6.137569,"distance":1264,"station_name":"Jakarta Kota","station_id":"JAKK","line":0,"is_transit":true,"transit":true},{"distance":1364,"i_lat":-6.132549,"i_long":106.826365,"is_transit":true,"time":3,"station_name":"Kampung Bandan","line":0,"station_id":"KPB","transit":false},{"station_id":"AK","time":9,"is_transit":false,"distance":4102,"station_name":"Angke","line":0,"i_lat":-6.144674,"i_long":106.79867,"transit":false},{"distance":1230,"time":4,"i_long":106.800832,"transit":true,"station_id":"DU","line":1,"is_transit":true,"i_lat":-6.155215,"station_name":"Duri"},{"station_name":"Grogol","time":3,"is_transit":false,"transit":false,"i_long":106.788277,"station_id":"GGL","i_lat":-6.162021,"distance":1700,"line":5},{"i_long":106.771379,"distance":2036,"station_name":"Pesing","i_lat":-6.161433,"transit":false,"station_id":"PSG","time":2,"line":5,"is_transit":false},{"transit":false,"station_id":"TKO","station_name":"Taman Kota","is_transit":false,"i_lat":-6.1587309999999995,"distance":1614,"time":2,"i_long":106.756522,"line":5},{"time":2,"line":0,"station_id":"BOI","station_name":"Bojongindah","transit":false,"i_lat":-6.159876,"is_transit":false,"i_long":106.737035,"distance":2334}],[{"time":0,"i_lat":-6.360749,"line":2,"i_long":106.831474,"distance":0,"transit":false,"station_name":"Univ. Indonesia","station_id":"UI","is_transit":false},{"is_transit":false,"time":3,"i_long":106.834175,"station_name":"Univ. Pancasila","distance":2264,"station_id":"UP","transit":false,"line":2,"i_lat":-6.339291},{"distance":1029,"station_id":"LNA","transit":false,"i_lat":-6.330363,"station_name":"Lenteng Agung","time":2,"i_long":106.832616,"line":2,"is_transit":false},{"transit":false,"station_id":"TNT","time":3,"line":2,"is_transit":false,"i_lat":-6.3080680000000005,"i_long":106.838896,"station_name":"Tanjung Barat","distance":2671},{"i_lat":-6.2842400000000005,"is_transit":false,"station_name":"Pasar Minggu","time":4,"station_id":"PSM","distance":2820,"transit":false,"line":2,"i_long":106.843999},{"i_lat":-6.263214,"time":2,"station_name":"Pasar Minggu Baru","is_transit":false,"station_id":"PSMB","transit":false,"distance":2380,"line":2,"i_long":106.851577},{"time":2,"station_id":"DRN","i_long":106.85449,"is_transit":false,"line":0,"transit":false,"i_lat":-6.255332,"station_name":"Duren Kalibata","distance":824},{"transit":false,"distance":1546,"is_transit":false,"station_name":"Cawang","time":3,"i_lat":-6.242512,"i_long":106.856607,"line":0,"station_id":"CW"},{"i_lat":-6.226659,"line":2,"station_id":"TEB","is_transit":false,"i_long":106.857948,"station_name":"Tebet","time":2,"transit":false,"distance":1230},{"station_name":"Manggarai","i_long":106.84912,"is_transit":true,"line":0,"station_id":"MRI","time":4,"distance":2610,"transit":true,"i_lat":-6.209883},{"is_transit":false,"station_name":"Matraman","transit":false,"i_long":106.858896,"distance":1275,"time":2,"station_id":"MTR","line":1,"i_lat":-6.212485},{"line":0,"station_name":"Jatinegara","i_long":106.86807400000001,"station_id":"JNG","distance":1377,"is_transit":true,"transit":true,"i_lat":-6.215091,"time":8},{"station_name":"Pondok Jati","i_lat":-6.209188,"is_transit":false,"transit":false,"i_long":106.861737,"line":11,"station_id":"POK","time":2,"distance":1236},{"distance":1829,"station_name":"Kramat","transit":false,"time":2,"is_transit":false,"i_lat":-6.193792,"station_id":"KMT","i_long":106.855437,"line":11},{"line":11,"station_id":"GST","distance":973,"is_transit":false,"transit":false,"i_lat":-6.185975,"station_name":"Gang Sentiong","i_long":106.850107,"time":1},{"station_id":"PSE","is_transit":false,"transit":false,"time":8,"i_lat":-6.174784,"station_name":"Pasar Senen","line":11,"distance":1567,"i_long":106.84368},{"transit":false,"i_long":106.839204,"i_lat":-6.161728,"is_transit":false,"time":4,"line":11,"station_id":"KMO","distance":1436,"station_name":"Kemayoran"},{"time":5,"is_transit":false,"station_name":"Rajawali","distance":1901,"i_lat":-6.14505,"i_long":106.836569,"line":11,"transit":false,"station_id":"RJW"},{"transit":true,"i_long":106.826365,"line":0,"station_id":"KPB","station_name":"Kampung Bandan","time":3,"i_lat":-6.132549,"distance":1444,"is_transit":true},{"station_id":"AK","is_transit":false,"transit":false,"i_long":106.79867,"time":9,"line":0,"distance":4102,"i_lat":-6.144674,"station_name":"Angke"},{"station_id":"DU","line":1,"transit":true,"i_lat":-6.155215,"i_long":106.800832,"distance":1230,"is_transit":true,"station_name":"Duri","time":4},{"time":3,"i_long":106.788277,"station_id":"GGL","transit":false,"i_lat":-6.162021,"line":5,"distance":1700,"station_name":"Grogol","is_transit":false},{"i_lat":-6.161433,"i_long":106.771379,"station_name":"Pesing","line":5,"transit":false,"station_id":"PSG","distance":2036,"is_transit":false,"time":2},{"station_name":"Taman Kota","line":5,"time":2,"distance":1614,"i_lat":-6.1587309999999995,"transit":false,"is_transit":false,"station_id":"TKO","i_long":106.756522},{"line":0,"transit":false,"distance":2334,"is_transit":false,"station_id":"BOI","i_lat":-6.159876,"station_name":"Bojongindah","time":2,"i_long":106.737035}]]}