{"data":[[{"time":0,"transit":false,"distance":0,"line":2,"i_long":106.831474,"i_lat":-6.360749,"station_id":"UI","is_transit":false,"station_name":"Univ. Indonesia"},{"distance":2264,"transit":false,"station_id":"UP","is_transit":false,"station_name":"Univ. Pancasila","i_long":106.834175,"line":2,"time":3,"i_lat":-6.339291},{"station_id":"LNA","line":2,"transit":false,"distance":1029,"station_name":"Lenteng Agung","i_lat":-6.330363,"time":2,"i_long":106.832616,"is_transit":false},{"i_lat":-6.3080680000000005,"distance":2671,"transit":false,"line":2,"time":3,"i_long":106.838896,"station_id":"TNT","station_name":"Tanjung Barat","is_transit":false},{"is_transit":false,"time":4,"station_id":"PSM","transit":false,"i_lat":-6.2842400000000005,"distance":2820,"station_name":"Pasar Minggu","i_long":106.843999,"line":2},{"line":2,"i_lat":-6.263214,"station_name":"Pasar Minggu Baru","time":2,"distance":2380,"is_transit":false,"transit":false,"i_long":106.851577,"station_id":"PSMB"},{"i_long":106.85449,"line":0,"transit":false,"time":2,"i_lat":-6.255332,"station_name":"Duren Kalibata","distance":824,"is_transit":false,"station_id":"DRN"},{"time":3,"i_lat":-6.242512,"is_transit":false,"station_name":"Cawang","i_long":106.856607,"line":0,"transit":false,"station_id":"CW","distance":1546},{"station_id":"TEB","is_transit":false,"transit":false,"station_name":"Tebet","time":2,"i_lat":-6.226659,"i_long":106.857948,"line":2,"distance":1230},{"line":0,"station_name":"Manggarai","i_lat":-6.209883,"transit":true,"station_id":"MRI","is_transit":true,"distance":2610,"time":4,"i_long":106.84912},{"is_transit":false,"station_id":"MTR","i_lat":-6.212485,"line":1,"distance":1275,"transit":false,"station_name":"Matraman","time":2,"i_long":106.858896},{"line":0,"station_id":"JNG","transit":false,"is_transit":true,"time":8,"i_lat":-6.215091,"station_name":"Jatinegara","i_long":106.86807400000001,"distance":1377},{"time":3,"i_lat":-6.2135,"station_name":"Klender","i_long":106.899548,"transit":false,"line":1,"distance":3395,"station_id":"KLD","is_transit":false},{"station_id":"BUA","time":2,"i_long":106.922662,"line":0,"distance":3100,"station_name":"Buaran","transit":false,"i_lat":-6.215568,"is_transit":false},{"distance":1305,"i_long":106.939679,"line":1,"i_lat":-6.217455,"is_transit":false,"station_name":"Klenderbaru","station_id":"KLDB","transit":false,"time":1},{"line":0,"distance":1385,"i_lat":-6.219053,"transit":false,"station_name":"Cakung","time":8,"is_transit":false,"i_long":106.951283,"station_id":"CUK"},{"i_lat":-6.224515,"i_long":106.977657,"transit":false,"station_name":"Kranji","line":1,"distance":3097,"is_transit":false,"time":3,"station_id":"KRI"},{"is_transit":false,"station_name":"Bekasi","time":4,"station_id":"BKS","transit":false,"i_lat":-6.236616,"i_long":106.997013,"line":0,"distance":2520}],[{"station_name":"Univ. Indonesia","is_transit":false,"station_id":"UI","i_long":106.831474,"line":2,"transit":false,"i_lat":-6.360749,"distance":0,"time":0},{"line":2,"distance":2264,"transit":false,"is_transit":false,"station_id":"UP","station_name":"Univ. Pancasila","time":3,"i_lat":-6.339291,"i_long":106.834175},{"i_lat":-6.330363,"is_transit":false,"station_id":"LNA","time":2,"station_name":"Lenteng Agung","transit":false,"line":2,"distance":1029,"i_long":106.832616},{"station_id":"TNT","transit":false,"line":2,"is_transit":false,"station_name":"Tanjung Barat","time":3,"i_lat":-6.3080680000000005,"i_long":106.838896,"distance":2671},{"time":4,"line":2,"i_long":106.843999,"station_id":"PSM","i_lat":-6.2842400000000005,"transit":false,"distance":2820,"station_name":"Pasar Minggu","is_transit":false},{"i_long":106.851577,"is_transit":false,"line":2,"transit":false,"distance":2380,"station_id":"PSMB","time":2,"station_name":"Pasar Minggu Baru","i_lat":-6.263214},{"i_long":106.85449,"station_name":"Duren Kalibata","transit":false,"distance":824,"line":0,"station_id":"DRN","time":2,"is_transit":false,"i_lat":-6.255332},{"is_transit":false,"i_long":106.856607,"station_name":"Cawang","transit":false,"line":0,"time":3,"distance":1546,"i_lat":-6.242512,"station_id":"CW"},{"i_long":106.857948,"is_transit":false,"transit":false,"i_lat":-6.226659,"station_name":"Tebet","line":2,"station_id":"TEB","distance":1230,"time":2},{"i_long":106.84912,"station_name":"Manggarai","is_transit":true,"i_lat":-6.209883,"station_id":"MRI","time":4,"distance":2610,"line":0,"transit":true},{"is_transit":false,"i_lat":-6.202263,"time":4,"i_long":106.822649,"distance":3186,"station_id":"SUD","station_name":"Sudirman","transit":false,"line":1},{"line":1,"transit":false,"distance":280,"station_id":"SUDB","time":1,"station_name":"Sudirman Baru","is_transit":false,"i_lat":-6.201433,"i_long":106.819881},{"time":1,"distance":471,"i_long":106.816351,"line":1,"is_transit":false,"station_id":"KAT","i_lat":-6.20132,"station_name":"Karet","transit":false},{"i_lat":-6.185545,"i_long":106.811091,"line":1,"station_id":"THB","distance":2029,"is_transit":true,"station_name":"Tanah Abang","time":5,"transit":false},{"distance":3632,"is_transit":true,"station_name":"Duri","transit":true,"time":8,"i_long":106.800832,"station_id":"DU","i_lat":-6.155215,"line":1},{"i_lat":-6.144674,"distance":1230,"i_long":106.79867,"station_name":"Angke","transit":false,"station_id":"AK","time":4,"is_transit":false,"line":0},{"is_transit":true,"i_long":106.826365,"distance":4102,"station_name":"Kampung Bandan","station_id":"KPB","line":0,"time":9,"transit":true,"i_lat":-6.132549},{"station_id":"RJW","time":3,"is_transit":false,"distance":1444,"i_lat":-6.14505,"transit":false,"i_long":106.836569,"station_name":"Rajawali","line":11},{"is_transit":false,"line":11,"station_name":"Kemayoran","i_long":106.839204,"i_lat":-6.161728,"transit":false,"distance":1901,"station_id":"KMO","time":5},{"i_lat":-6.174784,"line":11,"is_transit":false,"station_name":"Pasar Senen","i_long":106.84368,"station_id":"PSE","transit":false,"distance":1436,"time":4},{"transit":false,"i_long":106.850107,"time":8,"line":11,"i_lat":-6.185975,"distance":1567,"is_transit":false,"station_id":"GST","station_name":"Gang Sentiong"},{"station_id":"KMT","i_long":106.855437,"station_name":"Kramat","line":11,"distance":973,"is_transit":false,"time":1,"i_lat":-6.193792,"transit":false},{"time":2,"i_long":106.861737,"line":11,"station_id":"POK","transit":false,"i_lat":-6.209188,"station_name":"Pondok Jati","distance":1829,"is_transit":false},{"is_transit":true,"i_lat":-6.215091,"transit":true,"time":9,"i_long":106.86807400000001,"station_id":"JNG","distance":1236,"station_name":"Jatinegara","line":0},{"station_name":"Klender","i_lat":-6.2135,"i_long":106.899548,"line":1,"distance":3395,"station_id":"KLD","transit":false,"time":3,"is_transit":false},{"is_transit":false,"i_long":106.922662,"station_id":"BUA","station_name":"Buaran","i_lat":-6.215568,"distance":3100,"transit":false,"time":2,"line":0},{"i_long":106.939679,"station_name":"Klenderbaru","time":1,"line":1,"distance":1305,"is_transit":false,"station_id":"KLDB","transit":false,"i_lat":-6.217455},{"line":0,"distance":1385,"station_name":"Cakung","transit":false,"is_transit":false,"i_lat":-6.219053,"time":8,"station_id":"CUK","i_long":106.951283},{"station_name":"Kranji","is_transit":false,"line":1,"i_long":106.977657,"i_lat":-6.224515,"distance":3097,"time":3,"station_id":"KRI","transit":false},{"i_lat":-6.236616,"line":0,"station_id":"BKS","station_name":"Bekasi","distance":2520,"time":4,"i_long":106.997013,"transit":false,"is_transit":false}],[{"distance":0,"is_transit":false,"station_name":"Univ. Indonesia","station_id":"UI","i_lat":-6.360749,"line":2,"i_long":106.831474,"transit":false,"time":0},{"distance":2264,"time":3,"i_lat":-6.339291,"is_transit":false,"i_long":106.834175,"transit":false,"station_name":"Univ. Pancasila","station_id":"UP","line":2},{"is_transit":false,"line":2,"i_lat":-6.330363,"station_name":"Lenteng Agung","i_long":106.832616,"transit":false,"station_id":"LNA","time":2,"distance":1029},{"i_lat":-6.3080680000000005,"station_id":"TNT","is_transit":false,"transit":false,"i_long":106.838896,"time":3,"line":2,"distance":2671,"station_name":"Tanjung Barat"},{"transit":false,"station_name":"Pasar Minggu","i_lat":-6.2842400000000005,"i_long":106.843999,"distance":2820,"station_id":"PSM","time":4,"line":2,"is_transit":false},{"line":2,"distance":2380,"station_name":"Pasar Minggu Baru","time":2,"station_id":"PSMB","i_lat":-6.263214,"i_long":106.851577,"is_transit":false,"transit":false},{"station_id":"DRN","distance":824,"line":0,"time":2,"transit":false,"is_transit":false,"i_lat":-6.255332,"i_long":106.85449,"station_name":"Duren Kalibata"},{"station_name":"Cawang","line":0,"time":3,"i_long":106.856607,"distance":1546,"is_transit":false,"i_lat":-6.242512,"station_id":"CW","transit":false},{"transit":false,"station_id":"TEB","i_lat":-6.226659,"i_long":106.857948,"time":2,"is_transit":false,"station_name":"Tebet","distance":1230,"line":2},{"station_id":"MRI","i_long":106.84912,"transit":true,"distance":2610,"time":4,"is_transit":true,"station_name":"Manggarai","line":0,"i_lat":-6.209883},{"line":0,"i_long":106.840169,"is_transit":false,"station_id":"CKI","transit":false,"time":4,"station_name":"Cikini","distance":1590,"i_lat":-6.198556},{"i_long":106.832183,"line":2,"i_lat":-6.186295,"time":3,"is_transit":false,"distance":1750,"station_id":"GDD","transit":false,"station_name":"Gondangdia"},{"time":4,"i_lat":-6.166716,"station_id":"JUA","station_name":"Juanda","transit":false,"i_long":106.828284,"distance":2015,"is_transit":false,"line":2},{"i_lat":-6.160725,"distance":1149,"station_id":"SW","line":2,"transit":false,"is_transit":false,"time":2,"i_long":106.827103,"station_name":"Sawah Besar"},{"station_id":"MGB","station_name":"Manggabesar","transit":false,"is_transit":false,"distance":906,"i_lat":-6.149769,"i_long":106.82482,"line":2,"time":2},{"is_transit":false,"i_long":106.820901,"line":7,"station_id":"JAY","transit":false,"distance":1080,"station_name":"Jayakarta","time":2,"i_lat":-6.141205},{"station_id":"JAKK","transit":true,"time":4,"is_transit":true,"station_name":"Jakarta Kota","distance":1264,"i_lat":-6.137569,"i_long":106.812439,"line":0},{"transit":true,"time":3,"i_lat":-6.132549,"line":0,"i_long":106.826365,"distance":1364,"station_name":"Kampung Bandan","is_transit":true,"station_id":"KPB"},{"station_name":"Rajawali","transit":false,"time":3,"is_transit":false,"line":11,"i_long":106.836569,"i_lat":-6.14505,"station_id":"RJW","distance":1444},{"station_id":"KMO","station_name":"Kemayoran","i_lat":-6.161728,"i_long":106.839204,"transit":false,"line":11,"time":5,"distance":1901,"is_transit":false},{"distance":1436,"is_transit":false,"station_id":"PSE","transit":false,"i_lat":-6.174784,"line":11,"i_long":106.84368,"time":4,"station_name":"Pasar Senen"},{"distance":1567,"is_transit":false,"station_id":"GST","i_lat":-6.185975,"line":11,"i_long":106.850107,"station_name":"Gang Sentiong","time":8,"transit":false},{"station_id":"KMT","line":11,"station_name":"Kramat","i_long":106.855437,"time":1,"transit":false,"i_lat":-6.193792,"distance":973,"is_transit":false},{"station_id":"POK","i_long":106.861737,"i_lat":-6.209188,"time":2,"distance":1829,"is_transit":false,"station_name":"Pondok Jati","transit":false,"line":11},{"station_id":"JNG","transit":true,"i_long":106.86807400000001,"is_transit":true,"station_name":"Jatinegara","distance":1236,"time":9,"line":0,"i_lat":-6.215091},{"line":1,"i_lat":-6.2135,"is_transit":false,"i_long":106.899548,"station_name":"Klender","station_id":"KLD","transit":false,"distance":3395,"time":3},{"time":2,"is_transit":false,"distance":3100,"station_id":"BUA","line":0,"i_lat":-6.215568,"transit":false,"station_name":"Buaran","i_long":106.922662},{"i_lat":-6.217455,"line":1,"station_id":"KLDB","i_long":106.939679,"transit":false,"is_transit":false,"distance":1305,"station_name":"Klenderbaru","time":1},{"i_long":106.951283,"line":0,"transit":false,"time":8,"station_id":"CUK","is_transit":false,"station_name":"Cakung","i_lat":-6.219053,"distance":1385},{"station_id":"KRI","line":1,"distance":3097,"time":3,"i_long":106.977657,"i_lat":-6.224515,"station_name":"Kranji","transit":false,"is_transit":false},{"is_transit":false,"station_id":"BKS","station_name":"Bekasi","time":4,"i_lat":-6.236616,"transit":false,"i_long":106.997013,"distance":2520,"line":0}]]}