{"data":[[{"station_id":"UI","station_name":"Univ. Indonesia","is_transit":false,"i_long":106.831474,"transit":false,"time":0,"i_lat":-6.360749,"line":2,"distance":0},{"is_transit":false,"transit":false,"i_lat":-6.369073,"station_id":"POC","distance":1109,"time":2,"i_long":106.831114,"line":2,"station_name":"Pondok Cina"},{"line":0,"station_id":"DPB","transit":false,"station_name":"Depokbaru","i_lat":-6.391065,"is_transit":false,"i_long":106.819451,"time":4,"distance":2727},{"time":3,"distance":1584,"station_name":"Depok","i_long":106.816926,"transit":false,"i_lat":-6.405256,"line":0,"is_transit":false,"station_id":"DP"},{"transit":false,"station_name":"Citayam","i_long":106.800298,"station_id":"CTA","time":6,"i_lat":-6.448811,"is_transit":true,"distance":5084,"line":1}]]}