{"data":[[{"station_name":"Univ. Indonesia","transit":false,"distance":0,"station_id":"UI","i_lat":-6.360749,"time":0,"is_transit":false,"i_long":106.831474,"line":2},{"station_id":"UP","is_transit":false,"transit":false,"time":3,"distance":2264,"station_name":"Univ. Pancasila","i_long":106.834175,"i_lat":-6.339291,"line":2},{"i_long":106.832616,"is_transit":false,"station_id":"LNA","distance":1029,"station_name":"Lenteng Agung","transit":false,"time":2,"i_lat":-6.330363,"line":2},{"is_transit":false,"i_long":106.838896,"distance":2671,"line":2,"station_id":"TNT","transit":false,"time":3,"i_lat":-6.3080680000000005,"station_name":"Tanjung Barat"},{"i_long":106.843999,"distance":2820,"time":4,"station_id":"PSM","is_transit":false,"transit":false,"i_lat":-6.2842400000000005,"line":2,"station_name":"Pasar Minggu"},{"time":2,"line":2,"transit":false,"distance":2380,"station_id":"PSMB","i_long":106.851577,"is_transit":false,"station_name":"Pasar Minggu Baru","i_lat":-6.263214},{"station_id":"DRN","is_transit":false,"time":2,"transit":false,"distance":824,"i_long":106.85449,"i_lat":-6.255332,"line":2,"station_name":"Duren Kalibata"},{"line":2,"i_long":106.856607,"station_name":"Cawang","station_id":"CW","is_transit":false,"time":3,"distance":1546,"i_lat":-6.242512,"transit":false},{"time":2,"distance":1230,"i_long":106.857948,"i_lat":-6.226659,"station_id":"TEB","transit":false,"station_name":"Tebet","line":2,"is_transit":false},{"i_long":106.84912,"line":2,"distance":2610,"transit":true,"station_name":"Manggarai","i_lat":-6.209883,"is_transit":true,"time":4,"station_id":"MRI"},{"is_transit":false,"transit":false,"distance":3186,"station_name":"Sudirman","station_id":"SUD","i_lat":-6.202263,"line":1,"time":4,"i_long":106.822649},{"time":1,"distance":280,"is_transit":false,"station_name":"Sudirman Baru","i_long":106.819881,"transit":false,"station_id":"SUDB","i_lat":-6.201433,"line":1},{"station_name":"Karet","i_long":106.816351,"distance":471,"i_lat":-6.20132,"station_id":"KAT","time":1,"is_transit":false,"transit":false,"line":1},{"transit":true,"i_lat":-6.185545,"station_id":"THB","line":1,"station_name":"Tanah Abang","time":5,"is_transit":true,"distance":2029,"i_long":106.811091},{"time":6,"distance":3191,"station_id":"PLM","i_lat":-6.207404,"line":6,"station_name":"Palmerah","i_long":106.79689,"transit":false,"is_transit":false},{"i_long":106.780334,"station_name":"Kebayoran","transit":false,"time":7,"station_id":"KBY","is_transit":false,"i_lat":-6.237242,"distance":3737,"line":6},{"station_name":"Pondokranji","i_lat":-6.276362,"line":6,"time":8,"distance":6218,"is_transit":false,"transit":false,"i_long":106.74273,"station_id":"PDJ"},{"i_long":106.728916,"time":3,"distance":2179,"is_transit":false,"station_name":"Jurangmangu","station_id":"JMU","i_lat":-6.288927,"line":6,"transit":false},{"station_name":"Sudimara","transit":false,"i_lat":-6.296963,"distance":1994,"i_long":106.712277,"station_id":"SDM","time":4,"line":6,"is_transit":false},{"is_transit":false,"station_name":"Rawa Buntu","distance":4566,"i_long":106.675475,"time":6,"station_id":"RU","line":6,"i_lat":-6.314823,"transit":false},{"i_lat":-6.319871,"line":6,"transit":false,"is_transit":false,"station_name":"Serpong","distance":2413,"i_long":106.66566,"time":4,"station_id":"SRP"},{"station_name":"Cisauk","is_transit":false,"station_id":"CSK","i_lat":-6.32484,"line":3,"time":4,"transit":false,"i_long":106.640411,"distance":1784},{"i_lat":-6.329547,"i_long":106.617853,"station_name":"Cicayur","line":3,"transit":false,"station_id":"CC","distance":2519,"is_transit":false,"time":4},{"i_long":106.568863,"line":6,"time":8,"transit":false,"station_name":"Parung Panjang","i_lat":-6.3441410000000005,"is_transit":false,"station_id":"PRP","distance":5968},{"station_name":"Cilejit","distance":7025,"station_id":"CJT","i_long":106.508482,"is_transit":false,"transit":false,"time":9,"i_lat":-6.354349,"line":3}],[{"i_lat":-6.360749,"line":2,"distance":0,"station_id":"UI","time":0,"station_name":"Univ. Indonesia","i_long":106.831474,"transit":false,"is_transit":false},{"time":3,"is_transit":false,"transit":false,"station_id":"UP","i_long":106.834175,"line":2,"i_lat":-6.339291,"distance":2264,"station_name":"Univ. Pancasila"},{"transit":false,"line":2,"station_name":"Lenteng Agung","station_id":"LNA","i_lat":-6.330363,"is_transit":false,"i_long":106.832616,"time":2,"distance":1029},{"station_id":"TNT","i_lat":-6.3080680000000005,"station_name":"Tanjung Barat","line":2,"is_transit":false,"i_long":106.838896,"transit":false,"time":3,"distance":2671},{"transit":false,"distance":2820,"station_id":"PSM","line":2,"station_name":"Pasar Minggu","i_long":106.843999,"i_lat":-6.2842400000000005,"is_transit":false,"time":4},{"distance":2380,"station_name":"Pasar Minggu Baru","line":2,"time":2,"transit":false,"i_long":106.851577,"station_id":"PSMB","i_lat":-6.263214,"is_transit":false},{"station_name":"Duren Kalibata","i_long":106.85449,"transit":false,"i_lat":-6.255332,"line":2,"time":2,"distance":824,"is_transit":false,"station_id":"DRN"},{"transit":false,"line":2,"i_lat":-6.242512,"i_long":106.856607,"station_id":"CW","distance":1546,"is_transit":false,"station_name":"Cawang","time":3},{"i_lat":-6.226659,"transit":false,"time":2,"station_name":"Tebet","line":2,"distance":1230,"station_id":"TEB","is_transit":false,"i_long":106.857948},{"time":4,"i_long":106.84912,"station_id":"MRI","is_transit":false,"transit":false,"distance":2610,"line":2,"station_name":"Manggarai","i_lat":-6.209883},{"time":4,"transit":false,"distance":1590,"i_lat":-6.198556,"is_transit":false,"i_long":106.840169,"line":2,"station_name":"Cikini","station_id":"CKI"},{"i_lat":-6.186295,"distance":1750,"i_long":106.832183,"is_transit":false,"line":2,"transit":false,"station_name":"Gondangdia","station_id":"GDD","time":3},{"transit":false,"line":2,"distance":2015,"time":4,"i_long":106.828284,"is_transit":false,"station_name":"Juanda","station_id":"JUA","i_lat":-6.166716},{"is_transit":false,"time":2,"line":2,"distance":1149,"station_name":"Sawah Besar","transit":false,"station_id":"SW","i_lat":-6.160725,"i_long":106.827103},{"line":2,"time":2,"station_name":"Manggabesar","i_long":106.82482,"is_transit":false,"distance":906,"i_lat":-6.149769,"transit":false,"station_id":"MGB"},{"i_long":106.820901,"i_lat":-6.141205,"station_name":"Jayakarta","line":2,"time":2,"transit":false,"station_id":"JAY","is_transit":false,"distance":1080},{"station_name":"Jakarta Kota","station_id":"JAKK","i_long":106.812439,"i_lat":-6.137569,"line":2,"is_transit":true,"time":4,"distance":1264,"transit":true},{"station_id":"KPB","station_name":"Kampung Bandan","transit":true,"i_lat":-6.132549,"i_long":106.826365,"line":4,"distance":1364,"is_transit":true,"time":3},{"i_lat":-6.144674,"station_name":"Angke","line":1,"distance":4102,"is_transit":false,"i_long":106.79867,"station_id":"AK","transit":false,"time":9},{"line":1,"transit":false,"station_id":"DU","is_transit":false,"time":4,"i_lat":-6.155215,"i_long":106.800832,"station_name":"Duri","distance":1230},{"i_long":106.811091,"transit":true,"station_name":"Tanah Abang","is_transit":true,"time":8,"distance":3632,"station_id":"THB","i_lat":-6.185545,"line":1},{"station_id":"PLM","line":6,"i_lat":-6.207404,"is_transit":false,"time":6,"distance":3191,"transit":false,"i_long":106.79689,"station_name":"Palmerah"},{"distance":3737,"i_lat":-6.237242,"i_long":106.780334,"is_transit":false,"station_name":"Kebayoran","transit":false,"time":7,"station_id":"KBY","line":6},{"station_id":"PDJ","station_name":"Pondokranji","i_lat":-6.276362,"line":6,"i_long":106.74273,"time":8,"is_transit":false,"transit":false,"distance":6218},{"distance":2179,"station_name":"Jurangmangu","time":3,"i_lat":-6.288927,"transit":false,"i_long":106.728916,"station_id":"JMU","is_transit":false,"line":6},{"i_lat":-6.296963,"distance":1994,"line":6,"station_id":"SDM","is_transit":false,"i_long":106.712277,"time":4,"transit":false,"station_name":"Sudimara"},{"distance":4566,"is_transit":false,"station_name":"Rawa Buntu","transit":false,"time":6,"station_id":"RU","i_lat":-6.314823,"line":6,"i_long":106.675475},{"i_long":106.66566,"is_transit":false,"line":6,"station_name":"Serpong","i_lat":-6.319871,"distance":2413,"station_id":"SRP","transit":false,"time":4},{"line":3,"i_lat":-6.32484,"i_long":106.640411,"transit":false,"station_name":"Cisauk","is_transit":false,"distance":1784,"station_id":"CSK","time":4},{"line":3,"time":4,"station_id":"CC","is_transit":false,"station_name":"Cicayur","distance":2519,"i_lat":-6.329547,"i_long":106.617853,"transit":false},{"time":8,"station_name":"Parung Panjang","i_long":106.568863,"i_lat":-6.3441410000000005,"station_id":"PRP","distance":5968,"line":6,"transit":false,"is_transit":false},{"i_lat":-6.354349,"distance":7025,"i_long":106.508482,"time":9,"station_name":"Cilejit","station_id":"CJT","line":3,"transit":false,"is_transit":false}],[{"line":2,"transit":false,"is_transit":false,"station_name":"Univ. Indonesia","i_long":106.831474,"i_lat":-6.360749,"distance":0,"time":0,"station_id":"UI"},{"distance":2264,"is_transit":false,"station_name":"Univ. Pancasila","i_long":106.834175,"station_id":"UP","transit":false,"line":2,"i_lat":-6.339291,"time":3},{"is_transit":false,"transit":false,"station_name":"Lenteng Agung","distance":1029,"line":2,"i_long":106.832616,"time":2,"i_lat":-6.330363,"station_id":"LNA"},{"station_name":"Tanjung Barat","station_id":"TNT","distance":2671,"i_lat":-6.3080680000000005,"is_transit":false,"i_long":106.838896,"transit":false,"time":3,"line":2},{"i_long":106.843999,"station_name":"Pasar Minggu","transit":false,"is_transit":false,"time":4,"station_id":"PSM","i_lat":-6.2842400000000005,"distance":2820,"line":2},{"time":2,"i_long":106.851577,"distance":2380,"station_name":"Pasar Minggu Baru","line":2,"i_lat":-6.263214,"station_id":"PSMB","is_transit":false,"transit":false},{"line":2,"is_transit":false,"i_long":106.85449,"station_id":"DRN","time":2,"transit":false,"distance":824,"i_lat":-6.255332,"station_name":"Duren Kalibata"},{"line":2,"is_transit":false,"transit":false,"i_long":106.856607,"time":3,"distance":1546,"station_name":"Cawang","station_id":"CW","i_lat":-6.242512},{"time":2,"i_long":106.857948,"line":2,"station_id":"TEB","i_lat":-6.226659,"station_name":"Tebet","distance":1230,"is_transit":false,"transit":false},{"is_transit":true,"transit":true,"line":2,"distance":2610,"station_id":"MRI","time":4,"i_lat":-6.209883,"station_name":"Manggarai","i_long":106.84912},{"time":2,"i_long":106.858896,"station_id":"MTR","station_name":"Matraman","is_transit":false,"transit":false,"i_lat":-6.212485,"distance":1275,"line":1},{"is_transit":true,"transit":true,"time":8,"line":1,"station_id":"JNG","i_long":106.86807400000001,"distance":1377,"station_name":"Jatinegara","i_lat":-6.215091},{"time":2,"i_long":106.861737,"is_transit":false,"station_name":"Pondok Jati","i_lat":-6.209188,"distance":1236,"line":11,"station_id":"POK","transit":false},{"i_long":106.855437,"is_transit":false,"station_name":"Kramat","line":11,"distance":1829,"i_lat":-6.193792,"time":2,"transit":false,"station_id":"KMT"},{"station_id":"GST","station_name":"Gang Sentiong","i_long":106.850107,"time":1,"distance":973,"is_transit":false,"transit":false,"line":11,"i_lat":-6.185975},{"station_id":"PSE","is_transit":false,"i_lat":-6.174784,"time":8,"line":11,"distance":1567,"transit":false,"i_long":106.84368,"station_name":"Pasar Senen"},{"line":11,"i_lat":-6.161728,"i_long":106.839204,"station_id":"KMO","station_name":"Kemayoran","is_transit":false,"time":4,"transit":false,"distance":1436},{"station_name":"Rajawali","transit":false,"i_lat":-6.14505,"is_transit":false,"i_long":106.836569,"line":11,"station_id":"RJW","time":5,"distance":1901},{"time":3,"station_name":"Kampung Bandan","line":4,"station_id":"KPB","distance":1444,"transit":true,"is_transit":true,"i_long":106.826365,"i_lat":-6.132549},{"line":1,"is_transit":false,"station_name":"Angke","i_long":106.79867,"time":9,"transit":false,"i_lat":-6.144674,"distance":4102,"station_id":"AK"},{"is_transit":false,"station_id":"DU","transit":false,"station_name":"Duri","distance":1230,"i_lat":-6.155215,"time":4,"i_long":106.800832,"line":1},{"station_id":"THB","station_name":"Tanah Abang","time":8,"i_lat":-6.185545,"i_long":106.811091,"distance":3632,"transit":true,"line":1,"is_transit":true},{"time":6,"distance":3191,"is_transit":false,"i_long":106.79689,"station_name":"Palmerah","station_id":"PLM","i_lat":-6.207404,"line":6,"transit":false},{"time":7,"is_transit":false,"i_long":106.780334,"distance":3737,"station_id":"KBY","transit":false,"station_name":"Kebayoran","line":6,"i_lat":-6.237242},{"i_long":106.74273,"is_transit":false,"distance":6218,"station_id":"PDJ","time":8,"line":6,"i_lat":-6.276362,"transit":false,"station_name":"Pondokranji"},{"distance":2179,"time":3,"station_id":"JMU","station_name":"Jurangmangu","i_lat":-6.288927,"is_transit":false,"transit":false,"line":6,"i_long":106.728916},{"i_lat":-6.296963,"station_name":"Sudimara","i_long":106.712277,"station_id":"SDM","transit":false,"line":6,"distance":1994,"time":4,"is_transit":false},{"station_name":"Rawa Buntu","time":6,"transit":false,"distance":4566,"i_lat":-6.314823,"line":6,"is_transit":false,"i_long":106.675475,"station_id":"RU"},{"is_transit":false,"i_long":106.66566,"line":6,"station_id":"SRP","transit":false,"station_name":"Serpong","time":4,"i_lat":-6.319871,"distance":2413},{"is_transit":false,"i_long":106.640411,"time":4,"station_id":"CSK","distance":1784,"transit":false,"station_name":"Cisauk","i_lat":-6.32484,"line":3},{"time":4,"i_lat":-6.329547,"i_long":106.617853,"station_id":"CC","transit":false,"station_name":"Cicayur","distance":2519,"is_transit":false,"line":3},{"station_name":"Parung Panjang","i_long":106.568863,"transit":false,"distance":5968,"is_transit":false,"time":8,"i_lat":-6.3441410000000005,"line":6,"station_id":"PRP"},{"line":3,"time":9,"station_id":"CJT","i_lat":-6.354349,"distance":7025,"i_long":106.508482,"station_name":"Cilejit","transit":false,"is_transit":false}]]}