{"data":[[{"time":0,"i_long":106.831474,"transit":false,"is_transit":false,"line":2,"i_lat":-6.360749,"station_id":"UI","station_name":"Univ. Indonesia","distance":0},{"station_id":"UP","i_lat":-6.339291,"transit":false,"i_long":106.834175,"station_name":"Univ. Pancasila","time":3,"is_transit":false,"distance":2264,"line":2},{"i_long":106.832616,"station_id":"LNA","line":2,"transit":false,"distance":1029,"is_transit":false,"station_name":"Lenteng Agung","time":2,"i_lat":-6.330363},{"is_transit":false,"time":3,"i_long":106.838896,"transit":false,"distance":2671,"line":2,"station_name":"Tanjung Barat","i_lat":-6.3080680000000005,"station_id":"TNT"},{"is_transit":false,"station_id":"PSM","transit":false,"distance":2820,"time":4,"station_name":"Pasar Minggu","i_lat":-6.2842400000000005,"i_long":106.843999,"line":2},{"line":2,"is_transit":false,"time":2,"station_id":"PSMB","i_long":106.851577,"transit":false,"station_name":"Pasar Minggu Baru","distance":2380,"i_lat":-6.263214},{"time":2,"is_transit":false,"i_long":106.85449,"station_id":"DRN","line":2,"transit":false,"i_lat":-6.255332,"station_name":"Duren Kalibata","distance":824},{"line":2,"is_transit":false,"i_long":106.856607,"distance":1546,"station_id":"CW","i_lat":-6.242512,"transit":false,"station_name":"Cawang","time":3},{"line":2,"transit":false,"is_transit":false,"distance":1230,"i_long":106.857948,"station_id":"TEB","time":2,"i_lat":-6.226659,"station_name":"Tebet"},{"transit":true,"i_lat":-6.209883,"line":2,"station_name":"Manggarai","station_id":"MRI","is_transit":true,"time":4,"distance":2610,"i_long":106.84912},{"i_lat":-6.202263,"distance":3186,"is_transit":false,"station_id":"SUD","time":4,"station_name":"Sudirman","i_long":106.822649,"line":1,"transit":false},{"line":1,"i_lat":-6.201433,"station_id":"SUDB","transit":false,"station_name":"Sudirman Baru","time":1,"distance":280,"i_long":106.819881,"is_transit":false},{"station_id":"KAT","transit":false,"distance":471,"i_long":106.816351,"station_name":"Karet","time":1,"i_lat":-6.20132,"is_transit":false,"line":1},{"i_lat":-6.185545,"station_name":"Tanah Abang","is_transit":true,"i_long":106.811091,"time":5,"distance":2029,"station_id":"THB","line":1,"transit":true},{"i_long":106.79689,"distance":3191,"station_id":"PLM","transit":false,"is_transit":false,"station_name":"Palmerah","line":6,"time":6,"i_lat":-6.207404},{"transit":false,"station_name":"Kebayoran","i_lat":-6.237242,"is_transit":false,"i_long":106.780334,"line":6,"time":7,"distance":3737,"station_id":"KBY"},{"distance":6218,"station_name":"Pondokranji","is_transit":false,"time":8,"station_id":"PDJ","i_long":106.74273,"line":6,"i_lat":-6.276362,"transit":false},{"station_id":"JMU","distance":2179,"time":3,"i_long":106.728916,"station_name":"Jurangmangu","line":6,"is_transit":false,"transit":false,"i_lat":-6.288927},{"transit":false,"station_id":"SDM","is_transit":false,"time":4,"distance":1994,"i_long":106.712277,"line":6,"i_lat":-6.296963,"station_name":"Sudimara"},{"station_name":"Rawa Buntu","distance":4566,"time":6,"transit":false,"station_id":"RU","is_transit":false,"i_lat":-6.314823,"i_long":106.675475,"line":6},{"transit":false,"distance":2413,"line":6,"i_lat":-6.319871,"station_id":"SRP","is_transit":false,"time":4,"station_name":"Serpong","i_long":106.66566},{"station_id":"CSK","transit":false,"is_transit":false,"time":4,"station_name":"Cisauk","distance":1784,"i_long":106.640411,"line":3,"i_lat":-6.32484},{"distance":2519,"station_id":"CC","line":3,"time":4,"i_lat":-6.329547,"station_name":"Cicayur","transit":false,"i_long":106.617853,"is_transit":false},{"station_id":"PRP","i_lat":-6.3441410000000005,"time":8,"transit":false,"is_transit":false,"distance":5968,"line":6,"i_long":106.568863,"station_name":"Parung Panjang"},{"i_long":106.508482,"distance":7025,"is_transit":false,"line":3,"station_id":"CJT","station_name":"Cilejit","i_lat":-6.354349,"time":9,"transit":false},{"station_name":"Daru","time":6,"transit":false,"is_transit":false,"distance":2675,"i_lat":-6.338021,"i_long":106.491338,"station_id":"DAR","line":0},{"transit":false,"is_transit":false,"time":5,"line":6,"distance":3902,"station_id":"TEJ","i_long":106.460812,"i_lat":-6.327251,"station_name":"Tenjo"},{"station_id":"TGS","line":6,"station_name":"Tigaraksa","transit":false,"i_lat":-6.328533,"i_long":106.425991,"is_transit":false,"time":5,"distance":2974},{"is_transit":false,"time":3,"line":3,"transit":false,"station_id":"CKY","station_name":"Cikoya","i_lat":-6.33561,"i_long":106.411216,"distance":2651}],[{"station_id":"UI","transit":false,"is_transit":false,"distance":0,"station_name":"Univ. Indonesia","i_lat":-6.360749,"line":2,"i_long":106.831474,"time":0},{"time":3,"station_name":"Univ. Pancasila","station_id":"UP","is_transit":false,"distance":2264,"line":2,"i_long":106.834175,"i_lat":-6.339291,"transit":false},{"is_transit":false,"line":2,"distance":1029,"i_lat":-6.330363,"transit":false,"station_name":"Lenteng Agung","station_id":"LNA","time":2,"i_long":106.832616},{"transit":false,"station_name":"Tanjung Barat","is_transit":false,"distance":2671,"i_long":106.838896,"time":3,"i_lat":-6.3080680000000005,"station_id":"TNT","line":2},{"is_transit":false,"i_lat":-6.2842400000000005,"transit":false,"station_id":"PSM","distance":2820,"i_long":106.843999,"line":2,"time":4,"station_name":"Pasar Minggu"},{"transit":false,"i_lat":-6.263214,"station_id":"PSMB","is_transit":false,"i_long":106.851577,"time":2,"line":2,"station_name":"Pasar Minggu Baru","distance":2380},{"is_transit":false,"transit":false,"distance":824,"station_name":"Duren Kalibata","i_long":106.85449,"station_id":"DRN","time":2,"i_lat":-6.255332,"line":2},{"time":3,"i_lat":-6.242512,"line":2,"i_long":106.856607,"distance":1546,"station_id":"CW","transit":false,"station_name":"Cawang","is_transit":false},{"station_id":"TEB","line":2,"is_transit":false,"distance":1230,"transit":false,"station_name":"Tebet","i_lat":-6.226659,"time":2,"i_long":106.857948},{"line":2,"station_id":"MRI","distance":2610,"i_lat":-6.209883,"i_long":106.84912,"is_transit":false,"transit":false,"time":4,"station_name":"Manggarai"},{"is_transit":false,"time":4,"station_name":"Cikini","transit":false,"station_id":"CKI","line":2,"i_lat":-6.198556,"i_long":106.840169,"distance":1590},{"time":3,"station_id":"GDD","transit":false,"line":2,"station_name":"Gondangdia","i_lat":-6.186295,"i_long":106.832183,"distance":1750,"is_transit":false},{"is_transit":false,"time":4,"line":2,"distance":2015,"transit":false,"i_lat":-6.166716,"station_id":"JUA","station_name":"Juanda","i_long":106.828284},{"i_lat":-6.160725,"transit":false,"station_name":"Sawah Besar","time":2,"distance":1149,"station_id":"SW","line":2,"is_transit":false,"i_long":106.827103},{"line":2,"is_transit":false,"transit":false,"i_lat":-6.149769,"distance":906,"station_id":"MGB","time":2,"i_long":106.82482,"station_name":"Manggabesar"},{"distance":1080,"i_lat":-6.141205,"station_name":"Jayakarta","is_transit":false,"i_long":106.820901,"line":2,"station_id":"JAY","transit":false,"time":2},{"time":4,"station_name":"Jakarta Kota","station_id":"JAKK","distance":1264,"i_long":106.812439,"transit":true,"i_lat":-6.137569,"is_transit":true,"line":2},{"station_id":"KPB","i_lat":-6.132549,"i_long":106.826365,"station_name":"Kampung Bandan","transit":true,"is_transit":true,"time":3,"line":4,"distance":1364},{"station_name":"Angke","station_id":"AK","i_lat":-6.144674,"line":1,"transit":false,"is_transit":false,"i_long":106.79867,"distance":4102,"time":9},{"line":1,"time":4,"is_transit":false,"station_name":"Duri","i_lat":-6.155215,"station_id":"DU","distance":1230,"i_long":106.800832,"transit":false},{"time":8,"i_lat":-6.185545,"i_long":106.811091,"station_name":"Tanah Abang","is_transit":true,"distance":3632,"station_id":"THB","line":1,"transit":true},{"station_id":"PLM","time":6,"transit":false,"i_long":106.79689,"is_transit":false,"distance":3191,"i_lat":-6.207404,"line":6,"station_name":"Palmerah"},{"line":6,"distance":3737,"is_transit":false,"i_long":106.780334,"i_lat":-6.237242,"station_name":"Kebayoran","transit":false,"station_id":"KBY","time":7},{"i_long":106.74273,"line":6,"transit":false,"time":8,"station_id":"PDJ","distance":6218,"station_name":"Pondokranji","i_lat":-6.276362,"is_transit":false},{"i_long":106.728916,"time":3,"is_transit":false,"distance":2179,"i_lat":-6.288927,"line":6,"transit":false,"station_id":"JMU","station_name":"Jurangmangu"},{"line":6,"station_name":"Sudimara","i_long":106.712277,"distance":1994,"transit":false,"i_lat":-6.296963,"time":4,"is_transit":false,"station_id":"SDM"},{"station_name":"Rawa Buntu","is_transit":false,"line":6,"distance":4566,"transit":false,"time":6,"station_id":"RU","i_lat":-6.314823,"i_long":106.675475},{"transit":false,"line":6,"station_name":"Serpong","station_id":"SRP","distance":2413,"is_transit":false,"time":4,"i_long":106.66566,"i_lat":-6.319871},{"i_lat":-6.32484,"is_transit":false,"transit":false,"time":4,"i_long":106.640411,"station_name":"Cisauk","station_id":"CSK","line":3,"distance":1784},{"is_transit":false,"i_lat":-6.329547,"transit":false,"line":3,"time":4,"station_id":"CC","distance":2519,"i_long":106.617853,"station_name":"Cicayur"},{"distance":5968,"i_lat":-6.3441410000000005,"station_name":"Parung Panjang","station_id":"PRP","i_long":106.568863,"is_transit":false,"line":6,"transit":false,"time":8},{"distance":7025,"i_lat":-6.354349,"station_name":"Cilejit","time":9,"station_id":"CJT","is_transit":false,"i_long":106.508482,"line":3,"transit":false},{"station_name":"Daru","line":0,"station_id":"DAR","i_lat":-6.338021,"transit":false,"time":6,"i_long":106.491338,"distance":2675,"is_transit":false},{"station_id":"TEJ","is_transit":false,"i_lat":-6.327251,"line":6,"station_name":"Tenjo","i_long":106.460812,"transit":false,"time":5,"distance":3902},{"station_id":"TGS","distance":2974,"time":5,"line":6,"i_long":106.425991,"station_name":"Tigaraksa","is_transit":false,"i_lat":-6.328533,"transit":false},{"distance":2651,"is_transit":false,"station_name":"Cikoya","i_long":106.411216,"station_id":"CKY","line":3,"transit":false,"time":3,"i_lat":-6.33561}],[{"station_name":"Univ. Indonesia","station_id":"UI","transit":false,"i_long":106.831474,"time":0,"i_lat":-6.360749,"distance":0,"is_transit":false,"line":2},{"station_name":"Univ. Pancasila","line":2,"i_long":106.834175,"is_transit":false,"transit":false,"i_lat":-6.339291,"distance":2264,"station_id":"UP","time":3},{"i_lat":-6.330363,"line":2,"is_transit":false,"distance":1029,"station_name":"Lenteng Agung","transit":false,"station_id":"LNA","i_long":106.832616,"time":2},{"station_name":"Tanjung Barat","is_transit":false,"i_lat":-6.3080680000000005,"station_id":"TNT","i_long":106.838896,"transit":false,"line":2,"distance":2671,"time":3},{"i_lat":-6.2842400000000005,"line":2,"i_long":106.843999,"transit":false,"distance":2820,"station_id":"PSM","station_name":"Pasar Minggu","is_transit":false,"time":4},{"station_id":"PSMB","station_name":"Pasar Minggu Baru","distance":2380,"i_lat":-6.263214,"is_transit":false,"i_long":106.851577,"line":2,"time":2,"transit":false},{"station_id":"DRN","time":2,"station_name":"Duren Kalibata","is_transit":false,"i_lat":-6.255332,"i_long":106.85449,"line":2,"distance":824,"transit":false},{"is_transit":false,"station_id":"CW","time":3,"transit":false,"distance":1546,"line":2,"i_lat":-6.242512,"i_long":106.856607,"station_name":"Cawang"},{"station_name":"Tebet","time":2,"i_lat":-6.226659,"distance":1230,"is_transit":false,"i_long":106.857948,"line":2,"transit":false,"station_id":"TEB"},{"station_name":"Manggarai","i_lat":-6.209883,"time":4,"is_transit":true,"transit":true,"station_id":"MRI","line":2,"distance":2610,"i_long":106.84912},{"station_id":"MTR","i_lat":-6.212485,"i_long":106.858896,"line":1,"is_transit":false,"transit":false,"time":2,"station_name":"Matraman","distance":1275},{"transit":true,"station_name":"Jatinegara","station_id":"JNG","distance":1377,"is_transit":true,"time":8,"i_long":106.86807400000001,"i_lat":-6.215091,"line":1},{"i_lat":-6.209188,"i_long":106.861737,"line":11,"transit":false,"time":2,"station_name":"Pondok Jati","is_transit":false,"distance":1236,"station_id":"POK"},{"time":2,"i_long":106.855437,"station_id":"KMT","distance":1829,"is_transit":false,"station_name":"Kramat","i_lat":-6.193792,"transit":false,"line":11},{"station_name":"Gang Sentiong","station_id":"GST","transit":false,"is_transit":false,"time":1,"distance":973,"i_lat":-6.185975,"i_long":106.850107,"line":11},{"station_name":"Pasar Senen","is_transit":false,"i_lat":-6.174784,"line":11,"station_id":"PSE","distance":1567,"transit":false,"time":8,"i_long":106.84368},{"i_lat":-6.161728,"station_id":"KMO","station_name":"Kemayoran","time":4,"distance":1436,"transit":false,"line":11,"is_transit":false,"i_long":106.839204},{"station_id":"RJW","distance":1901,"i_long":106.836569,"line":11,"is_transit":false,"time":5,"i_lat":-6.14505,"station_name":"Rajawali","transit":false},{"line":4,"distance":1444,"station_id":"KPB","i_lat":-6.132549,"station_name":"Kampung Bandan","time":3,"i_long":106.826365,"transit":true,"is_transit":true},{"i_long":106.79867,"line":1,"distance":4102,"i_lat":-6.144674,"station_id":"AK","is_transit":false,"transit":false,"station_name":"Angke","time":9},{"transit":false,"distance":1230,"i_long":106.800832,"station_name":"Duri","is_transit":false,"i_lat":-6.155215,"line":1,"station_id":"DU","time":4},{"i_long":106.811091,"line":1,"is_transit":true,"distance":3632,"time":8,"i_lat":-6.185545,"transit":true,"station_name":"Tanah Abang","station_id":"THB"},{"i_long":106.79689,"time":6,"transit":false,"is_transit":false,"i_lat":-6.207404,"line":6,"station_id":"PLM","station_name":"Palmerah","distance":3191},{"transit":false,"i_long":106.780334,"i_lat":-6.237242,"line":6,"is_transit":false,"station_id":"KBY","time":7,"station_name":"Kebayoran","distance":3737},{"line":6,"i_lat":-6.276362,"transit":false,"station_id":"PDJ","time":8,"i_long":106.74273,"station_name":"Pondokranji","is_transit":false,"distance":6218},{"i_long":106.728916,"i_lat":-6.288927,"line":6,"station_id":"JMU","time":3,"distance":2179,"transit":false,"is_transit":false,"station_name":"Jurangmangu"},{"station_id":"SDM","i_long":106.712277,"is_transit":false,"i_lat":-6.296963,"time":4,"transit":false,"distance":1994,"line":6,"station_name":"Sudimara"},{"i_lat":-6.314823,"line":6,"station_id":"RU","station_name":"Rawa Buntu","is_transit":false,"distance":4566,"time":6,"i_long":106.675475,"transit":false},{"i_lat":-6.319871,"station_id":"SRP","is_transit":false,"transit":false,"time":4,"station_name":"Serpong","distance":2413,"i_long":106.66566,"line":6},{"transit":false,"time":4,"i_long":106.640411,"distance":1784,"line":3,"i_lat":-6.32484,"station_id":"CSK","is_transit":false,"station_name":"Cisauk"},{"is_transit":false,"distance":2519,"station_name":"Cicayur","i_long":106.617853,"line":3,"station_id":"CC","transit":false,"time":4,"i_lat":-6.329547},{"transit":false,"line":6,"station_name":"Parung Panjang","i_long":106.568863,"time":8,"i_lat":-6.3441410000000005,"is_transit":false,"station_id":"PRP","distance":5968},{"station_name":"Cilejit","is_transit":false,"i_lat":-6.354349,"line":3,"i_long":106.508482,"time":9,"distance":7025,"station_id":"CJT","transit":false},{"is_transit":false,"time":6,"station_name":"Daru","i_lat":-6.338021,"i_long":106.491338,"line":0,"transit":false,"station_id":"DAR","distance":2675},{"station_name":"Tenjo","time":5,"line":6,"distance":3902,"i_lat":-6.327251,"is_transit":false,"transit":false,"station_id":"TEJ","i_long":106.460812},{"station_name":"Tigaraksa","i_lat":-6.328533,"transit":false,"station_id":"TGS","is_transit":false,"i_long":106.425991,"line":6,"time":5,"distance":2974},{"is_transit":false,"station_name":"Cikoya","i_lat":-6.33561,"time":3,"station_id":"CKY","transit":false,"distance":2651,"i_long":106.411216,"line":3}]]}