{"data":[[{"line":2,"station_name":"Univ. Indonesia","i_lat":-6.360749,"is_transit":false,"distance":0,"time":0,"station_id":"UI","transit":false,"i_long":106.831474},{"transit":false,"station_name":"Pondok Cina","i_lat":-6.369073,"i_long":106.831114,"line":2,"distance":1109,"time":2,"station_id":"POC","is_transit":false},{"transit":false,"time":4,"i_lat":-6.391065,"i_long":106.819451,"station_name":"Depokbaru","station_id":"DPB","distance":2727,"line":2,"is_transit":false},{"i_long":106.816926,"is_transit":false,"station_id":"DP","transit":false,"time":3,"station_name":"Depok","distance":1584,"i_lat":-6.405256,"line":2},{"time":6,"is_transit":false,"line":2,"i_lat":-6.448811,"station_name":"Citayam","station_id":"CTA","transit":false,"distance":5084,"i_long":106.800298}]]}