{"data":[[{"distance":0,"is_transit":false,"line":2,"station_id":"UI","station_name":"Univ. Indonesia","transit":false,"time":0,"i_lat":-6.360749,"i_long":106.831474},{"time":3,"is_transit":false,"distance":2264,"transit":false,"station_name":"Univ. Pancasila","station_id":"UP","i_lat":-6.339291,"i_long":106.834175,"line":2},{"i_lat":-6.330363,"station_id":"LNA","station_name":"Lenteng Agung","is_transit":false,"distance":1029,"time":2,"i_long":106.832616,"line":2,"transit":false},{"is_transit":false,"line":2,"i_lat":-6.3080680000000005,"station_id":"TNT","i_long":106.838896,"distance":2671,"transit":false,"station_name":"Tanjung Barat","time":3},{"station_id":"PSM","station_name":"Pasar Minggu","i_long":106.843999,"time":4,"i_lat":-6.2842400000000005,"distance":2820,"transit":false,"is_transit":false,"line":2},{"i_lat":-6.263214,"station_name":"Pasar Minggu Baru","i_long":106.851577,"distance":2380,"line":2,"station_id":"PSMB","transit":false,"is_transit":false,"time":2},{"station_name":"Duren Kalibata","station_id":"DRN","time":2,"i_long":106.85449,"i_lat":-6.255332,"line":2,"is_transit":false,"distance":824,"transit":false},{"i_long":106.856607,"distance":1546,"transit":false,"line":2,"station_name":"Cawang","time":3,"i_lat":-6.242512,"station_id":"CW","is_transit":false},{"is_transit":false,"transit":false,"i_long":106.857948,"station_name":"Tebet","line":2,"distance":1230,"time":2,"station_id":"TEB","i_lat":-6.226659},{"i_lat":-6.209883,"time":4,"i_long":106.84912,"is_transit":true,"distance":2610,"station_id":"MRI","transit":true,"station_name":"Manggarai","line":2},{"time":4,"station_id":"SUD","line":1,"transit":false,"distance":3186,"station_name":"Sudirman","i_lat":-6.202263,"i_long":106.822649,"is_transit":false},{"time":1,"distance":280,"transit":false,"line":1,"i_long":106.819881,"station_name":"Sudirman Baru","i_lat":-6.201433,"station_id":"SUDB","is_transit":false},{"station_name":"Karet","station_id":"KAT","i_long":106.816351,"line":1,"transit":false,"i_lat":-6.20132,"distance":471,"time":1,"is_transit":false},{"i_lat":-6.185545,"distance":2029,"transit":true,"station_name":"Tanah Abang","line":1,"time":5,"is_transit":true,"i_long":106.811091,"station_id":"THB"},{"is_transit":false,"i_lat":-6.207404,"transit":false,"line":6,"distance":3191,"i_long":106.79689,"station_id":"PLM","time":6,"station_name":"Palmerah"},{"time":7,"line":6,"i_long":106.780334,"station_id":"KBY","station_name":"Kebayoran","i_lat":-6.237242,"distance":3737,"transit":false,"is_transit":false},{"distance":6218,"is_transit":false,"station_name":"Pondokranji","i_lat":-6.276362,"line":6,"i_long":106.74273,"transit":false,"time":8,"station_id":"PDJ"},{"transit":false,"line":6,"is_transit":false,"i_long":106.728916,"station_name":"Jurangmangu","distance":2179,"time":3,"station_id":"JMU","i_lat":-6.288927},{"distance":1994,"time":4,"transit":false,"station_name":"Sudimara","i_long":106.712277,"is_transit":false,"i_lat":-6.296963,"station_id":"SDM","line":6},{"transit":false,"time":6,"is_transit":false,"distance":4566,"i_lat":-6.314823,"line":6,"i_long":106.675475,"station_name":"Rawa Buntu","station_id":"RU"},{"time":4,"is_transit":false,"station_id":"SRP","distance":2413,"station_name":"Serpong","i_lat":-6.319871,"i_long":106.66566,"line":6,"transit":false},{"is_transit":false,"i_lat":-6.32484,"i_long":106.640411,"line":3,"station_name":"Cisauk","time":4,"distance":1784,"station_id":"CSK","transit":false},{"i_long":106.617853,"distance":2519,"station_name":"Cicayur","transit":false,"line":3,"station_id":"CC","i_lat":-6.329547,"is_transit":false,"time":4},{"i_lat":-6.3441410000000005,"station_name":"Parung Panjang","time":8,"is_transit":false,"distance":5968,"line":6,"station_id":"PRP","i_long":106.568863,"transit":false},{"transit":false,"station_name":"Cilejit","i_lat":-6.354349,"distance":7025,"line":3,"i_long":106.508482,"station_id":"CJT","time":9,"is_transit":false}],[{"distance":0,"line":2,"station_id":"UI","transit":false,"time":0,"station_name":"Univ. Indonesia","i_lat":-6.360749,"is_transit":false,"i_long":106.831474},{"is_transit":false,"transit":false,"line":2,"station_id":"UP","station_name":"Univ. Pancasila","i_long":106.834175,"i_lat":-6.339291,"distance":2264,"time":3},{"station_id":"LNA","i_long":106.832616,"i_lat":-6.330363,"is_transit":false,"time":2,"transit":false,"station_name":"Lenteng Agung","line":2,"distance":1029},{"station_name":"Tanjung Barat","line":2,"transit":false,"time":3,"station_id":"TNT","is_transit":false,"i_long":106.838896,"distance":2671,"i_lat":-6.3080680000000005},{"station_name":"Pasar Minggu","i_lat":-6.2842400000000005,"i_long":106.843999,"line":2,"time":4,"is_transit":false,"distance":2820,"transit":false,"station_id":"PSM"},{"time":2,"station_name":"Pasar Minggu Baru","i_long":106.851577,"is_transit":false,"line":2,"station_id":"PSMB","distance":2380,"i_lat":-6.263214,"transit":false},{"station_id":"DRN","distance":824,"line":2,"station_name":"Duren Kalibata","i_long":106.85449,"is_transit":false,"time":2,"i_lat":-6.255332,"transit":false},{"time":3,"station_id":"CW","station_name":"Cawang","transit":false,"distance":1546,"is_transit":false,"i_long":106.856607,"i_lat":-6.242512,"line":2},{"station_id":"TEB","station_name":"Tebet","distance":1230,"transit":false,"is_transit":false,"time":2,"i_long":106.857948,"line":2,"i_lat":-6.226659},{"station_name":"Manggarai","line":2,"station_id":"MRI","i_lat":-6.209883,"is_transit":false,"time":4,"distance":2610,"i_long":106.84912,"transit":false},{"is_transit":false,"station_id":"CKI","i_long":106.840169,"transit":false,"time":4,"line":2,"station_name":"Cikini","distance":1590,"i_lat":-6.198556},{"is_transit":false,"line":2,"i_lat":-6.186295,"distance":1750,"transit":false,"station_name":"Gondangdia","time":3,"i_long":106.832183,"station_id":"GDD"},{"station_id":"JUA","time":4,"is_transit":false,"i_long":106.828284,"station_name":"Juanda","distance":2015,"line":2,"transit":false,"i_lat":-6.166716},{"i_lat":-6.160725,"station_name":"Sawah Besar","is_transit":false,"line":2,"i_long":106.827103,"time":2,"station_id":"SW","transit":false,"distance":1149},{"i_long":106.82482,"line":2,"station_name":"Manggabesar","distance":906,"is_transit":false,"transit":false,"station_id":"MGB","time":2,"i_lat":-6.149769},{"time":2,"transit":false,"station_name":"Jayakarta","is_transit":false,"distance":1080,"i_long":106.820901,"line":2,"i_lat":-6.141205,"station_id":"JAY"},{"station_id":"JAKK","distance":1264,"is_transit":true,"i_long":106.812439,"line":2,"station_name":"Jakarta Kota","i_lat":-6.137569,"time":4,"transit":true},{"distance":1364,"station_id":"KPB","station_name":"Kampung Bandan","line":4,"is_transit":true,"time":3,"i_lat":-6.132549,"i_long":106.826365,"transit":true},{"station_id":"AK","i_long":106.79867,"station_name":"Angke","transit":false,"is_transit":false,"line":1,"i_lat":-6.144674,"distance":4102,"time":9},{"distance":1230,"is_transit":false,"station_name":"Duri","station_id":"DU","transit":false,"i_lat":-6.155215,"i_long":106.800832,"time":4,"line":1},{"station_name":"Tanah Abang","is_transit":true,"station_id":"THB","transit":true,"distance":3632,"i_long":106.811091,"line":1,"time":8,"i_lat":-6.185545},{"i_lat":-6.207404,"is_transit":false,"i_long":106.79689,"time":6,"transit":false,"station_id":"PLM","station_name":"Palmerah","distance":3191,"line":6},{"line":6,"i_long":106.780334,"is_transit":false,"station_id":"KBY","station_name":"Kebayoran","time":7,"transit":false,"distance":3737,"i_lat":-6.237242},{"i_lat":-6.276362,"time":8,"i_long":106.74273,"is_transit":false,"transit":false,"station_name":"Pondokranji","distance":6218,"station_id":"PDJ","line":6},{"is_transit":false,"transit":false,"line":6,"station_name":"Jurangmangu","station_id":"JMU","time":3,"i_long":106.728916,"i_lat":-6.288927,"distance":2179},{"i_long":106.712277,"i_lat":-6.296963,"distance":1994,"station_name":"Sudimara","line":6,"time":4,"is_transit":false,"transit":false,"station_id":"SDM"},{"is_transit":false,"time":6,"station_name":"Rawa Buntu","i_lat":-6.314823,"transit":false,"station_id":"RU","line":6,"distance":4566,"i_long":106.675475},{"line":6,"station_id":"SRP","i_lat":-6.319871,"station_name":"Serpong","transit":false,"is_transit":false,"distance":2413,"i_long":106.66566,"time":4},{"station_id":"CSK","transit":false,"station_name":"Cisauk","distance":1784,"i_long":106.640411,"time":4,"is_transit":false,"i_lat":-6.32484,"line":3},{"transit":false,"i_long":106.617853,"station_name":"Cicayur","i_lat":-6.329547,"distance":2519,"station_id":"CC","time":4,"line":3,"is_transit":false},{"is_transit":false,"station_name":"Parung Panjang","i_lat":-6.3441410000000005,"transit":false,"time":8,"distance":5968,"station_id":"PRP","i_long":106.568863,"line":6},{"time":9,"line":3,"station_id":"CJT","i_lat":-6.354349,"i_long":106.508482,"is_transit":false,"distance":7025,"transit":false,"station_name":"Cilejit"}],[{"i_long":106.831474,"line":2,"time":0,"station_name":"Univ. Indonesia","is_transit":false,"distance":0,"i_lat":-6.360749,"transit":false,"station_id":"UI"},{"transit":false,"time":3,"i_long":106.834175,"is_transit":false,"i_lat":-6.339291,"station_name":"Univ. Pancasila","line":2,"station_id":"UP","distance":2264},{"line":2,"i_lat":-6.330363,"transit":false,"i_long":106.832616,"is_transit":false,"station_id":"LNA","distance":1029,"time":2,"station_name":"Lenteng Agung"},{"station_id":"TNT","i_lat":-6.3080680000000005,"is_transit":false,"line":2,"distance":2671,"station_name":"Tanjung Barat","i_long":106.838896,"time":3,"transit":false},{"i_long":106.843999,"transit":false,"station_id":"PSM","line":2,"is_transit":false,"distance":2820,"time":4,"station_name":"Pasar Minggu","i_lat":-6.2842400000000005},{"i_lat":-6.263214,"transit":false,"time":2,"is_transit":false,"i_long":106.851577,"station_name":"Pasar Minggu Baru","station_id":"PSMB","distance":2380,"line":2},{"transit":false,"i_long":106.85449,"distance":824,"line":2,"station_id":"DRN","station_name":"Duren Kalibata","time":2,"is_transit":false,"i_lat":-6.255332},{"is_transit":false,"station_name":"Cawang","station_id":"CW","i_lat":-6.242512,"i_long":106.856607,"time":3,"distance":1546,"transit":false,"line":2},{"i_lat":-6.226659,"i_long":106.857948,"is_transit":false,"station_id":"TEB","line":2,"time":2,"transit":false,"station_name":"Tebet","distance":1230},{"distance":2610,"station_id":"MRI","station_name":"Manggarai","i_lat":-6.209883,"i_long":106.84912,"time":4,"line":2,"is_transit":true,"transit":true},{"distance":1275,"i_long":106.858896,"time":2,"station_name":"Matraman","station_id":"MTR","line":1,"i_lat":-6.212485,"is_transit":false,"transit":false},{"distance":1377,"is_transit":true,"i_lat":-6.215091,"i_long":106.86807400000001,"line":1,"time":8,"station_id":"JNG","transit":true,"station_name":"Jatinegara"},{"station_id":"POK","transit":false,"time":2,"station_name":"Pondok Jati","distance":1236,"i_lat":-6.209188,"line":11,"i_long":106.861737,"is_transit":false},{"transit":false,"distance":1829,"line":11,"is_transit":false,"time":2,"station_name":"Kramat","i_lat":-6.193792,"station_id":"KMT","i_long":106.855437},{"transit":false,"station_id":"GST","i_long":106.850107,"is_transit":false,"distance":973,"line":11,"station_name":"Gang Sentiong","i_lat":-6.185975,"time":1},{"time":8,"station_id":"PSE","i_lat":-6.174784,"line":11,"is_transit":false,"distance":1567,"i_long":106.84368,"transit":false,"station_name":"Pasar Senen"},{"i_long":106.839204,"station_name":"Kemayoran","is_transit":false,"i_lat":-6.161728,"time":4,"distance":1436,"line":11,"station_id":"KMO","transit":false},{"i_lat":-6.14505,"time":5,"is_transit":false,"station_name":"Rajawali","station_id":"RJW","distance":1901,"transit":false,"i_long":106.836569,"line":11},{"time":3,"is_transit":true,"distance":1444,"i_lat":-6.132549,"i_long":106.826365,"line":4,"station_id":"KPB","transit":true,"station_name":"Kampung Bandan"},{"time":9,"distance":4102,"station_name":"Angke","line":1,"station_id":"AK","transit":false,"i_long":106.79867,"is_transit":false,"i_lat":-6.144674},{"is_transit":false,"station_name":"Duri","i_lat":-6.155215,"time":4,"station_id":"DU","distance":1230,"line":1,"transit":false,"i_long":106.800832},{"i_long":106.811091,"is_transit":true,"i_lat":-6.185545,"transit":true,"distance":3632,"time":8,"station_name":"Tanah Abang","station_id":"THB","line":1},{"i_lat":-6.207404,"is_transit":false,"station_id":"PLM","transit":false,"distance":3191,"i_long":106.79689,"time":6,"line":6,"station_name":"Palmerah"},{"distance":3737,"i_long":106.780334,"station_id":"KBY","i_lat":-6.237242,"line":6,"is_transit":false,"time":7,"transit":false,"station_name":"Kebayoran"},{"line":6,"i_long":106.74273,"station_name":"Pondokranji","i_lat":-6.276362,"station_id":"PDJ","transit":false,"is_transit":false,"distance":6218,"time":8},{"is_transit":false,"line":6,"station_id":"JMU","i_long":106.728916,"distance":2179,"time":3,"transit":false,"station_name":"Jurangmangu","i_lat":-6.288927},{"line":6,"station_id":"SDM","is_transit":false,"time":4,"i_lat":-6.296963,"transit":false,"station_name":"Sudimara","i_long":106.712277,"distance":1994},{"station_id":"RU","i_long":106.675475,"is_transit":false,"distance":4566,"line":6,"station_name":"Rawa Buntu","i_lat":-6.314823,"time":6,"transit":false},{"line":6,"distance":2413,"time":4,"is_transit":false,"transit":false,"station_name":"Serpong","station_id":"SRP","i_long":106.66566,"i_lat":-6.319871},{"station_name":"Cisauk","is_transit":false,"i_long":106.640411,"transit":false,"distance":1784,"i_lat":-6.32484,"line":3,"station_id":"CSK","time":4},{"transit":false,"i_long":106.617853,"line":3,"i_lat":-6.329547,"time":4,"station_id":"CC","station_name":"Cicayur","distance":2519,"is_transit":false},{"time":8,"station_name":"Parung Panjang","is_transit":false,"transit":false,"distance":5968,"line":6,"i_long":106.568863,"i_lat":-6.3441410000000005,"station_id":"PRP"},{"station_id":"CJT","i_long":106.508482,"line":3,"is_transit":false,"transit":false,"time":9,"station_name":"Cilejit","i_lat":-6.354349,"distance":7025}]]}