{"data":[[{"transit":false,"time":0,"station_name":"Univ. Indonesia","station_id":"UI","i_lat":-6.360749,"is_transit":false,"line":2,"i_long":106.831474,"distance":0},{"station_id":"UP","is_transit":false,"i_lat":-6.339291,"distance":2264,"i_long":106.834175,"line":2,"station_name":"Univ. Pancasila","transit":false,"time":3},{"is_transit":false,"station_id":"LNA","station_name":"Lenteng Agung","transit":false,"i_long":106.832616,"distance":1029,"i_lat":-6.330363,"time":2,"line":2},{"time":3,"is_transit":false,"i_lat":-6.3080680000000005,"i_long":106.838896,"transit":false,"line":2,"distance":2671,"station_name":"Tanjung Barat","station_id":"TNT"},{"transit":false,"is_transit":false,"i_long":106.843999,"line":2,"station_name":"Pasar Minggu","i_lat":-6.2842400000000005,"distance":2820,"time":4,"station_id":"PSM"},{"line":2,"distance":2380,"station_name":"Pasar Minggu Baru","station_id":"PSMB","i_lat":-6.263214,"i_long":106.851577,"is_transit":false,"time":2,"transit":false},{"i_lat":-6.255332,"is_transit":false,"transit":false,"station_name":"Duren Kalibata","time":2,"station_id":"DRN","i_long":106.85449,"distance":824,"line":0},{"time":3,"station_name":"Cawang","station_id":"CW","i_lat":-6.242512,"i_long":106.856607,"line":0,"distance":1546,"transit":false,"is_transit":false},{"time":2,"transit":false,"is_transit":false,"station_id":"TEB","i_lat":-6.226659,"i_long":106.857948,"line":2,"distance":1230,"station_name":"Tebet"},{"station_id":"MRI","line":0,"station_name":"Manggarai","is_transit":true,"i_long":106.84912,"distance":2610,"i_lat":-6.209883,"transit":true,"time":4},{"station_name":"Sudirman","i_long":106.822649,"transit":false,"i_lat":-6.202263,"is_transit":false,"time":4,"line":1,"station_id":"SUD","distance":3186},{"distance":280,"station_name":"Sudirman Baru","time":1,"station_id":"SUDB","transit":false,"i_long":106.819881,"line":1,"is_transit":false,"i_lat":-6.201433},{"i_long":106.816351,"distance":471,"station_name":"Karet","time":1,"transit":false,"station_id":"KAT","is_transit":false,"i_lat":-6.20132,"line":1},{"i_lat":-6.185545,"station_name":"Tanah Abang","distance":2029,"station_id":"THB","transit":true,"time":5,"line":1,"is_transit":true,"i_long":106.811091},{"line":6,"station_name":"Palmerah","is_transit":false,"transit":false,"distance":3191,"station_id":"PLM","time":6,"i_lat":-6.207404,"i_long":106.79689},{"transit":false,"i_long":106.780334,"station_id":"KBY","line":6,"is_transit":false,"station_name":"Kebayoran","time":7,"i_lat":-6.237242,"distance":3737},{"time":8,"i_long":106.74273,"line":6,"station_id":"PDJ","transit":false,"is_transit":false,"i_lat":-6.276362,"station_name":"Pondokranji","distance":6218},{"transit":false,"station_id":"JMU","is_transit":false,"time":3,"line":6,"station_name":"Jurangmangu","distance":2179,"i_lat":-6.288927,"i_long":106.728916},{"distance":1994,"line":6,"i_lat":-6.296963,"transit":false,"station_id":"SDM","i_long":106.712277,"is_transit":false,"station_name":"Sudimara","time":4},{"line":6,"transit":false,"i_lat":-6.314823,"i_long":106.675475,"distance":4566,"station_id":"RU","station_name":"Rawa Buntu","time":6,"is_transit":false},{"station_id":"SRP","line":6,"time":4,"i_long":106.66566,"distance":2413,"is_transit":false,"station_name":"Serpong","transit":false,"i_lat":-6.319871},{"station_name":"Cisauk","transit":false,"distance":1784,"time":4,"i_lat":-6.32484,"is_transit":false,"line":0,"station_id":"CSK","i_long":106.640411},{"time":4,"station_id":"CC","station_name":"Cicayur","transit":false,"i_long":106.617853,"distance":2519,"line":0,"is_transit":false,"i_lat":-6.329547},{"station_id":"PRP","transit":false,"station_name":"Parung Panjang","i_lat":-6.3441410000000005,"is_transit":false,"time":8,"distance":5968,"i_long":106.568863,"line":6},{"is_transit":false,"distance":7025,"station_id":"CJT","time":9,"transit":false,"line":0,"station_name":"Cilejit","i_lat":-6.354349,"i_long":106.508482}],[{"line":2,"station_id":"UI","distance":0,"is_transit":false,"transit":false,"time":0,"i_lat":-6.360749,"i_long":106.831474,"station_name":"Univ. Indonesia"},{"transit":false,"station_id":"UP","time":3,"is_transit":false,"station_name":"Univ. Pancasila","i_long":106.834175,"line":2,"i_lat":-6.339291,"distance":2264},{"distance":1029,"is_transit":false,"station_id":"LNA","station_name":"Lenteng Agung","i_lat":-6.330363,"transit":false,"time":2,"line":2,"i_long":106.832616},{"is_transit":false,"station_id":"TNT","station_name":"Tanjung Barat","i_lat":-6.3080680000000005,"time":3,"distance":2671,"transit":false,"line":2,"i_long":106.838896},{"station_id":"PSM","time":4,"i_long":106.843999,"distance":2820,"station_name":"Pasar Minggu","is_transit":false,"transit":false,"i_lat":-6.2842400000000005,"line":2},{"line":2,"station_name":"Pasar Minggu Baru","is_transit":false,"i_long":106.851577,"i_lat":-6.263214,"transit":false,"distance":2380,"station_id":"PSMB","time":2},{"time":2,"i_lat":-6.255332,"line":0,"station_id":"DRN","station_name":"Duren Kalibata","transit":false,"i_long":106.85449,"distance":824,"is_transit":false},{"station_name":"Cawang","i_long":106.856607,"station_id":"CW","time":3,"i_lat":-6.242512,"line":0,"distance":1546,"transit":false,"is_transit":false},{"line":2,"distance":1230,"station_id":"TEB","i_lat":-6.226659,"i_long":106.857948,"time":2,"is_transit":false,"station_name":"Tebet","transit":false},{"line":0,"station_name":"Manggarai","time":4,"i_lat":-6.209883,"i_long":106.84912,"transit":true,"station_id":"MRI","distance":2610,"is_transit":true},{"i_long":106.840169,"distance":1590,"line":0,"is_transit":false,"station_id":"CKI","time":4,"transit":false,"i_lat":-6.198556,"station_name":"Cikini"},{"distance":1750,"is_transit":false,"transit":false,"station_name":"Gondangdia","time":3,"i_long":106.832183,"station_id":"GDD","line":2,"i_lat":-6.186295},{"transit":false,"is_transit":false,"time":4,"i_lat":-6.166716,"station_name":"Juanda","distance":2015,"i_long":106.828284,"station_id":"JUA","line":2},{"i_long":106.827103,"line":2,"station_name":"Sawah Besar","time":2,"station_id":"SW","is_transit":false,"transit":false,"distance":1149,"i_lat":-6.160725},{"is_transit":false,"station_name":"Manggabesar","time":2,"line":2,"station_id":"MGB","transit":false,"i_long":106.82482,"i_lat":-6.149769,"distance":906},{"i_lat":-6.141205,"distance":1080,"station_name":"Jayakarta","line":7,"time":2,"is_transit":false,"transit":false,"i_long":106.820901,"station_id":"JAY"},{"time":4,"station_name":"Jakarta Kota","distance":1264,"is_transit":true,"transit":true,"i_lat":-6.137569,"line":0,"i_long":106.812439,"station_id":"JAKK"},{"transit":false,"time":3,"i_long":106.826365,"station_name":"Kampung Bandan","i_lat":-6.132549,"is_transit":true,"distance":1364,"line":0,"station_id":"KPB"},{"i_long":106.79867,"transit":false,"is_transit":false,"time":9,"distance":4102,"station_name":"Angke","i_lat":-6.144674,"line":0,"station_id":"AK"},{"transit":true,"i_long":106.800832,"line":1,"is_transit":true,"i_lat":-6.155215,"time":4,"station_name":"Duri","distance":1230,"station_id":"DU"},{"distance":3632,"i_lat":-6.185545,"time":8,"transit":true,"station_id":"THB","line":1,"is_transit":true,"i_long":106.811091,"station_name":"Tanah Abang"},{"i_long":106.79689,"station_name":"Palmerah","transit":false,"time":6,"distance":3191,"i_lat":-6.207404,"is_transit":false,"station_id":"PLM","line":6},{"i_long":106.780334,"line":6,"time":7,"distance":3737,"i_lat":-6.237242,"station_id":"KBY","transit":false,"is_transit":false,"station_name":"Kebayoran"},{"station_id":"PDJ","is_transit":false,"line":6,"time":8,"station_name":"Pondokranji","transit":false,"i_lat":-6.276362,"i_long":106.74273,"distance":6218},{"station_id":"JMU","station_name":"Jurangmangu","is_transit":false,"i_lat":-6.288927,"i_long":106.728916,"line":6,"transit":false,"time":3,"distance":2179},{"line":6,"i_lat":-6.296963,"transit":false,"distance":1994,"is_transit":false,"time":4,"station_id":"SDM","station_name":"Sudimara","i_long":106.712277},{"i_long":106.675475,"distance":4566,"time":6,"i_lat":-6.314823,"station_name":"Rawa Buntu","station_id":"RU","is_transit":false,"transit":false,"line":6},{"transit":false,"line":6,"distance":2413,"station_id":"SRP","station_name":"Serpong","time":4,"i_lat":-6.319871,"i_long":106.66566,"is_transit":false},{"distance":1784,"transit":false,"time":4,"station_name":"Cisauk","line":0,"i_lat":-6.32484,"station_id":"CSK","is_transit":false,"i_long":106.640411},{"is_transit":false,"i_long":106.617853,"i_lat":-6.329547,"distance":2519,"time":4,"station_id":"CC","line":0,"station_name":"Cicayur","transit":false},{"i_lat":-6.3441410000000005,"time":8,"is_transit":false,"station_name":"Parung Panjang","transit":false,"line":6,"distance":5968,"i_long":106.568863,"station_id":"PRP"},{"time":9,"distance":7025,"transit":false,"line":0,"station_name":"Cilejit","i_long":106.508482,"i_lat":-6.354349,"is_transit":false,"station_id":"CJT"}],[{"i_long":106.831474,"distance":0,"line":2,"station_name":"Univ. Indonesia","is_transit":false,"i_lat":-6.360749,"station_id":"UI","transit":false,"time":0},{"i_lat":-6.339291,"line":2,"is_transit":false,"station_id":"UP","station_name":"Univ. Pancasila","distance":2264,"transit":false,"time":3,"i_long":106.834175},{"station_name":"Lenteng Agung","transit":false,"is_transit":false,"station_id":"LNA","distance":1029,"line":2,"i_lat":-6.330363,"i_long":106.832616,"time":2},{"transit":false,"distance":2671,"station_name":"Tanjung Barat","is_transit":false,"i_long":106.838896,"station_id":"TNT","time":3,"line":2,"i_lat":-6.3080680000000005},{"station_id":"PSM","station_name":"Pasar Minggu","is_transit":false,"time":4,"i_lat":-6.2842400000000005,"distance":2820,"transit":false,"i_long":106.843999,"line":2},{"line":2,"distance":2380,"i_lat":-6.263214,"station_id":"PSMB","is_transit":false,"time":2,"i_long":106.851577,"station_name":"Pasar Minggu Baru","transit":false},{"line":0,"station_id":"DRN","station_name":"Duren Kalibata","time":2,"distance":824,"is_transit":false,"transit":false,"i_lat":-6.255332,"i_long":106.85449},{"time":3,"transit":false,"i_lat":-6.242512,"i_long":106.856607,"line":0,"distance":1546,"station_id":"CW","station_name":"Cawang","is_transit":false},{"station_id":"TEB","distance":1230,"is_transit":false,"transit":false,"time":2,"station_name":"Tebet","i_lat":-6.226659,"i_long":106.857948,"line":2},{"is_transit":true,"station_name":"Manggarai","distance":2610,"transit":true,"time":4,"station_id":"MRI","i_long":106.84912,"line":0,"i_lat":-6.209883},{"line":1,"i_long":106.858896,"is_transit":false,"station_name":"Matraman","transit":false,"distance":1275,"time":2,"i_lat":-6.212485,"station_id":"MTR"},{"station_name":"Jatinegara","station_id":"JNG","line":0,"i_lat":-6.215091,"time":8,"distance":1377,"is_transit":true,"transit":true,"i_long":106.86807400000001},{"distance":1236,"station_id":"POK","i_lat":-6.209188,"line":11,"station_name":"Pondok Jati","is_transit":false,"transit":false,"time":2,"i_long":106.861737},{"i_long":106.855437,"line":11,"distance":1829,"station_name":"Kramat","i_lat":-6.193792,"station_id":"KMT","is_transit":false,"transit":false,"time":2},{"time":1,"i_lat":-6.185975,"i_long":106.850107,"station_name":"Gang Sentiong","station_id":"GST","line":11,"transit":false,"distance":973,"is_transit":false},{"i_lat":-6.174784,"line":11,"is_transit":false,"i_long":106.84368,"distance":1567,"station_name":"Pasar Senen","transit":false,"time":8,"station_id":"PSE"},{"transit":false,"station_name":"Kemayoran","station_id":"KMO","distance":1436,"line":11,"is_transit":false,"time":4,"i_lat":-6.161728,"i_long":106.839204},{"distance":1901,"i_lat":-6.14505,"station_id":"RJW","is_transit":false,"time":5,"i_long":106.836569,"transit":false,"station_name":"Rajawali","line":11},{"time":3,"i_lat":-6.132549,"distance":1444,"station_name":"Kampung Bandan","i_long":106.826365,"is_transit":true,"station_id":"KPB","line":0,"transit":true},{"is_transit":false,"i_lat":-6.144674,"station_id":"AK","station_name":"Angke","time":9,"distance":4102,"transit":false,"i_long":106.79867,"line":0},{"station_name":"Duri","time":4,"i_long":106.800832,"line":1,"i_lat":-6.155215,"transit":true,"distance":1230,"station_id":"DU","is_transit":true},{"time":8,"is_transit":true,"station_name":"Tanah Abang","i_lat":-6.185545,"transit":true,"line":1,"station_id":"THB","distance":3632,"i_long":106.811091},{"station_id":"PLM","transit":false,"i_lat":-6.207404,"is_transit":false,"station_name":"Palmerah","time":6,"line":6,"i_long":106.79689,"distance":3191},{"station_name":"Kebayoran","transit":false,"station_id":"KBY","time":7,"distance":3737,"is_transit":false,"i_lat":-6.237242,"i_long":106.780334,"line":6},{"is_transit":false,"i_lat":-6.276362,"i_long":106.74273,"time":8,"station_id":"PDJ","station_name":"Pondokranji","line":6,"distance":6218,"transit":false},{"is_transit":false,"transit":false,"distance":2179,"station_id":"JMU","time":3,"i_long":106.728916,"station_name":"Jurangmangu","line":6,"i_lat":-6.288927},{"time":4,"i_long":106.712277,"station_id":"SDM","i_lat":-6.296963,"line":6,"transit":false,"distance":1994,"is_transit":false,"station_name":"Sudimara"},{"is_transit":false,"time":6,"i_lat":-6.314823,"distance":4566,"i_long":106.675475,"station_id":"RU","transit":false,"line":6,"station_name":"Rawa Buntu"},{"line":6,"i_long":106.66566,"station_id":"SRP","station_name":"Serpong","distance":2413,"is_transit":false,"time":4,"transit":false,"i_lat":-6.319871},{"distance":1784,"time":4,"i_long":106.640411,"is_transit":false,"i_lat":-6.32484,"line":0,"station_name":"Cisauk","station_id":"CSK","transit":false},{"is_transit":false,"i_long":106.617853,"distance":2519,"time":4,"line":0,"station_name":"Cicayur","station_id":"CC","transit":false,"i_lat":-6.329547},{"is_transit":false,"station_id":"PRP","i_long":106.568863,"i_lat":-6.3441410000000005,"transit":false,"distance":5968,"station_name":"Parung Panjang","line":6,"time":8},{"distance":7025,"is_transit":false,"station_id":"CJT","time":9,"i_lat":-6.354349,"line":0,"i_long":106.508482,"transit":false,"station_name":"Cilejit"}]]}