{"data":[[{"i_long":106.831474,"is_transit":false,"station_name":"Univ. Indonesia","i_lat":-6.360749,"time":0,"line":2,"station_id":"UI","transit":false,"distance":0},{"distance":2264,"station_name":"Univ. Pancasila","i_lat":-6.339291,"line":2,"transit":false,"is_transit":false,"time":3,"station_id":"UP","i_long":106.834175},{"time":2,"station_id":"LNA","line":2,"transit":false,"station_name":"Lenteng Agung","i_long":106.832616,"is_transit":false,"distance":1029,"i_lat":-6.330363},{"i_lat":-6.3080680000000005,"transit":false,"station_id":"TNT","distance":2671,"i_long":106.838896,"line":2,"time":3,"station_name":"Tanjung Barat","is_transit":false},{"station_name":"Pasar Minggu","i_lat":-6.2842400000000005,"line":2,"i_long":106.843999,"station_id":"PSM","time":4,"distance":2820,"transit":false,"is_transit":false},{"transit":false,"station_name":"Pasar Minggu Baru","is_transit":false,"station_id":"PSMB","time":2,"i_lat":-6.263214,"i_long":106.851577,"distance":2380,"line":2},{"station_name":"Duren Kalibata","transit":false,"time":2,"station_id":"DRN","is_transit":false,"distance":824,"i_lat":-6.255332,"i_long":106.85449,"line":0},{"station_name":"Cawang","i_long":106.856607,"distance":1546,"station_id":"CW","line":0,"is_transit":false,"transit":false,"time":3,"i_lat":-6.242512},{"station_name":"Tebet","distance":1230,"line":2,"station_id":"TEB","is_transit":false,"i_long":106.857948,"time":2,"transit":false,"i_lat":-6.226659},{"i_long":106.84912,"time":4,"transit":true,"i_lat":-6.209883,"is_transit":true,"station_id":"MRI","distance":2610,"station_name":"Manggarai","line":0},{"is_transit":false,"i_lat":-6.202263,"distance":3186,"time":4,"station_name":"Sudirman","i_long":106.822649,"transit":false,"station_id":"SUD","line":1},{"time":1,"station_name":"Sudirman Baru","distance":280,"i_lat":-6.201433,"station_id":"SUDB","i_long":106.819881,"line":1,"is_transit":false,"transit":false},{"distance":471,"line":1,"station_id":"KAT","i_long":106.816351,"station_name":"Karet","time":1,"is_transit":false,"transit":false,"i_lat":-6.20132},{"station_name":"Tanah Abang","transit":true,"time":5,"is_transit":true,"i_lat":-6.185545,"i_long":106.811091,"line":1,"distance":2029,"station_id":"THB"},{"is_transit":false,"distance":3191,"time":6,"line":6,"station_id":"PLM","station_name":"Palmerah","i_lat":-6.207404,"transit":false,"i_long":106.79689},{"line":6,"transit":false,"i_lat":-6.237242,"i_long":106.780334,"is_transit":false,"distance":3737,"time":7,"station_name":"Kebayoran","station_id":"KBY"},{"i_lat":-6.276362,"station_name":"Pondokranji","transit":false,"line":6,"distance":6218,"i_long":106.74273,"station_id":"PDJ","is_transit":false,"time":8},{"is_transit":false,"station_id":"JMU","transit":false,"i_lat":-6.288927,"i_long":106.728916,"station_name":"Jurangmangu","distance":2179,"time":3,"line":6},{"transit":false,"i_lat":-6.296963,"distance":1994,"station_name":"Sudimara","time":4,"station_id":"SDM","line":6,"i_long":106.712277,"is_transit":false},{"station_name":"Rawa Buntu","i_long":106.675475,"is_transit":false,"line":6,"time":6,"i_lat":-6.314823,"distance":4566,"transit":false,"station_id":"RU"},{"i_lat":-6.319871,"distance":2413,"station_name":"Serpong","time":4,"i_long":106.66566,"is_transit":false,"line":6,"transit":false,"station_id":"SRP"},{"transit":false,"i_lat":-6.32484,"line":0,"is_transit":false,"time":4,"station_name":"Cisauk","station_id":"CSK","distance":1784,"i_long":106.640411},{"i_lat":-6.329547,"station_id":"CC","time":4,"transit":false,"station_name":"Cicayur","distance":2519,"i_long":106.617853,"is_transit":false,"line":0},{"station_name":"Parung Panjang","station_id":"PRP","line":6,"distance":5968,"i_lat":-6.3441410000000005,"transit":false,"time":8,"i_long":106.568863,"is_transit":false},{"line":0,"transit":false,"station_name":"Cilejit","distance":7025,"i_lat":-6.354349,"i_long":106.508482,"station_id":"CJT","is_transit":false,"time":9},{"line":0,"transit":false,"station_name":"Daru","is_transit":false,"distance":2675,"i_lat":-6.338021,"i_long":106.491338,"station_id":"DAR","time":6},{"i_lat":-6.327251,"is_transit":false,"distance":3902,"transit":false,"station_name":"Tenjo","i_long":106.460812,"time":5,"station_id":"TEJ","line":6},{"i_lat":-6.328533,"i_long":106.425991,"station_name":"Tigaraksa","time":5,"is_transit":false,"transit":false,"station_id":"TGS","line":6,"distance":2974},{"transit":false,"i_lat":-6.33561,"station_name":"Cikoya","station_id":"CKY","line":0,"is_transit":false,"i_long":106.411216,"distance":2651,"time":3}],[{"distance":0,"time":0,"station_id":"UI","i_lat":-6.360749,"station_name":"Univ. Indonesia","transit":false,"is_transit":false,"i_long":106.831474,"line":2},{"i_long":106.834175,"is_transit":false,"line":2,"distance":2264,"time":3,"station_name":"Univ. Pancasila","transit":false,"station_id":"UP","i_lat":-6.339291},{"is_transit":false,"line":2,"station_name":"Lenteng Agung","i_long":106.832616,"time":2,"station_id":"LNA","distance":1029,"transit":false,"i_lat":-6.330363},{"is_transit":false,"time":3,"distance":2671,"station_id":"TNT","i_lat":-6.3080680000000005,"i_long":106.838896,"line":2,"station_name":"Tanjung Barat","transit":false},{"distance":2820,"transit":false,"line":2,"is_transit":false,"time":4,"i_lat":-6.2842400000000005,"i_long":106.843999,"station_id":"PSM","station_name":"Pasar Minggu"},{"station_name":"Pasar Minggu Baru","i_lat":-6.263214,"distance":2380,"is_transit":false,"station_id":"PSMB","i_long":106.851577,"line":2,"transit":false,"time":2},{"station_id":"DRN","time":2,"distance":824,"i_lat":-6.255332,"i_long":106.85449,"station_name":"Duren Kalibata","line":0,"is_transit":false,"transit":false},{"station_id":"CW","time":3,"distance":1546,"i_long":106.856607,"i_lat":-6.242512,"line":0,"station_name":"Cawang","transit":false,"is_transit":false},{"distance":1230,"station_id":"TEB","station_name":"Tebet","time":2,"is_transit":false,"transit":false,"i_lat":-6.226659,"i_long":106.857948,"line":2},{"i_lat":-6.209883,"station_name":"Manggarai","transit":true,"i_long":106.84912,"distance":2610,"line":0,"time":4,"is_transit":true,"station_id":"MRI"},{"transit":false,"distance":1590,"station_name":"Cikini","station_id":"CKI","i_lat":-6.198556,"i_long":106.840169,"line":0,"is_transit":false,"time":4},{"station_name":"Gondangdia","i_long":106.832183,"is_transit":false,"station_id":"GDD","i_lat":-6.186295,"distance":1750,"line":2,"time":3,"transit":false},{"station_name":"Juanda","transit":false,"line":2,"is_transit":false,"i_lat":-6.166716,"i_long":106.828284,"station_id":"JUA","time":4,"distance":2015},{"i_long":106.827103,"line":2,"station_id":"SW","i_lat":-6.160725,"distance":1149,"time":2,"is_transit":false,"transit":false,"station_name":"Sawah Besar"},{"i_long":106.82482,"is_transit":false,"station_id":"MGB","i_lat":-6.149769,"line":2,"transit":false,"distance":906,"station_name":"Manggabesar","time":2},{"i_lat":-6.141205,"time":2,"station_name":"Jayakarta","station_id":"JAY","line":7,"is_transit":false,"i_long":106.820901,"transit":false,"distance":1080},{"i_long":106.812439,"station_id":"JAKK","station_name":"Jakarta Kota","is_transit":true,"line":0,"i_lat":-6.137569,"distance":1264,"time":4,"transit":true},{"is_transit":true,"station_id":"KPB","transit":false,"distance":1364,"station_name":"Kampung Bandan","i_lat":-6.132549,"line":0,"time":3,"i_long":106.826365},{"distance":4102,"i_lat":-6.144674,"time":9,"transit":false,"is_transit":false,"station_id":"AK","i_long":106.79867,"station_name":"Angke","line":0},{"transit":true,"distance":1230,"i_long":106.800832,"is_transit":true,"station_name":"Duri","station_id":"DU","time":4,"i_lat":-6.155215,"line":1},{"i_lat":-6.185545,"transit":true,"line":1,"is_transit":true,"i_long":106.811091,"distance":3632,"station_name":"Tanah Abang","time":8,"station_id":"THB"},{"time":6,"station_id":"PLM","distance":3191,"is_transit":false,"station_name":"Palmerah","line":6,"transit":false,"i_long":106.79689,"i_lat":-6.207404},{"distance":3737,"station_name":"Kebayoran","i_long":106.780334,"line":6,"transit":false,"is_transit":false,"time":7,"station_id":"KBY","i_lat":-6.237242},{"line":6,"station_name":"Pondokranji","station_id":"PDJ","i_long":106.74273,"distance":6218,"i_lat":-6.276362,"is_transit":false,"transit":false,"time":8},{"station_id":"JMU","transit":false,"line":6,"is_transit":false,"station_name":"Jurangmangu","time":3,"distance":2179,"i_lat":-6.288927,"i_long":106.728916},{"station_id":"SDM","is_transit":false,"distance":1994,"i_long":106.712277,"time":4,"i_lat":-6.296963,"line":6,"transit":false,"station_name":"Sudimara"},{"transit":false,"time":6,"i_lat":-6.314823,"station_name":"Rawa Buntu","is_transit":false,"i_long":106.675475,"distance":4566,"station_id":"RU","line":6},{"station_id":"SRP","i_lat":-6.319871,"transit":false,"line":6,"is_transit":false,"station_name":"Serpong","i_long":106.66566,"time":4,"distance":2413},{"i_long":106.640411,"i_lat":-6.32484,"line":0,"time":4,"station_name":"Cisauk","station_id":"CSK","transit":false,"distance":1784,"is_transit":false},{"i_long":106.617853,"distance":2519,"station_id":"CC","i_lat":-6.329547,"station_name":"Cicayur","line":0,"is_transit":false,"transit":false,"time":4},{"i_lat":-6.3441410000000005,"transit":false,"line":6,"time":8,"station_id":"PRP","i_long":106.568863,"distance":5968,"station_name":"Parung Panjang","is_transit":false},{"station_name":"Cilejit","i_long":106.508482,"line":0,"time":9,"i_lat":-6.354349,"transit":false,"station_id":"CJT","is_transit":false,"distance":7025},{"is_transit":false,"i_lat":-6.338021,"line":0,"transit":false,"time":6,"i_long":106.491338,"station_name":"Daru","distance":2675,"station_id":"DAR"},{"distance":3902,"time":5,"is_transit":false,"i_lat":-6.327251,"transit":false,"i_long":106.460812,"line":6,"station_name":"Tenjo","station_id":"TEJ"},{"transit":false,"i_lat":-6.328533,"station_name":"Tigaraksa","is_transit":false,"time":5,"i_long":106.425991,"distance":2974,"station_id":"TGS","line":6},{"station_id":"CKY","i_long":106.411216,"time":3,"is_transit":false,"i_lat":-6.33561,"transit":false,"station_name":"Cikoya","line":0,"distance":2651}],[{"transit":false,"i_lat":-6.360749,"time":0,"i_long":106.831474,"station_name":"Univ. Indonesia","station_id":"UI","is_transit":false,"line":2,"distance":0},{"station_name":"Univ. Pancasila","i_lat":-6.339291,"distance":2264,"i_long":106.834175,"line":2,"is_transit":false,"transit":false,"station_id":"UP","time":3},{"line":2,"i_lat":-6.330363,"distance":1029,"i_long":106.832616,"time":2,"is_transit":false,"station_id":"LNA","transit":false,"station_name":"Lenteng Agung"},{"transit":false,"is_transit":false,"station_name":"Tanjung Barat","station_id":"TNT","line":2,"i_long":106.838896,"time":3,"distance":2671,"i_lat":-6.3080680000000005},{"distance":2820,"time":4,"transit":false,"i_long":106.843999,"line":2,"is_transit":false,"i_lat":-6.2842400000000005,"station_name":"Pasar Minggu","station_id":"PSM"},{"station_name":"Pasar Minggu Baru","line":2,"is_transit":false,"time":2,"station_id":"PSMB","i_long":106.851577,"transit":false,"distance":2380,"i_lat":-6.263214},{"station_name":"Duren Kalibata","line":0,"is_transit":false,"station_id":"DRN","time":2,"distance":824,"i_lat":-6.255332,"i_long":106.85449,"transit":false},{"i_long":106.856607,"time":3,"station_name":"Cawang","line":0,"is_transit":false,"distance":1546,"station_id":"CW","transit":false,"i_lat":-6.242512},{"i_long":106.857948,"transit":false,"station_name":"Tebet","is_transit":false,"station_id":"TEB","time":2,"i_lat":-6.226659,"distance":1230,"line":2},{"is_transit":true,"station_id":"MRI","transit":true,"distance":2610,"line":0,"station_name":"Manggarai","i_lat":-6.209883,"time":4,"i_long":106.84912},{"station_name":"Matraman","is_transit":false,"time":2,"distance":1275,"station_id":"MTR","i_long":106.858896,"line":1,"i_lat":-6.212485,"transit":false},{"i_long":106.86807400000001,"distance":1377,"line":0,"transit":true,"is_transit":true,"i_lat":-6.215091,"time":8,"station_name":"Jatinegara","station_id":"JNG"},{"distance":1236,"i_long":106.861737,"i_lat":-6.209188,"transit":false,"is_transit":false,"station_name":"Pondok Jati","time":2,"station_id":"POK","line":11},{"station_id":"KMT","is_transit":false,"station_name":"Kramat","transit":false,"time":2,"i_lat":-6.193792,"i_long":106.855437,"line":11,"distance":1829},{"distance":973,"time":1,"is_transit":false,"line":11,"station_name":"Gang Sentiong","station_id":"GST","i_lat":-6.185975,"i_long":106.850107,"transit":false},{"distance":1567,"is_transit":false,"i_lat":-6.174784,"time":8,"line":11,"station_name":"Pasar Senen","station_id":"PSE","i_long":106.84368,"transit":false},{"distance":1436,"transit":false,"is_transit":false,"i_lat":-6.161728,"time":4,"i_long":106.839204,"station_name":"Kemayoran","line":11,"station_id":"KMO"},{"time":5,"i_lat":-6.14505,"i_long":106.836569,"station_name":"Rajawali","is_transit":false,"station_id":"RJW","distance":1901,"transit":false,"line":11},{"time":3,"station_id":"KPB","line":0,"i_lat":-6.132549,"transit":true,"distance":1444,"station_name":"Kampung Bandan","i_long":106.826365,"is_transit":true},{"distance":4102,"station_id":"AK","station_name":"Angke","i_long":106.79867,"time":9,"transit":false,"is_transit":false,"line":0,"i_lat":-6.144674},{"i_long":106.800832,"transit":true,"distance":1230,"line":1,"station_name":"Duri","i_lat":-6.155215,"station_id":"DU","is_transit":true,"time":4},{"time":8,"station_id":"THB","i_lat":-6.185545,"transit":true,"station_name":"Tanah Abang","i_long":106.811091,"line":1,"is_transit":true,"distance":3632},{"time":6,"station_id":"PLM","transit":false,"is_transit":false,"station_name":"Palmerah","i_long":106.79689,"line":6,"distance":3191,"i_lat":-6.207404},{"i_long":106.780334,"transit":false,"is_transit":false,"distance":3737,"time":7,"line":6,"station_name":"Kebayoran","station_id":"KBY","i_lat":-6.237242},{"time":8,"transit":false,"distance":6218,"station_name":"Pondokranji","i_long":106.74273,"is_transit":false,"line":6,"station_id":"PDJ","i_lat":-6.276362},{"distance":2179,"station_name":"Jurangmangu","time":3,"transit":false,"i_long":106.728916,"line":6,"is_transit":false,"station_id":"JMU","i_lat":-6.288927},{"station_id":"SDM","i_long":106.712277,"station_name":"Sudimara","is_transit":false,"distance":1994,"line":6,"time":4,"transit":false,"i_lat":-6.296963},{"transit":false,"distance":4566,"i_long":106.675475,"station_name":"Rawa Buntu","i_lat":-6.314823,"time":6,"is_transit":false,"station_id":"RU","line":6},{"transit":false,"line":6,"i_long":106.66566,"i_lat":-6.319871,"is_transit":false,"distance":2413,"time":4,"station_name":"Serpong","station_id":"SRP"},{"time":4,"i_long":106.640411,"station_id":"CSK","is_transit":false,"line":0,"distance":1784,"i_lat":-6.32484,"station_name":"Cisauk","transit":false},{"line":0,"i_long":106.617853,"distance":2519,"time":4,"i_lat":-6.329547,"is_transit":false,"station_name":"Cicayur","transit":false,"station_id":"CC"},{"distance":5968,"is_transit":false,"i_long":106.568863,"time":8,"transit":false,"i_lat":-6.3441410000000005,"line":6,"station_name":"Parung Panjang","station_id":"PRP"},{"is_transit":false,"line":0,"station_name":"Cilejit","distance":7025,"i_lat":-6.354349,"time":9,"station_id":"CJT","i_long":106.508482,"transit":false},{"is_transit":false,"transit":false,"time":6,"station_name":"Daru","i_long":106.491338,"line":0,"station_id":"DAR","distance":2675,"i_lat":-6.338021},{"is_transit":false,"distance":3902,"station_id":"TEJ","i_lat":-6.327251,"transit":false,"line":6,"i_long":106.460812,"station_name":"Tenjo","time":5},{"transit":false,"line":6,"distance":2974,"time":5,"i_lat":-6.328533,"station_id":"TGS","station_name":"Tigaraksa","i_long":106.425991,"is_transit":false},{"transit":false,"distance":2651,"station_id":"CKY","is_transit":false,"time":3,"i_long":106.411216,"i_lat":-6.33561,"station_name":"Cikoya","line":0}]]}