{"data":[[{"time":0,"is_transit":false,"i_lat":-6.360749,"transit":false,"station_id":"UI","i_long":106.831474,"station_name":"Univ. Indonesia","distance":0,"line":2},{"is_transit":false,"i_long":106.834175,"station_id":"UP","station_name":"Univ. Pancasila","line":2,"i_lat":-6.339291,"distance":2264,"time":3,"transit":false},{"transit":false,"station_name":"Lenteng Agung","station_id":"LNA","i_lat":-6.330363,"i_long":106.832616,"line":2,"is_transit":false,"time":2,"distance":1029},{"i_lat":-6.3080680000000005,"distance":2671,"station_name":"Tanjung Barat","i_long":106.838896,"station_id":"TNT","is_transit":false,"time":3,"line":2,"transit":false},{"is_transit":false,"distance":2820,"transit":false,"time":4,"i_long":106.843999,"line":2,"station_name":"Pasar Minggu","i_lat":-6.2842400000000005,"station_id":"PSM"},{"line":2,"is_transit":false,"time":2,"i_lat":-6.263214,"i_long":106.851577,"transit":false,"station_name":"Pasar Minggu Baru","station_id":"PSMB","distance":2380},{"transit":false,"i_long":106.85449,"line":2,"i_lat":-6.255332,"is_transit":false,"station_name":"Duren Kalibata","station_id":"DRN","time":2,"distance":824},{"i_long":106.856607,"station_id":"CW","distance":1546,"station_name":"Cawang","i_lat":-6.242512,"time":3,"line":2,"is_transit":false,"transit":false}]]}