{"data":[[{"is_transit":false,"distance":0,"station_id":"UI","i_long":106.831474,"station_name":"Univ. Indonesia","line":2,"i_lat":-6.360749,"transit":false,"time":0},{"distance":2264,"line":2,"station_name":"Univ. Pancasila","is_transit":false,"i_long":106.834175,"transit":false,"i_lat":-6.339291,"station_id":"UP","time":3},{"i_lat":-6.330363,"line":2,"is_transit":false,"station_name":"Lenteng Agung","distance":1029,"i_long":106.832616,"station_id":"LNA","transit":false,"time":2},{"i_lat":-6.3080680000000005,"time":3,"station_id":"TNT","transit":false,"distance":2671,"i_long":106.838896,"line":2,"station_name":"Tanjung Barat","is_transit":false},{"time":4,"is_transit":false,"distance":2820,"station_name":"Pasar Minggu","transit":false,"i_long":106.843999,"line":2,"i_lat":-6.2842400000000005,"station_id":"PSM"},{"line":2,"distance":2380,"station_id":"PSMB","station_name":"Pasar Minggu Baru","i_long":106.851577,"transit":false,"time":2,"i_lat":-6.263214,"is_transit":false},{"i_long":106.85449,"line":2,"is_transit":false,"station_name":"Duren Kalibata","transit":false,"distance":824,"i_lat":-6.255332,"station_id":"DRN","time":2},{"is_transit":false,"i_long":106.856607,"time":3,"station_name":"Cawang","distance":1546,"i_lat":-6.242512,"line":2,"transit":false,"station_id":"CW"},{"line":2,"transit":false,"i_long":106.857948,"i_lat":-6.226659,"time":2,"station_name":"Tebet","is_transit":false,"station_id":"TEB","distance":1230},{"i_long":106.84912,"i_lat":-6.209883,"station_id":"MRI","distance":2610,"transit":true,"time":4,"station_name":"Manggarai","is_transit":true,"line":2},{"i_lat":-6.202263,"station_id":"SUD","transit":false,"i_long":106.822649,"time":4,"line":1,"distance":3186,"station_name":"Sudirman","is_transit":false},{"line":1,"transit":false,"station_name":"Sudirman Baru","time":1,"station_id":"SUDB","i_long":106.819881,"distance":280,"is_transit":false,"i_lat":-6.201433},{"is_transit":false,"time":1,"distance":471,"i_lat":-6.20132,"station_name":"Karet","i_long":106.816351,"line":1,"transit":false,"station_id":"KAT"},{"distance":2029,"station_name":"Tanah Abang","i_lat":-6.185545,"station_id":"THB","time":5,"is_transit":true,"transit":true,"line":1,"i_long":106.811091},{"distance":3191,"transit":false,"i_long":106.79689,"station_name":"Palmerah","is_transit":false,"line":6,"time":6,"station_id":"PLM","i_lat":-6.207404},{"is_transit":false,"distance":3737,"time":7,"station_id":"KBY","station_name":"Kebayoran","i_long":106.780334,"transit":false,"line":6,"i_lat":-6.237242},{"distance":6218,"i_lat":-6.276362,"station_name":"Pondokranji","transit":false,"line":6,"i_long":106.74273,"station_id":"PDJ","is_transit":false,"time":8},{"transit":false,"time":3,"is_transit":false,"i_long":106.728916,"distance":2179,"line":6,"station_id":"JMU","station_name":"Jurangmangu","i_lat":-6.288927},{"distance":1994,"is_transit":false,"line":6,"station_id":"SDM","time":4,"i_lat":-6.296963,"i_long":106.712277,"transit":false,"station_name":"Sudimara"},{"time":6,"i_lat":-6.314823,"station_name":"Rawa Buntu","distance":4566,"line":6,"i_long":106.675475,"station_id":"RU","is_transit":false,"transit":false},{"transit":false,"time":4,"station_name":"Serpong","station_id":"SRP","distance":2413,"i_lat":-6.319871,"is_transit":false,"line":6,"i_long":106.66566},{"station_name":"Cisauk","is_transit":false,"station_id":"CSK","distance":1784,"i_long":106.640411,"line":3,"time":4,"transit":false,"i_lat":-6.32484},{"time":4,"transit":false,"station_name":"Cicayur","i_long":106.617853,"is_transit":false,"i_lat":-6.329547,"distance":2519,"line":3,"station_id":"CC"},{"station_name":"Parung Panjang","is_transit":false,"time":8,"distance":5968,"transit":false,"station_id":"PRP","i_long":106.568863,"line":6,"i_lat":-6.3441410000000005},{"distance":7025,"line":3,"is_transit":false,"station_id":"CJT","i_long":106.508482,"i_lat":-6.354349,"time":9,"transit":false,"station_name":"Cilejit"},{"transit":false,"i_lat":-6.338021,"time":6,"station_id":"DAR","line":0,"station_name":"Daru","i_long":106.491338,"distance":2675,"is_transit":false},{"station_name":"Tenjo","station_id":"TEJ","i_lat":-6.327251,"i_long":106.460812,"line":6,"is_transit":false,"time":5,"distance":3902,"transit":false},{"is_transit":false,"i_lat":-6.328533,"i_long":106.425991,"station_name":"Tigaraksa","time":5,"station_id":"TGS","line":6,"distance":2974,"transit":false},{"is_transit":false,"station_name":"Cikoya","transit":false,"i_lat":-6.33561,"i_long":106.411216,"distance":2651,"station_id":"CKY","time":3,"line":3}],[{"is_transit":false,"station_name":"Univ. Indonesia","station_id":"UI","line":2,"i_long":106.831474,"time":0,"transit":false,"i_lat":-6.360749,"distance":0},{"is_transit":false,"time":3,"line":2,"station_name":"Univ. Pancasila","transit":false,"i_long":106.834175,"distance":2264,"station_id":"UP","i_lat":-6.339291},{"station_name":"Lenteng Agung","is_transit":false,"i_long":106.832616,"line":2,"distance":1029,"transit":false,"i_lat":-6.330363,"time":2,"station_id":"LNA"},{"station_id":"TNT","i_long":106.838896,"line":2,"time":3,"transit":false,"distance":2671,"i_lat":-6.3080680000000005,"is_transit":false,"station_name":"Tanjung Barat"},{"station_id":"PSM","distance":2820,"transit":false,"i_lat":-6.2842400000000005,"station_name":"Pasar Minggu","time":4,"is_transit":false,"line":2,"i_long":106.843999},{"line":2,"distance":2380,"time":2,"transit":false,"i_long":106.851577,"is_transit":false,"station_id":"PSMB","station_name":"Pasar Minggu Baru","i_lat":-6.263214},{"i_long":106.85449,"station_name":"Duren Kalibata","time":2,"line":2,"station_id":"DRN","distance":824,"transit":false,"is_transit":false,"i_lat":-6.255332},{"is_transit":false,"station_name":"Cawang","time":3,"transit":false,"station_id":"CW","i_lat":-6.242512,"i_long":106.856607,"distance":1546,"line":2},{"i_long":106.857948,"time":2,"station_id":"TEB","distance":1230,"station_name":"Tebet","line":2,"is_transit":false,"i_lat":-6.226659,"transit":false},{"station_name":"Manggarai","time":4,"is_transit":false,"distance":2610,"station_id":"MRI","transit":false,"i_lat":-6.209883,"i_long":106.84912,"line":2},{"distance":1590,"station_id":"CKI","i_lat":-6.198556,"i_long":106.840169,"is_transit":false,"line":2,"time":4,"transit":false,"station_name":"Cikini"},{"time":3,"is_transit":false,"distance":1750,"transit":false,"station_id":"GDD","station_name":"Gondangdia","i_long":106.832183,"i_lat":-6.186295,"line":2},{"transit":false,"station_name":"Juanda","i_long":106.828284,"station_id":"JUA","distance":2015,"is_transit":false,"i_lat":-6.166716,"time":4,"line":2},{"line":2,"transit":false,"station_id":"SW","i_lat":-6.160725,"i_long":106.827103,"is_transit":false,"station_name":"Sawah Besar","time":2,"distance":1149},{"station_id":"MGB","i_long":106.82482,"is_transit":false,"transit":false,"i_lat":-6.149769,"line":2,"distance":906,"station_name":"Manggabesar","time":2},{"distance":1080,"is_transit":false,"station_id":"JAY","i_lat":-6.141205,"time":2,"station_name":"Jayakarta","line":2,"transit":false,"i_long":106.820901},{"station_name":"Jakarta Kota","time":4,"distance":1264,"station_id":"JAKK","i_long":106.812439,"is_transit":true,"line":2,"i_lat":-6.137569,"transit":true},{"is_transit":true,"distance":1364,"station_id":"KPB","transit":true,"line":4,"station_name":"Kampung Bandan","time":3,"i_lat":-6.132549,"i_long":106.826365},{"station_name":"Angke","time":9,"transit":false,"is_transit":false,"station_id":"AK","i_lat":-6.144674,"distance":4102,"line":1,"i_long":106.79867},{"i_lat":-6.155215,"transit":false,"i_long":106.800832,"station_name":"Duri","line":1,"station_id":"DU","time":4,"distance":1230,"is_transit":false},{"transit":true,"distance":3632,"station_id":"THB","line":1,"i_long":106.811091,"i_lat":-6.185545,"is_transit":true,"time":8,"station_name":"Tanah Abang"},{"station_id":"PLM","station_name":"Palmerah","is_transit":false,"time":6,"line":6,"distance":3191,"i_lat":-6.207404,"transit":false,"i_long":106.79689},{"station_name":"Kebayoran","station_id":"KBY","transit":false,"i_lat":-6.237242,"line":6,"time":7,"distance":3737,"is_transit":false,"i_long":106.780334},{"is_transit":false,"line":6,"station_name":"Pondokranji","time":8,"station_id":"PDJ","distance":6218,"i_lat":-6.276362,"transit":false,"i_long":106.74273},{"i_lat":-6.288927,"line":6,"station_id":"JMU","time":3,"transit":false,"station_name":"Jurangmangu","distance":2179,"is_transit":false,"i_long":106.728916},{"distance":1994,"line":6,"station_name":"Sudimara","i_lat":-6.296963,"i_long":106.712277,"station_id":"SDM","is_transit":false,"time":4,"transit":false},{"transit":false,"is_transit":false,"distance":4566,"line":6,"station_name":"Rawa Buntu","time":6,"station_id":"RU","i_long":106.675475,"i_lat":-6.314823},{"transit":false,"distance":2413,"is_transit":false,"station_id":"SRP","station_name":"Serpong","i_lat":-6.319871,"i_long":106.66566,"line":6,"time":4},{"i_long":106.640411,"i_lat":-6.32484,"distance":1784,"time":4,"station_name":"Cisauk","is_transit":false,"station_id":"CSK","transit":false,"line":3},{"time":4,"i_lat":-6.329547,"line":3,"transit":false,"station_id":"CC","is_transit":false,"station_name":"Cicayur","i_long":106.617853,"distance":2519},{"distance":5968,"i_long":106.568863,"is_transit":false,"time":8,"line":6,"transit":false,"station_name":"Parung Panjang","i_lat":-6.3441410000000005,"station_id":"PRP"},{"station_name":"Cilejit","is_transit":false,"time":9,"transit":false,"distance":7025,"i_lat":-6.354349,"line":3,"station_id":"CJT","i_long":106.508482},{"station_id":"DAR","line":0,"distance":2675,"is_transit":false,"transit":false,"time":6,"i_lat":-6.338021,"station_name":"Daru","i_long":106.491338},{"station_name":"Tenjo","time":5,"is_transit":false,"distance":3902,"i_long":106.460812,"station_id":"TEJ","line":6,"i_lat":-6.327251,"transit":false},{"station_id":"TGS","time":5,"line":6,"is_transit":false,"distance":2974,"transit":false,"station_name":"Tigaraksa","i_lat":-6.328533,"i_long":106.425991},{"station_name":"Cikoya","time":3,"distance":2651,"transit":false,"i_lat":-6.33561,"is_transit":false,"i_long":106.411216,"station_id":"CKY","line":3}],[{"line":2,"i_long":106.831474,"station_name":"Univ. Indonesia","is_transit":false,"transit":false,"station_id":"UI","time":0,"distance":0,"i_lat":-6.360749},{"is_transit":false,"distance":2264,"station_name":"Univ. Pancasila","i_lat":-6.339291,"line":2,"transit":false,"time":3,"i_long":106.834175,"station_id":"UP"},{"line":2,"station_id":"LNA","distance":1029,"i_lat":-6.330363,"is_transit":false,"i_long":106.832616,"time":2,"station_name":"Lenteng Agung","transit":false},{"transit":false,"station_id":"TNT","is_transit":false,"distance":2671,"i_lat":-6.3080680000000005,"i_long":106.838896,"line":2,"time":3,"station_name":"Tanjung Barat"},{"is_transit":false,"distance":2820,"time":4,"line":2,"station_name":"Pasar Minggu","transit":false,"i_long":106.843999,"i_lat":-6.2842400000000005,"station_id":"PSM"},{"is_transit":false,"time":2,"i_lat":-6.263214,"station_name":"Pasar Minggu Baru","line":2,"i_long":106.851577,"station_id":"PSMB","transit":false,"distance":2380},{"is_transit":false,"station_id":"DRN","station_name":"Duren Kalibata","time":2,"distance":824,"i_long":106.85449,"transit":false,"line":2,"i_lat":-6.255332},{"is_transit":false,"i_lat":-6.242512,"station_name":"Cawang","i_long":106.856607,"transit":false,"time":3,"distance":1546,"station_id":"CW","line":2},{"station_id":"TEB","line":2,"transit":false,"i_long":106.857948,"is_transit":false,"distance":1230,"i_lat":-6.226659,"station_name":"Tebet","time":2},{"is_transit":true,"i_long":106.84912,"i_lat":-6.209883,"station_id":"MRI","line":2,"distance":2610,"station_name":"Manggarai","transit":true,"time":4},{"station_id":"MTR","distance":1275,"i_long":106.858896,"line":1,"station_name":"Matraman","is_transit":false,"i_lat":-6.212485,"time":2,"transit":false},{"transit":true,"i_lat":-6.215091,"is_transit":true,"time":8,"i_long":106.86807400000001,"station_id":"JNG","line":1,"distance":1377,"station_name":"Jatinegara"},{"distance":1236,"station_id":"POK","station_name":"Pondok Jati","line":11,"is_transit":false,"transit":false,"i_long":106.861737,"time":2,"i_lat":-6.209188},{"transit":false,"is_transit":false,"i_lat":-6.193792,"station_name":"Kramat","time":2,"distance":1829,"station_id":"KMT","i_long":106.855437,"line":11},{"station_name":"Gang Sentiong","distance":973,"station_id":"GST","line":11,"transit":false,"time":1,"i_lat":-6.185975,"i_long":106.850107,"is_transit":false},{"i_lat":-6.174784,"is_transit":false,"distance":1567,"i_long":106.84368,"line":11,"station_id":"PSE","time":8,"station_name":"Pasar Senen","transit":false},{"time":4,"i_lat":-6.161728,"line":11,"i_long":106.839204,"station_name":"Kemayoran","station_id":"KMO","distance":1436,"transit":false,"is_transit":false},{"is_transit":false,"station_id":"RJW","time":5,"station_name":"Rajawali","i_lat":-6.14505,"line":11,"distance":1901,"transit":false,"i_long":106.836569},{"transit":true,"time":3,"distance":1444,"i_lat":-6.132549,"i_long":106.826365,"station_name":"Kampung Bandan","station_id":"KPB","is_transit":true,"line":4},{"i_lat":-6.144674,"is_transit":false,"time":9,"distance":4102,"station_name":"Angke","i_long":106.79867,"line":1,"station_id":"AK","transit":false},{"distance":1230,"i_long":106.800832,"station_id":"DU","station_name":"Duri","transit":false,"line":1,"is_transit":false,"i_lat":-6.155215,"time":4},{"transit":true,"is_transit":true,"distance":3632,"i_lat":-6.185545,"i_long":106.811091,"time":8,"line":1,"station_name":"Tanah Abang","station_id":"THB"},{"transit":false,"distance":3191,"is_transit":false,"station_id":"PLM","time":6,"i_lat":-6.207404,"line":6,"i_long":106.79689,"station_name":"Palmerah"},{"transit":false,"i_lat":-6.237242,"line":6,"i_long":106.780334,"is_transit":false,"station_name":"Kebayoran","time":7,"station_id":"KBY","distance":3737},{"station_name":"Pondokranji","i_long":106.74273,"station_id":"PDJ","is_transit":false,"time":8,"transit":false,"distance":6218,"i_lat":-6.276362,"line":6},{"is_transit":false,"transit":false,"station_name":"Jurangmangu","i_lat":-6.288927,"line":6,"time":3,"distance":2179,"station_id":"JMU","i_long":106.728916},{"i_long":106.712277,"line":6,"station_id":"SDM","time":4,"distance":1994,"i_lat":-6.296963,"is_transit":false,"station_name":"Sudimara","transit":false},{"is_transit":false,"i_long":106.675475,"transit":false,"line":6,"station_id":"RU","station_name":"Rawa Buntu","time":6,"i_lat":-6.314823,"distance":4566},{"transit":false,"line":6,"is_transit":false,"station_id":"SRP","i_long":106.66566,"distance":2413,"station_name":"Serpong","time":4,"i_lat":-6.319871},{"i_long":106.640411,"i_lat":-6.32484,"station_name":"Cisauk","transit":false,"line":3,"distance":1784,"is_transit":false,"time":4,"station_id":"CSK"},{"time":4,"i_lat":-6.329547,"transit":false,"is_transit":false,"station_id":"CC","line":3,"station_name":"Cicayur","i_long":106.617853,"distance":2519},{"station_id":"PRP","i_long":106.568863,"transit":false,"is_transit":false,"line":6,"station_name":"Parung Panjang","distance":5968,"time":8,"i_lat":-6.3441410000000005},{"distance":7025,"time":9,"is_transit":false,"station_name":"Cilejit","i_long":106.508482,"line":3,"station_id":"CJT","i_lat":-6.354349,"transit":false},{"station_id":"DAR","is_transit":false,"time":6,"transit":false,"i_lat":-6.338021,"i_long":106.491338,"line":0,"distance":2675,"station_name":"Daru"},{"i_long":106.460812,"station_name":"Tenjo","transit":false,"time":5,"line":6,"is_transit":false,"i_lat":-6.327251,"distance":3902,"station_id":"TEJ"},{"i_long":106.425991,"line":6,"distance":2974,"is_transit":false,"station_id":"TGS","i_lat":-6.328533,"station_name":"Tigaraksa","time":5,"transit":false},{"is_transit":false,"station_id":"CKY","time":3,"distance":2651,"i_long":106.411216,"station_name":"Cikoya","line":3,"transit":false,"i_lat":-6.33561}]]}