{"data":[[{"is_transit":false,"time":0,"distance":0,"transit":false,"station_name":"Univ. Indonesia","i_lat":-6.360749,"station_id":"UI","i_long":106.831474,"line":2},{"line":2,"distance":1109,"is_transit":false,"station_name":"Pondok Cina","i_lat":-6.369073,"transit":false,"i_long":106.831114,"time":2,"station_id":"POC"},{"is_transit":false,"i_lat":-6.391065,"station_id":"DPB","line":2,"transit":false,"i_long":106.819451,"station_name":"Depokbaru","distance":2727,"time":4},{"i_long":106.816926,"line":2,"transit":false,"station_name":"Depok","station_id":"DP","is_transit":false,"distance":1584,"time":3,"i_lat":-6.405256},{"distance":5084,"is_transit":false,"i_lat":-6.448811,"station_id":"CTA","station_name":"Citayam","i_long":106.800298,"time":6,"line":2,"transit":false}]]}