{"data":[[{"i_lat":-6.360749,"distance":0,"transit":false,"station_name":"Univ. Indonesia","time":0,"station_id":"UI","is_transit":false,"i_long":106.831474,"line":2},{"station_id":"POC","line":2,"station_name":"Pondok Cina","transit":false,"i_long":106.831114,"i_lat":-6.369073,"is_transit":false,"time":2,"distance":1109},{"is_transit":false,"distance":2727,"line":2,"time":4,"i_long":106.819451,"transit":false,"station_id":"DPB","station_name":"Depokbaru","i_lat":-6.391065},{"line":2,"is_transit":false,"station_name":"Depok","station_id":"DP","i_lat":-6.405256,"i_long":106.816926,"distance":1584,"transit":false,"time":3},{"is_transit":false,"station_name":"Citayam","station_id":"CTA","i_long":106.800298,"distance":5084,"i_lat":-6.448811,"line":2,"time":6,"transit":false}]]}