{"data":[[{"is_transit":false,"line":2,"i_long":106.831474,"i_lat":-6.360749,"station_name":"Univ. Indonesia","distance":0,"station_id":"UI","transit":false,"time":0},{"distance":2264,"i_long":106.834175,"is_transit":false,"station_name":"Univ. Pancasila","time":3,"transit":false,"station_id":"UP","i_lat":-6.339291,"line":2},{"station_name":"Lenteng Agung","i_long":106.832616,"transit":false,"line":2,"distance":1029,"is_transit":false,"station_id":"LNA","i_lat":-6.330363,"time":2},{"station_name":"Tanjung Barat","is_transit":false,"time":3,"i_lat":-6.3080680000000005,"distance":2671,"line":2,"transit":false,"station_id":"TNT","i_long":106.838896},{"station_name":"Pasar Minggu","i_long":106.843999,"is_transit":false,"distance":2820,"transit":false,"time":4,"i_lat":-6.2842400000000005,"station_id":"PSM","line":2},{"distance":2380,"station_name":"Pasar Minggu Baru","i_long":106.851577,"time":2,"i_lat":-6.263214,"station_id":"PSMB","line":2,"transit":false,"is_transit":false},{"distance":824,"station_name":"Duren Kalibata","is_transit":false,"station_id":"DRN","i_long":106.85449,"transit":false,"line":2,"i_lat":-6.255332,"time":2},{"station_id":"CW","station_name":"Cawang","transit":false,"is_transit":false,"time":3,"i_long":106.856607,"line":2,"distance":1546,"i_lat":-6.242512},{"time":2,"transit":false,"i_lat":-6.226659,"distance":1230,"station_id":"TEB","is_transit":false,"i_long":106.857948,"line":2,"station_name":"Tebet"},{"i_long":106.84912,"is_transit":true,"i_lat":-6.209883,"transit":true,"station_name":"Manggarai","distance":2610,"line":2,"station_id":"MRI","time":4},{"i_long":106.822649,"distance":3186,"line":1,"time":4,"station_name":"Sudirman","station_id":"SUD","is_transit":false,"i_lat":-6.202263,"transit":false},{"time":1,"station_name":"Sudirman Baru","i_lat":-6.201433,"i_long":106.819881,"line":1,"distance":280,"transit":false,"station_id":"SUDB","is_transit":false},{"station_id":"KAT","station_name":"Karet","i_lat":-6.20132,"distance":471,"i_long":106.816351,"line":1,"time":1,"transit":false,"is_transit":false},{"i_lat":-6.185545,"line":1,"station_name":"Tanah Abang","time":5,"distance":2029,"station_id":"THB","transit":true,"is_transit":true,"i_long":106.811091},{"station_name":"Palmerah","transit":false,"i_lat":-6.207404,"i_long":106.79689,"station_id":"PLM","distance":3191,"line":6,"is_transit":false,"time":6},{"i_long":106.780334,"station_id":"KBY","is_transit":false,"i_lat":-6.237242,"line":6,"time":7,"distance":3737,"station_name":"Kebayoran","transit":false},{"i_lat":-6.276362,"distance":6218,"transit":false,"station_name":"Pondokranji","i_long":106.74273,"station_id":"PDJ","time":8,"is_transit":false,"line":6},{"time":3,"station_id":"JMU","distance":2179,"line":6,"i_long":106.728916,"transit":false,"i_lat":-6.288927,"station_name":"Jurangmangu","is_transit":false},{"line":6,"station_name":"Sudimara","distance":1994,"i_long":106.712277,"is_transit":false,"time":4,"station_id":"SDM","transit":false,"i_lat":-6.296963},{"transit":false,"i_long":106.675475,"is_transit":false,"time":6,"station_id":"RU","i_lat":-6.314823,"line":6,"station_name":"Rawa Buntu","distance":4566},{"transit":false,"is_transit":false,"distance":2413,"station_id":"SRP","i_long":106.66566,"station_name":"Serpong","time":4,"line":6,"i_lat":-6.319871},{"transit":false,"time":4,"i_lat":-6.32484,"station_name":"Cisauk","i_long":106.640411,"line":3,"station_id":"CSK","is_transit":false,"distance":1784},{"station_id":"CC","time":4,"is_transit":false,"i_long":106.617853,"station_name":"Cicayur","distance":2519,"i_lat":-6.329547,"transit":false,"line":3},{"station_name":"Parung Panjang","station_id":"PRP","is_transit":false,"time":8,"distance":5968,"i_lat":-6.3441410000000005,"i_long":106.568863,"transit":false,"line":6},{"time":9,"i_lat":-6.354349,"station_id":"CJT","is_transit":false,"transit":false,"station_name":"Cilejit","i_long":106.508482,"line":3,"distance":7025}],[{"time":0,"line":2,"i_lat":-6.360749,"station_name":"Univ. Indonesia","is_transit":false,"i_long":106.831474,"transit":false,"distance":0,"station_id":"UI"},{"i_long":106.834175,"station_id":"UP","distance":2264,"is_transit":false,"time":3,"transit":false,"i_lat":-6.339291,"line":2,"station_name":"Univ. Pancasila"},{"line":2,"transit":false,"station_id":"LNA","i_lat":-6.330363,"time":2,"is_transit":false,"i_long":106.832616,"distance":1029,"station_name":"Lenteng Agung"},{"station_id":"TNT","time":3,"i_long":106.838896,"station_name":"Tanjung Barat","distance":2671,"i_lat":-6.3080680000000005,"line":2,"transit":false,"is_transit":false},{"is_transit":false,"i_long":106.843999,"distance":2820,"transit":false,"i_lat":-6.2842400000000005,"time":4,"station_name":"Pasar Minggu","line":2,"station_id":"PSM"},{"i_lat":-6.263214,"i_long":106.851577,"station_name":"Pasar Minggu Baru","is_transit":false,"station_id":"PSMB","time":2,"transit":false,"distance":2380,"line":2},{"transit":false,"station_id":"DRN","station_name":"Duren Kalibata","time":2,"i_lat":-6.255332,"distance":824,"is_transit":false,"line":2,"i_long":106.85449},{"is_transit":false,"distance":1546,"station_id":"CW","transit":false,"line":2,"time":3,"i_long":106.856607,"station_name":"Cawang","i_lat":-6.242512},{"station_name":"Tebet","station_id":"TEB","is_transit":false,"distance":1230,"i_lat":-6.226659,"time":2,"line":2,"transit":false,"i_long":106.857948},{"time":4,"line":2,"distance":2610,"i_long":106.84912,"i_lat":-6.209883,"transit":false,"station_name":"Manggarai","is_transit":false,"station_id":"MRI"},{"line":2,"station_id":"CKI","distance":1590,"i_lat":-6.198556,"transit":false,"i_long":106.840169,"time":4,"station_name":"Cikini","is_transit":false},{"i_lat":-6.186295,"time":3,"is_transit":false,"station_id":"GDD","distance":1750,"i_long":106.832183,"transit":false,"station_name":"Gondangdia","line":2},{"i_lat":-6.166716,"station_id":"JUA","transit":false,"station_name":"Juanda","i_long":106.828284,"time":4,"distance":2015,"is_transit":false,"line":2},{"station_id":"SW","line":2,"is_transit":false,"transit":false,"distance":1149,"station_name":"Sawah Besar","time":2,"i_lat":-6.160725,"i_long":106.827103},{"transit":false,"distance":906,"line":2,"station_id":"MGB","station_name":"Manggabesar","is_transit":false,"time":2,"i_long":106.82482,"i_lat":-6.149769},{"time":2,"distance":1080,"i_long":106.820901,"transit":false,"station_name":"Jayakarta","station_id":"JAY","is_transit":false,"line":2,"i_lat":-6.141205},{"is_transit":true,"distance":1264,"transit":true,"line":2,"i_long":106.812439,"time":4,"station_name":"Jakarta Kota","i_lat":-6.137569,"station_id":"JAKK"},{"station_name":"Kampung Bandan","i_long":106.826365,"transit":true,"time":3,"distance":1364,"i_lat":-6.132549,"line":4,"is_transit":true,"station_id":"KPB"},{"is_transit":false,"station_id":"AK","i_lat":-6.144674,"i_long":106.79867,"line":1,"station_name":"Angke","transit":false,"time":9,"distance":4102},{"is_transit":false,"station_id":"DU","transit":false,"distance":1230,"line":1,"time":4,"station_name":"Duri","i_lat":-6.155215,"i_long":106.800832},{"distance":3632,"i_lat":-6.185545,"i_long":106.811091,"is_transit":true,"station_name":"Tanah Abang","time":8,"transit":true,"line":1,"station_id":"THB"},{"time":6,"distance":3191,"i_lat":-6.207404,"station_name":"Palmerah","is_transit":false,"line":6,"transit":false,"station_id":"PLM","i_long":106.79689},{"is_transit":false,"i_lat":-6.237242,"time":7,"transit":false,"station_name":"Kebayoran","line":6,"distance":3737,"i_long":106.780334,"station_id":"KBY"},{"distance":6218,"i_lat":-6.276362,"transit":false,"time":8,"i_long":106.74273,"station_id":"PDJ","is_transit":false,"line":6,"station_name":"Pondokranji"},{"station_name":"Jurangmangu","line":6,"station_id":"JMU","transit":false,"time":3,"distance":2179,"is_transit":false,"i_long":106.728916,"i_lat":-6.288927},{"is_transit":false,"station_id":"SDM","time":4,"station_name":"Sudimara","distance":1994,"transit":false,"i_lat":-6.296963,"line":6,"i_long":106.712277},{"is_transit":false,"transit":false,"distance":4566,"station_id":"RU","i_long":106.675475,"i_lat":-6.314823,"line":6,"station_name":"Rawa Buntu","time":6},{"transit":false,"time":4,"i_lat":-6.319871,"station_id":"SRP","station_name":"Serpong","i_long":106.66566,"line":6,"is_transit":false,"distance":2413},{"i_long":106.640411,"station_id":"CSK","time":4,"station_name":"Cisauk","i_lat":-6.32484,"transit":false,"is_transit":false,"distance":1784,"line":3},{"station_name":"Cicayur","is_transit":false,"line":3,"distance":2519,"i_lat":-6.329547,"transit":false,"station_id":"CC","i_long":106.617853,"time":4},{"station_id":"PRP","station_name":"Parung Panjang","line":6,"transit":false,"time":8,"distance":5968,"i_long":106.568863,"is_transit":false,"i_lat":-6.3441410000000005},{"time":9,"distance":7025,"station_name":"Cilejit","station_id":"CJT","is_transit":false,"i_lat":-6.354349,"i_long":106.508482,"transit":false,"line":3}],[{"distance":0,"transit":false,"i_lat":-6.360749,"is_transit":false,"i_long":106.831474,"line":2,"station_name":"Univ. Indonesia","time":0,"station_id":"UI"},{"station_name":"Univ. Pancasila","distance":2264,"i_lat":-6.339291,"station_id":"UP","transit":false,"i_long":106.834175,"line":2,"is_transit":false,"time":3},{"i_long":106.832616,"station_name":"Lenteng Agung","i_lat":-6.330363,"station_id":"LNA","transit":false,"is_transit":false,"distance":1029,"line":2,"time":2},{"time":3,"is_transit":false,"transit":false,"station_id":"TNT","distance":2671,"i_long":106.838896,"line":2,"i_lat":-6.3080680000000005,"station_name":"Tanjung Barat"},{"line":2,"i_long":106.843999,"transit":false,"station_id":"PSM","is_transit":false,"station_name":"Pasar Minggu","time":4,"distance":2820,"i_lat":-6.2842400000000005},{"distance":2380,"station_id":"PSMB","i_long":106.851577,"time":2,"station_name":"Pasar Minggu Baru","is_transit":false,"i_lat":-6.263214,"transit":false,"line":2},{"distance":824,"transit":false,"time":2,"is_transit":false,"i_lat":-6.255332,"i_long":106.85449,"line":2,"station_id":"DRN","station_name":"Duren Kalibata"},{"distance":1546,"line":2,"station_name":"Cawang","station_id":"CW","time":3,"is_transit":false,"i_lat":-6.242512,"i_long":106.856607,"transit":false},{"station_id":"TEB","distance":1230,"is_transit":false,"line":2,"station_name":"Tebet","transit":false,"i_long":106.857948,"time":2,"i_lat":-6.226659},{"line":2,"station_id":"MRI","time":4,"i_lat":-6.209883,"station_name":"Manggarai","is_transit":true,"transit":true,"distance":2610,"i_long":106.84912},{"i_lat":-6.212485,"station_name":"Matraman","is_transit":false,"time":2,"transit":false,"distance":1275,"i_long":106.858896,"station_id":"MTR","line":1},{"transit":true,"time":8,"station_id":"JNG","i_long":106.86807400000001,"distance":1377,"line":1,"station_name":"Jatinegara","is_transit":true,"i_lat":-6.215091},{"is_transit":false,"i_lat":-6.209188,"line":11,"station_name":"Pondok Jati","time":2,"i_long":106.861737,"transit":false,"distance":1236,"station_id":"POK"},{"transit":false,"i_lat":-6.193792,"distance":1829,"station_id":"KMT","time":2,"is_transit":false,"station_name":"Kramat","i_long":106.855437,"line":11},{"i_long":106.850107,"station_id":"GST","station_name":"Gang Sentiong","time":1,"line":11,"i_lat":-6.185975,"transit":false,"is_transit":false,"distance":973},{"distance":1567,"station_id":"PSE","is_transit":false,"i_long":106.84368,"time":8,"transit":false,"station_name":"Pasar Senen","line":11,"i_lat":-6.174784},{"is_transit":false,"station_name":"Kemayoran","transit":false,"distance":1436,"i_lat":-6.161728,"station_id":"KMO","time":4,"i_long":106.839204,"line":11},{"station_id":"RJW","is_transit":false,"transit":false,"distance":1901,"i_lat":-6.14505,"time":5,"station_name":"Rajawali","i_long":106.836569,"line":11},{"line":4,"station_id":"KPB","is_transit":true,"station_name":"Kampung Bandan","distance":1444,"i_lat":-6.132549,"i_long":106.826365,"transit":true,"time":3},{"time":9,"is_transit":false,"i_lat":-6.144674,"station_id":"AK","station_name":"Angke","distance":4102,"transit":false,"i_long":106.79867,"line":1},{"i_long":106.800832,"transit":false,"station_name":"Duri","is_transit":false,"time":4,"i_lat":-6.155215,"distance":1230,"station_id":"DU","line":1},{"transit":true,"is_transit":true,"station_name":"Tanah Abang","i_lat":-6.185545,"i_long":106.811091,"distance":3632,"station_id":"THB","time":8,"line":1},{"line":6,"station_id":"PLM","time":6,"transit":false,"i_long":106.79689,"station_name":"Palmerah","is_transit":false,"i_lat":-6.207404,"distance":3191},{"line":6,"distance":3737,"i_long":106.780334,"transit":false,"station_name":"Kebayoran","is_transit":false,"i_lat":-6.237242,"time":7,"station_id":"KBY"},{"distance":6218,"station_id":"PDJ","i_lat":-6.276362,"line":6,"time":8,"transit":false,"station_name":"Pondokranji","i_long":106.74273,"is_transit":false},{"station_name":"Jurangmangu","i_long":106.728916,"time":3,"is_transit":false,"distance":2179,"station_id":"JMU","line":6,"transit":false,"i_lat":-6.288927},{"distance":1994,"transit":false,"i_long":106.712277,"time":4,"station_id":"SDM","i_lat":-6.296963,"is_transit":false,"station_name":"Sudimara","line":6},{"distance":4566,"i_lat":-6.314823,"transit":false,"station_name":"Rawa Buntu","i_long":106.675475,"line":6,"is_transit":false,"time":6,"station_id":"RU"},{"is_transit":false,"station_name":"Serpong","i_lat":-6.319871,"transit":false,"distance":2413,"time":4,"i_long":106.66566,"line":6,"station_id":"SRP"},{"station_id":"CSK","station_name":"Cisauk","time":4,"is_transit":false,"line":3,"i_lat":-6.32484,"i_long":106.640411,"distance":1784,"transit":false},{"i_lat":-6.329547,"i_long":106.617853,"distance":2519,"line":3,"station_name":"Cicayur","time":4,"station_id":"CC","is_transit":false,"transit":false},{"time":8,"station_name":"Parung Panjang","i_lat":-6.3441410000000005,"line":6,"distance":5968,"is_transit":false,"station_id":"PRP","transit":false,"i_long":106.568863},{"time":9,"station_name":"Cilejit","i_lat":-6.354349,"transit":false,"i_long":106.508482,"distance":7025,"line":3,"station_id":"CJT","is_transit":false}]]}