{"data":[[{"i_long":106.831474,"is_transit":false,"transit":false,"station_name":"Univ. Indonesia","time":0,"station_id":"UI","i_lat":-6.360749,"distance":0,"line":2},{"is_transit":false,"time":3,"line":2,"station_id":"UP","distance":2264,"i_lat":-6.339291,"station_name":"Univ. Pancasila","i_long":106.834175,"transit":false},{"line":2,"is_transit":false,"transit":false,"time":2,"station_id":"LNA","station_name":"Lenteng Agung","distance":1029,"i_lat":-6.330363,"i_long":106.832616},{"time":3,"i_lat":-6.3080680000000005,"station_id":"TNT","i_long":106.838896,"distance":2671,"line":2,"transit":false,"station_name":"Tanjung Barat","is_transit":false},{"line":2,"distance":2820,"is_transit":false,"i_lat":-6.2842400000000005,"station_name":"Pasar Minggu","time":4,"transit":false,"i_long":106.843999,"station_id":"PSM"},{"station_id":"PSMB","is_transit":false,"i_long":106.851577,"line":2,"time":2,"transit":false,"i_lat":-6.263214,"distance":2380,"station_name":"Pasar Minggu Baru"},{"time":2,"transit":false,"i_long":106.85449,"is_transit":false,"distance":824,"station_name":"Duren Kalibata","i_lat":-6.255332,"line":2,"station_id":"DRN"},{"is_transit":false,"time":3,"distance":1546,"station_name":"Cawang","i_lat":-6.242512,"i_long":106.856607,"line":2,"transit":false,"station_id":"CW"}]]}