{"data":[[{"is_transit":false,"station_name":"Univ. Indonesia","distance":0,"i_lat":-6.360749,"station_id":"UI","i_long":106.831474,"line":2,"transit":false,"time":0},{"i_long":106.834175,"station_id":"UP","station_name":"Univ. Pancasila","time":3,"transit":false,"distance":2264,"is_transit":false,"line":2,"i_lat":-6.339291},{"line":2,"i_lat":-6.330363,"station_name":"Lenteng Agung","distance":1029,"is_transit":false,"i_long":106.832616,"station_id":"LNA","transit":false,"time":2},{"station_id":"TNT","time":3,"station_name":"Tanjung Barat","distance":2671,"transit":false,"i_lat":-6.3080680000000005,"line":2,"i_long":106.838896,"is_transit":false},{"distance":2820,"station_name":"Pasar Minggu","i_lat":-6.2842400000000005,"time":4,"is_transit":false,"transit":false,"i_long":106.843999,"line":2,"station_id":"PSM"},{"is_transit":false,"station_name":"Pasar Minggu Baru","line":2,"i_lat":-6.263214,"i_long":106.851577,"distance":2380,"time":2,"transit":false,"station_id":"PSMB"},{"station_id":"DRN","time":2,"transit":false,"distance":824,"is_transit":false,"station_name":"Duren Kalibata","line":2,"i_lat":-6.255332,"i_long":106.85449},{"station_id":"CW","i_long":106.856607,"time":3,"transit":false,"i_lat":-6.242512,"line":2,"distance":1546,"is_transit":false,"station_name":"Cawang"}]]}