{"data":[[{"transit":false,"station_id":"UI","distance":0,"line":2,"i_lat":-6.360749,"is_transit":false,"time":0,"station_name":"Univ. Indonesia","i_long":106.831474},{"station_id":"UP","i_lat":-6.339291,"distance":2264,"is_transit":false,"time":3,"station_name":"Univ. Pancasila","line":2,"transit":false,"i_long":106.834175},{"distance":1029,"transit":false,"time":2,"is_transit":false,"station_name":"Lenteng Agung","station_id":"LNA","i_lat":-6.330363,"line":2,"i_long":106.832616},{"transit":false,"is_transit":false,"distance":2671,"station_id":"TNT","time":3,"station_name":"Tanjung Barat","i_lat":-6.3080680000000005,"i_long":106.838896,"line":2},{"distance":2820,"i_long":106.843999,"is_transit":false,"i_lat":-6.2842400000000005,"line":2,"station_id":"PSM","transit":false,"time":4,"station_name":"Pasar Minggu"},{"is_transit":false,"time":2,"station_name":"Pasar Minggu Baru","i_long":106.851577,"i_lat":-6.263214,"line":2,"transit":false,"station_id":"PSMB","distance":2380},{"distance":824,"line":0,"is_transit":false,"i_lat":-6.255332,"transit":false,"i_long":106.85449,"station_id":"DRN","station_name":"Duren Kalibata","time":2},{"i_long":106.856607,"station_id":"CW","i_lat":-6.242512,"line":0,"is_transit":false,"distance":1546,"transit":false,"time":3,"station_name":"Cawang"}]]}