{"data":[[{"station_id":"UI","transit":false,"time":0,"i_lat":-6.360749,"distance":0,"is_transit":false,"station_name":"Univ. Indonesia","line":2,"i_long":106.831474},{"i_long":106.834175,"station_name":"Univ. Pancasila","time":3,"transit":false,"line":2,"distance":2264,"station_id":"UP","i_lat":-6.339291,"is_transit":false},{"station_name":"Lenteng Agung","time":2,"is_transit":false,"i_long":106.832616,"line":2,"distance":1029,"transit":false,"i_lat":-6.330363,"station_id":"LNA"},{"line":2,"is_transit":false,"i_lat":-6.3080680000000005,"transit":false,"distance":2671,"station_id":"TNT","i_long":106.838896,"time":3,"station_name":"Tanjung Barat"},{"distance":2820,"i_lat":-6.2842400000000005,"line":2,"station_name":"Pasar Minggu","is_transit":false,"transit":false,"station_id":"PSM","i_long":106.843999,"time":4},{"station_name":"Pasar Minggu Baru","line":2,"i_long":106.851577,"is_transit":false,"station_id":"PSMB","time":2,"transit":false,"i_lat":-6.263214,"distance":2380},{"i_lat":-6.255332,"is_transit":false,"station_name":"Duren Kalibata","station_id":"DRN","time":2,"line":2,"i_long":106.85449,"distance":824,"transit":false},{"line":2,"i_long":106.856607,"time":3,"distance":1546,"station_id":"CW","station_name":"Cawang","is_transit":false,"transit":false,"i_lat":-6.242512},{"is_transit":false,"station_name":"Tebet","i_lat":-6.226659,"time":2,"station_id":"TEB","transit":false,"line":2,"distance":1230,"i_long":106.857948},{"transit":true,"i_long":106.84912,"station_id":"MRI","is_transit":true,"distance":2610,"line":2,"station_name":"Manggarai","i_lat":-6.209883,"time":4},{"line":1,"station_id":"SUD","is_transit":false,"i_lat":-6.202263,"transit":false,"time":4,"i_long":106.822649,"distance":3186,"station_name":"Sudirman"},{"transit":false,"station_name":"Sudirman Baru","station_id":"SUDB","is_transit":false,"time":1,"line":1,"i_long":106.819881,"i_lat":-6.201433,"distance":280},{"distance":471,"station_name":"Karet","i_lat":-6.20132,"transit":false,"station_id":"KAT","line":1,"time":1,"i_long":106.816351,"is_transit":false},{"i_long":106.811091,"is_transit":true,"time":5,"station_name":"Tanah Abang","i_lat":-6.185545,"line":1,"station_id":"THB","distance":2029,"transit":true},{"transit":false,"time":6,"i_lat":-6.207404,"station_name":"Palmerah","is_transit":false,"distance":3191,"line":6,"station_id":"PLM","i_long":106.79689},{"distance":3737,"time":7,"line":6,"station_name":"Kebayoran","is_transit":false,"transit":false,"i_lat":-6.237242,"station_id":"KBY","i_long":106.780334},{"distance":6218,"station_name":"Pondokranji","time":8,"is_transit":false,"transit":false,"i_long":106.74273,"line":6,"station_id":"PDJ","i_lat":-6.276362},{"time":3,"line":6,"is_transit":false,"transit":false,"distance":2179,"i_lat":-6.288927,"i_long":106.728916,"station_name":"Jurangmangu","station_id":"JMU"},{"i_long":106.712277,"distance":1994,"line":6,"i_lat":-6.296963,"station_id":"SDM","is_transit":false,"time":4,"transit":false,"station_name":"Sudimara"},{"station_id":"RU","i_lat":-6.314823,"i_long":106.675475,"time":6,"is_transit":false,"transit":false,"station_name":"Rawa Buntu","line":6,"distance":4566},{"i_lat":-6.319871,"distance":2413,"transit":false,"i_long":106.66566,"time":4,"is_transit":false,"station_name":"Serpong","station_id":"SRP","line":6},{"transit":false,"i_lat":-6.32484,"time":4,"station_id":"CSK","distance":1784,"station_name":"Cisauk","is_transit":false,"i_long":106.640411,"line":3},{"transit":false,"i_long":106.617853,"is_transit":false,"line":3,"time":4,"station_name":"Cicayur","i_lat":-6.329547,"distance":2519,"station_id":"CC"},{"i_long":106.568863,"line":6,"station_id":"PRP","time":8,"is_transit":false,"transit":false,"station_name":"Parung Panjang","distance":5968,"i_lat":-6.3441410000000005},{"i_long":106.508482,"station_id":"CJT","time":9,"i_lat":-6.354349,"station_name":"Cilejit","is_transit":false,"line":3,"distance":7025,"transit":false},{"distance":2675,"transit":false,"time":6,"is_transit":false,"i_lat":-6.338021,"station_name":"Daru","station_id":"DAR","i_long":106.491338,"line":0}],[{"i_lat":-6.360749,"i_long":106.831474,"distance":0,"is_transit":false,"station_id":"UI","station_name":"Univ. Indonesia","line":2,"time":0,"transit":false},{"i_lat":-6.339291,"line":2,"i_long":106.834175,"distance":2264,"transit":false,"station_name":"Univ. Pancasila","is_transit":false,"time":3,"station_id":"UP"},{"station_name":"Lenteng Agung","distance":1029,"time":2,"station_id":"LNA","i_long":106.832616,"transit":false,"i_lat":-6.330363,"line":2,"is_transit":false},{"i_lat":-6.3080680000000005,"line":2,"i_long":106.838896,"station_name":"Tanjung Barat","transit":false,"is_transit":false,"distance":2671,"station_id":"TNT","time":3},{"i_lat":-6.2842400000000005,"line":2,"is_transit":false,"station_id":"PSM","i_long":106.843999,"distance":2820,"transit":false,"station_name":"Pasar Minggu","time":4},{"is_transit":false,"line":2,"time":2,"station_name":"Pasar Minggu Baru","i_lat":-6.263214,"distance":2380,"transit":false,"station_id":"PSMB","i_long":106.851577},{"time":2,"distance":824,"station_name":"Duren Kalibata","i_lat":-6.255332,"i_long":106.85449,"station_id":"DRN","transit":false,"is_transit":false,"line":2},{"is_transit":false,"station_name":"Cawang","line":2,"station_id":"CW","i_long":106.856607,"transit":false,"distance":1546,"time":3,"i_lat":-6.242512},{"is_transit":false,"transit":false,"station_name":"Tebet","line":2,"station_id":"TEB","i_lat":-6.226659,"i_long":106.857948,"distance":1230,"time":2},{"station_name":"Manggarai","time":4,"distance":2610,"station_id":"MRI","is_transit":false,"i_long":106.84912,"i_lat":-6.209883,"transit":false,"line":2},{"transit":false,"is_transit":false,"i_lat":-6.198556,"station_name":"Cikini","i_long":106.840169,"distance":1590,"station_id":"CKI","line":2,"time":4},{"station_id":"GDD","time":3,"distance":1750,"station_name":"Gondangdia","line":2,"i_lat":-6.186295,"transit":false,"i_long":106.832183,"is_transit":false},{"is_transit":false,"i_lat":-6.166716,"transit":false,"line":2,"station_id":"JUA","i_long":106.828284,"station_name":"Juanda","distance":2015,"time":4},{"distance":1149,"station_id":"SW","i_lat":-6.160725,"transit":false,"is_transit":false,"station_name":"Sawah Besar","time":2,"i_long":106.827103,"line":2},{"station_id":"MGB","i_lat":-6.149769,"i_long":106.82482,"is_transit":false,"line":2,"transit":false,"time":2,"distance":906,"station_name":"Manggabesar"},{"distance":1080,"transit":false,"station_id":"JAY","i_long":106.820901,"line":2,"station_name":"Jayakarta","i_lat":-6.141205,"is_transit":false,"time":2},{"time":4,"is_transit":true,"i_lat":-6.137569,"distance":1264,"station_name":"Jakarta Kota","station_id":"JAKK","line":2,"i_long":106.812439,"transit":true},{"i_long":106.826365,"line":4,"distance":1364,"is_transit":true,"station_id":"KPB","time":3,"station_name":"Kampung Bandan","i_lat":-6.132549,"transit":true},{"transit":false,"station_name":"Angke","station_id":"AK","is_transit":false,"time":9,"i_lat":-6.144674,"distance":4102,"i_long":106.79867,"line":1},{"station_id":"DU","i_long":106.800832,"i_lat":-6.155215,"transit":false,"line":1,"time":4,"station_name":"Duri","is_transit":false,"distance":1230},{"station_name":"Tanah Abang","is_transit":true,"station_id":"THB","i_lat":-6.185545,"i_long":106.811091,"transit":true,"line":1,"distance":3632,"time":8},{"transit":false,"line":6,"time":6,"i_lat":-6.207404,"station_id":"PLM","station_name":"Palmerah","is_transit":false,"distance":3191,"i_long":106.79689},{"transit":false,"time":7,"distance":3737,"i_lat":-6.237242,"line":6,"station_id":"KBY","station_name":"Kebayoran","is_transit":false,"i_long":106.780334},{"is_transit":false,"i_lat":-6.276362,"i_long":106.74273,"station_id":"PDJ","time":8,"station_name":"Pondokranji","line":6,"transit":false,"distance":6218},{"station_id":"JMU","transit":false,"station_name":"Jurangmangu","i_lat":-6.288927,"line":6,"time":3,"i_long":106.728916,"distance":2179,"is_transit":false},{"is_transit":false,"station_name":"Sudimara","distance":1994,"transit":false,"i_lat":-6.296963,"time":4,"line":6,"station_id":"SDM","i_long":106.712277},{"is_transit":false,"line":6,"station_name":"Rawa Buntu","time":6,"transit":false,"i_lat":-6.314823,"station_id":"RU","distance":4566,"i_long":106.675475},{"i_lat":-6.319871,"station_name":"Serpong","line":6,"station_id":"SRP","time":4,"distance":2413,"i_long":106.66566,"transit":false,"is_transit":false},{"station_name":"Cisauk","i_lat":-6.32484,"station_id":"CSK","transit":false,"i_long":106.640411,"line":3,"distance":1784,"is_transit":false,"time":4},{"i_lat":-6.329547,"time":4,"station_id":"CC","transit":false,"distance":2519,"i_long":106.617853,"line":3,"is_transit":false,"station_name":"Cicayur"},{"time":8,"i_lat":-6.3441410000000005,"i_long":106.568863,"station_name":"Parung Panjang","is_transit":false,"line":6,"station_id":"PRP","transit":false,"distance":5968},{"station_id":"CJT","is_transit":false,"distance":7025,"i_long":106.508482,"station_name":"Cilejit","i_lat":-6.354349,"line":3,"time":9,"transit":false},{"time":6,"station_id":"DAR","i_lat":-6.338021,"distance":2675,"i_long":106.491338,"is_transit":false,"station_name":"Daru","line":0,"transit":false}],[{"is_transit":false,"i_lat":-6.360749,"i_long":106.831474,"line":2,"station_id":"UI","transit":false,"station_name":"Univ. Indonesia","time":0,"distance":0},{"is_transit":false,"transit":false,"i_long":106.834175,"i_lat":-6.339291,"station_id":"UP","distance":2264,"station_name":"Univ. Pancasila","time":3,"line":2},{"line":2,"i_lat":-6.330363,"station_id":"LNA","distance":1029,"i_long":106.832616,"transit":false,"is_transit":false,"time":2,"station_name":"Lenteng Agung"},{"station_name":"Tanjung Barat","time":3,"line":2,"i_lat":-6.3080680000000005,"station_id":"TNT","i_long":106.838896,"transit":false,"is_transit":false,"distance":2671},{"transit":false,"is_transit":false,"time":4,"distance":2820,"i_long":106.843999,"line":2,"station_id":"PSM","i_lat":-6.2842400000000005,"station_name":"Pasar Minggu"},{"is_transit":false,"i_long":106.851577,"station_name":"Pasar Minggu Baru","time":2,"transit":false,"station_id":"PSMB","distance":2380,"line":2,"i_lat":-6.263214},{"time":2,"is_transit":false,"station_id":"DRN","i_long":106.85449,"distance":824,"i_lat":-6.255332,"station_name":"Duren Kalibata","line":2,"transit":false},{"transit":false,"station_name":"Cawang","i_lat":-6.242512,"time":3,"station_id":"CW","is_transit":false,"line":2,"distance":1546,"i_long":106.856607},{"transit":false,"distance":1230,"i_long":106.857948,"is_transit":false,"line":2,"station_id":"TEB","i_lat":-6.226659,"station_name":"Tebet","time":2},{"distance":2610,"time":4,"i_lat":-6.209883,"i_long":106.84912,"transit":true,"is_transit":true,"line":2,"station_id":"MRI","station_name":"Manggarai"},{"i_lat":-6.212485,"line":1,"time":2,"station_id":"MTR","i_long":106.858896,"station_name":"Matraman","is_transit":false,"distance":1275,"transit":false},{"time":8,"transit":true,"i_long":106.86807400000001,"station_id":"JNG","line":1,"i_lat":-6.215091,"is_transit":true,"station_name":"Jatinegara","distance":1377},{"i_long":106.861737,"distance":1236,"is_transit":false,"line":11,"station_name":"Pondok Jati","time":2,"station_id":"POK","i_lat":-6.209188,"transit":false},{"is_transit":false,"i_lat":-6.193792,"i_long":106.855437,"distance":1829,"line":11,"time":2,"transit":false,"station_id":"KMT","station_name":"Kramat"},{"i_lat":-6.185975,"line":11,"station_name":"Gang Sentiong","is_transit":false,"i_long":106.850107,"transit":false,"time":1,"distance":973,"station_id":"GST"},{"i_long":106.84368,"line":11,"station_id":"PSE","transit":false,"i_lat":-6.174784,"station_name":"Pasar Senen","time":8,"is_transit":false,"distance":1567},{"i_lat":-6.161728,"station_id":"KMO","station_name":"Kemayoran","transit":false,"time":4,"i_long":106.839204,"distance":1436,"line":11,"is_transit":false},{"station_name":"Rajawali","station_id":"RJW","transit":false,"line":11,"i_lat":-6.14505,"distance":1901,"time":5,"is_transit":false,"i_long":106.836569},{"distance":1444,"i_long":106.826365,"transit":true,"is_transit":true,"i_lat":-6.132549,"line":4,"time":3,"station_name":"Kampung Bandan","station_id":"KPB"},{"station_id":"AK","line":1,"i_lat":-6.144674,"is_transit":false,"transit":false,"i_long":106.79867,"distance":4102,"station_name":"Angke","time":9},{"time":4,"line":1,"transit":false,"i_long":106.800832,"is_transit":false,"station_id":"DU","station_name":"Duri","distance":1230,"i_lat":-6.155215},{"transit":true,"station_name":"Tanah Abang","is_transit":true,"distance":3632,"i_lat":-6.185545,"station_id":"THB","line":1,"time":8,"i_long":106.811091},{"distance":3191,"i_lat":-6.207404,"station_id":"PLM","i_long":106.79689,"line":6,"time":6,"is_transit":false,"transit":false,"station_name":"Palmerah"},{"is_transit":false,"station_id":"KBY","distance":3737,"i_long":106.780334,"station_name":"Kebayoran","i_lat":-6.237242,"line":6,"time":7,"transit":false},{"station_name":"Pondokranji","transit":false,"line":6,"distance":6218,"station_id":"PDJ","is_transit":false,"i_lat":-6.276362,"time":8,"i_long":106.74273},{"line":6,"station_name":"Jurangmangu","transit":false,"time":3,"distance":2179,"i_long":106.728916,"station_id":"JMU","is_transit":false,"i_lat":-6.288927},{"station_id":"SDM","is_transit":false,"i_long":106.712277,"line":6,"time":4,"station_name":"Sudimara","i_lat":-6.296963,"distance":1994,"transit":false},{"i_lat":-6.314823,"station_name":"Rawa Buntu","station_id":"RU","is_transit":false,"i_long":106.675475,"line":6,"transit":false,"time":6,"distance":4566},{"i_long":106.66566,"transit":false,"line":6,"station_id":"SRP","station_name":"Serpong","i_lat":-6.319871,"time":4,"is_transit":false,"distance":2413},{"time":4,"is_transit":false,"i_lat":-6.32484,"line":3,"station_id":"CSK","transit":false,"station_name":"Cisauk","distance":1784,"i_long":106.640411},{"station_id":"CC","time":4,"distance":2519,"i_long":106.617853,"transit":false,"is_transit":false,"station_name":"Cicayur","line":3,"i_lat":-6.329547},{"line":6,"transit":false,"is_transit":false,"i_lat":-6.3441410000000005,"i_long":106.568863,"station_name":"Parung Panjang","time":8,"distance":5968,"station_id":"PRP"},{"station_name":"Cilejit","line":3,"i_lat":-6.354349,"time":9,"is_transit":false,"transit":false,"distance":7025,"station_id":"CJT","i_long":106.508482},{"time":6,"distance":2675,"station_name":"Daru","is_transit":false,"i_lat":-6.338021,"line":0,"station_id":"DAR","transit":false,"i_long":106.491338}]]}