{"data":[[{"station_name":"Univ. Indonesia","line":2,"station_id":"UI","time":0,"is_transit":false,"transit":false,"i_lat":-6.360749,"distance":0,"i_long":106.831474},{"station_name":"Univ. Pancasila","line":2,"station_id":"UP","is_transit":false,"transit":false,"distance":2264,"i_lat":-6.339291,"time":3,"i_long":106.834175},{"i_long":106.832616,"time":2,"is_transit":false,"i_lat":-6.330363,"station_name":"Lenteng Agung","line":2,"station_id":"LNA","transit":false,"distance":1029},{"transit":false,"i_lat":-6.3080680000000005,"station_id":"TNT","is_transit":false,"time":3,"i_long":106.838896,"distance":2671,"line":2,"station_name":"Tanjung Barat"},{"is_transit":false,"station_id":"PSM","time":4,"station_name":"Pasar Minggu","i_lat":-6.2842400000000005,"transit":false,"distance":2820,"i_long":106.843999,"line":2},{"distance":2380,"station_id":"PSMB","i_long":106.851577,"line":2,"is_transit":false,"time":2,"station_name":"Pasar Minggu Baru","transit":false,"i_lat":-6.263214},{"transit":false,"distance":824,"time":2,"is_transit":false,"i_long":106.85449,"i_lat":-6.255332,"station_id":"DRN","line":2,"station_name":"Duren Kalibata"},{"station_id":"CW","station_name":"Cawang","time":3,"is_transit":false,"transit":false,"i_long":106.856607,"line":2,"i_lat":-6.242512,"distance":1546},{"transit":false,"distance":1230,"i_long":106.857948,"is_transit":false,"station_name":"Tebet","i_lat":-6.226659,"station_id":"TEB","line":2,"time":2},{"transit":true,"distance":2610,"i_long":106.84912,"time":4,"is_transit":true,"station_id":"MRI","line":2,"station_name":"Manggarai","i_lat":-6.209883},{"transit":false,"time":4,"line":1,"i_lat":-6.202263,"station_id":"SUD","station_name":"Sudirman","distance":3186,"i_long":106.822649,"is_transit":false},{"is_transit":false,"transit":false,"line":1,"i_lat":-6.201433,"i_long":106.819881,"distance":280,"station_name":"Sudirman Baru","time":1,"station_id":"SUDB"},{"station_name":"Karet","is_transit":false,"distance":471,"station_id":"KAT","time":1,"i_long":106.816351,"transit":false,"line":1,"i_lat":-6.20132},{"distance":2029,"is_transit":true,"transit":true,"station_id":"THB","station_name":"Tanah Abang","line":1,"i_lat":-6.185545,"i_long":106.811091,"time":5},{"distance":3191,"i_lat":-6.207404,"is_transit":false,"line":6,"transit":false,"time":6,"i_long":106.79689,"station_id":"PLM","station_name":"Palmerah"},{"transit":false,"i_long":106.780334,"time":7,"is_transit":false,"station_id":"KBY","distance":3737,"i_lat":-6.237242,"line":6,"station_name":"Kebayoran"},{"distance":6218,"station_id":"PDJ","transit":false,"line":6,"is_transit":false,"station_name":"Pondokranji","time":8,"i_lat":-6.276362,"i_long":106.74273},{"station_id":"JMU","station_name":"Jurangmangu","time":3,"i_lat":-6.288927,"i_long":106.728916,"line":6,"transit":false,"distance":2179,"is_transit":false},{"distance":1994,"station_name":"Sudimara","i_lat":-6.296963,"line":6,"station_id":"SDM","i_long":106.712277,"time":4,"is_transit":false,"transit":false},{"station_id":"RU","distance":4566,"time":6,"i_long":106.675475,"line":6,"is_transit":false,"station_name":"Rawa Buntu","transit":false,"i_lat":-6.314823},{"i_long":106.66566,"time":4,"i_lat":-6.319871,"station_id":"SRP","distance":2413,"is_transit":false,"transit":false,"line":6,"station_name":"Serpong"},{"is_transit":false,"transit":false,"line":3,"time":4,"station_name":"Cisauk","i_long":106.640411,"station_id":"CSK","distance":1784,"i_lat":-6.32484},{"time":4,"i_lat":-6.329547,"distance":2519,"station_name":"Cicayur","transit":false,"is_transit":false,"i_long":106.617853,"line":3,"station_id":"CC"},{"line":6,"is_transit":false,"time":8,"i_lat":-6.3441410000000005,"transit":false,"i_long":106.568863,"station_id":"PRP","station_name":"Parung Panjang","distance":5968},{"i_long":106.508482,"station_id":"CJT","line":3,"distance":7025,"time":9,"i_lat":-6.354349,"transit":false,"is_transit":false,"station_name":"Cilejit"},{"time":6,"station_name":"Daru","transit":false,"station_id":"DAR","is_transit":false,"i_lat":-6.338021,"i_long":106.491338,"distance":2675,"line":0}],[{"station_name":"Univ. Indonesia","time":0,"transit":false,"i_long":106.831474,"is_transit":false,"i_lat":-6.360749,"distance":0,"line":2,"station_id":"UI"},{"distance":2264,"i_long":106.834175,"transit":false,"time":3,"is_transit":false,"line":2,"station_id":"UP","i_lat":-6.339291,"station_name":"Univ. Pancasila"},{"distance":1029,"time":2,"i_long":106.832616,"is_transit":false,"transit":false,"i_lat":-6.330363,"station_name":"Lenteng Agung","station_id":"LNA","line":2},{"i_long":106.838896,"i_lat":-6.3080680000000005,"distance":2671,"station_id":"TNT","is_transit":false,"time":3,"transit":false,"station_name":"Tanjung Barat","line":2},{"station_id":"PSM","i_lat":-6.2842400000000005,"transit":false,"station_name":"Pasar Minggu","time":4,"i_long":106.843999,"line":2,"is_transit":false,"distance":2820},{"i_lat":-6.263214,"is_transit":false,"station_id":"PSMB","distance":2380,"station_name":"Pasar Minggu Baru","time":2,"i_long":106.851577,"transit":false,"line":2},{"station_name":"Duren Kalibata","time":2,"i_lat":-6.255332,"line":2,"distance":824,"transit":false,"station_id":"DRN","i_long":106.85449,"is_transit":false},{"station_name":"Cawang","is_transit":false,"station_id":"CW","transit":false,"time":3,"i_lat":-6.242512,"i_long":106.856607,"line":2,"distance":1546},{"distance":1230,"i_long":106.857948,"station_id":"TEB","transit":false,"station_name":"Tebet","time":2,"is_transit":false,"i_lat":-6.226659,"line":2},{"time":4,"distance":2610,"line":2,"is_transit":false,"station_id":"MRI","station_name":"Manggarai","i_long":106.84912,"i_lat":-6.209883,"transit":false},{"i_long":106.840169,"line":2,"is_transit":false,"time":4,"transit":false,"station_name":"Cikini","distance":1590,"i_lat":-6.198556,"station_id":"CKI"},{"station_id":"GDD","is_transit":false,"station_name":"Gondangdia","i_lat":-6.186295,"time":3,"transit":false,"line":2,"i_long":106.832183,"distance":1750},{"time":4,"transit":false,"station_id":"JUA","is_transit":false,"i_lat":-6.166716,"line":2,"i_long":106.828284,"station_name":"Juanda","distance":2015},{"station_name":"Sawah Besar","distance":1149,"line":2,"time":2,"station_id":"SW","i_lat":-6.160725,"is_transit":false,"transit":false,"i_long":106.827103},{"i_long":106.82482,"station_name":"Manggabesar","is_transit":false,"station_id":"MGB","transit":false,"distance":906,"line":2,"time":2,"i_lat":-6.149769},{"station_id":"JAY","i_lat":-6.141205,"transit":false,"station_name":"Jayakarta","is_transit":false,"distance":1080,"time":2,"i_long":106.820901,"line":2},{"i_long":106.812439,"station_name":"Jakarta Kota","station_id":"JAKK","distance":1264,"i_lat":-6.137569,"line":2,"transit":true,"is_transit":true,"time":4},{"station_id":"KPB","i_long":106.826365,"is_transit":true,"transit":true,"distance":1364,"station_name":"Kampung Bandan","line":4,"time":3,"i_lat":-6.132549},{"transit":false,"is_transit":false,"time":9,"i_lat":-6.144674,"station_name":"Angke","station_id":"AK","distance":4102,"i_long":106.79867,"line":1},{"transit":false,"i_lat":-6.155215,"i_long":106.800832,"is_transit":false,"time":4,"distance":1230,"line":1,"station_name":"Duri","station_id":"DU"},{"station_id":"THB","distance":3632,"transit":true,"time":8,"i_long":106.811091,"is_transit":true,"line":1,"station_name":"Tanah Abang","i_lat":-6.185545},{"is_transit":false,"station_id":"PLM","i_long":106.79689,"station_name":"Palmerah","time":6,"line":6,"distance":3191,"transit":false,"i_lat":-6.207404},{"time":7,"i_long":106.780334,"i_lat":-6.237242,"line":6,"station_id":"KBY","station_name":"Kebayoran","transit":false,"is_transit":false,"distance":3737},{"is_transit":false,"station_name":"Pondokranji","line":6,"i_long":106.74273,"station_id":"PDJ","i_lat":-6.276362,"time":8,"transit":false,"distance":6218},{"time":3,"i_long":106.728916,"transit":false,"i_lat":-6.288927,"line":6,"distance":2179,"station_id":"JMU","station_name":"Jurangmangu","is_transit":false},{"line":6,"station_id":"SDM","i_long":106.712277,"distance":1994,"station_name":"Sudimara","i_lat":-6.296963,"is_transit":false,"transit":false,"time":4},{"station_name":"Rawa Buntu","time":6,"station_id":"RU","distance":4566,"i_lat":-6.314823,"line":6,"transit":false,"is_transit":false,"i_long":106.675475},{"distance":2413,"line":6,"i_lat":-6.319871,"i_long":106.66566,"station_id":"SRP","station_name":"Serpong","transit":false,"time":4,"is_transit":false},{"transit":false,"station_id":"CSK","time":4,"i_long":106.640411,"is_transit":false,"station_name":"Cisauk","line":3,"i_lat":-6.32484,"distance":1784},{"time":4,"i_lat":-6.329547,"transit":false,"distance":2519,"station_id":"CC","station_name":"Cicayur","is_transit":false,"i_long":106.617853,"line":3},{"station_name":"Parung Panjang","transit":false,"is_transit":false,"line":6,"station_id":"PRP","distance":5968,"time":8,"i_lat":-6.3441410000000005,"i_long":106.568863},{"station_name":"Cilejit","is_transit":false,"station_id":"CJT","transit":false,"i_lat":-6.354349,"distance":7025,"line":3,"time":9,"i_long":106.508482},{"station_id":"DAR","station_name":"Daru","time":6,"line":0,"distance":2675,"i_long":106.491338,"i_lat":-6.338021,"is_transit":false,"transit":false}],[{"is_transit":false,"i_long":106.831474,"time":0,"transit":false,"station_id":"UI","i_lat":-6.360749,"line":2,"station_name":"Univ. Indonesia","distance":0},{"line":2,"i_long":106.834175,"distance":2264,"is_transit":false,"station_id":"UP","transit":false,"station_name":"Univ. Pancasila","time":3,"i_lat":-6.339291},{"station_id":"LNA","station_name":"Lenteng Agung","time":2,"transit":false,"i_long":106.832616,"i_lat":-6.330363,"distance":1029,"line":2,"is_transit":false},{"station_id":"TNT","time":3,"line":2,"i_lat":-6.3080680000000005,"is_transit":false,"station_name":"Tanjung Barat","transit":false,"distance":2671,"i_long":106.838896},{"distance":2820,"station_name":"Pasar Minggu","transit":false,"line":2,"i_lat":-6.2842400000000005,"time":4,"is_transit":false,"i_long":106.843999,"station_id":"PSM"},{"is_transit":false,"transit":false,"time":2,"station_name":"Pasar Minggu Baru","line":2,"i_lat":-6.263214,"distance":2380,"i_long":106.851577,"station_id":"PSMB"},{"station_id":"DRN","i_lat":-6.255332,"time":2,"i_long":106.85449,"station_name":"Duren Kalibata","is_transit":false,"distance":824,"line":2,"transit":false},{"i_long":106.856607,"station_name":"Cawang","i_lat":-6.242512,"distance":1546,"is_transit":false,"line":2,"transit":false,"time":3,"station_id":"CW"},{"station_name":"Tebet","time":2,"station_id":"TEB","is_transit":false,"i_lat":-6.226659,"distance":1230,"line":2,"transit":false,"i_long":106.857948},{"station_name":"Manggarai","transit":true,"station_id":"MRI","distance":2610,"time":4,"i_lat":-6.209883,"line":2,"i_long":106.84912,"is_transit":true},{"distance":1275,"station_name":"Matraman","time":2,"is_transit":false,"i_long":106.858896,"transit":false,"i_lat":-6.212485,"line":1,"station_id":"MTR"},{"transit":true,"line":1,"time":8,"is_transit":true,"station_name":"Jatinegara","i_long":106.86807400000001,"distance":1377,"i_lat":-6.215091,"station_id":"JNG"},{"is_transit":false,"i_long":106.861737,"line":11,"distance":1236,"i_lat":-6.209188,"time":2,"station_id":"POK","station_name":"Pondok Jati","transit":false},{"i_long":106.855437,"time":2,"distance":1829,"is_transit":false,"transit":false,"line":11,"station_id":"KMT","station_name":"Kramat","i_lat":-6.193792},{"i_lat":-6.185975,"station_id":"GST","distance":973,"transit":false,"i_long":106.850107,"line":11,"station_name":"Gang Sentiong","is_transit":false,"time":1},{"i_lat":-6.174784,"station_name":"Pasar Senen","i_long":106.84368,"line":11,"distance":1567,"time":8,"is_transit":false,"transit":false,"station_id":"PSE"},{"i_long":106.839204,"station_id":"KMO","line":11,"distance":1436,"i_lat":-6.161728,"station_name":"Kemayoran","time":4,"transit":false,"is_transit":false},{"line":11,"i_lat":-6.14505,"time":5,"i_long":106.836569,"station_name":"Rajawali","distance":1901,"station_id":"RJW","transit":false,"is_transit":false},{"transit":true,"station_name":"Kampung Bandan","i_lat":-6.132549,"i_long":106.826365,"station_id":"KPB","distance":1444,"is_transit":true,"line":4,"time":3},{"station_id":"AK","i_long":106.79867,"station_name":"Angke","i_lat":-6.144674,"line":1,"is_transit":false,"time":9,"transit":false,"distance":4102},{"transit":false,"time":4,"is_transit":false,"i_lat":-6.155215,"i_long":106.800832,"station_id":"DU","line":1,"station_name":"Duri","distance":1230},{"i_lat":-6.185545,"is_transit":true,"station_id":"THB","transit":true,"time":8,"line":1,"distance":3632,"i_long":106.811091,"station_name":"Tanah Abang"},{"time":6,"transit":false,"i_long":106.79689,"is_transit":false,"station_name":"Palmerah","i_lat":-6.207404,"distance":3191,"line":6,"station_id":"PLM"},{"station_id":"KBY","station_name":"Kebayoran","i_lat":-6.237242,"line":6,"is_transit":false,"transit":false,"time":7,"i_long":106.780334,"distance":3737},{"distance":6218,"transit":false,"i_lat":-6.276362,"station_name":"Pondokranji","is_transit":false,"time":8,"station_id":"PDJ","i_long":106.74273,"line":6},{"station_name":"Jurangmangu","is_transit":false,"distance":2179,"transit":false,"time":3,"i_lat":-6.288927,"i_long":106.728916,"line":6,"station_id":"JMU"},{"line":6,"i_lat":-6.296963,"distance":1994,"time":4,"i_long":106.712277,"is_transit":false,"transit":false,"station_name":"Sudimara","station_id":"SDM"},{"distance":4566,"i_long":106.675475,"is_transit":false,"station_id":"RU","time":6,"line":6,"i_lat":-6.314823,"station_name":"Rawa Buntu","transit":false},{"distance":2413,"i_lat":-6.319871,"is_transit":false,"i_long":106.66566,"time":4,"station_id":"SRP","station_name":"Serpong","line":6,"transit":false},{"i_long":106.640411,"station_id":"CSK","i_lat":-6.32484,"transit":false,"station_name":"Cisauk","is_transit":false,"time":4,"line":3,"distance":1784},{"transit":false,"time":4,"station_name":"Cicayur","line":3,"distance":2519,"is_transit":false,"i_lat":-6.329547,"station_id":"CC","i_long":106.617853},{"station_id":"PRP","time":8,"i_long":106.568863,"i_lat":-6.3441410000000005,"line":6,"station_name":"Parung Panjang","distance":5968,"is_transit":false,"transit":false},{"distance":7025,"transit":false,"i_lat":-6.354349,"i_long":106.508482,"line":3,"is_transit":false,"station_id":"CJT","time":9,"station_name":"Cilejit"},{"transit":false,"station_name":"Daru","time":6,"distance":2675,"i_lat":-6.338021,"line":0,"station_id":"DAR","is_transit":false,"i_long":106.491338}]]}