{"data":[[{"time":0,"transit":false,"station_name":"Univ. Indonesia","line":2,"is_transit":false,"i_lat":-6.360749,"distance":0,"station_id":"UI","i_long":106.831474},{"distance":2264,"i_lat":-6.339291,"line":2,"is_transit":false,"station_id":"UP","station_name":"Univ. Pancasila","i_long":106.834175,"time":3,"transit":false},{"is_transit":false,"distance":1029,"transit":false,"i_long":106.832616,"line":2,"i_lat":-6.330363,"time":2,"station_id":"LNA","station_name":"Lenteng Agung"},{"is_transit":false,"station_name":"Tanjung Barat","time":3,"line":2,"transit":false,"i_lat":-6.3080680000000005,"i_long":106.838896,"station_id":"TNT","distance":2671},{"transit":false,"i_lat":-6.2842400000000005,"station_id":"PSM","distance":2820,"station_name":"Pasar Minggu","line":2,"i_long":106.843999,"time":4,"is_transit":false},{"line":2,"transit":false,"station_name":"Pasar Minggu Baru","i_lat":-6.263214,"time":2,"is_transit":false,"distance":2380,"station_id":"PSMB","i_long":106.851577},{"i_lat":-6.255332,"distance":824,"i_long":106.85449,"station_id":"DRN","is_transit":false,"transit":false,"time":2,"station_name":"Duren Kalibata","line":2},{"i_long":106.856607,"line":2,"time":3,"transit":false,"station_name":"Cawang","is_transit":false,"i_lat":-6.242512,"distance":1546,"station_id":"CW"},{"distance":1230,"time":2,"station_name":"Tebet","station_id":"TEB","transit":false,"i_long":106.857948,"is_transit":false,"i_lat":-6.226659,"line":2},{"is_transit":true,"i_lat":-6.209883,"line":2,"station_id":"MRI","i_long":106.84912,"transit":true,"distance":2610,"station_name":"Manggarai","time":4},{"is_transit":false,"i_long":106.822649,"station_name":"Sudirman","time":4,"station_id":"SUD","line":1,"distance":3186,"i_lat":-6.202263,"transit":false},{"station_id":"SUDB","time":1,"transit":false,"is_transit":false,"line":1,"i_lat":-6.201433,"station_name":"Sudirman Baru","i_long":106.819881,"distance":280},{"i_long":106.816351,"i_lat":-6.20132,"line":1,"time":1,"distance":471,"transit":false,"station_id":"KAT","station_name":"Karet","is_transit":false},{"time":5,"distance":2029,"line":1,"station_name":"Tanah Abang","is_transit":true,"i_lat":-6.185545,"station_id":"THB","transit":true,"i_long":106.811091},{"station_name":"Palmerah","station_id":"PLM","is_transit":false,"line":6,"distance":3191,"i_lat":-6.207404,"i_long":106.79689,"transit":false,"time":6},{"distance":3737,"i_long":106.780334,"is_transit":false,"transit":false,"line":6,"station_name":"Kebayoran","i_lat":-6.237242,"station_id":"KBY","time":7},{"i_long":106.74273,"distance":6218,"time":8,"i_lat":-6.276362,"station_id":"PDJ","station_name":"Pondokranji","is_transit":false,"line":6,"transit":false},{"is_transit":false,"station_id":"JMU","i_lat":-6.288927,"transit":false,"i_long":106.728916,"time":3,"station_name":"Jurangmangu","line":6,"distance":2179},{"transit":false,"line":6,"is_transit":false,"station_name":"Sudimara","distance":1994,"time":4,"i_lat":-6.296963,"station_id":"SDM","i_long":106.712277},{"station_name":"Rawa Buntu","i_long":106.675475,"transit":false,"station_id":"RU","time":6,"is_transit":false,"distance":4566,"i_lat":-6.314823,"line":6},{"i_long":106.66566,"line":6,"distance":2413,"time":4,"station_id":"SRP","is_transit":false,"station_name":"Serpong","transit":false,"i_lat":-6.319871},{"i_lat":-6.32484,"transit":false,"i_long":106.640411,"station_id":"CSK","line":3,"distance":1784,"time":4,"station_name":"Cisauk","is_transit":false},{"i_lat":-6.329547,"line":3,"distance":2519,"station_name":"Cicayur","is_transit":false,"time":4,"transit":false,"i_long":106.617853,"station_id":"CC"},{"station_name":"Parung Panjang","distance":5968,"line":6,"i_long":106.568863,"station_id":"PRP","transit":false,"is_transit":false,"time":8,"i_lat":-6.3441410000000005},{"station_id":"CJT","distance":7025,"i_lat":-6.354349,"i_long":106.508482,"transit":false,"station_name":"Cilejit","time":9,"line":3,"is_transit":false},{"is_transit":false,"station_name":"Daru","i_long":106.491338,"station_id":"DAR","time":6,"distance":2675,"i_lat":-6.338021,"line":0,"transit":false}],[{"station_name":"Univ. Indonesia","distance":0,"station_id":"UI","line":2,"transit":false,"i_lat":-6.360749,"i_long":106.831474,"is_transit":false,"time":0},{"station_name":"Univ. Pancasila","is_transit":false,"time":3,"distance":2264,"line":2,"i_long":106.834175,"transit":false,"station_id":"UP","i_lat":-6.339291},{"station_id":"LNA","is_transit":false,"time":2,"i_lat":-6.330363,"i_long":106.832616,"transit":false,"station_name":"Lenteng Agung","line":2,"distance":1029},{"time":3,"transit":false,"is_transit":false,"i_lat":-6.3080680000000005,"station_name":"Tanjung Barat","station_id":"TNT","line":2,"distance":2671,"i_long":106.838896},{"line":2,"station_name":"Pasar Minggu","is_transit":false,"i_long":106.843999,"transit":false,"station_id":"PSM","time":4,"distance":2820,"i_lat":-6.2842400000000005},{"time":2,"i_lat":-6.263214,"i_long":106.851577,"station_id":"PSMB","line":2,"is_transit":false,"distance":2380,"transit":false,"station_name":"Pasar Minggu Baru"},{"station_name":"Duren Kalibata","time":2,"line":2,"station_id":"DRN","i_lat":-6.255332,"transit":false,"i_long":106.85449,"distance":824,"is_transit":false},{"distance":1546,"station_name":"Cawang","is_transit":false,"line":2,"station_id":"CW","time":3,"transit":false,"i_lat":-6.242512,"i_long":106.856607},{"i_lat":-6.226659,"station_id":"TEB","is_transit":false,"time":2,"distance":1230,"transit":false,"line":2,"station_name":"Tebet","i_long":106.857948},{"line":2,"station_name":"Manggarai","is_transit":false,"time":4,"station_id":"MRI","distance":2610,"i_lat":-6.209883,"transit":false,"i_long":106.84912},{"distance":1590,"is_transit":false,"line":2,"station_name":"Cikini","i_lat":-6.198556,"i_long":106.840169,"transit":false,"station_id":"CKI","time":4},{"station_name":"Gondangdia","station_id":"GDD","transit":false,"distance":1750,"i_lat":-6.186295,"i_long":106.832183,"time":3,"line":2,"is_transit":false},{"i_lat":-6.166716,"transit":false,"line":2,"is_transit":false,"time":4,"i_long":106.828284,"distance":2015,"station_name":"Juanda","station_id":"JUA"},{"time":2,"i_lat":-6.160725,"station_name":"Sawah Besar","distance":1149,"transit":false,"line":2,"station_id":"SW","is_transit":false,"i_long":106.827103},{"i_long":106.82482,"station_name":"Manggabesar","line":2,"time":2,"distance":906,"transit":false,"station_id":"MGB","is_transit":false,"i_lat":-6.149769},{"i_lat":-6.141205,"is_transit":false,"station_name":"Jayakarta","station_id":"JAY","i_long":106.820901,"transit":false,"time":2,"line":2,"distance":1080},{"station_id":"JAKK","transit":true,"time":4,"i_long":106.812439,"is_transit":true,"line":2,"station_name":"Jakarta Kota","i_lat":-6.137569,"distance":1264},{"station_id":"KPB","transit":true,"distance":1364,"i_lat":-6.132549,"line":4,"station_name":"Kampung Bandan","time":3,"i_long":106.826365,"is_transit":true},{"distance":4102,"station_name":"Angke","i_lat":-6.144674,"i_long":106.79867,"is_transit":false,"line":1,"time":9,"station_id":"AK","transit":false},{"station_id":"DU","transit":false,"distance":1230,"is_transit":false,"time":4,"i_lat":-6.155215,"i_long":106.800832,"line":1,"station_name":"Duri"},{"i_lat":-6.185545,"i_long":106.811091,"station_name":"Tanah Abang","station_id":"THB","time":8,"line":1,"is_transit":true,"transit":true,"distance":3632},{"transit":false,"station_id":"PLM","station_name":"Palmerah","is_transit":false,"line":6,"distance":3191,"i_lat":-6.207404,"i_long":106.79689,"time":6},{"i_long":106.780334,"distance":3737,"station_name":"Kebayoran","i_lat":-6.237242,"line":6,"time":7,"station_id":"KBY","is_transit":false,"transit":false},{"station_name":"Pondokranji","is_transit":false,"i_long":106.74273,"i_lat":-6.276362,"time":8,"station_id":"PDJ","line":6,"distance":6218,"transit":false},{"i_long":106.728916,"station_id":"JMU","time":3,"line":6,"station_name":"Jurangmangu","distance":2179,"transit":false,"i_lat":-6.288927,"is_transit":false},{"transit":false,"station_id":"SDM","is_transit":false,"time":4,"line":6,"distance":1994,"i_long":106.712277,"station_name":"Sudimara","i_lat":-6.296963},{"is_transit":false,"time":6,"station_id":"RU","i_long":106.675475,"station_name":"Rawa Buntu","line":6,"distance":4566,"i_lat":-6.314823,"transit":false},{"line":6,"distance":2413,"station_id":"SRP","time":4,"i_long":106.66566,"transit":false,"station_name":"Serpong","i_lat":-6.319871,"is_transit":false},{"transit":false,"distance":1784,"station_id":"CSK","i_lat":-6.32484,"time":4,"is_transit":false,"line":3,"i_long":106.640411,"station_name":"Cisauk"},{"station_id":"CC","line":3,"i_long":106.617853,"i_lat":-6.329547,"distance":2519,"is_transit":false,"time":4,"transit":false,"station_name":"Cicayur"},{"i_lat":-6.3441410000000005,"time":8,"transit":false,"station_id":"PRP","is_transit":false,"line":6,"station_name":"Parung Panjang","distance":5968,"i_long":106.568863},{"distance":7025,"transit":false,"i_long":106.508482,"line":3,"station_id":"CJT","i_lat":-6.354349,"is_transit":false,"station_name":"Cilejit","time":9},{"time":6,"station_name":"Daru","distance":2675,"station_id":"DAR","i_lat":-6.338021,"is_transit":false,"line":0,"i_long":106.491338,"transit":false}],[{"station_id":"UI","i_long":106.831474,"is_transit":false,"time":0,"i_lat":-6.360749,"distance":0,"transit":false,"station_name":"Univ. Indonesia","line":2},{"time":3,"transit":false,"line":2,"station_id":"UP","i_lat":-6.339291,"i_long":106.834175,"station_name":"Univ. Pancasila","is_transit":false,"distance":2264},{"i_long":106.832616,"time":2,"line":2,"station_name":"Lenteng Agung","transit":false,"is_transit":false,"i_lat":-6.330363,"distance":1029,"station_id":"LNA"},{"distance":2671,"i_lat":-6.3080680000000005,"transit":false,"station_name":"Tanjung Barat","station_id":"TNT","time":3,"line":2,"is_transit":false,"i_long":106.838896},{"i_long":106.843999,"transit":false,"is_transit":false,"time":4,"line":2,"i_lat":-6.2842400000000005,"station_name":"Pasar Minggu","station_id":"PSM","distance":2820},{"i_long":106.851577,"transit":false,"is_transit":false,"station_name":"Pasar Minggu Baru","line":2,"station_id":"PSMB","distance":2380,"i_lat":-6.263214,"time":2},{"transit":false,"time":2,"i_lat":-6.255332,"line":2,"station_id":"DRN","distance":824,"station_name":"Duren Kalibata","is_transit":false,"i_long":106.85449},{"transit":false,"station_name":"Cawang","station_id":"CW","i_lat":-6.242512,"time":3,"distance":1546,"i_long":106.856607,"line":2,"is_transit":false},{"station_name":"Tebet","i_long":106.857948,"i_lat":-6.226659,"time":2,"distance":1230,"transit":false,"is_transit":false,"line":2,"station_id":"TEB"},{"line":2,"station_name":"Manggarai","station_id":"MRI","transit":true,"i_long":106.84912,"is_transit":true,"distance":2610,"time":4,"i_lat":-6.209883},{"station_id":"MTR","is_transit":false,"transit":false,"time":2,"i_lat":-6.212485,"distance":1275,"station_name":"Matraman","line":1,"i_long":106.858896},{"distance":1377,"line":1,"i_lat":-6.215091,"station_id":"JNG","is_transit":true,"transit":true,"time":8,"i_long":106.86807400000001,"station_name":"Jatinegara"},{"transit":false,"time":2,"distance":1236,"i_long":106.861737,"is_transit":false,"station_id":"POK","i_lat":-6.209188,"line":11,"station_name":"Pondok Jati"},{"is_transit":false,"line":11,"transit":false,"station_name":"Kramat","i_lat":-6.193792,"time":2,"distance":1829,"station_id":"KMT","i_long":106.855437},{"i_long":106.850107,"station_id":"GST","time":1,"line":11,"station_name":"Gang Sentiong","distance":973,"transit":false,"is_transit":false,"i_lat":-6.185975},{"station_name":"Pasar Senen","distance":1567,"transit":false,"station_id":"PSE","i_long":106.84368,"i_lat":-6.174784,"line":11,"time":8,"is_transit":false},{"time":4,"i_lat":-6.161728,"i_long":106.839204,"line":11,"is_transit":false,"station_name":"Kemayoran","station_id":"KMO","transit":false,"distance":1436},{"transit":false,"i_lat":-6.14505,"station_name":"Rajawali","i_long":106.836569,"line":11,"is_transit":false,"time":5,"distance":1901,"station_id":"RJW"},{"i_long":106.826365,"station_name":"Kampung Bandan","station_id":"KPB","distance":1444,"line":4,"is_transit":true,"transit":true,"i_lat":-6.132549,"time":3},{"time":9,"transit":false,"station_name":"Angke","i_long":106.79867,"line":1,"station_id":"AK","is_transit":false,"distance":4102,"i_lat":-6.144674},{"i_lat":-6.155215,"line":1,"i_long":106.800832,"is_transit":false,"transit":false,"time":4,"station_name":"Duri","station_id":"DU","distance":1230},{"time":8,"i_long":106.811091,"i_lat":-6.185545,"distance":3632,"station_id":"THB","line":1,"station_name":"Tanah Abang","transit":true,"is_transit":true},{"distance":3191,"line":6,"station_id":"PLM","i_long":106.79689,"transit":false,"station_name":"Palmerah","time":6,"i_lat":-6.207404,"is_transit":false},{"station_name":"Kebayoran","i_lat":-6.237242,"time":7,"transit":false,"is_transit":false,"i_long":106.780334,"distance":3737,"station_id":"KBY","line":6},{"line":6,"time":8,"is_transit":false,"station_id":"PDJ","i_lat":-6.276362,"transit":false,"distance":6218,"station_name":"Pondokranji","i_long":106.74273},{"station_name":"Jurangmangu","is_transit":false,"distance":2179,"i_lat":-6.288927,"line":6,"time":3,"i_long":106.728916,"transit":false,"station_id":"JMU"},{"line":6,"i_long":106.712277,"distance":1994,"time":4,"transit":false,"i_lat":-6.296963,"station_name":"Sudimara","is_transit":false,"station_id":"SDM"},{"is_transit":false,"i_lat":-6.314823,"station_name":"Rawa Buntu","i_long":106.675475,"station_id":"RU","line":6,"distance":4566,"transit":false,"time":6},{"station_name":"Serpong","station_id":"SRP","transit":false,"time":4,"is_transit":false,"i_long":106.66566,"i_lat":-6.319871,"line":6,"distance":2413},{"i_long":106.640411,"is_transit":false,"i_lat":-6.32484,"time":4,"distance":1784,"line":3,"transit":false,"station_name":"Cisauk","station_id":"CSK"},{"station_id":"CC","is_transit":false,"time":4,"station_name":"Cicayur","distance":2519,"transit":false,"i_long":106.617853,"i_lat":-6.329547,"line":3},{"station_id":"PRP","is_transit":false,"i_lat":-6.3441410000000005,"transit":false,"i_long":106.568863,"distance":5968,"line":6,"time":8,"station_name":"Parung Panjang"},{"transit":false,"station_name":"Cilejit","time":9,"i_lat":-6.354349,"distance":7025,"station_id":"CJT","line":3,"is_transit":false,"i_long":106.508482},{"distance":2675,"time":6,"line":0,"station_id":"DAR","is_transit":false,"transit":false,"i_long":106.491338,"station_name":"Daru","i_lat":-6.338021}]]}