{"data":[[{"distance":0,"station_id":"UI","time":0,"transit":false,"station_name":"Univ. Indonesia","is_transit":false,"i_long":106.831474,"line":2,"i_lat":-6.360749},{"i_lat":-6.339291,"is_transit":false,"transit":false,"station_id":"UP","i_long":106.834175,"time":3,"station_name":"Univ. Pancasila","line":2,"distance":2264},{"distance":1029,"time":2,"transit":false,"is_transit":false,"i_lat":-6.330363,"i_long":106.832616,"station_name":"Lenteng Agung","station_id":"LNA","line":2},{"distance":2671,"is_transit":false,"i_long":106.838896,"line":2,"station_name":"Tanjung Barat","time":3,"transit":false,"i_lat":-6.3080680000000005,"station_id":"TNT"},{"i_long":106.843999,"transit":false,"station_name":"Pasar Minggu","line":2,"i_lat":-6.2842400000000005,"is_transit":false,"distance":2820,"time":4,"station_id":"PSM"},{"distance":2380,"line":2,"time":2,"station_id":"PSMB","i_lat":-6.263214,"station_name":"Pasar Minggu Baru","transit":false,"is_transit":false,"i_long":106.851577},{"i_long":106.85449,"distance":824,"line":0,"is_transit":false,"station_id":"DRN","i_lat":-6.255332,"time":2,"transit":false,"station_name":"Duren Kalibata"},{"transit":false,"line":0,"i_long":106.856607,"is_transit":false,"distance":1546,"station_id":"CW","station_name":"Cawang","time":3,"i_lat":-6.242512},{"station_id":"TEB","station_name":"Tebet","time":2,"line":2,"distance":1230,"transit":false,"is_transit":false,"i_lat":-6.226659,"i_long":106.857948},{"i_long":106.84912,"line":0,"is_transit":true,"station_id":"MRI","time":4,"distance":2610,"station_name":"Manggarai","transit":true,"i_lat":-6.209883},{"is_transit":false,"line":1,"time":4,"i_long":106.822649,"transit":false,"i_lat":-6.202263,"station_name":"Sudirman","distance":3186,"station_id":"SUD"},{"station_id":"SUDB","distance":280,"time":1,"i_long":106.819881,"line":1,"transit":false,"station_name":"Sudirman Baru","is_transit":false,"i_lat":-6.201433},{"line":1,"station_id":"KAT","distance":471,"time":1,"i_lat":-6.20132,"is_transit":false,"station_name":"Karet","transit":false,"i_long":106.816351},{"station_id":"THB","station_name":"Tanah Abang","distance":2029,"is_transit":true,"transit":true,"time":5,"i_long":106.811091,"i_lat":-6.185545,"line":1},{"station_name":"Palmerah","i_lat":-6.207404,"line":6,"distance":3191,"i_long":106.79689,"transit":false,"time":6,"is_transit":false,"station_id":"PLM"},{"transit":false,"station_id":"KBY","distance":3737,"i_lat":-6.237242,"time":7,"i_long":106.780334,"line":6,"station_name":"Kebayoran","is_transit":false},{"time":8,"i_lat":-6.276362,"line":6,"station_name":"Pondokranji","transit":false,"station_id":"PDJ","is_transit":false,"distance":6218,"i_long":106.74273},{"i_long":106.728916,"line":6,"time":3,"station_id":"JMU","i_lat":-6.288927,"station_name":"Jurangmangu","is_transit":false,"transit":false,"distance":2179},{"station_name":"Sudimara","station_id":"SDM","i_lat":-6.296963,"is_transit":false,"i_long":106.712277,"distance":1994,"time":4,"line":6,"transit":false},{"station_name":"Rawa Buntu","i_lat":-6.314823,"line":6,"transit":false,"time":6,"station_id":"RU","is_transit":false,"distance":4566,"i_long":106.675475},{"station_id":"SRP","transit":false,"is_transit":false,"station_name":"Serpong","distance":2413,"line":6,"i_lat":-6.319871,"time":4,"i_long":106.66566},{"station_id":"CSK","time":4,"distance":1784,"i_lat":-6.32484,"station_name":"Cisauk","transit":false,"is_transit":false,"i_long":106.640411,"line":0},{"station_id":"CC","line":0,"time":4,"i_lat":-6.329547,"transit":false,"is_transit":false,"station_name":"Cicayur","i_long":106.617853,"distance":2519},{"time":8,"i_long":106.568863,"line":6,"station_name":"Parung Panjang","station_id":"PRP","i_lat":-6.3441410000000005,"distance":5968,"transit":false,"is_transit":false},{"station_name":"Cilejit","i_long":106.508482,"is_transit":false,"distance":7025,"transit":false,"i_lat":-6.354349,"station_id":"CJT","line":0,"time":9},{"line":0,"i_long":106.491338,"distance":2675,"station_id":"DAR","station_name":"Daru","time":6,"is_transit":false,"transit":false,"i_lat":-6.338021}],[{"is_transit":false,"time":0,"transit":false,"distance":0,"line":2,"i_long":106.831474,"station_name":"Univ. Indonesia","station_id":"UI","i_lat":-6.360749},{"distance":2264,"i_long":106.834175,"transit":false,"time":3,"is_transit":false,"i_lat":-6.339291,"station_name":"Univ. Pancasila","station_id":"UP","line":2},{"is_transit":false,"distance":1029,"transit":false,"station_id":"LNA","line":2,"i_long":106.832616,"station_name":"Lenteng Agung","time":2,"i_lat":-6.330363},{"line":2,"is_transit":false,"transit":false,"station_id":"TNT","i_lat":-6.3080680000000005,"station_name":"Tanjung Barat","distance":2671,"time":3,"i_long":106.838896},{"distance":2820,"is_transit":false,"transit":false,"time":4,"station_id":"PSM","i_long":106.843999,"station_name":"Pasar Minggu","i_lat":-6.2842400000000005,"line":2},{"time":2,"station_name":"Pasar Minggu Baru","transit":false,"is_transit":false,"i_lat":-6.263214,"line":2,"distance":2380,"i_long":106.851577,"station_id":"PSMB"},{"time":2,"distance":824,"station_id":"DRN","i_long":106.85449,"station_name":"Duren Kalibata","is_transit":false,"i_lat":-6.255332,"line":0,"transit":false},{"station_id":"CW","time":3,"transit":false,"distance":1546,"station_name":"Cawang","i_long":106.856607,"is_transit":false,"line":0,"i_lat":-6.242512},{"i_lat":-6.226659,"time":2,"is_transit":false,"line":2,"station_name":"Tebet","transit":false,"i_long":106.857948,"station_id":"TEB","distance":1230},{"distance":2610,"time":4,"station_id":"MRI","station_name":"Manggarai","transit":true,"is_transit":true,"i_lat":-6.209883,"i_long":106.84912,"line":0},{"station_id":"CKI","i_lat":-6.198556,"line":0,"transit":false,"distance":1590,"station_name":"Cikini","i_long":106.840169,"time":4,"is_transit":false},{"i_lat":-6.186295,"distance":1750,"is_transit":false,"line":2,"i_long":106.832183,"transit":false,"time":3,"station_id":"GDD","station_name":"Gondangdia"},{"is_transit":false,"i_lat":-6.166716,"distance":2015,"time":4,"i_long":106.828284,"transit":false,"line":2,"station_name":"Juanda","station_id":"JUA"},{"distance":1149,"is_transit":false,"station_id":"SW","station_name":"Sawah Besar","transit":false,"line":2,"time":2,"i_lat":-6.160725,"i_long":106.827103},{"i_lat":-6.149769,"time":2,"station_name":"Manggabesar","line":2,"distance":906,"i_long":106.82482,"transit":false,"station_id":"MGB","is_transit":false},{"i_lat":-6.141205,"distance":1080,"is_transit":false,"i_long":106.820901,"line":7,"transit":false,"time":2,"station_name":"Jayakarta","station_id":"JAY"},{"i_long":106.812439,"time":4,"i_lat":-6.137569,"is_transit":true,"distance":1264,"station_id":"JAKK","station_name":"Jakarta Kota","transit":true,"line":0},{"line":0,"time":3,"i_long":106.826365,"station_name":"Kampung Bandan","i_lat":-6.132549,"station_id":"KPB","distance":1364,"transit":false,"is_transit":true},{"i_lat":-6.144674,"station_name":"Angke","line":0,"distance":4102,"station_id":"AK","time":9,"transit":false,"is_transit":false,"i_long":106.79867},{"is_transit":true,"distance":1230,"station_name":"Duri","i_lat":-6.155215,"line":1,"station_id":"DU","i_long":106.800832,"time":4,"transit":true},{"i_long":106.811091,"station_name":"Tanah Abang","is_transit":true,"transit":true,"line":1,"time":8,"distance":3632,"station_id":"THB","i_lat":-6.185545},{"station_id":"PLM","i_long":106.79689,"i_lat":-6.207404,"station_name":"Palmerah","is_transit":false,"line":6,"distance":3191,"time":6,"transit":false},{"time":7,"i_lat":-6.237242,"is_transit":false,"transit":false,"station_id":"KBY","distance":3737,"i_long":106.780334,"station_name":"Kebayoran","line":6},{"line":6,"transit":false,"distance":6218,"is_transit":false,"time":8,"i_long":106.74273,"station_id":"PDJ","i_lat":-6.276362,"station_name":"Pondokranji"},{"station_name":"Jurangmangu","station_id":"JMU","time":3,"distance":2179,"i_lat":-6.288927,"i_long":106.728916,"line":6,"is_transit":false,"transit":false},{"transit":false,"i_lat":-6.296963,"i_long":106.712277,"station_id":"SDM","time":4,"station_name":"Sudimara","distance":1994,"is_transit":false,"line":6},{"transit":false,"line":6,"time":6,"station_id":"RU","i_lat":-6.314823,"i_long":106.675475,"is_transit":false,"distance":4566,"station_name":"Rawa Buntu"},{"line":6,"station_id":"SRP","time":4,"station_name":"Serpong","transit":false,"is_transit":false,"distance":2413,"i_lat":-6.319871,"i_long":106.66566},{"distance":1784,"is_transit":false,"station_id":"CSK","i_long":106.640411,"i_lat":-6.32484,"line":0,"transit":false,"station_name":"Cisauk","time":4},{"station_id":"CC","i_long":106.617853,"is_transit":false,"station_name":"Cicayur","transit":false,"line":0,"time":4,"i_lat":-6.329547,"distance":2519},{"station_name":"Parung Panjang","station_id":"PRP","i_long":106.568863,"transit":false,"distance":5968,"time":8,"i_lat":-6.3441410000000005,"line":6,"is_transit":false},{"time":9,"station_id":"CJT","transit":false,"line":0,"is_transit":false,"i_long":106.508482,"i_lat":-6.354349,"distance":7025,"station_name":"Cilejit"},{"i_lat":-6.338021,"time":6,"is_transit":false,"line":0,"station_name":"Daru","i_long":106.491338,"transit":false,"station_id":"DAR","distance":2675}],[{"line":2,"distance":0,"time":0,"i_long":106.831474,"station_name":"Univ. Indonesia","station_id":"UI","is_transit":false,"i_lat":-6.360749,"transit":false},{"is_transit":false,"station_id":"UP","i_long":106.834175,"i_lat":-6.339291,"transit":false,"line":2,"distance":2264,"time":3,"station_name":"Univ. Pancasila"},{"line":2,"station_id":"LNA","time":2,"station_name":"Lenteng Agung","is_transit":false,"i_lat":-6.330363,"transit":false,"i_long":106.832616,"distance":1029},{"time":3,"transit":false,"i_lat":-6.3080680000000005,"distance":2671,"is_transit":false,"station_id":"TNT","i_long":106.838896,"station_name":"Tanjung Barat","line":2},{"line":2,"station_id":"PSM","time":4,"i_lat":-6.2842400000000005,"transit":false,"is_transit":false,"distance":2820,"station_name":"Pasar Minggu","i_long":106.843999},{"i_lat":-6.263214,"line":2,"time":2,"distance":2380,"station_name":"Pasar Minggu Baru","is_transit":false,"station_id":"PSMB","i_long":106.851577,"transit":false},{"is_transit":false,"station_id":"DRN","station_name":"Duren Kalibata","distance":824,"transit":false,"i_long":106.85449,"i_lat":-6.255332,"line":0,"time":2},{"i_lat":-6.242512,"i_long":106.856607,"station_name":"Cawang","station_id":"CW","line":0,"distance":1546,"is_transit":false,"time":3,"transit":false},{"station_name":"Tebet","station_id":"TEB","is_transit":false,"time":2,"transit":false,"i_long":106.857948,"distance":1230,"i_lat":-6.226659,"line":2},{"distance":2610,"i_lat":-6.209883,"time":4,"is_transit":true,"i_long":106.84912,"station_name":"Manggarai","station_id":"MRI","transit":true,"line":0},{"transit":false,"is_transit":false,"i_long":106.858896,"time":2,"line":1,"distance":1275,"station_name":"Matraman","station_id":"MTR","i_lat":-6.212485},{"station_id":"JNG","line":0,"is_transit":true,"transit":true,"i_lat":-6.215091,"i_long":106.86807400000001,"time":8,"distance":1377,"station_name":"Jatinegara"},{"station_id":"POK","distance":1236,"i_lat":-6.209188,"line":11,"transit":false,"is_transit":false,"station_name":"Pondok Jati","time":2,"i_long":106.861737},{"time":2,"i_lat":-6.193792,"transit":false,"is_transit":false,"station_id":"KMT","distance":1829,"i_long":106.855437,"station_name":"Kramat","line":11},{"station_id":"GST","transit":false,"i_long":106.850107,"distance":973,"i_lat":-6.185975,"line":11,"station_name":"Gang Sentiong","is_transit":false,"time":1},{"station_id":"PSE","i_lat":-6.174784,"distance":1567,"is_transit":false,"i_long":106.84368,"line":11,"station_name":"Pasar Senen","transit":false,"time":8},{"transit":false,"distance":1436,"is_transit":false,"time":4,"station_name":"Kemayoran","station_id":"KMO","i_lat":-6.161728,"line":11,"i_long":106.839204},{"i_long":106.836569,"transit":false,"distance":1901,"i_lat":-6.14505,"line":11,"station_name":"Rajawali","station_id":"RJW","is_transit":false,"time":5},{"station_name":"Kampung Bandan","station_id":"KPB","i_lat":-6.132549,"transit":true,"is_transit":true,"line":0,"i_long":106.826365,"distance":1444,"time":3},{"station_id":"AK","i_long":106.79867,"line":0,"transit":false,"distance":4102,"station_name":"Angke","time":9,"is_transit":false,"i_lat":-6.144674},{"distance":1230,"line":1,"time":4,"station_name":"Duri","transit":true,"is_transit":true,"station_id":"DU","i_lat":-6.155215,"i_long":106.800832},{"station_id":"THB","is_transit":true,"line":1,"station_name":"Tanah Abang","i_long":106.811091,"transit":true,"time":8,"distance":3632,"i_lat":-6.185545},{"i_long":106.79689,"time":6,"transit":false,"station_name":"Palmerah","is_transit":false,"station_id":"PLM","line":6,"distance":3191,"i_lat":-6.207404},{"i_long":106.780334,"i_lat":-6.237242,"distance":3737,"station_id":"KBY","line":6,"is_transit":false,"time":7,"station_name":"Kebayoran","transit":false},{"transit":false,"i_long":106.74273,"line":6,"distance":6218,"is_transit":false,"station_id":"PDJ","time":8,"i_lat":-6.276362,"station_name":"Pondokranji"},{"time":3,"line":6,"distance":2179,"station_id":"JMU","i_lat":-6.288927,"station_name":"Jurangmangu","is_transit":false,"transit":false,"i_long":106.728916},{"line":6,"transit":false,"distance":1994,"i_lat":-6.296963,"station_name":"Sudimara","time":4,"is_transit":false,"station_id":"SDM","i_long":106.712277},{"is_transit":false,"i_long":106.675475,"i_lat":-6.314823,"transit":false,"station_id":"RU","line":6,"time":6,"station_name":"Rawa Buntu","distance":4566},{"is_transit":false,"station_id":"SRP","i_lat":-6.319871,"transit":false,"distance":2413,"i_long":106.66566,"station_name":"Serpong","time":4,"line":6},{"time":4,"station_name":"Cisauk","is_transit":false,"distance":1784,"station_id":"CSK","i_lat":-6.32484,"i_long":106.640411,"line":0,"transit":false},{"time":4,"station_id":"CC","i_long":106.617853,"transit":false,"i_lat":-6.329547,"line":0,"distance":2519,"station_name":"Cicayur","is_transit":false},{"transit":false,"i_long":106.568863,"time":8,"station_name":"Parung Panjang","distance":5968,"station_id":"PRP","i_lat":-6.3441410000000005,"line":6,"is_transit":false},{"transit":false,"is_transit":false,"station_id":"CJT","i_long":106.508482,"station_name":"Cilejit","line":0,"distance":7025,"i_lat":-6.354349,"time":9},{"i_lat":-6.338021,"distance":2675,"transit":false,"is_transit":false,"i_long":106.491338,"station_name":"Daru","time":6,"station_id":"DAR","line":0}]]}