{"data":[[{"line":2,"i_long":106.831474,"is_transit":false,"station_name":"Univ. Indonesia","transit":false,"time":0,"distance":0,"i_lat":-6.360749,"station_id":"UI"},{"is_transit":false,"line":2,"time":3,"distance":2264,"station_name":"Univ. Pancasila","station_id":"UP","i_long":106.834175,"transit":false,"i_lat":-6.339291},{"time":2,"distance":1029,"is_transit":false,"station_name":"Lenteng Agung","i_lat":-6.330363,"station_id":"LNA","line":2,"transit":false,"i_long":106.832616},{"transit":false,"i_lat":-6.3080680000000005,"distance":2671,"time":3,"i_long":106.838896,"station_name":"Tanjung Barat","line":2,"is_transit":false,"station_id":"TNT"},{"i_lat":-6.2842400000000005,"time":4,"station_name":"Pasar Minggu","transit":false,"distance":2820,"i_long":106.843999,"line":2,"station_id":"PSM","is_transit":false},{"distance":2380,"i_lat":-6.263214,"time":2,"station_name":"Pasar Minggu Baru","transit":false,"i_long":106.851577,"is_transit":false,"line":2,"station_id":"PSMB"},{"i_long":106.85449,"distance":824,"station_name":"Duren Kalibata","is_transit":false,"line":0,"transit":false,"time":2,"i_lat":-6.255332,"station_id":"DRN"},{"is_transit":false,"transit":false,"station_name":"Cawang","i_long":106.856607,"station_id":"CW","line":0,"i_lat":-6.242512,"time":3,"distance":1546},{"distance":1230,"is_transit":false,"i_lat":-6.226659,"transit":false,"station_id":"TEB","time":2,"i_long":106.857948,"station_name":"Tebet","line":2},{"distance":2610,"is_transit":true,"transit":true,"i_lat":-6.209883,"line":0,"i_long":106.84912,"time":4,"station_id":"MRI","station_name":"Manggarai"},{"time":4,"distance":1590,"station_id":"CKI","i_lat":-6.198556,"is_transit":false,"transit":false,"i_long":106.840169,"line":0,"station_name":"Cikini"},{"time":3,"line":2,"transit":false,"i_lat":-6.186295,"is_transit":false,"station_name":"Gondangdia","station_id":"GDD","distance":1750,"i_long":106.832183},{"i_lat":-6.166716,"distance":2015,"station_id":"JUA","station_name":"Juanda","time":4,"line":2,"transit":false,"i_long":106.828284,"is_transit":false},{"station_id":"SW","time":2,"is_transit":false,"station_name":"Sawah Besar","line":2,"transit":false,"i_lat":-6.160725,"i_long":106.827103,"distance":1149},{"transit":false,"i_lat":-6.149769,"distance":906,"station_name":"Manggabesar","time":2,"i_long":106.82482,"is_transit":false,"station_id":"MGB","line":2},{"distance":1080,"transit":false,"i_long":106.820901,"station_id":"JAY","station_name":"Jayakarta","time":2,"i_lat":-6.141205,"line":7,"is_transit":false}],[{"time":0,"transit":false,"station_name":"Univ. Indonesia","i_lat":-6.360749,"i_long":106.831474,"station_id":"UI","line":2,"is_transit":false,"distance":0},{"time":3,"distance":2264,"transit":false,"line":2,"is_transit":false,"i_long":106.834175,"station_name":"Univ. Pancasila","station_id":"UP","i_lat":-6.339291},{"is_transit":false,"station_name":"Lenteng Agung","i_long":106.832616,"line":2,"time":2,"i_lat":-6.330363,"transit":false,"distance":1029,"station_id":"LNA"},{"distance":2671,"transit":false,"is_transit":false,"line":2,"station_id":"TNT","station_name":"Tanjung Barat","i_lat":-6.3080680000000005,"time":3,"i_long":106.838896},{"transit":false,"time":4,"line":2,"i_lat":-6.2842400000000005,"distance":2820,"is_transit":false,"i_long":106.843999,"station_name":"Pasar Minggu","station_id":"PSM"},{"transit":false,"line":2,"is_transit":false,"distance":2380,"station_name":"Pasar Minggu Baru","i_lat":-6.263214,"time":2,"i_long":106.851577,"station_id":"PSMB"},{"transit":false,"station_name":"Duren Kalibata","line":0,"i_lat":-6.255332,"time":2,"is_transit":false,"i_long":106.85449,"distance":824,"station_id":"DRN"},{"transit":false,"station_id":"CW","distance":1546,"station_name":"Cawang","line":0,"time":3,"i_lat":-6.242512,"is_transit":false,"i_long":106.856607},{"distance":1230,"station_id":"TEB","station_name":"Tebet","transit":false,"time":2,"i_lat":-6.226659,"i_long":106.857948,"line":2,"is_transit":false},{"is_transit":true,"station_id":"MRI","time":4,"line":0,"distance":2610,"transit":true,"i_lat":-6.209883,"i_long":106.84912,"station_name":"Manggarai"},{"line":1,"time":4,"is_transit":false,"station_id":"SUD","distance":3186,"transit":false,"station_name":"Sudirman","i_lat":-6.202263,"i_long":106.822649},{"i_lat":-6.201433,"is_transit":false,"transit":false,"station_name":"Sudirman Baru","station_id":"SUDB","i_long":106.819881,"distance":280,"line":1,"time":1},{"line":1,"station_name":"Karet","distance":471,"station_id":"KAT","is_transit":false,"transit":false,"time":1,"i_lat":-6.20132,"i_long":106.816351},{"station_id":"THB","line":1,"transit":false,"is_transit":true,"station_name":"Tanah Abang","distance":2029,"i_long":106.811091,"i_lat":-6.185545,"time":5},{"i_long":106.800832,"station_name":"Duri","station_id":"DU","transit":true,"distance":3632,"time":8,"is_transit":true,"i_lat":-6.155215,"line":1},{"is_transit":false,"i_lat":-6.144674,"i_long":106.79867,"transit":false,"time":4,"station_name":"Angke","distance":1230,"station_id":"AK","line":0},{"station_id":"KPB","distance":4102,"time":9,"transit":false,"is_transit":true,"station_name":"Kampung Bandan","i_lat":-6.132549,"i_long":106.826365,"line":0},{"is_transit":true,"station_id":"JAKK","distance":1364,"station_name":"Jakarta Kota","line":0,"i_lat":-6.137569,"i_long":106.812439,"transit":true,"time":3},{"is_transit":false,"transit":false,"i_lat":-6.141205,"line":7,"station_name":"Jayakarta","time":4,"i_long":106.820901,"station_id":"JAY","distance":1264}],[{"distance":0,"i_long":106.831474,"line":2,"station_id":"UI","time":0,"i_lat":-6.360749,"is_transit":false,"station_name":"Univ. Indonesia","transit":false},{"time":3,"station_id":"UP","distance":2264,"is_transit":false,"transit":false,"i_lat":-6.339291,"i_long":106.834175,"line":2,"station_name":"Univ. Pancasila"},{"i_long":106.832616,"line":2,"is_transit":false,"transit":false,"time":2,"station_id":"LNA","distance":1029,"station_name":"Lenteng Agung","i_lat":-6.330363},{"distance":2671,"transit":false,"is_transit":false,"station_name":"Tanjung Barat","i_lat":-6.3080680000000005,"i_long":106.838896,"station_id":"TNT","line":2,"time":3},{"time":4,"i_long":106.843999,"station_id":"PSM","line":2,"distance":2820,"station_name":"Pasar Minggu","is_transit":false,"i_lat":-6.2842400000000005,"transit":false},{"transit":false,"time":2,"i_lat":-6.263214,"is_transit":false,"i_long":106.851577,"line":2,"station_id":"PSMB","station_name":"Pasar Minggu Baru","distance":2380},{"station_id":"DRN","time":2,"station_name":"Duren Kalibata","i_lat":-6.255332,"distance":824,"i_long":106.85449,"is_transit":false,"transit":false,"line":0},{"station_id":"CW","time":3,"i_long":106.856607,"transit":false,"is_transit":false,"i_lat":-6.242512,"distance":1546,"station_name":"Cawang","line":0},{"station_id":"TEB","is_transit":false,"time":2,"i_long":106.857948,"station_name":"Tebet","transit":false,"line":2,"distance":1230,"i_lat":-6.226659},{"i_long":106.84912,"transit":true,"distance":2610,"station_id":"MRI","is_transit":true,"line":0,"time":4,"station_name":"Manggarai","i_lat":-6.209883},{"i_long":106.858896,"distance":1275,"time":2,"is_transit":false,"line":1,"station_id":"MTR","station_name":"Matraman","transit":false,"i_lat":-6.212485},{"line":0,"station_id":"JNG","time":8,"is_transit":true,"station_name":"Jatinegara","i_lat":-6.215091,"i_long":106.86807400000001,"transit":true,"distance":1377},{"distance":1236,"time":2,"is_transit":false,"transit":false,"i_lat":-6.209188,"i_long":106.861737,"station_name":"Pondok Jati","line":11,"station_id":"POK"},{"i_long":106.855437,"station_id":"KMT","is_transit":false,"time":2,"distance":1829,"i_lat":-6.193792,"line":11,"station_name":"Kramat","transit":false},{"line":11,"distance":973,"station_id":"GST","station_name":"Gang Sentiong","transit":false,"time":1,"is_transit":false,"i_lat":-6.185975,"i_long":106.850107},{"time":8,"station_name":"Pasar Senen","is_transit":false,"station_id":"PSE","transit":false,"i_long":106.84368,"distance":1567,"i_lat":-6.174784,"line":11},{"i_long":106.839204,"station_id":"KMO","time":4,"distance":1436,"transit":false,"i_lat":-6.161728,"line":11,"is_transit":false,"station_name":"Kemayoran"},{"station_id":"RJW","time":5,"station_name":"Rajawali","distance":1901,"is_transit":false,"transit":false,"i_lat":-6.14505,"i_long":106.836569,"line":11},{"station_id":"KPB","time":3,"i_long":106.826365,"is_transit":true,"distance":1444,"station_name":"Kampung Bandan","line":0,"transit":true,"i_lat":-6.132549},{"is_transit":true,"station_name":"Jakarta Kota","station_id":"JAKK","i_lat":-6.137569,"transit":true,"time":3,"i_long":106.812439,"line":0,"distance":1364},{"line":7,"station_id":"JAY","station_name":"Jayakarta","transit":false,"i_long":106.820901,"is_transit":false,"distance":1264,"time":4,"i_lat":-6.141205}]]}