{"data":[[{"distance":0,"time":0,"is_transit":false,"line":2,"i_long":106.831474,"station_id":"UI","station_name":"Univ. Indonesia","transit":false,"i_lat":-6.360749},{"transit":false,"is_transit":false,"distance":2264,"i_long":106.834175,"line":2,"time":3,"i_lat":-6.339291,"station_id":"UP","station_name":"Univ. Pancasila"},{"distance":1029,"is_transit":false,"i_lat":-6.330363,"i_long":106.832616,"station_name":"Lenteng Agung","line":2,"time":2,"station_id":"LNA","transit":false},{"i_lat":-6.3080680000000005,"is_transit":false,"distance":2671,"station_name":"Tanjung Barat","i_long":106.838896,"line":2,"time":3,"transit":false,"station_id":"TNT"},{"transit":false,"time":4,"station_id":"PSM","distance":2820,"i_lat":-6.2842400000000005,"line":2,"is_transit":false,"station_name":"Pasar Minggu","i_long":106.843999},{"i_long":106.851577,"station_id":"PSMB","i_lat":-6.263214,"is_transit":false,"station_name":"Pasar Minggu Baru","transit":false,"line":2,"distance":2380,"time":2},{"i_lat":-6.255332,"station_id":"DRN","i_long":106.85449,"station_name":"Duren Kalibata","line":2,"transit":false,"distance":824,"time":2,"is_transit":false},{"station_id":"CW","is_transit":false,"line":2,"time":3,"transit":false,"i_lat":-6.242512,"distance":1546,"i_long":106.856607,"station_name":"Cawang"},{"transit":false,"is_transit":false,"line":2,"i_lat":-6.226659,"distance":1230,"station_name":"Tebet","i_long":106.857948,"time":2,"station_id":"TEB"},{"transit":true,"distance":2610,"station_id":"MRI","station_name":"Manggarai","is_transit":true,"i_long":106.84912,"time":4,"i_lat":-6.209883,"line":2},{"transit":false,"is_transit":false,"i_long":106.858896,"station_id":"MTR","i_lat":-6.212485,"distance":1275,"station_name":"Matraman","line":1,"time":2},{"time":8,"station_id":"JNG","transit":false,"is_transit":false,"station_name":"Jatinegara","distance":1377,"i_long":106.86807400000001,"i_lat":-6.215091,"line":1}],[{"is_transit":false,"i_lat":-6.360749,"transit":false,"i_long":106.831474,"line":2,"time":0,"station_id":"UI","distance":0,"station_name":"Univ. Indonesia"},{"transit":false,"station_name":"Univ. Pancasila","time":3,"is_transit":false,"i_lat":-6.339291,"station_id":"UP","line":2,"distance":2264,"i_long":106.834175},{"time":2,"transit":false,"is_transit":false,"distance":1029,"line":2,"station_name":"Lenteng Agung","i_lat":-6.330363,"station_id":"LNA","i_long":106.832616},{"transit":false,"time":3,"i_long":106.838896,"line":2,"distance":2671,"is_transit":false,"station_name":"Tanjung Barat","station_id":"TNT","i_lat":-6.3080680000000005},{"distance":2820,"transit":false,"i_long":106.843999,"is_transit":false,"i_lat":-6.2842400000000005,"station_id":"PSM","time":4,"station_name":"Pasar Minggu","line":2},{"i_lat":-6.263214,"distance":2380,"station_name":"Pasar Minggu Baru","transit":false,"line":2,"time":2,"is_transit":false,"i_long":106.851577,"station_id":"PSMB"},{"i_long":106.85449,"time":2,"line":2,"station_id":"DRN","i_lat":-6.255332,"station_name":"Duren Kalibata","is_transit":false,"distance":824,"transit":false},{"station_name":"Cawang","station_id":"CW","is_transit":false,"i_lat":-6.242512,"transit":false,"distance":1546,"i_long":106.856607,"line":2,"time":3},{"transit":false,"distance":1230,"is_transit":false,"station_id":"TEB","time":2,"i_lat":-6.226659,"i_long":106.857948,"station_name":"Tebet","line":2},{"time":4,"i_long":106.84912,"station_id":"MRI","is_transit":true,"transit":true,"line":2,"i_lat":-6.209883,"station_name":"Manggarai","distance":2610},{"time":4,"i_long":106.822649,"station_name":"Sudirman","distance":3186,"transit":false,"is_transit":false,"line":1,"station_id":"SUD","i_lat":-6.202263},{"transit":false,"time":1,"i_lat":-6.201433,"station_id":"SUDB","is_transit":false,"station_name":"Sudirman Baru","line":1,"distance":280,"i_long":106.819881},{"i_long":106.816351,"transit":false,"distance":471,"i_lat":-6.20132,"station_id":"KAT","is_transit":false,"time":1,"station_name":"Karet","line":1},{"line":1,"distance":2029,"time":5,"i_long":106.811091,"station_id":"THB","is_transit":false,"transit":false,"station_name":"Tanah Abang","i_lat":-6.185545},{"time":8,"i_lat":-6.155215,"transit":false,"station_id":"DU","line":1,"station_name":"Duri","is_transit":false,"distance":3632,"i_long":106.800832},{"transit":false,"time":4,"i_lat":-6.144674,"is_transit":false,"line":1,"station_id":"AK","station_name":"Angke","i_long":106.79867,"distance":1230},{"line":4,"transit":true,"i_lat":-6.132549,"i_long":106.826365,"station_id":"KPB","is_transit":true,"time":9,"distance":4102,"station_name":"Kampung Bandan"},{"transit":false,"time":3,"i_long":106.836569,"is_transit":false,"i_lat":-6.14505,"line":11,"distance":1444,"station_id":"RJW","station_name":"Rajawali"},{"station_name":"Kemayoran","transit":false,"is_transit":false,"i_lat":-6.161728,"i_long":106.839204,"distance":1901,"line":11,"station_id":"KMO","time":5},{"time":4,"distance":1436,"i_lat":-6.174784,"i_long":106.84368,"station_name":"Pasar Senen","station_id":"PSE","transit":false,"line":11,"is_transit":false},{"transit":false,"i_long":106.850107,"i_lat":-6.185975,"time":8,"is_transit":false,"station_name":"Gang Sentiong","line":11,"station_id":"GST","distance":1567},{"line":11,"distance":973,"station_id":"KMT","station_name":"Kramat","transit":false,"time":1,"is_transit":false,"i_lat":-6.193792,"i_long":106.855437},{"i_long":106.861737,"distance":1829,"station_name":"Pondok Jati","time":2,"i_lat":-6.209188,"is_transit":false,"transit":false,"station_id":"POK","line":11},{"line":1,"time":9,"is_transit":false,"distance":1236,"station_name":"Jatinegara","transit":false,"station_id":"JNG","i_lat":-6.215091,"i_long":106.86807400000001}],[{"i_long":106.831474,"distance":0,"transit":false,"time":0,"station_name":"Univ. Indonesia","line":2,"station_id":"UI","is_transit":false,"i_lat":-6.360749},{"transit":false,"time":3,"is_transit":false,"station_name":"Univ. Pancasila","i_lat":-6.339291,"station_id":"UP","i_long":106.834175,"distance":2264,"line":2},{"time":2,"station_name":"Lenteng Agung","i_lat":-6.330363,"is_transit":false,"i_long":106.832616,"line":2,"distance":1029,"station_id":"LNA","transit":false},{"line":2,"i_long":106.838896,"time":3,"i_lat":-6.3080680000000005,"station_name":"Tanjung Barat","station_id":"TNT","distance":2671,"transit":false,"is_transit":false},{"is_transit":false,"distance":2820,"i_long":106.843999,"station_name":"Pasar Minggu","station_id":"PSM","line":2,"transit":false,"i_lat":-6.2842400000000005,"time":4},{"line":2,"station_id":"PSMB","time":2,"is_transit":false,"station_name":"Pasar Minggu Baru","i_long":106.851577,"distance":2380,"transit":false,"i_lat":-6.263214},{"is_transit":false,"i_lat":-6.255332,"i_long":106.85449,"distance":824,"station_id":"DRN","transit":false,"time":2,"station_name":"Duren Kalibata","line":2},{"station_id":"CW","station_name":"Cawang","distance":1546,"time":3,"i_lat":-6.242512,"transit":false,"line":2,"is_transit":false,"i_long":106.856607},{"i_long":106.857948,"transit":false,"distance":1230,"station_name":"Tebet","line":2,"station_id":"TEB","i_lat":-6.226659,"is_transit":false,"time":2},{"time":4,"i_lat":-6.209883,"transit":false,"station_name":"Manggarai","station_id":"MRI","is_transit":false,"distance":2610,"i_long":106.84912,"line":2},{"distance":1590,"i_long":106.840169,"line":2,"station_id":"CKI","transit":false,"i_lat":-6.198556,"station_name":"Cikini","is_transit":false,"time":4},{"transit":false,"i_long":106.832183,"station_name":"Gondangdia","time":3,"is_transit":false,"station_id":"GDD","distance":1750,"i_lat":-6.186295,"line":2},{"i_long":106.828284,"transit":false,"time":4,"i_lat":-6.166716,"is_transit":false,"line":2,"distance":2015,"station_id":"JUA","station_name":"Juanda"},{"i_lat":-6.160725,"is_transit":false,"i_long":106.827103,"line":2,"distance":1149,"station_id":"SW","transit":false,"station_name":"Sawah Besar","time":2},{"time":2,"line":2,"i_lat":-6.149769,"station_id":"MGB","distance":906,"station_name":"Manggabesar","transit":false,"is_transit":false,"i_long":106.82482},{"distance":1080,"time":2,"i_long":106.820901,"line":2,"station_name":"Jayakarta","station_id":"JAY","transit":false,"i_lat":-6.141205,"is_transit":false},{"station_name":"Jakarta Kota","distance":1264,"station_id":"JAKK","is_transit":true,"transit":true,"i_long":106.812439,"time":4,"line":2,"i_lat":-6.137569},{"time":3,"line":4,"transit":true,"i_lat":-6.132549,"is_transit":true,"station_name":"Kampung Bandan","i_long":106.826365,"station_id":"KPB","distance":1364},{"station_id":"RJW","transit":false,"is_transit":false,"i_lat":-6.14505,"i_long":106.836569,"distance":1444,"station_name":"Rajawali","line":11,"time":3},{"station_id":"KMO","distance":1901,"is_transit":false,"station_name":"Kemayoran","i_lat":-6.161728,"transit":false,"time":5,"i_long":106.839204,"line":11},{"distance":1436,"transit":false,"i_lat":-6.174784,"line":11,"station_id":"PSE","time":4,"is_transit":false,"station_name":"Pasar Senen","i_long":106.84368},{"i_lat":-6.185975,"station_id":"GST","distance":1567,"transit":false,"station_name":"Gang Sentiong","is_transit":false,"line":11,"time":8,"i_long":106.850107},{"station_name":"Kramat","time":1,"line":11,"distance":973,"transit":false,"is_transit":false,"i_lat":-6.193792,"i_long":106.855437,"station_id":"KMT"},{"time":2,"i_lat":-6.209188,"station_id":"POK","transit":false,"station_name":"Pondok Jati","distance":1829,"i_long":106.861737,"line":11,"is_transit":false},{"station_name":"Jatinegara","distance":1236,"time":9,"is_transit":false,"i_long":106.86807400000001,"station_id":"JNG","transit":false,"i_lat":-6.215091,"line":1}]]}