{"data":[[{"transit":false,"station_id":"UI","is_transit":false,"distance":0,"line":2,"i_long":106.831474,"i_lat":-6.360749,"station_name":"Univ. Indonesia","time":0},{"i_long":106.834175,"time":3,"is_transit":false,"line":2,"transit":false,"i_lat":-6.339291,"station_name":"Univ. Pancasila","distance":2264,"station_id":"UP"},{"time":2,"station_name":"Lenteng Agung","distance":1029,"i_long":106.832616,"transit":false,"is_transit":false,"line":2,"i_lat":-6.330363,"station_id":"LNA"},{"i_long":106.838896,"is_transit":false,"distance":2671,"transit":false,"line":2,"time":3,"station_id":"TNT","station_name":"Tanjung Barat","i_lat":-6.3080680000000005},{"distance":2820,"i_lat":-6.2842400000000005,"line":2,"i_long":106.843999,"is_transit":false,"station_name":"Pasar Minggu","station_id":"PSM","transit":false,"time":4},{"station_id":"PSMB","i_long":106.851577,"distance":2380,"i_lat":-6.263214,"is_transit":false,"station_name":"Pasar Minggu Baru","line":2,"time":2,"transit":false},{"is_transit":false,"station_id":"DRN","transit":false,"line":2,"distance":824,"time":2,"station_name":"Duren Kalibata","i_long":106.85449,"i_lat":-6.255332},{"station_id":"CW","station_name":"Cawang","time":3,"i_lat":-6.242512,"distance":1546,"is_transit":false,"i_long":106.856607,"line":2,"transit":false},{"line":2,"station_id":"TEB","time":2,"i_lat":-6.226659,"transit":false,"distance":1230,"i_long":106.857948,"is_transit":false,"station_name":"Tebet"},{"time":4,"line":2,"is_transit":false,"station_id":"MRI","transit":false,"distance":2610,"i_long":106.84912,"station_name":"Manggarai","i_lat":-6.209883},{"i_long":106.840169,"transit":false,"station_name":"Cikini","station_id":"CKI","is_transit":false,"line":2,"distance":1590,"time":4,"i_lat":-6.198556},{"distance":1750,"i_lat":-6.186295,"station_id":"GDD","is_transit":false,"line":2,"time":3,"i_long":106.832183,"station_name":"Gondangdia","transit":false},{"i_long":106.828284,"transit":false,"station_name":"Juanda","station_id":"JUA","time":4,"is_transit":false,"distance":2015,"i_lat":-6.166716,"line":2},{"i_long":106.827103,"line":2,"time":2,"transit":false,"station_id":"SW","distance":1149,"i_lat":-6.160725,"station_name":"Sawah Besar","is_transit":false},{"station_name":"Manggabesar","line":2,"is_transit":false,"i_long":106.82482,"distance":906,"transit":false,"time":2,"station_id":"MGB","i_lat":-6.149769},{"transit":false,"station_name":"Jayakarta","is_transit":false,"time":2,"i_lat":-6.141205,"station_id":"JAY","i_long":106.820901,"line":2,"distance":1080}],[{"station_name":"Univ. Indonesia","i_lat":-6.360749,"i_long":106.831474,"line":2,"distance":0,"time":0,"is_transit":false,"transit":false,"station_id":"UI"},{"time":3,"is_transit":false,"distance":2264,"station_id":"UP","station_name":"Univ. Pancasila","i_long":106.834175,"line":2,"transit":false,"i_lat":-6.339291},{"station_name":"Lenteng Agung","i_lat":-6.330363,"transit":false,"is_transit":false,"line":2,"station_id":"LNA","distance":1029,"time":2,"i_long":106.832616},{"time":3,"distance":2671,"i_long":106.838896,"transit":false,"station_id":"TNT","is_transit":false,"i_lat":-6.3080680000000005,"line":2,"station_name":"Tanjung Barat"},{"distance":2820,"station_name":"Pasar Minggu","transit":false,"station_id":"PSM","i_long":106.843999,"line":2,"i_lat":-6.2842400000000005,"time":4,"is_transit":false},{"station_id":"PSMB","i_lat":-6.263214,"is_transit":false,"transit":false,"i_long":106.851577,"station_name":"Pasar Minggu Baru","distance":2380,"line":2,"time":2},{"station_name":"Duren Kalibata","distance":824,"station_id":"DRN","is_transit":false,"i_long":106.85449,"time":2,"transit":false,"line":2,"i_lat":-6.255332},{"distance":1546,"i_lat":-6.242512,"time":3,"station_name":"Cawang","transit":false,"i_long":106.856607,"line":2,"is_transit":false,"station_id":"CW"},{"line":2,"station_id":"TEB","i_lat":-6.226659,"distance":1230,"i_long":106.857948,"station_name":"Tebet","time":2,"transit":false,"is_transit":false},{"is_transit":true,"station_id":"MRI","i_long":106.84912,"line":2,"distance":2610,"transit":true,"station_name":"Manggarai","i_lat":-6.209883,"time":4},{"i_lat":-6.202263,"station_id":"SUD","i_long":106.822649,"line":1,"transit":false,"station_name":"Sudirman","is_transit":false,"time":4,"distance":3186},{"transit":false,"i_lat":-6.201433,"station_id":"SUDB","time":1,"is_transit":false,"i_long":106.819881,"distance":280,"line":1,"station_name":"Sudirman Baru"},{"is_transit":false,"distance":471,"transit":false,"station_name":"Karet","line":1,"i_lat":-6.20132,"i_long":106.816351,"time":1,"station_id":"KAT"},{"transit":false,"station_id":"THB","time":5,"i_long":106.811091,"distance":2029,"is_transit":false,"i_lat":-6.185545,"line":1,"station_name":"Tanah Abang"},{"line":1,"transit":false,"i_long":106.800832,"station_id":"DU","time":8,"distance":3632,"station_name":"Duri","is_transit":false,"i_lat":-6.155215},{"is_transit":false,"i_long":106.79867,"time":4,"i_lat":-6.144674,"station_name":"Angke","distance":1230,"line":1,"station_id":"AK","transit":false},{"transit":true,"distance":4102,"line":4,"station_name":"Kampung Bandan","i_lat":-6.132549,"time":9,"i_long":106.826365,"is_transit":true,"station_id":"KPB"},{"line":2,"station_name":"Jakarta Kota","station_id":"JAKK","transit":true,"distance":1364,"time":3,"i_lat":-6.137569,"is_transit":true,"i_long":106.812439},{"i_lat":-6.141205,"i_long":106.820901,"transit":false,"is_transit":false,"distance":1264,"station_id":"JAY","line":2,"station_name":"Jayakarta","time":4}],[{"is_transit":false,"time":0,"i_long":106.831474,"line":2,"station_name":"Univ. Indonesia","distance":0,"transit":false,"i_lat":-6.360749,"station_id":"UI"},{"i_long":106.834175,"distance":2264,"station_name":"Univ. Pancasila","i_lat":-6.339291,"transit":false,"is_transit":false,"station_id":"UP","time":3,"line":2},{"station_name":"Lenteng Agung","distance":1029,"i_lat":-6.330363,"is_transit":false,"transit":false,"station_id":"LNA","time":2,"line":2,"i_long":106.832616},{"transit":false,"station_id":"TNT","i_long":106.838896,"time":3,"i_lat":-6.3080680000000005,"distance":2671,"station_name":"Tanjung Barat","is_transit":false,"line":2},{"line":2,"station_id":"PSM","i_long":106.843999,"is_transit":false,"time":4,"distance":2820,"i_lat":-6.2842400000000005,"station_name":"Pasar Minggu","transit":false},{"time":2,"i_long":106.851577,"line":2,"is_transit":false,"station_id":"PSMB","station_name":"Pasar Minggu Baru","i_lat":-6.263214,"transit":false,"distance":2380},{"i_lat":-6.255332,"time":2,"line":2,"station_name":"Duren Kalibata","distance":824,"station_id":"DRN","i_long":106.85449,"is_transit":false,"transit":false},{"time":3,"i_long":106.856607,"line":2,"transit":false,"station_name":"Cawang","is_transit":false,"distance":1546,"station_id":"CW","i_lat":-6.242512},{"transit":false,"i_long":106.857948,"station_id":"TEB","is_transit":false,"station_name":"Tebet","i_lat":-6.226659,"line":2,"distance":1230,"time":2},{"distance":2610,"i_long":106.84912,"station_name":"Manggarai","line":2,"time":4,"i_lat":-6.209883,"transit":true,"station_id":"MRI","is_transit":true},{"station_name":"Matraman","line":1,"distance":1275,"i_lat":-6.212485,"time":2,"station_id":"MTR","is_transit":false,"i_long":106.858896,"transit":false},{"i_lat":-6.215091,"i_long":106.86807400000001,"station_id":"JNG","station_name":"Jatinegara","transit":true,"time":8,"is_transit":true,"distance":1377,"line":1},{"i_long":106.861737,"station_name":"Pondok Jati","line":11,"transit":false,"station_id":"POK","is_transit":false,"time":2,"i_lat":-6.209188,"distance":1236},{"is_transit":false,"time":2,"station_name":"Kramat","i_long":106.855437,"distance":1829,"station_id":"KMT","transit":false,"i_lat":-6.193792,"line":11},{"transit":false,"is_transit":false,"i_lat":-6.185975,"i_long":106.850107,"line":11,"station_id":"GST","station_name":"Gang Sentiong","time":1,"distance":973},{"distance":1567,"transit":false,"station_id":"PSE","i_long":106.84368,"time":8,"is_transit":false,"i_lat":-6.174784,"line":11,"station_name":"Pasar Senen"},{"station_id":"KMO","time":4,"i_long":106.839204,"distance":1436,"line":11,"transit":false,"station_name":"Kemayoran","i_lat":-6.161728,"is_transit":false},{"station_id":"RJW","i_lat":-6.14505,"station_name":"Rajawali","time":5,"transit":false,"is_transit":false,"i_long":106.836569,"distance":1901,"line":11},{"station_id":"KPB","distance":1444,"time":3,"i_long":106.826365,"transit":true,"station_name":"Kampung Bandan","line":4,"is_transit":true,"i_lat":-6.132549},{"distance":1364,"time":3,"station_name":"Jakarta Kota","transit":true,"i_lat":-6.137569,"line":2,"station_id":"JAKK","i_long":106.812439,"is_transit":true},{"station_id":"JAY","time":4,"station_name":"Jayakarta","transit":false,"is_transit":false,"distance":1264,"i_lat":-6.141205,"line":2,"i_long":106.820901}]]}