{"data":[[{"i_long":106.831474,"is_transit":false,"i_lat":-6.360749,"time":0,"transit":false,"distance":0,"station_id":"UI","station_name":"Univ. Indonesia","line":2},{"distance":2264,"station_id":"UP","i_lat":-6.339291,"i_long":106.834175,"line":2,"time":3,"is_transit":false,"transit":false,"station_name":"Univ. Pancasila"},{"time":2,"is_transit":false,"station_id":"LNA","i_lat":-6.330363,"station_name":"Lenteng Agung","transit":false,"i_long":106.832616,"line":2,"distance":1029},{"station_name":"Tanjung Barat","distance":2671,"station_id":"TNT","transit":false,"is_transit":false,"i_long":106.838896,"time":3,"i_lat":-6.3080680000000005,"line":2},{"station_name":"Pasar Minggu","i_lat":-6.2842400000000005,"time":4,"station_id":"PSM","transit":false,"distance":2820,"is_transit":false,"line":2,"i_long":106.843999},{"time":2,"station_id":"PSMB","distance":2380,"is_transit":false,"transit":false,"station_name":"Pasar Minggu Baru","i_lat":-6.263214,"line":2,"i_long":106.851577},{"is_transit":false,"i_lat":-6.255332,"station_id":"DRN","distance":824,"line":2,"i_long":106.85449,"time":2,"station_name":"Duren Kalibata","transit":false},{"distance":1546,"station_id":"CW","station_name":"Cawang","is_transit":false,"i_lat":-6.242512,"i_long":106.856607,"line":2,"time":3,"transit":false},{"is_transit":false,"station_id":"TEB","transit":false,"time":2,"i_lat":-6.226659,"line":2,"station_name":"Tebet","i_long":106.857948,"distance":1230},{"transit":true,"time":4,"distance":2610,"station_name":"Manggarai","is_transit":true,"station_id":"MRI","i_long":106.84912,"line":2,"i_lat":-6.209883},{"station_id":"MTR","station_name":"Matraman","transit":false,"i_lat":-6.212485,"i_long":106.858896,"line":1,"distance":1275,"is_transit":false,"time":2},{"i_lat":-6.215091,"station_name":"Jatinegara","line":1,"distance":1377,"is_transit":false,"i_long":106.86807400000001,"station_id":"JNG","time":8,"transit":false}],[{"line":2,"time":0,"station_id":"UI","is_transit":false,"transit":false,"i_lat":-6.360749,"i_long":106.831474,"station_name":"Univ. Indonesia","distance":0},{"i_long":106.834175,"transit":false,"station_name":"Univ. Pancasila","time":3,"is_transit":false,"distance":2264,"station_id":"UP","i_lat":-6.339291,"line":2},{"station_id":"LNA","line":2,"i_lat":-6.330363,"time":2,"is_transit":false,"distance":1029,"transit":false,"i_long":106.832616,"station_name":"Lenteng Agung"},{"distance":2671,"i_lat":-6.3080680000000005,"i_long":106.838896,"is_transit":false,"station_name":"Tanjung Barat","time":3,"transit":false,"station_id":"TNT","line":2},{"station_id":"PSM","station_name":"Pasar Minggu","i_lat":-6.2842400000000005,"line":2,"i_long":106.843999,"time":4,"is_transit":false,"transit":false,"distance":2820},{"distance":2380,"station_name":"Pasar Minggu Baru","time":2,"i_lat":-6.263214,"transit":false,"i_long":106.851577,"station_id":"PSMB","is_transit":false,"line":2},{"i_lat":-6.255332,"distance":824,"line":2,"station_id":"DRN","is_transit":false,"i_long":106.85449,"time":2,"transit":false,"station_name":"Duren Kalibata"},{"distance":1546,"is_transit":false,"time":3,"station_name":"Cawang","transit":false,"station_id":"CW","i_lat":-6.242512,"line":2,"i_long":106.856607},{"i_long":106.857948,"is_transit":false,"line":2,"station_name":"Tebet","i_lat":-6.226659,"distance":1230,"time":2,"station_id":"TEB","transit":false},{"line":2,"i_lat":-6.209883,"i_long":106.84912,"transit":true,"station_name":"Manggarai","is_transit":true,"distance":2610,"time":4,"station_id":"MRI"},{"line":1,"time":4,"station_id":"SUD","is_transit":false,"station_name":"Sudirman","distance":3186,"i_lat":-6.202263,"i_long":106.822649,"transit":false},{"time":1,"station_name":"Sudirman Baru","i_long":106.819881,"i_lat":-6.201433,"station_id":"SUDB","distance":280,"line":1,"transit":false,"is_transit":false},{"i_lat":-6.20132,"distance":471,"i_long":106.816351,"time":1,"station_name":"Karet","station_id":"KAT","line":1,"transit":false,"is_transit":false},{"line":1,"transit":false,"is_transit":false,"station_name":"Tanah Abang","i_long":106.811091,"i_lat":-6.185545,"distance":2029,"time":5,"station_id":"THB"},{"distance":3632,"is_transit":false,"station_name":"Duri","i_long":106.800832,"station_id":"DU","transit":false,"line":1,"i_lat":-6.155215,"time":8},{"is_transit":false,"transit":false,"station_name":"Angke","distance":1230,"line":1,"i_long":106.79867,"time":4,"i_lat":-6.144674,"station_id":"AK"},{"station_name":"Kampung Bandan","station_id":"KPB","distance":4102,"i_lat":-6.132549,"is_transit":true,"i_long":106.826365,"transit":true,"time":9,"line":4},{"i_long":106.836569,"time":3,"transit":false,"is_transit":false,"station_name":"Rajawali","station_id":"RJW","i_lat":-6.14505,"distance":1444,"line":11},{"station_id":"KMO","i_long":106.839204,"distance":1901,"station_name":"Kemayoran","line":11,"i_lat":-6.161728,"is_transit":false,"transit":false,"time":5},{"line":11,"is_transit":false,"i_long":106.84368,"station_id":"PSE","time":4,"transit":false,"distance":1436,"i_lat":-6.174784,"station_name":"Pasar Senen"},{"line":11,"is_transit":false,"transit":false,"i_long":106.850107,"time":8,"distance":1567,"station_name":"Gang Sentiong","station_id":"GST","i_lat":-6.185975},{"time":1,"i_long":106.855437,"line":11,"station_id":"KMT","i_lat":-6.193792,"station_name":"Kramat","distance":973,"is_transit":false,"transit":false},{"is_transit":false,"transit":false,"line":11,"distance":1829,"station_id":"POK","time":2,"i_lat":-6.209188,"station_name":"Pondok Jati","i_long":106.861737},{"time":9,"i_long":106.86807400000001,"station_id":"JNG","station_name":"Jatinegara","is_transit":false,"transit":false,"i_lat":-6.215091,"distance":1236,"line":1}],[{"is_transit":false,"time":0,"transit":false,"line":2,"station_id":"UI","i_long":106.831474,"distance":0,"station_name":"Univ. Indonesia","i_lat":-6.360749},{"time":3,"i_long":106.834175,"is_transit":false,"station_name":"Univ. Pancasila","i_lat":-6.339291,"distance":2264,"line":2,"station_id":"UP","transit":false},{"i_long":106.832616,"is_transit":false,"station_name":"Lenteng Agung","line":2,"distance":1029,"i_lat":-6.330363,"time":2,"transit":false,"station_id":"LNA"},{"station_id":"TNT","station_name":"Tanjung Barat","i_long":106.838896,"time":3,"distance":2671,"is_transit":false,"transit":false,"line":2,"i_lat":-6.3080680000000005},{"is_transit":false,"station_id":"PSM","i_lat":-6.2842400000000005,"time":4,"line":2,"distance":2820,"transit":false,"i_long":106.843999,"station_name":"Pasar Minggu"},{"line":2,"i_lat":-6.263214,"i_long":106.851577,"station_id":"PSMB","station_name":"Pasar Minggu Baru","is_transit":false,"time":2,"transit":false,"distance":2380},{"transit":false,"time":2,"is_transit":false,"station_id":"DRN","line":2,"i_lat":-6.255332,"distance":824,"station_name":"Duren Kalibata","i_long":106.85449},{"line":2,"is_transit":false,"transit":false,"i_lat":-6.242512,"station_name":"Cawang","time":3,"distance":1546,"station_id":"CW","i_long":106.856607},{"transit":false,"time":2,"distance":1230,"station_name":"Tebet","station_id":"TEB","i_long":106.857948,"is_transit":false,"line":2,"i_lat":-6.226659},{"is_transit":false,"station_id":"MRI","i_long":106.84912,"line":2,"i_lat":-6.209883,"distance":2610,"time":4,"transit":false,"station_name":"Manggarai"},{"distance":1590,"is_transit":false,"i_lat":-6.198556,"i_long":106.840169,"transit":false,"time":4,"station_name":"Cikini","station_id":"CKI","line":2},{"station_name":"Gondangdia","station_id":"GDD","line":2,"i_long":106.832183,"transit":false,"distance":1750,"i_lat":-6.186295,"is_transit":false,"time":3},{"transit":false,"i_long":106.828284,"line":2,"i_lat":-6.166716,"time":4,"station_id":"JUA","station_name":"Juanda","distance":2015,"is_transit":false},{"is_transit":false,"transit":false,"distance":1149,"time":2,"i_lat":-6.160725,"station_id":"SW","station_name":"Sawah Besar","i_long":106.827103,"line":2},{"is_transit":false,"distance":906,"transit":false,"station_id":"MGB","i_lat":-6.149769,"station_name":"Manggabesar","i_long":106.82482,"time":2,"line":2},{"transit":false,"distance":1080,"station_name":"Jayakarta","station_id":"JAY","i_lat":-6.141205,"is_transit":false,"i_long":106.820901,"time":2,"line":2},{"station_name":"Jakarta Kota","time":4,"distance":1264,"station_id":"JAKK","i_long":106.812439,"line":2,"i_lat":-6.137569,"transit":true,"is_transit":true},{"station_name":"Kampung Bandan","i_long":106.826365,"time":3,"distance":1364,"i_lat":-6.132549,"line":4,"station_id":"KPB","transit":true,"is_transit":true},{"transit":false,"time":3,"is_transit":false,"i_lat":-6.14505,"line":11,"i_long":106.836569,"station_id":"RJW","station_name":"Rajawali","distance":1444},{"time":5,"station_name":"Kemayoran","transit":false,"line":11,"i_lat":-6.161728,"distance":1901,"is_transit":false,"i_long":106.839204,"station_id":"KMO"},{"distance":1436,"i_long":106.84368,"station_name":"Pasar Senen","is_transit":false,"line":11,"station_id":"PSE","time":4,"transit":false,"i_lat":-6.174784},{"time":8,"line":11,"is_transit":false,"transit":false,"i_lat":-6.185975,"i_long":106.850107,"station_id":"GST","distance":1567,"station_name":"Gang Sentiong"},{"line":11,"is_transit":false,"i_lat":-6.193792,"transit":false,"time":1,"station_name":"Kramat","i_long":106.855437,"station_id":"KMT","distance":973},{"i_long":106.861737,"time":2,"station_id":"POK","distance":1829,"is_transit":false,"station_name":"Pondok Jati","transit":false,"i_lat":-6.209188,"line":11},{"station_id":"JNG","i_lat":-6.215091,"transit":false,"i_long":106.86807400000001,"station_name":"Jatinegara","is_transit":false,"time":9,"line":1,"distance":1236}]]}