{"data":[[{"time":0,"i_lat":-6.360749,"station_id":"UI","line":2,"station_name":"Univ. Indonesia","distance":0,"is_transit":false,"i_long":106.831474,"transit":false},{"time":3,"line":2,"station_id":"UP","i_lat":-6.339291,"transit":false,"station_name":"Univ. Pancasila","i_long":106.834175,"distance":2264,"is_transit":false},{"is_transit":false,"i_long":106.832616,"line":2,"transit":false,"i_lat":-6.330363,"time":2,"distance":1029,"station_name":"Lenteng Agung","station_id":"LNA"},{"station_name":"Tanjung Barat","i_long":106.838896,"is_transit":false,"line":2,"distance":2671,"station_id":"TNT","i_lat":-6.3080680000000005,"time":3,"transit":false},{"i_long":106.843999,"transit":false,"station_name":"Pasar Minggu","distance":2820,"is_transit":false,"time":4,"station_id":"PSM","line":2,"i_lat":-6.2842400000000005},{"i_lat":-6.263214,"transit":false,"line":2,"is_transit":false,"station_id":"PSMB","i_long":106.851577,"station_name":"Pasar Minggu Baru","distance":2380,"time":2},{"time":2,"i_long":106.85449,"transit":false,"i_lat":-6.255332,"is_transit":false,"station_id":"DRN","station_name":"Duren Kalibata","distance":824,"line":0},{"i_long":106.856607,"time":3,"line":0,"transit":false,"i_lat":-6.242512,"distance":1546,"station_id":"CW","station_name":"Cawang","is_transit":false},{"station_id":"TEB","i_long":106.857948,"station_name":"Tebet","distance":1230,"line":2,"time":2,"transit":false,"is_transit":false,"i_lat":-6.226659},{"i_long":106.84912,"i_lat":-6.209883,"station_id":"MRI","is_transit":true,"station_name":"Manggarai","transit":true,"time":4,"line":0,"distance":2610},{"line":1,"transit":false,"i_lat":-6.212485,"i_long":106.858896,"is_transit":false,"station_id":"MTR","station_name":"Matraman","time":2,"distance":1275},{"time":8,"station_id":"JNG","i_lat":-6.215091,"distance":1377,"is_transit":true,"line":0,"station_name":"Jatinegara","i_long":106.86807400000001,"transit":false}],[{"station_id":"UI","station_name":"Univ. Indonesia","i_long":106.831474,"time":0,"line":2,"is_transit":false,"transit":false,"i_lat":-6.360749,"distance":0},{"is_transit":false,"time":3,"i_long":106.834175,"distance":2264,"transit":false,"i_lat":-6.339291,"line":2,"station_id":"UP","station_name":"Univ. Pancasila"},{"station_name":"Lenteng Agung","transit":false,"station_id":"LNA","i_lat":-6.330363,"i_long":106.832616,"line":2,"is_transit":false,"time":2,"distance":1029},{"line":2,"transit":false,"distance":2671,"station_id":"TNT","station_name":"Tanjung Barat","time":3,"i_lat":-6.3080680000000005,"i_long":106.838896,"is_transit":false},{"i_long":106.843999,"line":2,"station_id":"PSM","station_name":"Pasar Minggu","i_lat":-6.2842400000000005,"distance":2820,"is_transit":false,"transit":false,"time":4},{"i_long":106.851577,"transit":false,"line":2,"station_id":"PSMB","i_lat":-6.263214,"is_transit":false,"distance":2380,"station_name":"Pasar Minggu Baru","time":2},{"is_transit":false,"transit":false,"i_long":106.85449,"i_lat":-6.255332,"line":0,"distance":824,"station_name":"Duren Kalibata","time":2,"station_id":"DRN"},{"i_lat":-6.242512,"time":3,"transit":false,"distance":1546,"i_long":106.856607,"line":0,"is_transit":false,"station_id":"CW","station_name":"Cawang"},{"transit":false,"i_lat":-6.226659,"line":2,"station_name":"Tebet","station_id":"TEB","distance":1230,"is_transit":false,"time":2,"i_long":106.857948},{"line":0,"time":4,"i_lat":-6.209883,"transit":true,"station_name":"Manggarai","station_id":"MRI","i_long":106.84912,"distance":2610,"is_transit":true},{"i_long":106.822649,"line":1,"station_id":"SUD","station_name":"Sudirman","time":4,"i_lat":-6.202263,"distance":3186,"transit":false,"is_transit":false},{"station_name":"Sudirman Baru","transit":false,"time":1,"distance":280,"is_transit":false,"station_id":"SUDB","i_long":106.819881,"i_lat":-6.201433,"line":1},{"i_lat":-6.20132,"time":1,"transit":false,"station_id":"KAT","i_long":106.816351,"is_transit":false,"station_name":"Karet","line":1,"distance":471},{"i_long":106.811091,"station_id":"THB","i_lat":-6.185545,"distance":2029,"time":5,"transit":false,"station_name":"Tanah Abang","is_transit":true,"line":1},{"is_transit":true,"station_id":"DU","line":1,"time":8,"station_name":"Duri","transit":true,"i_lat":-6.155215,"i_long":106.800832,"distance":3632},{"transit":false,"time":4,"i_lat":-6.144674,"is_transit":false,"line":0,"station_id":"AK","i_long":106.79867,"station_name":"Angke","distance":1230},{"station_id":"KPB","distance":4102,"time":9,"is_transit":true,"station_name":"Kampung Bandan","i_lat":-6.132549,"line":0,"transit":true,"i_long":106.826365},{"station_name":"Rajawali","transit":false,"i_lat":-6.14505,"i_long":106.836569,"line":11,"time":3,"distance":1444,"is_transit":false,"station_id":"RJW"},{"i_long":106.839204,"is_transit":false,"i_lat":-6.161728,"line":11,"station_id":"KMO","station_name":"Kemayoran","distance":1901,"transit":false,"time":5},{"line":11,"i_lat":-6.174784,"i_long":106.84368,"station_id":"PSE","is_transit":false,"station_name":"Pasar Senen","distance":1436,"transit":false,"time":4},{"is_transit":false,"i_long":106.850107,"time":8,"transit":false,"distance":1567,"station_id":"GST","line":11,"station_name":"Gang Sentiong","i_lat":-6.185975},{"is_transit":false,"station_name":"Kramat","i_lat":-6.193792,"line":11,"i_long":106.855437,"distance":973,"time":1,"station_id":"KMT","transit":false},{"station_name":"Pondok Jati","transit":false,"i_long":106.861737,"station_id":"POK","line":11,"time":2,"i_lat":-6.209188,"is_transit":false,"distance":1829},{"transit":false,"distance":1236,"line":0,"station_id":"JNG","station_name":"Jatinegara","i_long":106.86807400000001,"time":9,"is_transit":true,"i_lat":-6.215091}],[{"i_lat":-6.360749,"distance":0,"i_long":106.831474,"station_id":"UI","line":2,"transit":false,"station_name":"Univ. Indonesia","is_transit":false,"time":0},{"distance":2264,"station_name":"Univ. Pancasila","transit":false,"line":2,"station_id":"UP","i_long":106.834175,"time":3,"is_transit":false,"i_lat":-6.339291},{"distance":1029,"station_id":"LNA","i_long":106.832616,"station_name":"Lenteng Agung","time":2,"i_lat":-6.330363,"line":2,"transit":false,"is_transit":false},{"station_id":"TNT","station_name":"Tanjung Barat","time":3,"line":2,"distance":2671,"i_long":106.838896,"transit":false,"is_transit":false,"i_lat":-6.3080680000000005},{"time":4,"i_long":106.843999,"station_name":"Pasar Minggu","i_lat":-6.2842400000000005,"distance":2820,"is_transit":false,"transit":false,"line":2,"station_id":"PSM"},{"transit":false,"i_long":106.851577,"i_lat":-6.263214,"time":2,"is_transit":false,"distance":2380,"line":2,"station_id":"PSMB","station_name":"Pasar Minggu Baru"},{"is_transit":false,"station_name":"Duren Kalibata","distance":824,"station_id":"DRN","i_lat":-6.255332,"line":0,"i_long":106.85449,"transit":false,"time":2},{"station_name":"Cawang","is_transit":false,"transit":false,"time":3,"i_lat":-6.242512,"i_long":106.856607,"distance":1546,"station_id":"CW","line":0},{"distance":1230,"time":2,"i_lat":-6.226659,"station_name":"Tebet","is_transit":false,"line":2,"station_id":"TEB","transit":false,"i_long":106.857948},{"line":0,"i_long":106.84912,"station_name":"Manggarai","is_transit":true,"station_id":"MRI","time":4,"transit":true,"i_lat":-6.209883,"distance":2610},{"transit":false,"time":4,"i_lat":-6.198556,"line":0,"i_long":106.840169,"station_name":"Cikini","distance":1590,"is_transit":false,"station_id":"CKI"},{"transit":false,"time":3,"i_lat":-6.186295,"line":2,"is_transit":false,"station_id":"GDD","distance":1750,"i_long":106.832183,"station_name":"Gondangdia"},{"distance":2015,"transit":false,"station_id":"JUA","i_long":106.828284,"is_transit":false,"station_name":"Juanda","line":2,"time":4,"i_lat":-6.166716},{"transit":false,"time":2,"line":2,"station_id":"SW","distance":1149,"station_name":"Sawah Besar","i_lat":-6.160725,"i_long":106.827103,"is_transit":false},{"station_id":"MGB","station_name":"Manggabesar","transit":false,"line":2,"distance":906,"is_transit":false,"i_long":106.82482,"time":2,"i_lat":-6.149769},{"transit":false,"station_name":"Jayakarta","i_long":106.820901,"line":7,"is_transit":false,"distance":1080,"station_id":"JAY","time":2,"i_lat":-6.141205},{"is_transit":true,"i_lat":-6.137569,"i_long":106.812439,"transit":true,"line":0,"time":4,"distance":1264,"station_id":"JAKK","station_name":"Jakarta Kota"},{"station_id":"KPB","transit":true,"line":0,"time":3,"distance":1364,"i_long":106.826365,"station_name":"Kampung Bandan","is_transit":true,"i_lat":-6.132549},{"transit":false,"station_id":"RJW","i_lat":-6.14505,"station_name":"Rajawali","i_long":106.836569,"line":11,"distance":1444,"is_transit":false,"time":3},{"station_name":"Kemayoran","i_long":106.839204,"line":11,"is_transit":false,"station_id":"KMO","transit":false,"time":5,"distance":1901,"i_lat":-6.161728},{"station_name":"Pasar Senen","i_lat":-6.174784,"distance":1436,"line":11,"i_long":106.84368,"station_id":"PSE","transit":false,"is_transit":false,"time":4},{"i_long":106.850107,"is_transit":false,"distance":1567,"line":11,"time":8,"transit":false,"station_name":"Gang Sentiong","station_id":"GST","i_lat":-6.185975},{"i_lat":-6.193792,"i_long":106.855437,"line":11,"distance":973,"transit":false,"is_transit":false,"time":1,"station_id":"KMT","station_name":"Kramat"},{"station_name":"Pondok Jati","i_long":106.861737,"distance":1829,"time":2,"transit":false,"i_lat":-6.209188,"is_transit":false,"line":11,"station_id":"POK"},{"station_id":"JNG","time":9,"is_transit":true,"line":0,"i_lat":-6.215091,"transit":false,"station_name":"Jatinegara","i_long":106.86807400000001,"distance":1236}]]}