{"data":[[{"station_id":"UI","is_transit":false,"station_name":"Univ. Indonesia","i_long":106.831474,"line":2,"time":0,"i_lat":-6.360749,"transit":false,"distance":0},{"distance":2264,"time":3,"station_id":"UP","is_transit":false,"transit":false,"station_name":"Univ. Pancasila","i_lat":-6.339291,"line":2,"i_long":106.834175},{"transit":false,"is_transit":false,"i_lat":-6.330363,"i_long":106.832616,"station_id":"LNA","line":2,"distance":1029,"time":2,"station_name":"Lenteng Agung"},{"transit":false,"i_long":106.838896,"station_name":"Tanjung Barat","line":2,"time":3,"distance":2671,"station_id":"TNT","i_lat":-6.3080680000000005,"is_transit":false},{"is_transit":false,"i_lat":-6.2842400000000005,"transit":false,"station_name":"Pasar Minggu","time":4,"line":2,"distance":2820,"station_id":"PSM","i_long":106.843999},{"is_transit":false,"transit":false,"i_long":106.851577,"distance":2380,"i_lat":-6.263214,"time":2,"station_id":"PSMB","station_name":"Pasar Minggu Baru","line":2},{"i_lat":-6.255332,"is_transit":false,"station_id":"DRN","line":2,"i_long":106.85449,"transit":false,"station_name":"Duren Kalibata","time":2,"distance":824},{"station_name":"Cawang","is_transit":false,"line":2,"i_long":106.856607,"distance":1546,"time":3,"station_id":"CW","i_lat":-6.242512,"transit":false},{"i_long":106.857948,"line":2,"transit":false,"i_lat":-6.226659,"distance":1230,"time":2,"station_id":"TEB","is_transit":false,"station_name":"Tebet"},{"line":2,"distance":2610,"station_name":"Manggarai","station_id":"MRI","transit":false,"i_long":106.84912,"time":4,"is_transit":false,"i_lat":-6.209883},{"transit":false,"station_id":"CKI","distance":1590,"i_lat":-6.198556,"line":2,"station_name":"Cikini","is_transit":false,"i_long":106.840169,"time":4},{"distance":1750,"transit":false,"station_id":"GDD","line":2,"i_lat":-6.186295,"i_long":106.832183,"is_transit":false,"station_name":"Gondangdia","time":3},{"time":4,"is_transit":false,"station_id":"JUA","station_name":"Juanda","i_lat":-6.166716,"i_long":106.828284,"line":2,"distance":2015,"transit":false},{"distance":1149,"line":2,"is_transit":false,"time":2,"station_id":"SW","transit":false,"i_long":106.827103,"station_name":"Sawah Besar","i_lat":-6.160725},{"time":2,"distance":906,"transit":false,"i_lat":-6.149769,"i_long":106.82482,"station_id":"MGB","is_transit":false,"line":2,"station_name":"Manggabesar"},{"station_name":"Jayakarta","station_id":"JAY","time":2,"i_long":106.820901,"line":2,"is_transit":false,"i_lat":-6.141205,"distance":1080,"transit":false}],[{"i_lat":-6.360749,"station_id":"UI","distance":0,"transit":false,"station_name":"Univ. Indonesia","i_long":106.831474,"line":2,"time":0,"is_transit":false},{"is_transit":false,"time":3,"transit":false,"station_name":"Univ. Pancasila","station_id":"UP","line":2,"distance":2264,"i_long":106.834175,"i_lat":-6.339291},{"i_long":106.832616,"line":2,"i_lat":-6.330363,"station_name":"Lenteng Agung","distance":1029,"time":2,"is_transit":false,"transit":false,"station_id":"LNA"},{"is_transit":false,"transit":false,"line":2,"station_name":"Tanjung Barat","i_lat":-6.3080680000000005,"i_long":106.838896,"distance":2671,"time":3,"station_id":"TNT"},{"is_transit":false,"transit":false,"distance":2820,"station_name":"Pasar Minggu","i_lat":-6.2842400000000005,"i_long":106.843999,"time":4,"station_id":"PSM","line":2},{"time":2,"i_lat":-6.263214,"line":2,"transit":false,"station_name":"Pasar Minggu Baru","distance":2380,"is_transit":false,"i_long":106.851577,"station_id":"PSMB"},{"distance":824,"time":2,"station_id":"DRN","transit":false,"i_long":106.85449,"i_lat":-6.255332,"station_name":"Duren Kalibata","is_transit":false,"line":2},{"station_id":"CW","line":2,"time":3,"i_long":106.856607,"i_lat":-6.242512,"distance":1546,"is_transit":false,"transit":false,"station_name":"Cawang"},{"transit":false,"distance":1230,"time":2,"station_id":"TEB","i_lat":-6.226659,"line":2,"is_transit":false,"station_name":"Tebet","i_long":106.857948},{"distance":2610,"is_transit":true,"transit":true,"time":4,"i_long":106.84912,"i_lat":-6.209883,"line":2,"station_name":"Manggarai","station_id":"MRI"},{"station_id":"SUD","i_lat":-6.202263,"station_name":"Sudirman","line":1,"distance":3186,"i_long":106.822649,"is_transit":false,"transit":false,"time":4},{"line":1,"distance":280,"station_name":"Sudirman Baru","station_id":"SUDB","time":1,"is_transit":false,"i_lat":-6.201433,"transit":false,"i_long":106.819881},{"distance":471,"i_lat":-6.20132,"time":1,"transit":false,"is_transit":false,"station_id":"KAT","i_long":106.816351,"station_name":"Karet","line":1},{"station_name":"Tanah Abang","transit":false,"line":1,"is_transit":false,"i_lat":-6.185545,"i_long":106.811091,"distance":2029,"time":5,"station_id":"THB"},{"distance":3632,"station_id":"DU","transit":false,"i_long":106.800832,"time":8,"is_transit":false,"station_name":"Duri","i_lat":-6.155215,"line":1},{"i_long":106.79867,"transit":false,"station_name":"Angke","time":4,"is_transit":false,"station_id":"AK","distance":1230,"line":1,"i_lat":-6.144674},{"time":9,"transit":true,"is_transit":true,"station_name":"Kampung Bandan","distance":4102,"station_id":"KPB","i_lat":-6.132549,"i_long":106.826365,"line":4},{"station_id":"JAKK","is_transit":true,"i_lat":-6.137569,"distance":1364,"i_long":106.812439,"line":2,"transit":true,"station_name":"Jakarta Kota","time":3},{"transit":false,"line":2,"station_name":"Jayakarta","station_id":"JAY","distance":1264,"is_transit":false,"i_lat":-6.141205,"i_long":106.820901,"time":4}],[{"distance":0,"station_id":"UI","transit":false,"station_name":"Univ. Indonesia","time":0,"i_lat":-6.360749,"i_long":106.831474,"line":2,"is_transit":false},{"i_long":106.834175,"line":2,"station_id":"UP","is_transit":false,"station_name":"Univ. Pancasila","distance":2264,"transit":false,"time":3,"i_lat":-6.339291},{"transit":false,"is_transit":false,"distance":1029,"station_name":"Lenteng Agung","i_lat":-6.330363,"i_long":106.832616,"station_id":"LNA","line":2,"time":2},{"i_lat":-6.3080680000000005,"station_name":"Tanjung Barat","is_transit":false,"time":3,"distance":2671,"i_long":106.838896,"line":2,"transit":false,"station_id":"TNT"},{"time":4,"transit":false,"station_name":"Pasar Minggu","i_lat":-6.2842400000000005,"is_transit":false,"distance":2820,"line":2,"station_id":"PSM","i_long":106.843999},{"i_lat":-6.263214,"line":2,"distance":2380,"station_id":"PSMB","i_long":106.851577,"is_transit":false,"time":2,"transit":false,"station_name":"Pasar Minggu Baru"},{"i_long":106.85449,"station_name":"Duren Kalibata","transit":false,"station_id":"DRN","distance":824,"line":2,"is_transit":false,"time":2,"i_lat":-6.255332},{"is_transit":false,"time":3,"station_name":"Cawang","distance":1546,"line":2,"i_long":106.856607,"i_lat":-6.242512,"transit":false,"station_id":"CW"},{"station_name":"Tebet","is_transit":false,"transit":false,"i_lat":-6.226659,"line":2,"i_long":106.857948,"distance":1230,"time":2,"station_id":"TEB"},{"time":4,"is_transit":true,"i_lat":-6.209883,"distance":2610,"i_long":106.84912,"transit":true,"station_name":"Manggarai","station_id":"MRI","line":2},{"time":2,"transit":false,"station_id":"MTR","is_transit":false,"distance":1275,"station_name":"Matraman","i_lat":-6.212485,"i_long":106.858896,"line":1},{"line":1,"station_name":"Jatinegara","station_id":"JNG","i_lat":-6.215091,"distance":1377,"i_long":106.86807400000001,"time":8,"transit":true,"is_transit":true},{"transit":false,"station_name":"Pondok Jati","station_id":"POK","i_lat":-6.209188,"line":11,"time":2,"is_transit":false,"i_long":106.861737,"distance":1236},{"is_transit":false,"transit":false,"station_id":"KMT","distance":1829,"time":2,"i_lat":-6.193792,"i_long":106.855437,"station_name":"Kramat","line":11},{"line":11,"transit":false,"distance":973,"station_id":"GST","i_long":106.850107,"station_name":"Gang Sentiong","i_lat":-6.185975,"is_transit":false,"time":1},{"i_lat":-6.174784,"i_long":106.84368,"line":11,"transit":false,"is_transit":false,"station_name":"Pasar Senen","distance":1567,"station_id":"PSE","time":8},{"i_long":106.839204,"line":11,"is_transit":false,"transit":false,"time":4,"station_id":"KMO","i_lat":-6.161728,"distance":1436,"station_name":"Kemayoran"},{"distance":1901,"time":5,"line":11,"i_long":106.836569,"i_lat":-6.14505,"station_name":"Rajawali","transit":false,"station_id":"RJW","is_transit":false},{"station_id":"KPB","is_transit":true,"time":3,"transit":true,"i_lat":-6.132549,"station_name":"Kampung Bandan","i_long":106.826365,"distance":1444,"line":4},{"i_lat":-6.137569,"i_long":106.812439,"distance":1364,"station_id":"JAKK","time":3,"line":2,"is_transit":true,"transit":true,"station_name":"Jakarta Kota"},{"station_id":"JAY","distance":1264,"is_transit":false,"time":4,"transit":false,"station_name":"Jayakarta","i_lat":-6.141205,"i_long":106.820901,"line":2}]]}