{"data":[[{"is_transit":false,"i_long":106.831474,"distance":0,"i_lat":-6.360749,"time":0,"line":2,"station_id":"UI","station_name":"Univ. Indonesia","transit":false},{"line":2,"transit":false,"station_name":"Univ. Pancasila","i_lat":-6.339291,"i_long":106.834175,"station_id":"UP","time":3,"is_transit":false,"distance":2264},{"distance":1029,"station_name":"Lenteng Agung","time":2,"transit":false,"line":2,"station_id":"LNA","is_transit":false,"i_lat":-6.330363,"i_long":106.832616},{"transit":false,"i_long":106.838896,"line":2,"i_lat":-6.3080680000000005,"is_transit":false,"station_name":"Tanjung Barat","station_id":"TNT","time":3,"distance":2671},{"i_long":106.843999,"station_name":"Pasar Minggu","i_lat":-6.2842400000000005,"distance":2820,"line":2,"transit":false,"time":4,"station_id":"PSM","is_transit":false},{"distance":2380,"i_lat":-6.263214,"time":2,"station_id":"PSMB","station_name":"Pasar Minggu Baru","transit":false,"i_long":106.851577,"line":2,"is_transit":false},{"line":2,"transit":false,"station_name":"Duren Kalibata","i_lat":-6.255332,"distance":824,"is_transit":false,"time":2,"station_id":"DRN","i_long":106.85449},{"station_id":"CW","transit":false,"time":3,"i_long":106.856607,"line":2,"distance":1546,"station_name":"Cawang","i_lat":-6.242512,"is_transit":false},{"station_name":"Tebet","i_lat":-6.226659,"time":2,"i_long":106.857948,"transit":false,"distance":1230,"station_id":"TEB","is_transit":false,"line":2},{"time":4,"is_transit":false,"distance":2610,"station_name":"Manggarai","i_lat":-6.209883,"i_long":106.84912,"line":2,"station_id":"MRI","transit":false},{"time":4,"station_id":"CKI","i_long":106.840169,"transit":false,"station_name":"Cikini","i_lat":-6.198556,"is_transit":false,"line":2,"distance":1590},{"station_id":"GDD","station_name":"Gondangdia","is_transit":false,"line":2,"i_long":106.832183,"i_lat":-6.186295,"time":3,"distance":1750,"transit":false},{"distance":2015,"station_id":"JUA","i_lat":-6.166716,"time":4,"station_name":"Juanda","is_transit":false,"transit":false,"i_long":106.828284,"line":2},{"i_lat":-6.160725,"i_long":106.827103,"transit":false,"station_name":"Sawah Besar","line":2,"time":2,"distance":1149,"station_id":"SW","is_transit":false},{"i_lat":-6.149769,"i_long":106.82482,"station_id":"MGB","distance":906,"line":2,"transit":false,"station_name":"Manggabesar","is_transit":false,"time":2},{"i_long":106.820901,"distance":1080,"is_transit":false,"i_lat":-6.141205,"line":2,"station_name":"Jayakarta","station_id":"JAY","transit":false,"time":2}],[{"distance":0,"station_name":"Univ. Indonesia","transit":false,"i_long":106.831474,"line":2,"station_id":"UI","is_transit":false,"i_lat":-6.360749,"time":0},{"line":2,"station_id":"UP","i_lat":-6.339291,"time":3,"transit":false,"distance":2264,"station_name":"Univ. Pancasila","is_transit":false,"i_long":106.834175},{"time":2,"station_name":"Lenteng Agung","distance":1029,"i_lat":-6.330363,"station_id":"LNA","i_long":106.832616,"is_transit":false,"transit":false,"line":2},{"time":3,"line":2,"i_long":106.838896,"i_lat":-6.3080680000000005,"station_id":"TNT","station_name":"Tanjung Barat","transit":false,"distance":2671,"is_transit":false},{"station_name":"Pasar Minggu","transit":false,"i_long":106.843999,"is_transit":false,"line":2,"station_id":"PSM","i_lat":-6.2842400000000005,"distance":2820,"time":4},{"distance":2380,"is_transit":false,"line":2,"station_name":"Pasar Minggu Baru","time":2,"i_lat":-6.263214,"station_id":"PSMB","transit":false,"i_long":106.851577},{"station_id":"DRN","distance":824,"is_transit":false,"transit":false,"time":2,"line":2,"station_name":"Duren Kalibata","i_lat":-6.255332,"i_long":106.85449},{"i_long":106.856607,"transit":false,"is_transit":false,"distance":1546,"line":2,"time":3,"station_id":"CW","i_lat":-6.242512,"station_name":"Cawang"},{"i_long":106.857948,"is_transit":false,"transit":false,"i_lat":-6.226659,"time":2,"station_name":"Tebet","line":2,"station_id":"TEB","distance":1230},{"i_lat":-6.209883,"station_id":"MRI","distance":2610,"i_long":106.84912,"time":4,"station_name":"Manggarai","line":2,"transit":true,"is_transit":true},{"transit":false,"distance":3186,"i_lat":-6.202263,"i_long":106.822649,"time":4,"is_transit":false,"station_id":"SUD","line":1,"station_name":"Sudirman"},{"i_lat":-6.201433,"station_id":"SUDB","station_name":"Sudirman Baru","transit":false,"time":1,"i_long":106.819881,"distance":280,"line":1,"is_transit":false},{"transit":false,"is_transit":false,"i_long":106.816351,"i_lat":-6.20132,"time":1,"distance":471,"station_id":"KAT","line":1,"station_name":"Karet"},{"station_id":"THB","transit":false,"time":5,"i_long":106.811091,"line":1,"distance":2029,"station_name":"Tanah Abang","is_transit":false,"i_lat":-6.185545},{"station_name":"Duri","transit":false,"time":8,"i_long":106.800832,"line":1,"station_id":"DU","distance":3632,"is_transit":false,"i_lat":-6.155215},{"station_name":"Angke","station_id":"AK","transit":false,"i_long":106.79867,"time":4,"distance":1230,"is_transit":false,"line":1,"i_lat":-6.144674},{"time":9,"station_id":"KPB","i_long":106.826365,"line":4,"i_lat":-6.132549,"distance":4102,"station_name":"Kampung Bandan","is_transit":true,"transit":true},{"is_transit":true,"transit":true,"i_lat":-6.137569,"i_long":106.812439,"line":2,"distance":1364,"station_id":"JAKK","time":3,"station_name":"Jakarta Kota"},{"time":4,"is_transit":false,"transit":false,"station_name":"Jayakarta","i_lat":-6.141205,"line":2,"i_long":106.820901,"station_id":"JAY","distance":1264}],[{"is_transit":false,"transit":false,"station_id":"UI","time":0,"line":2,"i_long":106.831474,"distance":0,"station_name":"Univ. Indonesia","i_lat":-6.360749},{"line":2,"time":3,"is_transit":false,"transit":false,"station_name":"Univ. Pancasila","station_id":"UP","distance":2264,"i_lat":-6.339291,"i_long":106.834175},{"is_transit":false,"station_name":"Lenteng Agung","i_long":106.832616,"transit":false,"station_id":"LNA","line":2,"distance":1029,"i_lat":-6.330363,"time":2},{"station_name":"Tanjung Barat","station_id":"TNT","i_lat":-6.3080680000000005,"line":2,"i_long":106.838896,"transit":false,"is_transit":false,"time":3,"distance":2671},{"is_transit":false,"distance":2820,"transit":false,"station_name":"Pasar Minggu","i_long":106.843999,"time":4,"station_id":"PSM","line":2,"i_lat":-6.2842400000000005},{"is_transit":false,"i_long":106.851577,"transit":false,"line":2,"time":2,"station_id":"PSMB","station_name":"Pasar Minggu Baru","i_lat":-6.263214,"distance":2380},{"i_long":106.85449,"distance":824,"station_name":"Duren Kalibata","line":2,"is_transit":false,"station_id":"DRN","time":2,"i_lat":-6.255332,"transit":false},{"station_name":"Cawang","is_transit":false,"i_lat":-6.242512,"distance":1546,"station_id":"CW","time":3,"line":2,"i_long":106.856607,"transit":false},{"i_long":106.857948,"station_id":"TEB","transit":false,"distance":1230,"time":2,"is_transit":false,"station_name":"Tebet","i_lat":-6.226659,"line":2},{"time":4,"transit":true,"distance":2610,"i_lat":-6.209883,"i_long":106.84912,"station_id":"MRI","line":2,"station_name":"Manggarai","is_transit":true},{"i_lat":-6.212485,"line":1,"time":2,"i_long":106.858896,"is_transit":false,"distance":1275,"transit":false,"station_name":"Matraman","station_id":"MTR"},{"distance":1377,"station_id":"JNG","station_name":"Jatinegara","i_long":106.86807400000001,"i_lat":-6.215091,"time":8,"transit":true,"line":1,"is_transit":true},{"line":11,"station_name":"Pondok Jati","time":2,"distance":1236,"is_transit":false,"transit":false,"i_long":106.861737,"station_id":"POK","i_lat":-6.209188},{"line":11,"time":2,"station_name":"Kramat","distance":1829,"i_lat":-6.193792,"is_transit":false,"station_id":"KMT","transit":false,"i_long":106.855437},{"i_lat":-6.185975,"transit":false,"i_long":106.850107,"time":1,"station_id":"GST","is_transit":false,"station_name":"Gang Sentiong","distance":973,"line":11},{"i_lat":-6.174784,"line":11,"i_long":106.84368,"is_transit":false,"station_id":"PSE","station_name":"Pasar Senen","distance":1567,"transit":false,"time":8},{"i_long":106.839204,"line":11,"transit":false,"is_transit":false,"station_id":"KMO","station_name":"Kemayoran","i_lat":-6.161728,"time":4,"distance":1436},{"i_lat":-6.14505,"line":11,"i_long":106.836569,"is_transit":false,"distance":1901,"station_name":"Rajawali","station_id":"RJW","transit":false,"time":5},{"station_name":"Kampung Bandan","distance":1444,"is_transit":true,"i_lat":-6.132549,"time":3,"station_id":"KPB","i_long":106.826365,"transit":true,"line":4},{"line":2,"station_name":"Jakarta Kota","i_lat":-6.137569,"is_transit":true,"station_id":"JAKK","distance":1364,"transit":true,"i_long":106.812439,"time":3},{"i_long":106.820901,"time":4,"transit":false,"line":2,"station_id":"JAY","station_name":"Jayakarta","is_transit":false,"i_lat":-6.141205,"distance":1264}]]}