{"data":[[{"transit":false,"i_lat":-6.360749,"i_long":106.831474,"line":2,"station_name":"Univ. Indonesia","station_id":"UI","distance":0,"is_transit":false,"time":0},{"station_id":"UP","transit":false,"i_lat":-6.339291,"distance":2264,"time":3,"is_transit":false,"station_name":"Univ. Pancasila","line":2,"i_long":106.834175},{"station_name":"Lenteng Agung","line":2,"station_id":"LNA","i_lat":-6.330363,"i_long":106.832616,"time":2,"is_transit":false,"distance":1029,"transit":false},{"line":2,"i_long":106.838896,"station_id":"TNT","time":3,"distance":2671,"station_name":"Tanjung Barat","is_transit":false,"transit":false,"i_lat":-6.3080680000000005},{"i_lat":-6.2842400000000005,"is_transit":false,"i_long":106.843999,"distance":2820,"line":2,"station_id":"PSM","time":4,"transit":false,"station_name":"Pasar Minggu"},{"station_id":"PSMB","time":2,"i_lat":-6.263214,"line":2,"i_long":106.851577,"station_name":"Pasar Minggu Baru","distance":2380,"is_transit":false,"transit":false},{"station_name":"Duren Kalibata","transit":false,"line":2,"distance":824,"is_transit":false,"i_lat":-6.255332,"i_long":106.85449,"time":2,"station_id":"DRN"},{"is_transit":false,"i_long":106.856607,"i_lat":-6.242512,"line":2,"transit":false,"station_name":"Cawang","station_id":"CW","distance":1546,"time":3},{"i_long":106.857948,"time":2,"is_transit":false,"line":2,"distance":1230,"station_id":"TEB","transit":false,"station_name":"Tebet","i_lat":-6.226659},{"time":4,"line":2,"is_transit":true,"i_lat":-6.209883,"station_name":"Manggarai","i_long":106.84912,"transit":true,"distance":2610,"station_id":"MRI"},{"transit":false,"line":1,"i_lat":-6.212485,"time":2,"distance":1275,"is_transit":false,"i_long":106.858896,"station_id":"MTR","station_name":"Matraman"},{"transit":false,"i_lat":-6.215091,"i_long":106.86807400000001,"line":1,"time":8,"station_name":"Jatinegara","distance":1377,"is_transit":false,"station_id":"JNG"},{"distance":3395,"station_id":"KLD","line":1,"station_name":"Klender","transit":false,"is_transit":false,"i_long":106.899548,"time":3,"i_lat":-6.2135}],[{"station_name":"Univ. Indonesia","station_id":"UI","line":2,"i_lat":-6.360749,"distance":0,"time":0,"i_long":106.831474,"is_transit":false,"transit":false},{"is_transit":false,"i_long":106.834175,"station_id":"UP","transit":false,"time":3,"station_name":"Univ. Pancasila","i_lat":-6.339291,"distance":2264,"line":2},{"line":2,"time":2,"i_lat":-6.330363,"i_long":106.832616,"distance":1029,"is_transit":false,"transit":false,"station_id":"LNA","station_name":"Lenteng Agung"},{"line":2,"i_long":106.838896,"distance":2671,"station_name":"Tanjung Barat","station_id":"TNT","is_transit":false,"i_lat":-6.3080680000000005,"time":3,"transit":false},{"distance":2820,"transit":false,"line":2,"station_id":"PSM","i_long":106.843999,"station_name":"Pasar Minggu","is_transit":false,"i_lat":-6.2842400000000005,"time":4},{"station_id":"PSMB","station_name":"Pasar Minggu Baru","distance":2380,"time":2,"i_lat":-6.263214,"line":2,"is_transit":false,"transit":false,"i_long":106.851577},{"i_lat":-6.255332,"distance":824,"station_name":"Duren Kalibata","transit":false,"line":2,"time":2,"is_transit":false,"i_long":106.85449,"station_id":"DRN"},{"distance":1546,"i_long":106.856607,"station_id":"CW","i_lat":-6.242512,"is_transit":false,"transit":false,"line":2,"time":3,"station_name":"Cawang"},{"distance":1230,"i_lat":-6.226659,"time":2,"line":2,"station_name":"Tebet","is_transit":false,"station_id":"TEB","transit":false,"i_long":106.857948},{"i_lat":-6.209883,"distance":2610,"time":4,"transit":true,"is_transit":true,"station_name":"Manggarai","i_long":106.84912,"station_id":"MRI","line":2},{"is_transit":false,"i_long":106.822649,"distance":3186,"transit":false,"line":1,"i_lat":-6.202263,"station_id":"SUD","time":4,"station_name":"Sudirman"},{"station_id":"SUDB","i_long":106.819881,"line":1,"time":1,"is_transit":false,"transit":false,"station_name":"Sudirman Baru","i_lat":-6.201433,"distance":280},{"station_name":"Karet","is_transit":false,"time":1,"station_id":"KAT","transit":false,"i_long":106.816351,"i_lat":-6.20132,"distance":471,"line":1},{"transit":false,"line":1,"time":5,"station_id":"THB","i_long":106.811091,"i_lat":-6.185545,"is_transit":false,"distance":2029,"station_name":"Tanah Abang"},{"station_name":"Duri","is_transit":false,"i_lat":-6.155215,"i_long":106.800832,"station_id":"DU","transit":false,"time":8,"line":1,"distance":3632},{"distance":1230,"i_lat":-6.144674,"transit":false,"time":4,"i_long":106.79867,"line":1,"station_id":"AK","station_name":"Angke","is_transit":false},{"time":9,"is_transit":true,"i_lat":-6.132549,"station_id":"KPB","station_name":"Kampung Bandan","line":4,"distance":4102,"transit":true,"i_long":106.826365},{"line":11,"station_name":"Rajawali","time":3,"is_transit":false,"station_id":"RJW","distance":1444,"i_lat":-6.14505,"transit":false,"i_long":106.836569},{"distance":1901,"i_lat":-6.161728,"station_id":"KMO","line":11,"is_transit":false,"i_long":106.839204,"time":5,"transit":false,"station_name":"Kemayoran"},{"line":11,"time":4,"distance":1436,"station_name":"Pasar Senen","transit":false,"is_transit":false,"station_id":"PSE","i_long":106.84368,"i_lat":-6.174784},{"line":11,"distance":1567,"station_name":"Gang Sentiong","transit":false,"i_long":106.850107,"time":8,"i_lat":-6.185975,"station_id":"GST","is_transit":false},{"station_id":"KMT","line":11,"station_name":"Kramat","time":1,"is_transit":false,"i_long":106.855437,"distance":973,"i_lat":-6.193792,"transit":false},{"i_lat":-6.209188,"distance":1829,"is_transit":false,"i_long":106.861737,"line":11,"station_name":"Pondok Jati","station_id":"POK","transit":false,"time":2},{"time":9,"distance":1236,"transit":true,"i_long":106.86807400000001,"station_name":"Jatinegara","line":1,"is_transit":true,"station_id":"JNG","i_lat":-6.215091},{"station_id":"KLD","line":1,"distance":3395,"transit":false,"i_long":106.899548,"station_name":"Klender","time":3,"is_transit":false,"i_lat":-6.2135}],[{"i_long":106.831474,"time":0,"station_id":"UI","is_transit":false,"i_lat":-6.360749,"line":2,"distance":0,"station_name":"Univ. Indonesia","transit":false},{"station_id":"UP","line":2,"i_lat":-6.339291,"distance":2264,"is_transit":false,"transit":false,"i_long":106.834175,"time":3,"station_name":"Univ. Pancasila"},{"station_name":"Lenteng Agung","transit":false,"line":2,"station_id":"LNA","i_lat":-6.330363,"distance":1029,"is_transit":false,"i_long":106.832616,"time":2},{"station_name":"Tanjung Barat","station_id":"TNT","distance":2671,"time":3,"transit":false,"i_lat":-6.3080680000000005,"line":2,"is_transit":false,"i_long":106.838896},{"time":4,"distance":2820,"transit":false,"station_name":"Pasar Minggu","i_lat":-6.2842400000000005,"line":2,"station_id":"PSM","is_transit":false,"i_long":106.843999},{"distance":2380,"transit":false,"time":2,"is_transit":false,"i_lat":-6.263214,"line":2,"station_id":"PSMB","station_name":"Pasar Minggu Baru","i_long":106.851577},{"transit":false,"is_transit":false,"i_lat":-6.255332,"station_id":"DRN","distance":824,"line":2,"time":2,"i_long":106.85449,"station_name":"Duren Kalibata"},{"time":3,"distance":1546,"transit":false,"station_name":"Cawang","station_id":"CW","is_transit":false,"i_lat":-6.242512,"line":2,"i_long":106.856607},{"distance":1230,"station_id":"TEB","time":2,"station_name":"Tebet","line":2,"i_lat":-6.226659,"is_transit":false,"transit":false,"i_long":106.857948},{"station_name":"Manggarai","transit":false,"line":2,"distance":2610,"station_id":"MRI","time":4,"is_transit":false,"i_lat":-6.209883,"i_long":106.84912},{"transit":false,"i_long":106.840169,"line":2,"time":4,"i_lat":-6.198556,"is_transit":false,"station_id":"CKI","station_name":"Cikini","distance":1590},{"station_id":"GDD","station_name":"Gondangdia","i_long":106.832183,"transit":false,"line":2,"i_lat":-6.186295,"time":3,"distance":1750,"is_transit":false},{"transit":false,"i_long":106.828284,"line":2,"time":4,"station_id":"JUA","i_lat":-6.166716,"distance":2015,"is_transit":false,"station_name":"Juanda"},{"distance":1149,"time":2,"station_id":"SW","line":2,"transit":false,"station_name":"Sawah Besar","i_lat":-6.160725,"i_long":106.827103,"is_transit":false},{"distance":906,"i_lat":-6.149769,"line":2,"time":2,"is_transit":false,"transit":false,"station_id":"MGB","i_long":106.82482,"station_name":"Manggabesar"},{"i_long":106.820901,"distance":1080,"station_id":"JAY","time":2,"is_transit":false,"transit":false,"line":2,"station_name":"Jayakarta","i_lat":-6.141205},{"distance":1264,"i_long":106.812439,"is_transit":true,"station_name":"Jakarta Kota","line":2,"station_id":"JAKK","time":4,"transit":true,"i_lat":-6.137569},{"time":3,"distance":1364,"transit":true,"is_transit":true,"i_lat":-6.132549,"line":4,"station_id":"KPB","i_long":106.826365,"station_name":"Kampung Bandan"},{"station_name":"Rajawali","transit":false,"station_id":"RJW","line":11,"i_lat":-6.14505,"i_long":106.836569,"time":3,"distance":1444,"is_transit":false},{"is_transit":false,"line":11,"i_lat":-6.161728,"transit":false,"time":5,"distance":1901,"station_id":"KMO","i_long":106.839204,"station_name":"Kemayoran"},{"station_id":"PSE","station_name":"Pasar Senen","transit":false,"time":4,"i_long":106.84368,"is_transit":false,"i_lat":-6.174784,"line":11,"distance":1436},{"line":11,"transit":false,"i_lat":-6.185975,"station_id":"GST","station_name":"Gang Sentiong","time":8,"is_transit":false,"distance":1567,"i_long":106.850107},{"station_name":"Kramat","distance":973,"transit":false,"is_transit":false,"time":1,"station_id":"KMT","i_lat":-6.193792,"i_long":106.855437,"line":11},{"line":11,"transit":false,"station_id":"POK","i_long":106.861737,"i_lat":-6.209188,"station_name":"Pondok Jati","distance":1829,"time":2,"is_transit":false},{"transit":true,"station_id":"JNG","time":9,"station_name":"Jatinegara","distance":1236,"is_transit":true,"i_long":106.86807400000001,"line":1,"i_lat":-6.215091},{"i_long":106.899548,"is_transit":false,"station_name":"Klender","i_lat":-6.2135,"time":3,"transit":false,"line":1,"distance":3395,"station_id":"KLD"}]]}