{"data":[[{"station_id":"UI","station_name":"Univ. Indonesia","time":0,"is_transit":false,"distance":0,"line":2,"transit":false,"i_long":106.831474,"i_lat":-6.360749},{"transit":false,"distance":2264,"is_transit":false,"time":3,"i_lat":-6.339291,"line":2,"station_name":"Univ. Pancasila","station_id":"UP","i_long":106.834175},{"i_long":106.832616,"transit":false,"is_transit":false,"time":2,"i_lat":-6.330363,"station_name":"Lenteng Agung","station_id":"LNA","distance":1029,"line":2},{"transit":false,"line":2,"station_id":"TNT","time":3,"is_transit":false,"station_name":"Tanjung Barat","distance":2671,"i_long":106.838896,"i_lat":-6.3080680000000005},{"i_long":106.843999,"transit":false,"station_name":"Pasar Minggu","line":2,"station_id":"PSM","is_transit":false,"time":4,"distance":2820,"i_lat":-6.2842400000000005},{"is_transit":false,"station_id":"PSMB","station_name":"Pasar Minggu Baru","time":2,"line":2,"i_long":106.851577,"i_lat":-6.263214,"transit":false,"distance":2380},{"distance":824,"time":2,"i_lat":-6.255332,"station_id":"DRN","transit":false,"station_name":"Duren Kalibata","is_transit":false,"i_long":106.85449,"line":2},{"i_long":106.856607,"is_transit":false,"line":2,"transit":false,"time":3,"station_id":"CW","i_lat":-6.242512,"distance":1546,"station_name":"Cawang"},{"transit":false,"is_transit":false,"i_lat":-6.226659,"station_id":"TEB","distance":1230,"i_long":106.857948,"station_name":"Tebet","time":2,"line":2},{"line":2,"transit":true,"i_lat":-6.209883,"is_transit":true,"distance":2610,"time":4,"i_long":106.84912,"station_id":"MRI","station_name":"Manggarai"},{"time":2,"station_name":"Matraman","is_transit":false,"distance":1275,"i_lat":-6.212485,"station_id":"MTR","transit":false,"i_long":106.858896,"line":1},{"is_transit":false,"time":8,"distance":1377,"i_lat":-6.215091,"station_name":"Jatinegara","i_long":106.86807400000001,"line":1,"transit":false,"station_id":"JNG"},{"station_name":"Klender","i_long":106.899548,"station_id":"KLD","distance":3395,"i_lat":-6.2135,"is_transit":false,"transit":false,"time":3,"line":1},{"transit":false,"station_id":"BUA","distance":3100,"i_lat":-6.215568,"is_transit":false,"i_long":106.922662,"line":1,"station_name":"Buaran","time":2},{"i_long":106.939679,"distance":1305,"i_lat":-6.217455,"time":1,"station_id":"KLDB","line":1,"station_name":"Klenderbaru","transit":false,"is_transit":false}],[{"i_long":106.831474,"is_transit":false,"time":0,"station_name":"Univ. Indonesia","i_lat":-6.360749,"line":2,"station_id":"UI","distance":0,"transit":false},{"distance":2264,"transit":false,"station_id":"UP","is_transit":false,"line":2,"i_long":106.834175,"time":3,"station_name":"Univ. Pancasila","i_lat":-6.339291},{"i_long":106.832616,"transit":false,"line":2,"station_name":"Lenteng Agung","is_transit":false,"time":2,"i_lat":-6.330363,"station_id":"LNA","distance":1029},{"time":3,"line":2,"station_id":"TNT","distance":2671,"transit":false,"i_long":106.838896,"i_lat":-6.3080680000000005,"station_name":"Tanjung Barat","is_transit":false},{"is_transit":false,"distance":2820,"i_lat":-6.2842400000000005,"line":2,"station_name":"Pasar Minggu","i_long":106.843999,"transit":false,"station_id":"PSM","time":4},{"line":2,"station_name":"Pasar Minggu Baru","transit":false,"is_transit":false,"distance":2380,"time":2,"i_long":106.851577,"station_id":"PSMB","i_lat":-6.263214},{"i_lat":-6.255332,"distance":824,"station_id":"DRN","station_name":"Duren Kalibata","time":2,"is_transit":false,"line":2,"i_long":106.85449,"transit":false},{"line":2,"time":3,"i_long":106.856607,"distance":1546,"transit":false,"station_id":"CW","station_name":"Cawang","is_transit":false,"i_lat":-6.242512},{"transit":false,"distance":1230,"i_lat":-6.226659,"time":2,"station_id":"TEB","station_name":"Tebet","is_transit":false,"i_long":106.857948,"line":2},{"i_lat":-6.209883,"time":4,"station_id":"MRI","station_name":"Manggarai","i_long":106.84912,"is_transit":true,"line":2,"distance":2610,"transit":true},{"is_transit":false,"time":4,"transit":false,"line":1,"distance":3186,"i_long":106.822649,"station_id":"SUD","station_name":"Sudirman","i_lat":-6.202263},{"i_long":106.819881,"is_transit":false,"transit":false,"distance":280,"line":1,"station_name":"Sudirman Baru","station_id":"SUDB","i_lat":-6.201433,"time":1},{"distance":471,"i_long":106.816351,"line":1,"station_name":"Karet","time":1,"i_lat":-6.20132,"station_id":"KAT","transit":false,"is_transit":false},{"transit":false,"line":1,"is_transit":false,"time":5,"distance":2029,"station_name":"Tanah Abang","i_long":106.811091,"i_lat":-6.185545,"station_id":"THB"},{"distance":3632,"station_id":"DU","line":1,"is_transit":false,"time":8,"transit":false,"i_long":106.800832,"i_lat":-6.155215,"station_name":"Duri"},{"line":1,"transit":false,"station_id":"AK","i_lat":-6.144674,"is_transit":false,"time":4,"station_name":"Angke","distance":1230,"i_long":106.79867},{"line":4,"time":9,"station_id":"KPB","transit":true,"is_transit":true,"distance":4102,"station_name":"Kampung Bandan","i_lat":-6.132549,"i_long":106.826365},{"station_name":"Rajawali","transit":false,"line":11,"i_lat":-6.14505,"time":3,"is_transit":false,"i_long":106.836569,"distance":1444,"station_id":"RJW"},{"time":5,"station_name":"Kemayoran","station_id":"KMO","distance":1901,"i_lat":-6.161728,"i_long":106.839204,"transit":false,"is_transit":false,"line":11},{"station_id":"PSE","i_lat":-6.174784,"i_long":106.84368,"transit":false,"line":11,"station_name":"Pasar Senen","is_transit":false,"time":4,"distance":1436},{"i_long":106.850107,"transit":false,"distance":1567,"time":8,"i_lat":-6.185975,"line":11,"is_transit":false,"station_name":"Gang Sentiong","station_id":"GST"},{"i_lat":-6.193792,"station_id":"KMT","time":1,"distance":973,"line":11,"is_transit":false,"transit":false,"station_name":"Kramat","i_long":106.855437},{"i_long":106.861737,"transit":false,"time":2,"distance":1829,"line":11,"i_lat":-6.209188,"station_name":"Pondok Jati","is_transit":false,"station_id":"POK"},{"i_lat":-6.215091,"station_name":"Jatinegara","is_transit":true,"distance":1236,"station_id":"JNG","i_long":106.86807400000001,"line":1,"time":9,"transit":true},{"station_name":"Klender","transit":false,"time":3,"is_transit":false,"distance":3395,"i_lat":-6.2135,"i_long":106.899548,"line":1,"station_id":"KLD"},{"distance":3100,"station_id":"BUA","is_transit":false,"time":2,"i_lat":-6.215568,"line":1,"transit":false,"station_name":"Buaran","i_long":106.922662},{"is_transit":false,"time":1,"station_name":"Klenderbaru","transit":false,"i_lat":-6.217455,"line":1,"station_id":"KLDB","distance":1305,"i_long":106.939679}],[{"time":0,"i_long":106.831474,"line":2,"station_name":"Univ. Indonesia","transit":false,"is_transit":false,"i_lat":-6.360749,"distance":0,"station_id":"UI"},{"transit":false,"is_transit":false,"time":3,"station_name":"Univ. Pancasila","i_long":106.834175,"station_id":"UP","line":2,"i_lat":-6.339291,"distance":2264},{"is_transit":false,"line":2,"transit":false,"station_name":"Lenteng Agung","distance":1029,"time":2,"station_id":"LNA","i_long":106.832616,"i_lat":-6.330363},{"distance":2671,"station_name":"Tanjung Barat","time":3,"line":2,"transit":false,"i_lat":-6.3080680000000005,"station_id":"TNT","is_transit":false,"i_long":106.838896},{"station_name":"Pasar Minggu","station_id":"PSM","line":2,"i_long":106.843999,"i_lat":-6.2842400000000005,"time":4,"distance":2820,"is_transit":false,"transit":false},{"i_lat":-6.263214,"i_long":106.851577,"station_name":"Pasar Minggu Baru","transit":false,"distance":2380,"time":2,"is_transit":false,"station_id":"PSMB","line":2},{"line":2,"station_name":"Duren Kalibata","time":2,"station_id":"DRN","is_transit":false,"transit":false,"i_lat":-6.255332,"distance":824,"i_long":106.85449},{"line":2,"time":3,"transit":false,"i_lat":-6.242512,"station_id":"CW","is_transit":false,"station_name":"Cawang","distance":1546,"i_long":106.856607},{"transit":false,"line":2,"station_id":"TEB","distance":1230,"i_lat":-6.226659,"i_long":106.857948,"station_name":"Tebet","is_transit":false,"time":2},{"station_id":"MRI","distance":2610,"is_transit":false,"station_name":"Manggarai","transit":false,"time":4,"i_lat":-6.209883,"i_long":106.84912,"line":2},{"i_lat":-6.198556,"transit":false,"station_name":"Cikini","is_transit":false,"time":4,"distance":1590,"station_id":"CKI","line":2,"i_long":106.840169},{"transit":false,"time":3,"station_name":"Gondangdia","line":2,"distance":1750,"i_lat":-6.186295,"i_long":106.832183,"is_transit":false,"station_id":"GDD"},{"station_id":"JUA","station_name":"Juanda","distance":2015,"i_lat":-6.166716,"is_transit":false,"transit":false,"i_long":106.828284,"line":2,"time":4},{"i_lat":-6.160725,"distance":1149,"transit":false,"station_id":"SW","is_transit":false,"station_name":"Sawah Besar","i_long":106.827103,"time":2,"line":2},{"i_long":106.82482,"line":2,"distance":906,"is_transit":false,"transit":false,"i_lat":-6.149769,"station_name":"Manggabesar","station_id":"MGB","time":2},{"i_lat":-6.141205,"line":2,"is_transit":false,"transit":false,"station_id":"JAY","station_name":"Jayakarta","i_long":106.820901,"distance":1080,"time":2},{"transit":true,"time":4,"i_lat":-6.137569,"station_name":"Jakarta Kota","is_transit":true,"line":2,"station_id":"JAKK","distance":1264,"i_long":106.812439},{"distance":1364,"i_lat":-6.132549,"line":4,"is_transit":true,"station_name":"Kampung Bandan","time":3,"station_id":"KPB","i_long":106.826365,"transit":true},{"transit":false,"distance":1444,"station_name":"Rajawali","station_id":"RJW","i_lat":-6.14505,"is_transit":false,"time":3,"i_long":106.836569,"line":11},{"is_transit":false,"time":5,"i_lat":-6.161728,"station_id":"KMO","distance":1901,"i_long":106.839204,"transit":false,"station_name":"Kemayoran","line":11},{"line":11,"time":4,"i_lat":-6.174784,"transit":false,"station_id":"PSE","is_transit":false,"station_name":"Pasar Senen","distance":1436,"i_long":106.84368},{"station_name":"Gang Sentiong","i_long":106.850107,"is_transit":false,"time":8,"i_lat":-6.185975,"station_id":"GST","distance":1567,"line":11,"transit":false},{"i_long":106.855437,"time":1,"transit":false,"station_id":"KMT","i_lat":-6.193792,"line":11,"is_transit":false,"station_name":"Kramat","distance":973},{"i_long":106.861737,"transit":false,"is_transit":false,"distance":1829,"station_name":"Pondok Jati","station_id":"POK","time":2,"line":11,"i_lat":-6.209188},{"transit":true,"line":1,"station_name":"Jatinegara","time":9,"i_lat":-6.215091,"i_long":106.86807400000001,"is_transit":true,"distance":1236,"station_id":"JNG"},{"time":3,"i_lat":-6.2135,"station_id":"KLD","transit":false,"i_long":106.899548,"station_name":"Klender","is_transit":false,"distance":3395,"line":1},{"transit":false,"station_name":"Buaran","i_long":106.922662,"time":2,"line":1,"station_id":"BUA","distance":3100,"is_transit":false,"i_lat":-6.215568},{"is_transit":false,"i_lat":-6.217455,"station_name":"Klenderbaru","time":1,"i_long":106.939679,"distance":1305,"line":1,"transit":false,"station_id":"KLDB"}]]}