{"data":[[{"is_transit":false,"station_name":"Univ. Indonesia","line":2,"time":0,"transit":false,"i_lat":-6.360749,"distance":0,"station_id":"UI","i_long":106.831474},{"i_lat":-6.339291,"time":3,"station_id":"UP","transit":false,"station_name":"Univ. Pancasila","distance":2264,"is_transit":false,"i_long":106.834175,"line":2},{"distance":1029,"is_transit":false,"station_name":"Lenteng Agung","i_long":106.832616,"line":2,"i_lat":-6.330363,"station_id":"LNA","time":2,"transit":false},{"line":2,"transit":false,"i_long":106.838896,"time":3,"station_id":"TNT","distance":2671,"is_transit":false,"i_lat":-6.3080680000000005,"station_name":"Tanjung Barat"},{"i_long":106.843999,"i_lat":-6.2842400000000005,"line":2,"is_transit":false,"station_id":"PSM","station_name":"Pasar Minggu","time":4,"transit":false,"distance":2820},{"station_name":"Pasar Minggu Baru","time":2,"line":2,"is_transit":false,"i_lat":-6.263214,"i_long":106.851577,"transit":false,"station_id":"PSMB","distance":2380},{"transit":false,"i_lat":-6.255332,"time":2,"station_name":"Duren Kalibata","is_transit":false,"station_id":"DRN","distance":824,"i_long":106.85449,"line":0},{"transit":false,"station_id":"CW","time":3,"distance":1546,"i_long":106.856607,"station_name":"Cawang","is_transit":false,"line":0,"i_lat":-6.242512},{"distance":1230,"station_id":"TEB","time":2,"i_lat":-6.226659,"transit":false,"i_long":106.857948,"station_name":"Tebet","line":2,"is_transit":false},{"line":0,"time":4,"i_lat":-6.209883,"station_name":"Manggarai","distance":2610,"station_id":"MRI","is_transit":true,"i_long":106.84912,"transit":true},{"transit":false,"distance":1275,"i_lat":-6.212485,"line":1,"i_long":106.858896,"station_id":"MTR","station_name":"Matraman","time":2,"is_transit":false},{"distance":1377,"is_transit":true,"i_lat":-6.215091,"time":8,"transit":false,"line":0,"i_long":106.86807400000001,"station_id":"JNG","station_name":"Jatinegara"},{"i_lat":-6.2135,"transit":false,"i_long":106.899548,"line":1,"time":3,"station_name":"Klender","distance":3395,"is_transit":false,"station_id":"KLD"},{"transit":false,"distance":3100,"station_id":"BUA","is_transit":false,"time":2,"station_name":"Buaran","i_lat":-6.215568,"i_long":106.922662,"line":0},{"transit":false,"station_name":"Klenderbaru","line":1,"is_transit":false,"i_long":106.939679,"i_lat":-6.217455,"time":1,"distance":1305,"station_id":"KLDB"}],[{"time":0,"distance":0,"i_long":106.831474,"is_transit":false,"line":2,"i_lat":-6.360749,"transit":false,"station_name":"Univ. Indonesia","station_id":"UI"},{"distance":2264,"station_id":"UP","i_lat":-6.339291,"time":3,"transit":false,"is_transit":false,"station_name":"Univ. Pancasila","i_long":106.834175,"line":2},{"is_transit":false,"line":2,"time":2,"transit":false,"station_name":"Lenteng Agung","distance":1029,"i_lat":-6.330363,"station_id":"LNA","i_long":106.832616},{"distance":2671,"transit":false,"is_transit":false,"line":2,"time":3,"i_lat":-6.3080680000000005,"station_id":"TNT","station_name":"Tanjung Barat","i_long":106.838896},{"time":4,"station_name":"Pasar Minggu","station_id":"PSM","is_transit":false,"line":2,"transit":false,"distance":2820,"i_lat":-6.2842400000000005,"i_long":106.843999},{"line":2,"station_name":"Pasar Minggu Baru","time":2,"i_lat":-6.263214,"transit":false,"i_long":106.851577,"is_transit":false,"distance":2380,"station_id":"PSMB"},{"is_transit":false,"transit":false,"station_id":"DRN","station_name":"Duren Kalibata","i_lat":-6.255332,"i_long":106.85449,"distance":824,"line":0,"time":2},{"station_id":"CW","i_lat":-6.242512,"line":0,"time":3,"i_long":106.856607,"is_transit":false,"transit":false,"distance":1546,"station_name":"Cawang"},{"transit":false,"distance":1230,"time":2,"station_id":"TEB","i_long":106.857948,"is_transit":false,"i_lat":-6.226659,"line":2,"station_name":"Tebet"},{"station_name":"Manggarai","station_id":"MRI","distance":2610,"is_transit":true,"i_long":106.84912,"transit":true,"i_lat":-6.209883,"time":4,"line":0},{"i_lat":-6.202263,"distance":3186,"station_name":"Sudirman","is_transit":false,"line":1,"station_id":"SUD","i_long":106.822649,"time":4,"transit":false},{"time":1,"i_lat":-6.201433,"i_long":106.819881,"station_name":"Sudirman Baru","transit":false,"distance":280,"station_id":"SUDB","line":1,"is_transit":false},{"time":1,"is_transit":false,"transit":false,"station_name":"Karet","line":1,"distance":471,"i_lat":-6.20132,"i_long":106.816351,"station_id":"KAT"},{"transit":false,"i_lat":-6.185545,"i_long":106.811091,"station_name":"Tanah Abang","is_transit":true,"distance":2029,"time":5,"station_id":"THB","line":1},{"i_long":106.800832,"station_name":"Duri","time":8,"line":1,"distance":3632,"transit":true,"is_transit":true,"i_lat":-6.155215,"station_id":"DU"},{"transit":false,"station_name":"Angke","time":4,"distance":1230,"station_id":"AK","line":0,"i_long":106.79867,"is_transit":false,"i_lat":-6.144674},{"station_name":"Kampung Bandan","time":9,"distance":4102,"i_long":106.826365,"line":0,"transit":true,"is_transit":true,"i_lat":-6.132549,"station_id":"KPB"},{"distance":1444,"station_id":"RJW","station_name":"Rajawali","i_lat":-6.14505,"i_long":106.836569,"transit":false,"line":11,"time":3,"is_transit":false},{"transit":false,"i_lat":-6.161728,"station_id":"KMO","distance":1901,"is_transit":false,"i_long":106.839204,"station_name":"Kemayoran","line":11,"time":5},{"time":4,"i_long":106.84368,"transit":false,"line":11,"distance":1436,"station_name":"Pasar Senen","i_lat":-6.174784,"station_id":"PSE","is_transit":false},{"station_id":"GST","station_name":"Gang Sentiong","is_transit":false,"transit":false,"distance":1567,"line":11,"i_lat":-6.185975,"i_long":106.850107,"time":8},{"station_name":"Kramat","distance":973,"time":1,"is_transit":false,"i_long":106.855437,"station_id":"KMT","i_lat":-6.193792,"line":11,"transit":false},{"is_transit":false,"i_lat":-6.209188,"transit":false,"distance":1829,"time":2,"i_long":106.861737,"station_name":"Pondok Jati","line":11,"station_id":"POK"},{"station_name":"Jatinegara","transit":true,"i_lat":-6.215091,"station_id":"JNG","is_transit":true,"time":9,"i_long":106.86807400000001,"line":0,"distance":1236},{"distance":3395,"i_long":106.899548,"station_name":"Klender","is_transit":false,"station_id":"KLD","i_lat":-6.2135,"line":1,"time":3,"transit":false},{"station_name":"Buaran","time":2,"transit":false,"distance":3100,"is_transit":false,"i_lat":-6.215568,"station_id":"BUA","line":0,"i_long":106.922662},{"i_long":106.939679,"is_transit":false,"station_id":"KLDB","i_lat":-6.217455,"time":1,"station_name":"Klenderbaru","transit":false,"line":1,"distance":1305}],[{"i_long":106.831474,"transit":false,"line":2,"i_lat":-6.360749,"time":0,"distance":0,"station_id":"UI","is_transit":false,"station_name":"Univ. Indonesia"},{"i_long":106.834175,"time":3,"station_id":"UP","line":2,"i_lat":-6.339291,"station_name":"Univ. Pancasila","distance":2264,"transit":false,"is_transit":false},{"i_long":106.832616,"station_name":"Lenteng Agung","station_id":"LNA","is_transit":false,"i_lat":-6.330363,"line":2,"time":2,"transit":false,"distance":1029},{"is_transit":false,"transit":false,"station_name":"Tanjung Barat","distance":2671,"i_long":106.838896,"line":2,"time":3,"station_id":"TNT","i_lat":-6.3080680000000005},{"is_transit":false,"station_id":"PSM","transit":false,"i_long":106.843999,"line":2,"time":4,"i_lat":-6.2842400000000005,"distance":2820,"station_name":"Pasar Minggu"},{"i_lat":-6.263214,"is_transit":false,"station_name":"Pasar Minggu Baru","time":2,"line":2,"i_long":106.851577,"distance":2380,"station_id":"PSMB","transit":false},{"i_lat":-6.255332,"station_id":"DRN","distance":824,"time":2,"is_transit":false,"i_long":106.85449,"transit":false,"line":0,"station_name":"Duren Kalibata"},{"distance":1546,"time":3,"is_transit":false,"i_lat":-6.242512,"transit":false,"i_long":106.856607,"line":0,"station_name":"Cawang","station_id":"CW"},{"transit":false,"i_lat":-6.226659,"station_name":"Tebet","is_transit":false,"time":2,"i_long":106.857948,"distance":1230,"station_id":"TEB","line":2},{"station_id":"MRI","i_long":106.84912,"time":4,"is_transit":true,"i_lat":-6.209883,"transit":true,"station_name":"Manggarai","line":0,"distance":2610},{"transit":false,"i_lat":-6.198556,"time":4,"i_long":106.840169,"station_name":"Cikini","station_id":"CKI","is_transit":false,"line":0,"distance":1590},{"station_name":"Gondangdia","i_lat":-6.186295,"distance":1750,"i_long":106.832183,"line":2,"station_id":"GDD","transit":false,"is_transit":false,"time":3},{"line":2,"i_lat":-6.166716,"distance":2015,"i_long":106.828284,"time":4,"is_transit":false,"station_id":"JUA","station_name":"Juanda","transit":false},{"transit":false,"station_id":"SW","station_name":"Sawah Besar","is_transit":false,"line":2,"i_long":106.827103,"time":2,"distance":1149,"i_lat":-6.160725},{"distance":906,"time":2,"transit":false,"i_long":106.82482,"line":2,"is_transit":false,"i_lat":-6.149769,"station_name":"Manggabesar","station_id":"MGB"},{"station_name":"Jayakarta","line":7,"is_transit":false,"time":2,"station_id":"JAY","i_long":106.820901,"transit":false,"distance":1080,"i_lat":-6.141205},{"station_name":"Jakarta Kota","line":0,"station_id":"JAKK","is_transit":true,"time":4,"distance":1264,"i_lat":-6.137569,"i_long":106.812439,"transit":true},{"is_transit":true,"transit":true,"i_lat":-6.132549,"station_id":"KPB","i_long":106.826365,"line":0,"station_name":"Kampung Bandan","distance":1364,"time":3},{"i_long":106.836569,"line":11,"is_transit":false,"i_lat":-6.14505,"transit":false,"time":3,"station_name":"Rajawali","station_id":"RJW","distance":1444},{"station_id":"KMO","distance":1901,"transit":false,"line":11,"i_lat":-6.161728,"is_transit":false,"station_name":"Kemayoran","time":5,"i_long":106.839204},{"distance":1436,"transit":false,"station_name":"Pasar Senen","station_id":"PSE","i_lat":-6.174784,"i_long":106.84368,"time":4,"is_transit":false,"line":11},{"distance":1567,"i_lat":-6.185975,"transit":false,"time":8,"is_transit":false,"station_name":"Gang Sentiong","i_long":106.850107,"line":11,"station_id":"GST"},{"station_name":"Kramat","i_lat":-6.193792,"line":11,"is_transit":false,"transit":false,"distance":973,"i_long":106.855437,"time":1,"station_id":"KMT"},{"i_long":106.861737,"is_transit":false,"station_id":"POK","time":2,"i_lat":-6.209188,"line":11,"station_name":"Pondok Jati","transit":false,"distance":1829},{"i_long":106.86807400000001,"i_lat":-6.215091,"is_transit":true,"line":0,"transit":true,"station_name":"Jatinegara","distance":1236,"station_id":"JNG","time":9},{"time":3,"i_long":106.899548,"distance":3395,"is_transit":false,"i_lat":-6.2135,"station_name":"Klender","transit":false,"line":1,"station_id":"KLD"},{"transit":false,"station_name":"Buaran","distance":3100,"station_id":"BUA","is_transit":false,"i_long":106.922662,"time":2,"i_lat":-6.215568,"line":0},{"i_lat":-6.217455,"distance":1305,"time":1,"transit":false,"station_id":"KLDB","is_transit":false,"i_long":106.939679,"station_name":"Klenderbaru","line":1}]]}