{"data":[[{"i_long":106.831474,"station_id":"UI","transit":false,"station_name":"Univ. Indonesia","i_lat":-6.360749,"time":0,"is_transit":false,"distance":0,"line":2},{"time":3,"distance":2264,"station_id":"UP","is_transit":false,"transit":false,"i_lat":-6.339291,"line":2,"station_name":"Univ. Pancasila","i_long":106.834175},{"line":2,"distance":1029,"transit":false,"station_name":"Lenteng Agung","time":2,"station_id":"LNA","i_long":106.832616,"is_transit":false,"i_lat":-6.330363},{"i_lat":-6.3080680000000005,"transit":false,"station_name":"Tanjung Barat","station_id":"TNT","time":3,"distance":2671,"is_transit":false,"line":2,"i_long":106.838896},{"time":4,"distance":2820,"i_long":106.843999,"line":2,"is_transit":false,"station_id":"PSM","station_name":"Pasar Minggu","i_lat":-6.2842400000000005,"transit":false},{"i_lat":-6.263214,"time":2,"station_id":"PSMB","is_transit":false,"i_long":106.851577,"distance":2380,"transit":false,"line":2,"station_name":"Pasar Minggu Baru"},{"station_id":"DRN","transit":false,"time":2,"i_long":106.85449,"i_lat":-6.255332,"line":2,"station_name":"Duren Kalibata","distance":824,"is_transit":false},{"time":3,"is_transit":false,"station_id":"CW","transit":false,"station_name":"Cawang","line":2,"i_lat":-6.242512,"i_long":106.856607,"distance":1546},{"distance":1230,"i_lat":-6.226659,"station_name":"Tebet","line":2,"station_id":"TEB","i_long":106.857948,"time":2,"is_transit":false,"transit":false},{"i_lat":-6.209883,"station_id":"MRI","transit":true,"station_name":"Manggarai","is_transit":true,"i_long":106.84912,"line":2,"time":4,"distance":2610},{"time":2,"station_id":"MTR","station_name":"Matraman","is_transit":false,"i_long":106.858896,"transit":false,"line":1,"i_lat":-6.212485,"distance":1275},{"i_long":106.86807400000001,"transit":false,"station_id":"JNG","station_name":"Jatinegara","distance":1377,"is_transit":false,"i_lat":-6.215091,"line":1,"time":8},{"line":1,"is_transit":false,"station_id":"KLD","distance":3395,"station_name":"Klender","i_lat":-6.2135,"i_long":106.899548,"time":3,"transit":false}],[{"station_name":"Univ. Indonesia","time":0,"transit":false,"i_lat":-6.360749,"station_id":"UI","line":2,"distance":0,"is_transit":false,"i_long":106.831474},{"time":3,"line":2,"station_name":"Univ. Pancasila","transit":false,"station_id":"UP","i_lat":-6.339291,"i_long":106.834175,"is_transit":false,"distance":2264},{"i_long":106.832616,"time":2,"station_name":"Lenteng Agung","line":2,"transit":false,"i_lat":-6.330363,"distance":1029,"is_transit":false,"station_id":"LNA"},{"line":2,"time":3,"distance":2671,"i_lat":-6.3080680000000005,"is_transit":false,"station_id":"TNT","transit":false,"i_long":106.838896,"station_name":"Tanjung Barat"},{"time":4,"transit":false,"i_lat":-6.2842400000000005,"i_long":106.843999,"line":2,"distance":2820,"station_name":"Pasar Minggu","station_id":"PSM","is_transit":false},{"is_transit":false,"station_id":"PSMB","i_lat":-6.263214,"distance":2380,"i_long":106.851577,"station_name":"Pasar Minggu Baru","time":2,"transit":false,"line":2},{"transit":false,"distance":824,"i_lat":-6.255332,"line":2,"is_transit":false,"time":2,"station_id":"DRN","station_name":"Duren Kalibata","i_long":106.85449},{"transit":false,"station_id":"CW","i_long":106.856607,"i_lat":-6.242512,"station_name":"Cawang","time":3,"is_transit":false,"line":2,"distance":1546},{"transit":false,"i_long":106.857948,"time":2,"is_transit":false,"i_lat":-6.226659,"line":2,"distance":1230,"station_id":"TEB","station_name":"Tebet"},{"distance":2610,"line":2,"i_lat":-6.209883,"i_long":106.84912,"station_id":"MRI","transit":true,"is_transit":true,"time":4,"station_name":"Manggarai"},{"i_long":106.822649,"i_lat":-6.202263,"distance":3186,"station_id":"SUD","transit":false,"is_transit":false,"time":4,"line":1,"station_name":"Sudirman"},{"time":1,"i_long":106.819881,"i_lat":-6.201433,"station_id":"SUDB","station_name":"Sudirman Baru","distance":280,"is_transit":false,"transit":false,"line":1},{"i_long":106.816351,"transit":false,"station_id":"KAT","station_name":"Karet","time":1,"distance":471,"is_transit":false,"line":1,"i_lat":-6.20132},{"line":1,"is_transit":false,"station_id":"THB","station_name":"Tanah Abang","transit":false,"i_long":106.811091,"time":5,"i_lat":-6.185545,"distance":2029},{"is_transit":false,"distance":3632,"station_name":"Duri","transit":false,"time":8,"station_id":"DU","i_long":106.800832,"i_lat":-6.155215,"line":1},{"time":4,"station_id":"AK","station_name":"Angke","distance":1230,"i_long":106.79867,"transit":false,"i_lat":-6.144674,"is_transit":false,"line":1},{"transit":true,"station_name":"Kampung Bandan","station_id":"KPB","i_long":106.826365,"time":9,"distance":4102,"line":4,"i_lat":-6.132549,"is_transit":true},{"station_name":"Rajawali","i_long":106.836569,"time":3,"transit":false,"distance":1444,"is_transit":false,"station_id":"RJW","i_lat":-6.14505,"line":11},{"i_lat":-6.161728,"distance":1901,"station_id":"KMO","i_long":106.839204,"line":11,"station_name":"Kemayoran","time":5,"is_transit":false,"transit":false},{"station_id":"PSE","is_transit":false,"i_lat":-6.174784,"i_long":106.84368,"station_name":"Pasar Senen","time":4,"transit":false,"distance":1436,"line":11},{"station_name":"Gang Sentiong","is_transit":false,"line":11,"i_long":106.850107,"time":8,"i_lat":-6.185975,"station_id":"GST","distance":1567,"transit":false},{"time":1,"is_transit":false,"line":11,"station_name":"Kramat","station_id":"KMT","i_lat":-6.193792,"distance":973,"i_long":106.855437,"transit":false},{"i_lat":-6.209188,"transit":false,"time":2,"station_id":"POK","i_long":106.861737,"line":11,"is_transit":false,"distance":1829,"station_name":"Pondok Jati"},{"is_transit":true,"line":1,"time":9,"transit":true,"station_name":"Jatinegara","distance":1236,"station_id":"JNG","i_lat":-6.215091,"i_long":106.86807400000001},{"line":1,"transit":false,"i_long":106.899548,"time":3,"distance":3395,"station_id":"KLD","station_name":"Klender","is_transit":false,"i_lat":-6.2135}],[{"transit":false,"station_name":"Univ. Indonesia","time":0,"station_id":"UI","distance":0,"i_lat":-6.360749,"i_long":106.831474,"is_transit":false,"line":2},{"station_id":"UP","distance":2264,"is_transit":false,"station_name":"Univ. Pancasila","i_long":106.834175,"transit":false,"i_lat":-6.339291,"time":3,"line":2},{"transit":false,"i_long":106.832616,"station_id":"LNA","distance":1029,"i_lat":-6.330363,"is_transit":false,"time":2,"station_name":"Lenteng Agung","line":2},{"transit":false,"i_lat":-6.3080680000000005,"i_long":106.838896,"line":2,"time":3,"is_transit":false,"station_id":"TNT","station_name":"Tanjung Barat","distance":2671},{"line":2,"is_transit":false,"station_id":"PSM","transit":false,"i_lat":-6.2842400000000005,"station_name":"Pasar Minggu","distance":2820,"time":4,"i_long":106.843999},{"time":2,"line":2,"station_name":"Pasar Minggu Baru","distance":2380,"i_lat":-6.263214,"transit":false,"is_transit":false,"station_id":"PSMB","i_long":106.851577},{"i_lat":-6.255332,"time":2,"is_transit":false,"station_id":"DRN","line":2,"transit":false,"i_long":106.85449,"distance":824,"station_name":"Duren Kalibata"},{"is_transit":false,"distance":1546,"time":3,"station_name":"Cawang","line":2,"transit":false,"i_long":106.856607,"station_id":"CW","i_lat":-6.242512},{"station_id":"TEB","time":2,"line":2,"station_name":"Tebet","transit":false,"i_long":106.857948,"i_lat":-6.226659,"distance":1230,"is_transit":false},{"i_long":106.84912,"line":2,"station_id":"MRI","is_transit":false,"distance":2610,"transit":false,"i_lat":-6.209883,"time":4,"station_name":"Manggarai"},{"station_name":"Cikini","transit":false,"i_long":106.840169,"i_lat":-6.198556,"is_transit":false,"distance":1590,"line":2,"time":4,"station_id":"CKI"},{"time":3,"distance":1750,"i_lat":-6.186295,"transit":false,"station_name":"Gondangdia","i_long":106.832183,"station_id":"GDD","line":2,"is_transit":false},{"distance":2015,"station_name":"Juanda","time":4,"line":2,"station_id":"JUA","is_transit":false,"transit":false,"i_lat":-6.166716,"i_long":106.828284},{"distance":1149,"i_lat":-6.160725,"i_long":106.827103,"station_id":"SW","time":2,"transit":false,"is_transit":false,"station_name":"Sawah Besar","line":2},{"station_id":"MGB","is_transit":false,"i_lat":-6.149769,"time":2,"station_name":"Manggabesar","transit":false,"line":2,"distance":906,"i_long":106.82482},{"station_id":"JAY","station_name":"Jayakarta","distance":1080,"is_transit":false,"transit":false,"i_lat":-6.141205,"line":2,"i_long":106.820901,"time":2},{"station_name":"Jakarta Kota","i_long":106.812439,"is_transit":true,"time":4,"station_id":"JAKK","line":2,"i_lat":-6.137569,"distance":1264,"transit":true},{"station_id":"KPB","transit":true,"time":3,"is_transit":true,"distance":1364,"i_lat":-6.132549,"line":4,"station_name":"Kampung Bandan","i_long":106.826365},{"i_long":106.836569,"time":3,"distance":1444,"transit":false,"station_name":"Rajawali","line":11,"station_id":"RJW","is_transit":false,"i_lat":-6.14505},{"i_long":106.839204,"time":5,"line":11,"station_id":"KMO","is_transit":false,"station_name":"Kemayoran","i_lat":-6.161728,"distance":1901,"transit":false},{"transit":false,"time":4,"i_long":106.84368,"is_transit":false,"i_lat":-6.174784,"station_id":"PSE","distance":1436,"line":11,"station_name":"Pasar Senen"},{"i_long":106.850107,"transit":false,"i_lat":-6.185975,"station_name":"Gang Sentiong","line":11,"distance":1567,"station_id":"GST","is_transit":false,"time":8},{"distance":973,"is_transit":false,"station_id":"KMT","transit":false,"station_name":"Kramat","line":11,"i_lat":-6.193792,"i_long":106.855437,"time":1},{"transit":false,"is_transit":false,"station_name":"Pondok Jati","time":2,"i_lat":-6.209188,"line":11,"distance":1829,"i_long":106.861737,"station_id":"POK"},{"is_transit":true,"time":9,"transit":true,"station_id":"JNG","i_lat":-6.215091,"station_name":"Jatinegara","i_long":106.86807400000001,"line":1,"distance":1236},{"station_name":"Klender","station_id":"KLD","is_transit":false,"line":1,"i_lat":-6.2135,"distance":3395,"i_long":106.899548,"transit":false,"time":3}]]}