{"data":[[{"line":2,"time":0,"station_name":"Univ. Indonesia","i_lat":-6.360749,"transit":false,"i_long":106.831474,"distance":0,"station_id":"UI","is_transit":false},{"i_long":106.834175,"station_name":"Univ. Pancasila","station_id":"UP","line":2,"transit":false,"time":3,"is_transit":false,"distance":2264,"i_lat":-6.339291},{"transit":false,"i_long":106.832616,"distance":1029,"station_id":"LNA","station_name":"Lenteng Agung","i_lat":-6.330363,"line":2,"is_transit":false,"time":2},{"is_transit":false,"i_lat":-6.3080680000000005,"station_name":"Tanjung Barat","station_id":"TNT","i_long":106.838896,"line":2,"distance":2671,"transit":false,"time":3},{"i_long":106.843999,"station_id":"PSM","is_transit":false,"line":2,"time":4,"transit":false,"i_lat":-6.2842400000000005,"distance":2820,"station_name":"Pasar Minggu"},{"transit":false,"i_lat":-6.263214,"distance":2380,"time":2,"line":2,"is_transit":false,"station_name":"Pasar Minggu Baru","station_id":"PSMB","i_long":106.851577},{"station_name":"Duren Kalibata","distance":824,"i_long":106.85449,"transit":false,"line":0,"is_transit":false,"time":2,"station_id":"DRN","i_lat":-6.255332},{"distance":1546,"i_long":106.856607,"line":0,"station_id":"CW","transit":false,"is_transit":false,"station_name":"Cawang","time":3,"i_lat":-6.242512},{"i_long":106.857948,"station_name":"Tebet","station_id":"TEB","is_transit":false,"transit":false,"i_lat":-6.226659,"line":2,"distance":1230,"time":2},{"time":4,"i_long":106.84912,"station_id":"MRI","station_name":"Manggarai","is_transit":true,"i_lat":-6.209883,"transit":true,"distance":2610,"line":0},{"time":4,"station_name":"Sudirman","distance":3186,"i_long":106.822649,"line":1,"station_id":"SUD","is_transit":false,"i_lat":-6.202263,"transit":false},{"distance":280,"i_long":106.819881,"transit":false,"is_transit":false,"i_lat":-6.201433,"station_id":"SUDB","station_name":"Sudirman Baru","line":1,"time":1},{"time":1,"station_id":"KAT","transit":false,"is_transit":false,"i_lat":-6.20132,"distance":471,"i_long":106.816351,"station_name":"Karet","line":1},{"line":1,"transit":true,"time":5,"station_id":"THB","distance":2029,"is_transit":true,"i_lat":-6.185545,"i_long":106.811091,"station_name":"Tanah Abang"},{"station_id":"PLM","transit":false,"distance":3191,"station_name":"Palmerah","is_transit":false,"i_lat":-6.207404,"time":6,"i_long":106.79689,"line":6},{"station_name":"Kebayoran","time":7,"transit":false,"is_transit":false,"distance":3737,"i_lat":-6.237242,"station_id":"KBY","line":6,"i_long":106.780334}],[{"is_transit":false,"transit":false,"distance":0,"station_name":"Univ. Indonesia","station_id":"UI","time":0,"i_long":106.831474,"i_lat":-6.360749,"line":2},{"distance":2264,"time":3,"station_name":"Univ. Pancasila","i_long":106.834175,"i_lat":-6.339291,"line":2,"station_id":"UP","transit":false,"is_transit":false},{"station_name":"Lenteng Agung","station_id":"LNA","is_transit":false,"i_lat":-6.330363,"i_long":106.832616,"transit":false,"line":2,"time":2,"distance":1029},{"i_long":106.838896,"time":3,"is_transit":false,"distance":2671,"station_name":"Tanjung Barat","station_id":"TNT","transit":false,"i_lat":-6.3080680000000005,"line":2},{"i_long":106.843999,"distance":2820,"transit":false,"line":2,"is_transit":false,"i_lat":-6.2842400000000005,"station_id":"PSM","station_name":"Pasar Minggu","time":4},{"i_lat":-6.263214,"time":2,"station_id":"PSMB","line":2,"i_long":106.851577,"station_name":"Pasar Minggu Baru","distance":2380,"transit":false,"is_transit":false},{"transit":false,"time":2,"station_id":"DRN","i_long":106.85449,"station_name":"Duren Kalibata","i_lat":-6.255332,"line":0,"distance":824,"is_transit":false},{"line":0,"station_name":"Cawang","station_id":"CW","is_transit":false,"time":3,"transit":false,"i_lat":-6.242512,"i_long":106.856607,"distance":1546},{"time":2,"station_name":"Tebet","i_long":106.857948,"transit":false,"i_lat":-6.226659,"station_id":"TEB","is_transit":false,"distance":1230,"line":2},{"transit":true,"line":0,"i_lat":-6.209883,"station_id":"MRI","time":4,"is_transit":true,"i_long":106.84912,"station_name":"Manggarai","distance":2610},{"line":0,"i_lat":-6.198556,"time":4,"transit":false,"distance":1590,"station_name":"Cikini","is_transit":false,"station_id":"CKI","i_long":106.840169},{"is_transit":false,"time":3,"distance":1750,"line":2,"transit":false,"station_id":"GDD","station_name":"Gondangdia","i_lat":-6.186295,"i_long":106.832183},{"transit":false,"is_transit":false,"station_id":"JUA","i_lat":-6.166716,"line":2,"station_name":"Juanda","distance":2015,"time":4,"i_long":106.828284},{"i_long":106.827103,"station_id":"SW","line":2,"station_name":"Sawah Besar","is_transit":false,"transit":false,"i_lat":-6.160725,"time":2,"distance":1149},{"line":2,"i_lat":-6.149769,"station_name":"Manggabesar","station_id":"MGB","i_long":106.82482,"transit":false,"distance":906,"time":2,"is_transit":false},{"transit":false,"station_id":"JAY","is_transit":false,"i_lat":-6.141205,"distance":1080,"line":7,"time":2,"station_name":"Jayakarta","i_long":106.820901},{"time":4,"distance":1264,"transit":true,"station_name":"Jakarta Kota","i_lat":-6.137569,"line":0,"is_transit":true,"station_id":"JAKK","i_long":106.812439},{"transit":false,"i_lat":-6.132549,"line":0,"time":3,"station_id":"KPB","distance":1364,"i_long":106.826365,"is_transit":true,"station_name":"Kampung Bandan"},{"station_name":"Angke","i_long":106.79867,"station_id":"AK","is_transit":false,"line":0,"transit":false,"distance":4102,"i_lat":-6.144674,"time":9},{"station_id":"DU","time":4,"is_transit":true,"distance":1230,"i_lat":-6.155215,"i_long":106.800832,"transit":true,"line":1,"station_name":"Duri"},{"is_transit":true,"station_name":"Tanah Abang","time":8,"i_lat":-6.185545,"station_id":"THB","line":1,"i_long":106.811091,"transit":true,"distance":3632},{"i_long":106.79689,"i_lat":-6.207404,"station_name":"Palmerah","transit":false,"is_transit":false,"station_id":"PLM","line":6,"time":6,"distance":3191},{"i_long":106.780334,"i_lat":-6.237242,"line":6,"time":7,"station_name":"Kebayoran","distance":3737,"is_transit":false,"station_id":"KBY","transit":false}],[{"i_long":106.831474,"station_name":"Univ. Indonesia","distance":0,"time":0,"line":2,"station_id":"UI","is_transit":false,"i_lat":-6.360749,"transit":false},{"is_transit":false,"distance":2264,"station_id":"UP","station_name":"Univ. Pancasila","time":3,"line":2,"i_lat":-6.339291,"transit":false,"i_long":106.834175},{"is_transit":false,"i_long":106.832616,"line":2,"i_lat":-6.330363,"distance":1029,"time":2,"transit":false,"station_id":"LNA","station_name":"Lenteng Agung"},{"line":2,"distance":2671,"i_long":106.838896,"station_id":"TNT","station_name":"Tanjung Barat","time":3,"is_transit":false,"transit":false,"i_lat":-6.3080680000000005},{"transit":false,"station_name":"Pasar Minggu","i_long":106.843999,"station_id":"PSM","is_transit":false,"i_lat":-6.2842400000000005,"time":4,"distance":2820,"line":2},{"station_id":"PSMB","transit":false,"distance":2380,"i_lat":-6.263214,"i_long":106.851577,"time":2,"station_name":"Pasar Minggu Baru","is_transit":false,"line":2},{"i_lat":-6.255332,"station_id":"DRN","is_transit":false,"line":0,"station_name":"Duren Kalibata","transit":false,"time":2,"i_long":106.85449,"distance":824},{"time":3,"station_name":"Cawang","i_lat":-6.242512,"is_transit":false,"station_id":"CW","distance":1546,"transit":false,"i_long":106.856607,"line":0},{"time":2,"station_id":"TEB","line":2,"station_name":"Tebet","distance":1230,"i_long":106.857948,"is_transit":false,"i_lat":-6.226659,"transit":false},{"i_long":106.84912,"line":0,"is_transit":true,"time":4,"distance":2610,"i_lat":-6.209883,"station_name":"Manggarai","transit":true,"station_id":"MRI"},{"station_name":"Matraman","i_lat":-6.212485,"i_long":106.858896,"distance":1275,"line":1,"is_transit":false,"transit":false,"time":2,"station_id":"MTR"},{"distance":1377,"transit":true,"time":8,"station_id":"JNG","is_transit":true,"i_long":106.86807400000001,"i_lat":-6.215091,"station_name":"Jatinegara","line":0},{"i_long":106.861737,"transit":false,"time":2,"distance":1236,"line":11,"i_lat":-6.209188,"station_id":"POK","station_name":"Pondok Jati","is_transit":false},{"is_transit":false,"station_name":"Kramat","i_lat":-6.193792,"station_id":"KMT","distance":1829,"transit":false,"i_long":106.855437,"time":2,"line":11},{"station_name":"Gang Sentiong","distance":973,"station_id":"GST","is_transit":false,"time":1,"i_lat":-6.185975,"i_long":106.850107,"transit":false,"line":11},{"time":8,"distance":1567,"station_id":"PSE","line":11,"transit":false,"is_transit":false,"i_lat":-6.174784,"i_long":106.84368,"station_name":"Pasar Senen"},{"transit":false,"station_id":"KMO","i_lat":-6.161728,"station_name":"Kemayoran","distance":1436,"time":4,"line":11,"is_transit":false,"i_long":106.839204},{"is_transit":false,"line":11,"transit":false,"i_long":106.836569,"station_id":"RJW","distance":1901,"i_lat":-6.14505,"time":5,"station_name":"Rajawali"},{"is_transit":true,"i_long":106.826365,"distance":1444,"station_id":"KPB","transit":true,"time":3,"i_lat":-6.132549,"station_name":"Kampung Bandan","line":0},{"i_long":106.79867,"distance":4102,"is_transit":false,"station_name":"Angke","station_id":"AK","time":9,"line":0,"transit":false,"i_lat":-6.144674},{"i_lat":-6.155215,"i_long":106.800832,"line":1,"transit":true,"is_transit":true,"station_name":"Duri","distance":1230,"station_id":"DU","time":4},{"station_id":"THB","transit":true,"i_long":106.811091,"is_transit":true,"station_name":"Tanah Abang","line":1,"i_lat":-6.185545,"time":8,"distance":3632},{"distance":3191,"line":6,"station_name":"Palmerah","is_transit":false,"i_lat":-6.207404,"transit":false,"i_long":106.79689,"station_id":"PLM","time":6},{"line":6,"distance":3737,"station_id":"KBY","station_name":"Kebayoran","time":7,"transit":false,"is_transit":false,"i_lat":-6.237242,"i_long":106.780334}]]}