{"data":[[{"is_transit":false,"distance":0,"station_name":"Univ. Indonesia","i_long":106.831474,"time":0,"i_lat":-6.360749,"line":2,"station_id":"UI","transit":false},{"time":3,"line":2,"station_id":"UP","transit":false,"i_long":106.834175,"is_transit":false,"station_name":"Univ. Pancasila","i_lat":-6.339291,"distance":2264},{"station_id":"LNA","is_transit":false,"distance":1029,"time":2,"transit":false,"i_lat":-6.330363,"line":2,"i_long":106.832616,"station_name":"Lenteng Agung"},{"line":2,"i_lat":-6.3080680000000005,"is_transit":false,"transit":false,"i_long":106.838896,"time":3,"station_id":"TNT","distance":2671,"station_name":"Tanjung Barat"},{"i_long":106.843999,"station_name":"Pasar Minggu","distance":2820,"time":4,"transit":false,"line":2,"station_id":"PSM","i_lat":-6.2842400000000005,"is_transit":false},{"station_id":"PSMB","time":2,"line":2,"is_transit":false,"station_name":"Pasar Minggu Baru","distance":2380,"transit":false,"i_lat":-6.263214,"i_long":106.851577},{"distance":824,"time":2,"station_name":"Duren Kalibata","i_lat":-6.255332,"is_transit":false,"station_id":"DRN","i_long":106.85449,"transit":false,"line":2},{"is_transit":false,"i_long":106.856607,"line":2,"distance":1546,"station_name":"Cawang","time":3,"transit":false,"i_lat":-6.242512,"station_id":"CW"},{"transit":false,"i_lat":-6.226659,"station_id":"TEB","time":2,"distance":1230,"i_long":106.857948,"line":2,"is_transit":false,"station_name":"Tebet"},{"transit":true,"i_lat":-6.209883,"line":2,"time":4,"station_name":"Manggarai","i_long":106.84912,"distance":2610,"station_id":"MRI","is_transit":true},{"is_transit":false,"distance":1275,"time":2,"station_name":"Matraman","station_id":"MTR","i_long":106.858896,"i_lat":-6.212485,"line":1,"transit":false},{"i_long":106.86807400000001,"line":1,"transit":false,"distance":1377,"station_name":"Jatinegara","station_id":"JNG","is_transit":false,"i_lat":-6.215091,"time":8},{"distance":3395,"i_lat":-6.2135,"line":1,"is_transit":false,"station_id":"KLD","transit":false,"i_long":106.899548,"station_name":"Klender","time":3}],[{"i_lat":-6.360749,"distance":0,"is_transit":false,"time":0,"i_long":106.831474,"line":2,"station_id":"UI","station_name":"Univ. Indonesia","transit":false},{"transit":false,"time":3,"station_id":"UP","is_transit":false,"line":2,"distance":2264,"station_name":"Univ. Pancasila","i_lat":-6.339291,"i_long":106.834175},{"i_long":106.832616,"i_lat":-6.330363,"line":2,"transit":false,"is_transit":false,"station_id":"LNA","station_name":"Lenteng Agung","distance":1029,"time":2},{"i_long":106.838896,"distance":2671,"i_lat":-6.3080680000000005,"time":3,"station_id":"TNT","transit":false,"station_name":"Tanjung Barat","line":2,"is_transit":false},{"is_transit":false,"time":4,"i_lat":-6.2842400000000005,"i_long":106.843999,"line":2,"distance":2820,"transit":false,"station_id":"PSM","station_name":"Pasar Minggu"},{"station_name":"Pasar Minggu Baru","line":2,"distance":2380,"time":2,"transit":false,"station_id":"PSMB","i_lat":-6.263214,"i_long":106.851577,"is_transit":false},{"transit":false,"station_name":"Duren Kalibata","i_lat":-6.255332,"i_long":106.85449,"line":2,"station_id":"DRN","is_transit":false,"distance":824,"time":2},{"station_id":"CW","i_long":106.856607,"line":2,"is_transit":false,"distance":1546,"time":3,"transit":false,"i_lat":-6.242512,"station_name":"Cawang"},{"time":2,"distance":1230,"i_long":106.857948,"line":2,"i_lat":-6.226659,"station_id":"TEB","transit":false,"station_name":"Tebet","is_transit":false},{"transit":true,"time":4,"station_name":"Manggarai","distance":2610,"i_lat":-6.209883,"line":2,"i_long":106.84912,"is_transit":true,"station_id":"MRI"},{"i_long":106.822649,"station_id":"SUD","transit":false,"distance":3186,"time":4,"i_lat":-6.202263,"station_name":"Sudirman","is_transit":false,"line":1},{"distance":280,"station_id":"SUDB","transit":false,"station_name":"Sudirman Baru","line":1,"i_lat":-6.201433,"time":1,"is_transit":false,"i_long":106.819881},{"distance":471,"transit":false,"station_name":"Karet","is_transit":false,"i_long":106.816351,"i_lat":-6.20132,"station_id":"KAT","line":1,"time":1},{"transit":false,"i_lat":-6.185545,"station_id":"THB","time":5,"i_long":106.811091,"distance":2029,"is_transit":false,"station_name":"Tanah Abang","line":1},{"transit":false,"i_long":106.800832,"station_name":"Duri","station_id":"DU","distance":3632,"line":1,"time":8,"i_lat":-6.155215,"is_transit":false},{"i_lat":-6.144674,"time":4,"is_transit":false,"transit":false,"line":1,"i_long":106.79867,"station_name":"Angke","distance":1230,"station_id":"AK"},{"station_id":"KPB","is_transit":true,"line":4,"distance":4102,"i_long":106.826365,"i_lat":-6.132549,"station_name":"Kampung Bandan","time":9,"transit":true},{"i_long":106.836569,"is_transit":false,"distance":1444,"time":3,"line":11,"station_id":"RJW","station_name":"Rajawali","transit":false,"i_lat":-6.14505},{"line":11,"i_lat":-6.161728,"distance":1901,"i_long":106.839204,"station_id":"KMO","transit":false,"time":5,"station_name":"Kemayoran","is_transit":false},{"distance":1436,"i_lat":-6.174784,"i_long":106.84368,"time":4,"is_transit":false,"transit":false,"station_name":"Pasar Senen","line":11,"station_id":"PSE"},{"station_name":"Gang Sentiong","transit":false,"distance":1567,"i_lat":-6.185975,"station_id":"GST","i_long":106.850107,"line":11,"is_transit":false,"time":8},{"line":11,"distance":973,"is_transit":false,"station_name":"Kramat","station_id":"KMT","i_lat":-6.193792,"i_long":106.855437,"transit":false,"time":1},{"i_lat":-6.209188,"station_name":"Pondok Jati","station_id":"POK","i_long":106.861737,"is_transit":false,"distance":1829,"time":2,"transit":false,"line":11},{"station_id":"JNG","transit":true,"i_long":106.86807400000001,"line":1,"time":9,"is_transit":true,"station_name":"Jatinegara","distance":1236,"i_lat":-6.215091},{"transit":false,"station_name":"Klender","distance":3395,"is_transit":false,"i_lat":-6.2135,"station_id":"KLD","time":3,"i_long":106.899548,"line":1}],[{"distance":0,"station_id":"UI","transit":false,"i_long":106.831474,"is_transit":false,"station_name":"Univ. Indonesia","time":0,"line":2,"i_lat":-6.360749},{"line":2,"i_lat":-6.339291,"time":3,"transit":false,"i_long":106.834175,"station_name":"Univ. Pancasila","distance":2264,"station_id":"UP","is_transit":false},{"station_name":"Lenteng Agung","time":2,"transit":false,"station_id":"LNA","i_lat":-6.330363,"distance":1029,"is_transit":false,"line":2,"i_long":106.832616},{"line":2,"station_name":"Tanjung Barat","is_transit":false,"station_id":"TNT","i_lat":-6.3080680000000005,"i_long":106.838896,"transit":false,"time":3,"distance":2671},{"i_lat":-6.2842400000000005,"transit":false,"distance":2820,"line":2,"is_transit":false,"station_name":"Pasar Minggu","station_id":"PSM","time":4,"i_long":106.843999},{"transit":false,"is_transit":false,"station_name":"Pasar Minggu Baru","i_long":106.851577,"i_lat":-6.263214,"station_id":"PSMB","time":2,"line":2,"distance":2380},{"time":2,"transit":false,"i_long":106.85449,"is_transit":false,"station_id":"DRN","distance":824,"i_lat":-6.255332,"line":2,"station_name":"Duren Kalibata"},{"distance":1546,"i_lat":-6.242512,"line":2,"station_name":"Cawang","transit":false,"is_transit":false,"time":3,"station_id":"CW","i_long":106.856607},{"line":2,"time":2,"distance":1230,"is_transit":false,"station_id":"TEB","i_lat":-6.226659,"station_name":"Tebet","transit":false,"i_long":106.857948},{"i_lat":-6.209883,"time":4,"is_transit":false,"station_name":"Manggarai","distance":2610,"station_id":"MRI","transit":false,"i_long":106.84912,"line":2},{"time":4,"is_transit":false,"distance":1590,"i_lat":-6.198556,"i_long":106.840169,"line":2,"station_id":"CKI","transit":false,"station_name":"Cikini"},{"time":3,"distance":1750,"station_name":"Gondangdia","line":2,"station_id":"GDD","transit":false,"i_long":106.832183,"is_transit":false,"i_lat":-6.186295},{"is_transit":false,"station_name":"Juanda","i_lat":-6.166716,"time":4,"station_id":"JUA","distance":2015,"line":2,"transit":false,"i_long":106.828284},{"i_long":106.827103,"is_transit":false,"i_lat":-6.160725,"transit":false,"distance":1149,"time":2,"station_name":"Sawah Besar","station_id":"SW","line":2},{"i_lat":-6.149769,"is_transit":false,"station_id":"MGB","transit":false,"distance":906,"i_long":106.82482,"time":2,"line":2,"station_name":"Manggabesar"},{"distance":1080,"i_long":106.820901,"station_id":"JAY","i_lat":-6.141205,"line":2,"is_transit":false,"station_name":"Jayakarta","time":2,"transit":false},{"line":2,"i_long":106.812439,"station_name":"Jakarta Kota","i_lat":-6.137569,"station_id":"JAKK","transit":true,"distance":1264,"is_transit":true,"time":4},{"station_name":"Kampung Bandan","i_lat":-6.132549,"is_transit":true,"line":4,"time":3,"i_long":106.826365,"distance":1364,"transit":true,"station_id":"KPB"},{"i_long":106.836569,"is_transit":false,"distance":1444,"i_lat":-6.14505,"line":11,"station_id":"RJW","time":3,"station_name":"Rajawali","transit":false},{"transit":false,"i_long":106.839204,"i_lat":-6.161728,"station_name":"Kemayoran","line":11,"time":5,"is_transit":false,"distance":1901,"station_id":"KMO"},{"i_lat":-6.174784,"station_id":"PSE","station_name":"Pasar Senen","i_long":106.84368,"is_transit":false,"transit":false,"time":4,"distance":1436,"line":11},{"i_long":106.850107,"time":8,"is_transit":false,"distance":1567,"station_id":"GST","i_lat":-6.185975,"station_name":"Gang Sentiong","line":11,"transit":false},{"i_lat":-6.193792,"i_long":106.855437,"line":11,"time":1,"transit":false,"station_id":"KMT","station_name":"Kramat","distance":973,"is_transit":false},{"distance":1829,"station_name":"Pondok Jati","station_id":"POK","is_transit":false,"i_lat":-6.209188,"transit":false,"line":11,"time":2,"i_long":106.861737},{"time":9,"distance":1236,"i_lat":-6.215091,"station_name":"Jatinegara","station_id":"JNG","transit":true,"i_long":106.86807400000001,"line":1,"is_transit":true},{"distance":3395,"time":3,"transit":false,"is_transit":false,"line":1,"station_name":"Klender","station_id":"KLD","i_lat":-6.2135,"i_long":106.899548}]]}