{"data":[[{"distance":0,"station_name":"Univ. Indonesia","i_lat":-6.360749,"time":0,"line":2,"station_id":"UI","is_transit":false,"transit":false,"i_long":106.831474},{"distance":2264,"station_name":"Univ. Pancasila","i_long":106.834175,"i_lat":-6.339291,"time":3,"transit":false,"line":2,"is_transit":false,"station_id":"UP"},{"is_transit":false,"time":2,"station_name":"Lenteng Agung","i_long":106.832616,"distance":1029,"station_id":"LNA","line":2,"transit":false,"i_lat":-6.330363},{"time":3,"line":2,"is_transit":false,"distance":2671,"station_id":"TNT","station_name":"Tanjung Barat","i_long":106.838896,"transit":false,"i_lat":-6.3080680000000005},{"transit":false,"time":4,"distance":2820,"station_name":"Pasar Minggu","is_transit":false,"station_id":"PSM","i_lat":-6.2842400000000005,"i_long":106.843999,"line":2},{"station_id":"PSMB","i_lat":-6.263214,"i_long":106.851577,"line":2,"station_name":"Pasar Minggu Baru","time":2,"distance":2380,"is_transit":false,"transit":false},{"distance":824,"station_id":"DRN","i_lat":-6.255332,"station_name":"Duren Kalibata","line":2,"transit":false,"time":2,"is_transit":false,"i_long":106.85449},{"station_name":"Cawang","station_id":"CW","transit":false,"i_lat":-6.242512,"i_long":106.856607,"line":2,"time":3,"distance":1546,"is_transit":false},{"transit":false,"station_id":"TEB","station_name":"Tebet","line":2,"i_long":106.857948,"i_lat":-6.226659,"is_transit":false,"distance":1230,"time":2},{"transit":true,"line":2,"is_transit":true,"station_name":"Manggarai","i_lat":-6.209883,"i_long":106.84912,"distance":2610,"time":4,"station_id":"MRI"},{"transit":false,"station_name":"Matraman","line":1,"distance":1275,"time":2,"i_long":106.858896,"i_lat":-6.212485,"station_id":"MTR","is_transit":false},{"distance":1377,"station_name":"Jatinegara","transit":false,"is_transit":false,"time":8,"station_id":"JNG","i_lat":-6.215091,"line":1,"i_long":106.86807400000001},{"station_id":"KLD","i_long":106.899548,"station_name":"Klender","i_lat":-6.2135,"line":1,"distance":3395,"transit":false,"time":3,"is_transit":false},{"i_long":106.922662,"station_id":"BUA","line":1,"is_transit":false,"time":2,"distance":3100,"station_name":"Buaran","transit":false,"i_lat":-6.215568},{"i_long":106.939679,"line":1,"distance":1305,"station_name":"Klenderbaru","time":1,"station_id":"KLDB","transit":false,"i_lat":-6.217455,"is_transit":false}],[{"is_transit":false,"station_id":"UI","time":0,"station_name":"Univ. Indonesia","distance":0,"i_lat":-6.360749,"i_long":106.831474,"line":2,"transit":false},{"line":2,"station_id":"UP","transit":false,"time":3,"station_name":"Univ. Pancasila","is_transit":false,"i_lat":-6.339291,"distance":2264,"i_long":106.834175},{"is_transit":false,"time":2,"i_long":106.832616,"distance":1029,"station_name":"Lenteng Agung","transit":false,"station_id":"LNA","line":2,"i_lat":-6.330363},{"station_id":"TNT","is_transit":false,"i_long":106.838896,"time":3,"transit":false,"station_name":"Tanjung Barat","line":2,"distance":2671,"i_lat":-6.3080680000000005},{"line":2,"station_name":"Pasar Minggu","i_long":106.843999,"distance":2820,"transit":false,"time":4,"i_lat":-6.2842400000000005,"station_id":"PSM","is_transit":false},{"station_name":"Pasar Minggu Baru","time":2,"station_id":"PSMB","transit":false,"is_transit":false,"line":2,"i_lat":-6.263214,"distance":2380,"i_long":106.851577},{"transit":false,"i_lat":-6.255332,"time":2,"station_id":"DRN","line":2,"distance":824,"is_transit":false,"station_name":"Duren Kalibata","i_long":106.85449},{"distance":1546,"transit":false,"i_long":106.856607,"line":2,"is_transit":false,"station_name":"Cawang","i_lat":-6.242512,"station_id":"CW","time":3},{"time":2,"transit":false,"i_lat":-6.226659,"station_name":"Tebet","station_id":"TEB","line":2,"is_transit":false,"distance":1230,"i_long":106.857948},{"transit":true,"i_long":106.84912,"i_lat":-6.209883,"distance":2610,"time":4,"is_transit":true,"station_id":"MRI","line":2,"station_name":"Manggarai"},{"distance":3186,"i_lat":-6.202263,"transit":false,"i_long":106.822649,"line":1,"is_transit":false,"station_id":"SUD","time":4,"station_name":"Sudirman"},{"line":1,"transit":false,"is_transit":false,"distance":280,"station_id":"SUDB","i_long":106.819881,"time":1,"i_lat":-6.201433,"station_name":"Sudirman Baru"},{"station_name":"Karet","transit":false,"i_lat":-6.20132,"i_long":106.816351,"time":1,"distance":471,"station_id":"KAT","line":1,"is_transit":false},{"time":5,"transit":false,"i_lat":-6.185545,"station_id":"THB","i_long":106.811091,"distance":2029,"line":1,"station_name":"Tanah Abang","is_transit":false},{"time":8,"distance":3632,"i_lat":-6.155215,"is_transit":false,"transit":false,"i_long":106.800832,"station_id":"DU","station_name":"Duri","line":1},{"i_long":106.79867,"station_name":"Angke","is_transit":false,"line":1,"distance":1230,"transit":false,"time":4,"station_id":"AK","i_lat":-6.144674},{"station_name":"Kampung Bandan","time":9,"transit":true,"i_lat":-6.132549,"distance":4102,"station_id":"KPB","is_transit":true,"i_long":106.826365,"line":4},{"line":11,"time":3,"is_transit":false,"i_lat":-6.14505,"i_long":106.836569,"distance":1444,"station_id":"RJW","transit":false,"station_name":"Rajawali"},{"distance":1901,"i_lat":-6.161728,"time":5,"i_long":106.839204,"station_name":"Kemayoran","line":11,"station_id":"KMO","is_transit":false,"transit":false},{"transit":false,"time":4,"line":11,"is_transit":false,"station_name":"Pasar Senen","station_id":"PSE","i_long":106.84368,"i_lat":-6.174784,"distance":1436},{"station_id":"GST","i_long":106.850107,"time":8,"distance":1567,"is_transit":false,"station_name":"Gang Sentiong","i_lat":-6.185975,"transit":false,"line":11},{"is_transit":false,"time":1,"station_name":"Kramat","distance":973,"line":11,"transit":false,"i_lat":-6.193792,"i_long":106.855437,"station_id":"KMT"},{"line":11,"i_long":106.861737,"time":2,"station_name":"Pondok Jati","distance":1829,"transit":false,"station_id":"POK","is_transit":false,"i_lat":-6.209188},{"transit":true,"distance":1236,"i_lat":-6.215091,"i_long":106.86807400000001,"line":1,"is_transit":true,"station_id":"JNG","time":9,"station_name":"Jatinegara"},{"station_id":"KLD","is_transit":false,"line":1,"distance":3395,"i_lat":-6.2135,"time":3,"i_long":106.899548,"transit":false,"station_name":"Klender"},{"i_long":106.922662,"station_name":"Buaran","station_id":"BUA","i_lat":-6.215568,"line":1,"distance":3100,"is_transit":false,"time":2,"transit":false},{"line":1,"station_name":"Klenderbaru","time":1,"i_long":106.939679,"transit":false,"distance":1305,"is_transit":false,"i_lat":-6.217455,"station_id":"KLDB"}],[{"time":0,"transit":false,"i_lat":-6.360749,"distance":0,"is_transit":false,"station_id":"UI","i_long":106.831474,"line":2,"station_name":"Univ. Indonesia"},{"i_lat":-6.339291,"transit":false,"time":3,"distance":2264,"i_long":106.834175,"line":2,"is_transit":false,"station_name":"Univ. Pancasila","station_id":"UP"},{"distance":1029,"is_transit":false,"station_id":"LNA","i_lat":-6.330363,"station_name":"Lenteng Agung","transit":false,"i_long":106.832616,"time":2,"line":2},{"i_lat":-6.3080680000000005,"station_id":"TNT","line":2,"transit":false,"i_long":106.838896,"time":3,"is_transit":false,"station_name":"Tanjung Barat","distance":2671},{"station_id":"PSM","time":4,"line":2,"is_transit":false,"i_long":106.843999,"transit":false,"distance":2820,"station_name":"Pasar Minggu","i_lat":-6.2842400000000005},{"time":2,"is_transit":false,"i_lat":-6.263214,"transit":false,"station_name":"Pasar Minggu Baru","distance":2380,"station_id":"PSMB","i_long":106.851577,"line":2},{"station_id":"DRN","line":2,"distance":824,"is_transit":false,"i_lat":-6.255332,"i_long":106.85449,"station_name":"Duren Kalibata","time":2,"transit":false},{"time":3,"i_lat":-6.242512,"station_name":"Cawang","distance":1546,"station_id":"CW","transit":false,"is_transit":false,"i_long":106.856607,"line":2},{"i_long":106.857948,"line":2,"distance":1230,"station_id":"TEB","transit":false,"time":2,"is_transit":false,"station_name":"Tebet","i_lat":-6.226659},{"distance":2610,"is_transit":false,"station_name":"Manggarai","i_long":106.84912,"line":2,"transit":false,"i_lat":-6.209883,"station_id":"MRI","time":4},{"transit":false,"line":2,"station_id":"CKI","station_name":"Cikini","i_lat":-6.198556,"i_long":106.840169,"time":4,"is_transit":false,"distance":1590},{"i_lat":-6.186295,"distance":1750,"i_long":106.832183,"station_name":"Gondangdia","is_transit":false,"time":3,"line":2,"station_id":"GDD","transit":false},{"line":2,"time":4,"distance":2015,"station_name":"Juanda","station_id":"JUA","i_lat":-6.166716,"i_long":106.828284,"is_transit":false,"transit":false},{"time":2,"distance":1149,"is_transit":false,"transit":false,"station_name":"Sawah Besar","station_id":"SW","i_lat":-6.160725,"i_long":106.827103,"line":2},{"i_lat":-6.149769,"time":2,"i_long":106.82482,"transit":false,"station_name":"Manggabesar","distance":906,"is_transit":false,"station_id":"MGB","line":2},{"distance":1080,"line":2,"i_lat":-6.141205,"i_long":106.820901,"station_id":"JAY","station_name":"Jayakarta","transit":false,"time":2,"is_transit":false},{"time":4,"is_transit":true,"i_lat":-6.137569,"line":2,"i_long":106.812439,"station_name":"Jakarta Kota","transit":true,"distance":1264,"station_id":"JAKK"},{"i_lat":-6.132549,"line":4,"station_name":"Kampung Bandan","time":3,"distance":1364,"transit":true,"is_transit":true,"i_long":106.826365,"station_id":"KPB"},{"time":3,"i_lat":-6.14505,"distance":1444,"station_name":"Rajawali","line":11,"station_id":"RJW","i_long":106.836569,"is_transit":false,"transit":false},{"distance":1901,"transit":false,"is_transit":false,"i_lat":-6.161728,"station_name":"Kemayoran","station_id":"KMO","time":5,"i_long":106.839204,"line":11},{"time":4,"i_lat":-6.174784,"station_name":"Pasar Senen","transit":false,"station_id":"PSE","distance":1436,"i_long":106.84368,"is_transit":false,"line":11},{"time":8,"line":11,"transit":false,"is_transit":false,"i_lat":-6.185975,"station_name":"Gang Sentiong","i_long":106.850107,"station_id":"GST","distance":1567},{"line":11,"time":1,"station_id":"KMT","i_lat":-6.193792,"transit":false,"i_long":106.855437,"distance":973,"is_transit":false,"station_name":"Kramat"},{"i_lat":-6.209188,"line":11,"station_name":"Pondok Jati","i_long":106.861737,"distance":1829,"is_transit":false,"transit":false,"time":2,"station_id":"POK"},{"distance":1236,"station_name":"Jatinegara","time":9,"station_id":"JNG","is_transit":true,"i_long":106.86807400000001,"line":1,"transit":true,"i_lat":-6.215091},{"distance":3395,"i_lat":-6.2135,"station_name":"Klender","station_id":"KLD","time":3,"is_transit":false,"i_long":106.899548,"line":1,"transit":false},{"station_name":"Buaran","time":2,"distance":3100,"is_transit":false,"i_lat":-6.215568,"i_long":106.922662,"line":1,"transit":false,"station_id":"BUA"},{"is_transit":false,"station_name":"Klenderbaru","transit":false,"i_lat":-6.217455,"distance":1305,"station_id":"KLDB","i_long":106.939679,"line":1,"time":1}]]}