{"data":[[{"station_id":"UI","is_transit":false,"distance":0,"transit":false,"time":0,"line":2,"i_long":106.831474,"i_lat":-6.360749,"station_name":"Univ. Indonesia"},{"station_id":"UP","distance":2264,"station_name":"Univ. Pancasila","transit":false,"is_transit":false,"time":3,"i_long":106.834175,"line":2,"i_lat":-6.339291},{"station_id":"LNA","i_lat":-6.330363,"transit":false,"line":2,"i_long":106.832616,"distance":1029,"time":2,"station_name":"Lenteng Agung","is_transit":false},{"station_name":"Tanjung Barat","distance":2671,"is_transit":false,"line":2,"i_lat":-6.3080680000000005,"time":3,"station_id":"TNT","i_long":106.838896,"transit":false},{"is_transit":false,"time":4,"i_long":106.843999,"line":2,"distance":2820,"transit":false,"station_id":"PSM","station_name":"Pasar Minggu","i_lat":-6.2842400000000005},{"time":2,"i_lat":-6.263214,"is_transit":false,"station_id":"PSMB","line":2,"transit":false,"i_long":106.851577,"distance":2380,"station_name":"Pasar Minggu Baru"},{"station_id":"DRN","station_name":"Duren Kalibata","distance":824,"is_transit":false,"time":2,"transit":false,"line":2,"i_lat":-6.255332,"i_long":106.85449},{"i_lat":-6.242512,"is_transit":false,"station_name":"Cawang","i_long":106.856607,"transit":false,"time":3,"distance":1546,"station_id":"CW","line":2},{"distance":1230,"station_name":"Tebet","transit":false,"i_lat":-6.226659,"i_long":106.857948,"line":2,"station_id":"TEB","time":2,"is_transit":false},{"station_name":"Manggarai","time":4,"is_transit":true,"i_lat":-6.209883,"station_id":"MRI","distance":2610,"i_long":106.84912,"line":2,"transit":true},{"i_lat":-6.202263,"time":4,"transit":false,"i_long":106.822649,"station_name":"Sudirman","distance":3186,"is_transit":false,"line":1,"station_id":"SUD"},{"i_lat":-6.201433,"time":1,"station_id":"SUDB","is_transit":false,"station_name":"Sudirman Baru","transit":false,"i_long":106.819881,"line":1,"distance":280},{"station_name":"Karet","i_lat":-6.20132,"distance":471,"time":1,"i_long":106.816351,"station_id":"KAT","line":1,"transit":false,"is_transit":false},{"time":5,"station_name":"Tanah Abang","transit":true,"i_long":106.811091,"line":1,"is_transit":true,"i_lat":-6.185545,"distance":2029,"station_id":"THB"},{"distance":3191,"is_transit":false,"station_id":"PLM","transit":false,"line":6,"time":6,"station_name":"Palmerah","i_lat":-6.207404,"i_long":106.79689},{"station_name":"Kebayoran","time":7,"transit":false,"station_id":"KBY","is_transit":false,"i_lat":-6.237242,"distance":3737,"line":6,"i_long":106.780334}],[{"i_lat":-6.360749,"transit":false,"i_long":106.831474,"station_name":"Univ. Indonesia","line":2,"station_id":"UI","time":0,"distance":0,"is_transit":false},{"distance":2264,"transit":false,"station_id":"UP","line":2,"i_long":106.834175,"i_lat":-6.339291,"time":3,"is_transit":false,"station_name":"Univ. Pancasila"},{"station_id":"LNA","station_name":"Lenteng Agung","time":2,"is_transit":false,"line":2,"distance":1029,"i_lat":-6.330363,"transit":false,"i_long":106.832616},{"station_id":"TNT","station_name":"Tanjung Barat","transit":false,"i_lat":-6.3080680000000005,"line":2,"time":3,"distance":2671,"is_transit":false,"i_long":106.838896},{"is_transit":false,"line":2,"time":4,"station_name":"Pasar Minggu","distance":2820,"station_id":"PSM","i_lat":-6.2842400000000005,"transit":false,"i_long":106.843999},{"i_lat":-6.263214,"line":2,"time":2,"distance":2380,"station_id":"PSMB","station_name":"Pasar Minggu Baru","transit":false,"is_transit":false,"i_long":106.851577},{"transit":false,"line":2,"station_name":"Duren Kalibata","i_lat":-6.255332,"i_long":106.85449,"station_id":"DRN","is_transit":false,"time":2,"distance":824},{"distance":1546,"is_transit":false,"transit":false,"line":2,"station_name":"Cawang","time":3,"station_id":"CW","i_long":106.856607,"i_lat":-6.242512},{"transit":false,"distance":1230,"station_id":"TEB","is_transit":false,"station_name":"Tebet","i_lat":-6.226659,"i_long":106.857948,"line":2,"time":2},{"i_long":106.84912,"i_lat":-6.209883,"distance":2610,"time":4,"station_name":"Manggarai","station_id":"MRI","is_transit":false,"transit":false,"line":2},{"time":4,"i_lat":-6.198556,"line":2,"transit":false,"station_id":"CKI","station_name":"Cikini","is_transit":false,"i_long":106.840169,"distance":1590},{"distance":1750,"i_long":106.832183,"is_transit":false,"time":3,"line":2,"transit":false,"station_name":"Gondangdia","i_lat":-6.186295,"station_id":"GDD"},{"station_name":"Juanda","is_transit":false,"time":4,"distance":2015,"transit":false,"i_lat":-6.166716,"line":2,"station_id":"JUA","i_long":106.828284},{"station_id":"SW","line":2,"distance":1149,"is_transit":false,"transit":false,"time":2,"i_lat":-6.160725,"station_name":"Sawah Besar","i_long":106.827103},{"station_id":"MGB","i_long":106.82482,"line":2,"i_lat":-6.149769,"station_name":"Manggabesar","is_transit":false,"distance":906,"time":2,"transit":false},{"station_id":"JAY","distance":1080,"is_transit":false,"line":2,"station_name":"Jayakarta","time":2,"transit":false,"i_lat":-6.141205,"i_long":106.820901},{"line":2,"distance":1264,"i_lat":-6.137569,"station_id":"JAKK","station_name":"Jakarta Kota","is_transit":true,"transit":true,"time":4,"i_long":106.812439},{"station_id":"KPB","line":4,"time":3,"is_transit":true,"transit":true,"distance":1364,"station_name":"Kampung Bandan","i_lat":-6.132549,"i_long":106.826365},{"line":1,"station_name":"Angke","i_long":106.79867,"distance":4102,"time":9,"transit":false,"station_id":"AK","i_lat":-6.144674,"is_transit":false},{"distance":1230,"is_transit":false,"transit":false,"time":4,"line":1,"station_name":"Duri","i_lat":-6.155215,"station_id":"DU","i_long":106.800832},{"is_transit":true,"station_name":"Tanah Abang","station_id":"THB","line":1,"i_lat":-6.185545,"transit":true,"distance":3632,"i_long":106.811091,"time":8},{"line":6,"transit":false,"i_lat":-6.207404,"distance":3191,"station_id":"PLM","is_transit":false,"time":6,"i_long":106.79689,"station_name":"Palmerah"},{"i_lat":-6.237242,"i_long":106.780334,"time":7,"distance":3737,"station_id":"KBY","transit":false,"line":6,"station_name":"Kebayoran","is_transit":false}],[{"line":2,"station_name":"Univ. Indonesia","i_lat":-6.360749,"station_id":"UI","is_transit":false,"time":0,"transit":false,"i_long":106.831474,"distance":0},{"time":3,"line":2,"is_transit":false,"transit":false,"i_long":106.834175,"distance":2264,"station_name":"Univ. Pancasila","station_id":"UP","i_lat":-6.339291},{"time":2,"is_transit":false,"station_name":"Lenteng Agung","station_id":"LNA","transit":false,"i_long":106.832616,"i_lat":-6.330363,"line":2,"distance":1029},{"station_id":"TNT","time":3,"transit":false,"i_lat":-6.3080680000000005,"i_long":106.838896,"line":2,"distance":2671,"is_transit":false,"station_name":"Tanjung Barat"},{"is_transit":false,"time":4,"transit":false,"station_id":"PSM","i_lat":-6.2842400000000005,"station_name":"Pasar Minggu","distance":2820,"line":2,"i_long":106.843999},{"transit":false,"line":2,"distance":2380,"station_name":"Pasar Minggu Baru","i_lat":-6.263214,"i_long":106.851577,"time":2,"is_transit":false,"station_id":"PSMB"},{"transit":false,"distance":824,"station_name":"Duren Kalibata","i_long":106.85449,"station_id":"DRN","time":2,"line":2,"is_transit":false,"i_lat":-6.255332},{"i_long":106.856607,"time":3,"station_id":"CW","transit":false,"station_name":"Cawang","line":2,"distance":1546,"i_lat":-6.242512,"is_transit":false},{"distance":1230,"is_transit":false,"station_id":"TEB","station_name":"Tebet","i_lat":-6.226659,"line":2,"time":2,"transit":false,"i_long":106.857948},{"i_lat":-6.209883,"i_long":106.84912,"station_id":"MRI","time":4,"distance":2610,"transit":true,"station_name":"Manggarai","line":2,"is_transit":true},{"transit":false,"i_lat":-6.212485,"i_long":106.858896,"line":1,"distance":1275,"station_id":"MTR","time":2,"is_transit":false,"station_name":"Matraman"},{"time":8,"i_lat":-6.215091,"i_long":106.86807400000001,"station_id":"JNG","station_name":"Jatinegara","distance":1377,"line":1,"transit":true,"is_transit":true},{"is_transit":false,"i_long":106.861737,"line":11,"station_id":"POK","transit":false,"station_name":"Pondok Jati","i_lat":-6.209188,"time":2,"distance":1236},{"transit":false,"time":2,"line":11,"distance":1829,"i_long":106.855437,"station_name":"Kramat","is_transit":false,"station_id":"KMT","i_lat":-6.193792},{"transit":false,"time":1,"station_id":"GST","i_lat":-6.185975,"i_long":106.850107,"line":11,"is_transit":false,"station_name":"Gang Sentiong","distance":973},{"station_id":"PSE","is_transit":false,"i_lat":-6.174784,"distance":1567,"station_name":"Pasar Senen","i_long":106.84368,"time":8,"line":11,"transit":false},{"line":11,"time":4,"is_transit":false,"station_name":"Kemayoran","station_id":"KMO","transit":false,"distance":1436,"i_lat":-6.161728,"i_long":106.839204},{"transit":false,"station_name":"Rajawali","is_transit":false,"i_long":106.836569,"line":11,"time":5,"station_id":"RJW","distance":1901,"i_lat":-6.14505},{"distance":1444,"time":3,"transit":true,"i_lat":-6.132549,"i_long":106.826365,"is_transit":true,"station_id":"KPB","station_name":"Kampung Bandan","line":4},{"distance":4102,"i_long":106.79867,"is_transit":false,"time":9,"line":1,"transit":false,"station_id":"AK","station_name":"Angke","i_lat":-6.144674},{"i_lat":-6.155215,"line":1,"time":4,"transit":false,"station_name":"Duri","distance":1230,"i_long":106.800832,"is_transit":false,"station_id":"DU"},{"transit":true,"line":1,"i_lat":-6.185545,"station_id":"THB","distance":3632,"station_name":"Tanah Abang","time":8,"is_transit":true,"i_long":106.811091},{"distance":3191,"line":6,"i_long":106.79689,"station_id":"PLM","time":6,"i_lat":-6.207404,"transit":false,"station_name":"Palmerah","is_transit":false},{"line":6,"station_id":"KBY","time":7,"i_lat":-6.237242,"i_long":106.780334,"is_transit":false,"station_name":"Kebayoran","distance":3737,"transit":false}]]}