{"data":[[{"station_id":"UI","station_name":"Univ. Indonesia","line":2,"time":0,"i_lat":-6.360749,"i_long":106.831474,"is_transit":false,"transit":false,"distance":0},{"line":2,"distance":2264,"i_lat":-6.339291,"time":3,"station_name":"Univ. Pancasila","station_id":"UP","i_long":106.834175,"is_transit":false,"transit":false},{"station_name":"Lenteng Agung","line":2,"i_long":106.832616,"i_lat":-6.330363,"time":2,"station_id":"LNA","distance":1029,"is_transit":false,"transit":false},{"distance":2671,"station_name":"Tanjung Barat","i_long":106.838896,"time":3,"line":2,"is_transit":false,"station_id":"TNT","transit":false,"i_lat":-6.3080680000000005},{"time":4,"distance":2820,"line":2,"transit":false,"i_lat":-6.2842400000000005,"i_long":106.843999,"is_transit":false,"station_id":"PSM","station_name":"Pasar Minggu"},{"is_transit":false,"station_id":"PSMB","transit":false,"distance":2380,"station_name":"Pasar Minggu Baru","i_long":106.851577,"line":2,"time":2,"i_lat":-6.263214},{"i_long":106.85449,"line":2,"is_transit":false,"distance":824,"station_id":"DRN","time":2,"station_name":"Duren Kalibata","i_lat":-6.255332,"transit":false},{"distance":1546,"station_id":"CW","i_long":106.856607,"station_name":"Cawang","transit":false,"i_lat":-6.242512,"is_transit":false,"line":2,"time":3},{"is_transit":false,"transit":false,"station_name":"Tebet","line":2,"station_id":"TEB","i_long":106.857948,"i_lat":-6.226659,"distance":1230,"time":2},{"line":2,"time":4,"i_lat":-6.209883,"i_long":106.84912,"station_name":"Manggarai","distance":2610,"transit":true,"station_id":"MRI","is_transit":true},{"time":4,"i_lat":-6.202263,"line":1,"station_name":"Sudirman","is_transit":false,"distance":3186,"transit":false,"i_long":106.822649,"station_id":"SUD"},{"i_lat":-6.201433,"i_long":106.819881,"time":1,"station_id":"SUDB","is_transit":false,"transit":false,"distance":280,"line":1,"station_name":"Sudirman Baru"},{"is_transit":false,"transit":false,"station_id":"KAT","station_name":"Karet","i_long":106.816351,"distance":471,"line":1,"time":1,"i_lat":-6.20132},{"distance":2029,"i_long":106.811091,"is_transit":true,"transit":true,"i_lat":-6.185545,"station_name":"Tanah Abang","time":5,"station_id":"THB","line":1},{"time":6,"distance":3191,"is_transit":false,"i_lat":-6.207404,"i_long":106.79689,"station_id":"PLM","line":6,"transit":false,"station_name":"Palmerah"},{"station_id":"KBY","distance":3737,"line":6,"station_name":"Kebayoran","transit":false,"i_lat":-6.237242,"time":7,"is_transit":false,"i_long":106.780334}],[{"transit":false,"station_id":"UI","station_name":"Univ. Indonesia","i_lat":-6.360749,"i_long":106.831474,"line":2,"time":0,"is_transit":false,"distance":0},{"i_long":106.834175,"transit":false,"time":3,"distance":2264,"is_transit":false,"i_lat":-6.339291,"line":2,"station_id":"UP","station_name":"Univ. Pancasila"},{"line":2,"distance":1029,"is_transit":false,"time":2,"i_lat":-6.330363,"station_name":"Lenteng Agung","station_id":"LNA","transit":false,"i_long":106.832616},{"distance":2671,"is_transit":false,"station_name":"Tanjung Barat","station_id":"TNT","transit":false,"i_lat":-6.3080680000000005,"i_long":106.838896,"line":2,"time":3},{"distance":2820,"is_transit":false,"i_lat":-6.2842400000000005,"station_name":"Pasar Minggu","station_id":"PSM","transit":false,"i_long":106.843999,"line":2,"time":4},{"i_long":106.851577,"is_transit":false,"time":2,"station_name":"Pasar Minggu Baru","transit":false,"i_lat":-6.263214,"distance":2380,"line":2,"station_id":"PSMB"},{"i_lat":-6.255332,"is_transit":false,"station_id":"DRN","station_name":"Duren Kalibata","distance":824,"transit":false,"i_long":106.85449,"time":2,"line":2},{"i_lat":-6.242512,"is_transit":false,"station_id":"CW","transit":false,"station_name":"Cawang","i_long":106.856607,"time":3,"line":2,"distance":1546},{"is_transit":false,"station_id":"TEB","distance":1230,"transit":false,"station_name":"Tebet","i_long":106.857948,"line":2,"time":2,"i_lat":-6.226659},{"line":2,"transit":false,"i_lat":-6.209883,"distance":2610,"i_long":106.84912,"is_transit":false,"time":4,"station_id":"MRI","station_name":"Manggarai"},{"time":4,"i_long":106.840169,"transit":false,"is_transit":false,"i_lat":-6.198556,"station_name":"Cikini","station_id":"CKI","line":2,"distance":1590},{"time":3,"station_id":"GDD","distance":1750,"transit":false,"i_lat":-6.186295,"i_long":106.832183,"line":2,"station_name":"Gondangdia","is_transit":false},{"distance":2015,"station_id":"JUA","i_lat":-6.166716,"line":2,"transit":false,"time":4,"is_transit":false,"station_name":"Juanda","i_long":106.828284},{"station_name":"Sawah Besar","line":2,"i_lat":-6.160725,"time":2,"distance":1149,"station_id":"SW","transit":false,"i_long":106.827103,"is_transit":false},{"time":2,"station_name":"Manggabesar","i_long":106.82482,"is_transit":false,"transit":false,"distance":906,"station_id":"MGB","i_lat":-6.149769,"line":2},{"station_name":"Jayakarta","transit":false,"line":2,"time":2,"i_lat":-6.141205,"i_long":106.820901,"station_id":"JAY","is_transit":false,"distance":1080},{"time":4,"transit":true,"i_long":106.812439,"station_name":"Jakarta Kota","distance":1264,"station_id":"JAKK","is_transit":true,"i_lat":-6.137569,"line":2},{"time":3,"distance":1364,"is_transit":true,"transit":true,"station_name":"Kampung Bandan","line":4,"station_id":"KPB","i_long":106.826365,"i_lat":-6.132549},{"station_id":"AK","station_name":"Angke","line":1,"transit":false,"i_long":106.79867,"time":9,"i_lat":-6.144674,"is_transit":false,"distance":4102},{"i_long":106.800832,"transit":false,"station_id":"DU","station_name":"Duri","i_lat":-6.155215,"time":4,"is_transit":false,"distance":1230,"line":1},{"is_transit":true,"transit":true,"time":8,"i_lat":-6.185545,"station_name":"Tanah Abang","station_id":"THB","distance":3632,"i_long":106.811091,"line":1},{"distance":3191,"i_long":106.79689,"station_name":"Palmerah","station_id":"PLM","i_lat":-6.207404,"time":6,"transit":false,"line":6,"is_transit":false},{"i_long":106.780334,"station_name":"Kebayoran","is_transit":false,"station_id":"KBY","i_lat":-6.237242,"line":6,"transit":false,"distance":3737,"time":7}],[{"distance":0,"transit":false,"station_id":"UI","i_long":106.831474,"i_lat":-6.360749,"line":2,"time":0,"is_transit":false,"station_name":"Univ. Indonesia"},{"is_transit":false,"time":3,"distance":2264,"transit":false,"line":2,"station_name":"Univ. Pancasila","i_long":106.834175,"station_id":"UP","i_lat":-6.339291},{"station_name":"Lenteng Agung","transit":false,"station_id":"LNA","time":2,"distance":1029,"is_transit":false,"line":2,"i_lat":-6.330363,"i_long":106.832616},{"line":2,"station_id":"TNT","station_name":"Tanjung Barat","i_long":106.838896,"is_transit":false,"transit":false,"time":3,"i_lat":-6.3080680000000005,"distance":2671},{"is_transit":false,"station_id":"PSM","time":4,"transit":false,"i_lat":-6.2842400000000005,"station_name":"Pasar Minggu","distance":2820,"i_long":106.843999,"line":2},{"distance":2380,"line":2,"station_id":"PSMB","station_name":"Pasar Minggu Baru","i_long":106.851577,"transit":false,"i_lat":-6.263214,"time":2,"is_transit":false},{"station_id":"DRN","station_name":"Duren Kalibata","line":2,"i_lat":-6.255332,"distance":824,"i_long":106.85449,"time":2,"is_transit":false,"transit":false},{"is_transit":false,"i_long":106.856607,"time":3,"transit":false,"station_id":"CW","i_lat":-6.242512,"line":2,"station_name":"Cawang","distance":1546},{"line":2,"i_long":106.857948,"distance":1230,"is_transit":false,"station_id":"TEB","transit":false,"station_name":"Tebet","time":2,"i_lat":-6.226659},{"station_id":"MRI","station_name":"Manggarai","time":4,"transit":true,"i_long":106.84912,"i_lat":-6.209883,"distance":2610,"line":2,"is_transit":true},{"station_id":"MTR","time":2,"line":1,"i_lat":-6.212485,"is_transit":false,"station_name":"Matraman","transit":false,"distance":1275,"i_long":106.858896},{"distance":1377,"station_name":"Jatinegara","transit":true,"line":1,"i_lat":-6.215091,"time":8,"is_transit":true,"i_long":106.86807400000001,"station_id":"JNG"},{"is_transit":false,"transit":false,"time":2,"station_name":"Pondok Jati","line":11,"i_lat":-6.209188,"distance":1236,"i_long":106.861737,"station_id":"POK"},{"station_id":"KMT","i_lat":-6.193792,"time":2,"i_long":106.855437,"station_name":"Kramat","is_transit":false,"distance":1829,"line":11,"transit":false},{"i_long":106.850107,"station_name":"Gang Sentiong","i_lat":-6.185975,"distance":973,"is_transit":false,"line":11,"transit":false,"time":1,"station_id":"GST"},{"station_name":"Pasar Senen","time":8,"station_id":"PSE","is_transit":false,"i_lat":-6.174784,"distance":1567,"line":11,"transit":false,"i_long":106.84368},{"transit":false,"station_name":"Kemayoran","station_id":"KMO","distance":1436,"time":4,"i_lat":-6.161728,"line":11,"i_long":106.839204,"is_transit":false},{"time":5,"line":11,"station_id":"RJW","distance":1901,"i_lat":-6.14505,"station_name":"Rajawali","transit":false,"is_transit":false,"i_long":106.836569},{"i_lat":-6.132549,"station_name":"Kampung Bandan","i_long":106.826365,"line":4,"station_id":"KPB","transit":true,"is_transit":true,"distance":1444,"time":3},{"is_transit":false,"line":1,"distance":4102,"transit":false,"time":9,"station_name":"Angke","i_long":106.79867,"i_lat":-6.144674,"station_id":"AK"},{"line":1,"i_lat":-6.155215,"i_long":106.800832,"distance":1230,"transit":false,"station_id":"DU","is_transit":false,"time":4,"station_name":"Duri"},{"is_transit":true,"station_name":"Tanah Abang","line":1,"i_lat":-6.185545,"i_long":106.811091,"station_id":"THB","distance":3632,"time":8,"transit":true},{"transit":false,"station_name":"Palmerah","i_lat":-6.207404,"line":6,"distance":3191,"time":6,"i_long":106.79689,"station_id":"PLM","is_transit":false},{"i_lat":-6.237242,"station_id":"KBY","transit":false,"distance":3737,"i_long":106.780334,"line":6,"is_transit":false,"station_name":"Kebayoran","time":7}]]}