{"data":[[{"line":2,"transit":false,"distance":0,"station_id":"UI","is_transit":false,"time":0,"station_name":"Univ. Indonesia","i_lat":-6.360749,"i_long":106.831474},{"time":3,"i_lat":-6.339291,"line":2,"distance":2264,"is_transit":false,"transit":false,"station_id":"UP","station_name":"Univ. Pancasila","i_long":106.834175},{"i_lat":-6.330363,"distance":1029,"station_name":"Lenteng Agung","transit":false,"station_id":"LNA","time":2,"line":2,"i_long":106.832616,"is_transit":false},{"station_name":"Tanjung Barat","is_transit":false,"line":2,"distance":2671,"station_id":"TNT","transit":false,"time":3,"i_lat":-6.3080680000000005,"i_long":106.838896},{"is_transit":false,"i_long":106.843999,"distance":2820,"line":2,"transit":false,"station_id":"PSM","time":4,"station_name":"Pasar Minggu","i_lat":-6.2842400000000005},{"line":2,"is_transit":false,"station_name":"Pasar Minggu Baru","station_id":"PSMB","transit":false,"i_long":106.851577,"distance":2380,"time":2,"i_lat":-6.263214},{"i_lat":-6.255332,"station_name":"Duren Kalibata","line":0,"is_transit":false,"station_id":"DRN","transit":false,"distance":824,"time":2,"i_long":106.85449},{"time":3,"line":0,"i_lat":-6.242512,"distance":1546,"transit":false,"i_long":106.856607,"station_id":"CW","station_name":"Cawang","is_transit":false},{"station_id":"TEB","i_lat":-6.226659,"line":2,"station_name":"Tebet","i_long":106.857948,"time":2,"is_transit":false,"distance":1230,"transit":false},{"i_lat":-6.209883,"i_long":106.84912,"line":0,"time":4,"station_id":"MRI","station_name":"Manggarai","distance":2610,"transit":true,"is_transit":true},{"station_name":"Matraman","time":2,"station_id":"MTR","line":1,"i_lat":-6.212485,"is_transit":false,"transit":false,"i_long":106.858896,"distance":1275},{"station_name":"Jatinegara","i_long":106.86807400000001,"line":0,"time":8,"distance":1377,"is_transit":true,"station_id":"JNG","i_lat":-6.215091,"transit":false},{"is_transit":false,"transit":false,"i_long":106.899548,"i_lat":-6.2135,"station_name":"Klender","station_id":"KLD","distance":3395,"time":3,"line":1}],[{"line":2,"distance":0,"station_id":"UI","transit":false,"i_lat":-6.360749,"is_transit":false,"i_long":106.831474,"time":0,"station_name":"Univ. Indonesia"},{"station_id":"UP","time":3,"line":2,"distance":2264,"i_lat":-6.339291,"i_long":106.834175,"transit":false,"is_transit":false,"station_name":"Univ. Pancasila"},{"is_transit":false,"line":2,"station_id":"LNA","time":2,"transit":false,"station_name":"Lenteng Agung","distance":1029,"i_lat":-6.330363,"i_long":106.832616},{"is_transit":false,"i_lat":-6.3080680000000005,"line":2,"station_name":"Tanjung Barat","station_id":"TNT","time":3,"transit":false,"i_long":106.838896,"distance":2671},{"transit":false,"is_transit":false,"i_long":106.843999,"station_name":"Pasar Minggu","time":4,"station_id":"PSM","line":2,"i_lat":-6.2842400000000005,"distance":2820},{"distance":2380,"station_id":"PSMB","line":2,"time":2,"is_transit":false,"transit":false,"station_name":"Pasar Minggu Baru","i_lat":-6.263214,"i_long":106.851577},{"time":2,"distance":824,"station_name":"Duren Kalibata","station_id":"DRN","transit":false,"is_transit":false,"i_long":106.85449,"line":0,"i_lat":-6.255332},{"station_name":"Cawang","is_transit":false,"distance":1546,"time":3,"transit":false,"line":0,"i_lat":-6.242512,"station_id":"CW","i_long":106.856607},{"i_lat":-6.226659,"station_name":"Tebet","transit":false,"station_id":"TEB","time":2,"is_transit":false,"i_long":106.857948,"line":2,"distance":1230},{"station_id":"MRI","line":0,"time":4,"distance":2610,"transit":true,"i_lat":-6.209883,"is_transit":true,"station_name":"Manggarai","i_long":106.84912},{"time":4,"distance":3186,"is_transit":false,"transit":false,"i_long":106.822649,"station_id":"SUD","station_name":"Sudirman","i_lat":-6.202263,"line":1},{"time":1,"is_transit":false,"station_name":"Sudirman Baru","line":1,"distance":280,"i_lat":-6.201433,"i_long":106.819881,"transit":false,"station_id":"SUDB"},{"transit":false,"time":1,"distance":471,"station_id":"KAT","is_transit":false,"i_lat":-6.20132,"station_name":"Karet","i_long":106.816351,"line":1},{"station_name":"Tanah Abang","station_id":"THB","time":5,"i_lat":-6.185545,"distance":2029,"is_transit":true,"line":1,"i_long":106.811091,"transit":false},{"distance":3632,"is_transit":true,"time":8,"i_long":106.800832,"station_name":"Duri","station_id":"DU","i_lat":-6.155215,"transit":true,"line":1},{"i_lat":-6.144674,"distance":1230,"station_name":"Angke","is_transit":false,"i_long":106.79867,"line":0,"station_id":"AK","transit":false,"time":4},{"station_id":"KPB","station_name":"Kampung Bandan","is_transit":true,"i_lat":-6.132549,"transit":true,"distance":4102,"i_long":106.826365,"line":0,"time":9},{"i_long":106.836569,"transit":false,"distance":1444,"is_transit":false,"line":11,"station_name":"Rajawali","time":3,"station_id":"RJW","i_lat":-6.14505},{"line":11,"i_long":106.839204,"time":5,"is_transit":false,"station_name":"Kemayoran","i_lat":-6.161728,"transit":false,"distance":1901,"station_id":"KMO"},{"transit":false,"distance":1436,"station_name":"Pasar Senen","is_transit":false,"station_id":"PSE","i_lat":-6.174784,"time":4,"line":11,"i_long":106.84368},{"is_transit":false,"station_id":"GST","station_name":"Gang Sentiong","i_long":106.850107,"distance":1567,"transit":false,"line":11,"time":8,"i_lat":-6.185975},{"is_transit":false,"transit":false,"i_lat":-6.193792,"i_long":106.855437,"time":1,"distance":973,"line":11,"station_name":"Kramat","station_id":"KMT"},{"time":2,"distance":1829,"line":11,"is_transit":false,"transit":false,"i_lat":-6.209188,"station_name":"Pondok Jati","i_long":106.861737,"station_id":"POK"},{"i_lat":-6.215091,"station_name":"Jatinegara","line":0,"station_id":"JNG","time":9,"transit":true,"is_transit":true,"distance":1236,"i_long":106.86807400000001},{"station_name":"Klender","is_transit":false,"i_lat":-6.2135,"i_long":106.899548,"line":1,"transit":false,"station_id":"KLD","distance":3395,"time":3}],[{"i_long":106.831474,"station_name":"Univ. Indonesia","line":2,"distance":0,"time":0,"station_id":"UI","i_lat":-6.360749,"is_transit":false,"transit":false},{"station_id":"UP","transit":false,"distance":2264,"station_name":"Univ. Pancasila","i_lat":-6.339291,"line":2,"i_long":106.834175,"time":3,"is_transit":false},{"time":2,"is_transit":false,"distance":1029,"i_lat":-6.330363,"transit":false,"station_id":"LNA","i_long":106.832616,"station_name":"Lenteng Agung","line":2},{"i_long":106.838896,"distance":2671,"station_id":"TNT","i_lat":-6.3080680000000005,"station_name":"Tanjung Barat","is_transit":false,"time":3,"transit":false,"line":2},{"i_lat":-6.2842400000000005,"time":4,"transit":false,"station_name":"Pasar Minggu","line":2,"is_transit":false,"i_long":106.843999,"distance":2820,"station_id":"PSM"},{"station_id":"PSMB","is_transit":false,"line":2,"station_name":"Pasar Minggu Baru","time":2,"distance":2380,"transit":false,"i_lat":-6.263214,"i_long":106.851577},{"station_name":"Duren Kalibata","line":0,"i_lat":-6.255332,"i_long":106.85449,"transit":false,"station_id":"DRN","distance":824,"is_transit":false,"time":2},{"distance":1546,"line":0,"time":3,"station_id":"CW","station_name":"Cawang","i_lat":-6.242512,"transit":false,"i_long":106.856607,"is_transit":false},{"distance":1230,"line":2,"time":2,"is_transit":false,"i_lat":-6.226659,"station_id":"TEB","station_name":"Tebet","i_long":106.857948,"transit":false},{"is_transit":true,"line":0,"i_lat":-6.209883,"time":4,"transit":true,"station_name":"Manggarai","station_id":"MRI","i_long":106.84912,"distance":2610},{"distance":1590,"time":4,"i_long":106.840169,"station_id":"CKI","line":0,"station_name":"Cikini","is_transit":false,"transit":false,"i_lat":-6.198556},{"distance":1750,"station_id":"GDD","transit":false,"i_long":106.832183,"time":3,"line":2,"i_lat":-6.186295,"is_transit":false,"station_name":"Gondangdia"},{"station_id":"JUA","time":4,"station_name":"Juanda","transit":false,"line":2,"is_transit":false,"i_long":106.828284,"distance":2015,"i_lat":-6.166716},{"station_id":"SW","station_name":"Sawah Besar","line":2,"i_long":106.827103,"time":2,"transit":false,"i_lat":-6.160725,"distance":1149,"is_transit":false},{"i_lat":-6.149769,"station_id":"MGB","i_long":106.82482,"station_name":"Manggabesar","transit":false,"is_transit":false,"distance":906,"line":2,"time":2},{"distance":1080,"is_transit":false,"i_lat":-6.141205,"line":7,"time":2,"i_long":106.820901,"station_id":"JAY","station_name":"Jayakarta","transit":false},{"time":4,"is_transit":true,"i_lat":-6.137569,"i_long":106.812439,"line":0,"station_name":"Jakarta Kota","distance":1264,"station_id":"JAKK","transit":true},{"is_transit":true,"station_name":"Kampung Bandan","station_id":"KPB","transit":true,"time":3,"i_lat":-6.132549,"i_long":106.826365,"line":0,"distance":1364},{"station_id":"RJW","transit":false,"line":11,"distance":1444,"station_name":"Rajawali","time":3,"i_lat":-6.14505,"i_long":106.836569,"is_transit":false},{"distance":1901,"transit":false,"station_id":"KMO","i_lat":-6.161728,"time":5,"line":11,"is_transit":false,"station_name":"Kemayoran","i_long":106.839204},{"distance":1436,"station_name":"Pasar Senen","i_lat":-6.174784,"transit":false,"line":11,"i_long":106.84368,"station_id":"PSE","time":4,"is_transit":false},{"time":8,"is_transit":false,"i_lat":-6.185975,"distance":1567,"station_name":"Gang Sentiong","i_long":106.850107,"transit":false,"line":11,"station_id":"GST"},{"station_id":"KMT","distance":973,"i_lat":-6.193792,"i_long":106.855437,"is_transit":false,"station_name":"Kramat","transit":false,"line":11,"time":1},{"line":11,"time":2,"station_name":"Pondok Jati","transit":false,"is_transit":false,"distance":1829,"station_id":"POK","i_lat":-6.209188,"i_long":106.861737},{"i_lat":-6.215091,"is_transit":true,"distance":1236,"time":9,"line":0,"station_name":"Jatinegara","station_id":"JNG","transit":true,"i_long":106.86807400000001},{"distance":3395,"station_name":"Klender","station_id":"KLD","i_lat":-6.2135,"line":1,"time":3,"is_transit":false,"transit":false,"i_long":106.899548}]]}