{"data":[[{"station_name":"Univ. Indonesia","i_lat":-6.360749,"i_long":106.831474,"line":2,"time":0,"is_transit":false,"distance":0,"transit":false,"station_id":"UI"},{"time":3,"station_name":"Univ. Pancasila","i_long":106.834175,"is_transit":false,"line":2,"distance":2264,"station_id":"UP","i_lat":-6.339291,"transit":false},{"distance":1029,"station_id":"LNA","line":2,"station_name":"Lenteng Agung","i_long":106.832616,"is_transit":false,"time":2,"i_lat":-6.330363,"transit":false},{"time":3,"station_id":"TNT","distance":2671,"transit":false,"station_name":"Tanjung Barat","is_transit":false,"i_long":106.838896,"i_lat":-6.3080680000000005,"line":2},{"station_id":"PSM","distance":2820,"station_name":"Pasar Minggu","transit":false,"is_transit":false,"time":4,"i_long":106.843999,"line":2,"i_lat":-6.2842400000000005},{"station_name":"Pasar Minggu Baru","line":2,"station_id":"PSMB","i_lat":-6.263214,"is_transit":false,"distance":2380,"time":2,"i_long":106.851577,"transit":false},{"is_transit":false,"station_id":"DRN","i_long":106.85449,"transit":false,"time":2,"line":2,"station_name":"Duren Kalibata","distance":824,"i_lat":-6.255332},{"is_transit":false,"line":2,"i_lat":-6.242512,"distance":1546,"transit":false,"station_name":"Cawang","time":3,"i_long":106.856607,"station_id":"CW"},{"station_id":"TEB","time":2,"is_transit":false,"i_long":106.857948,"station_name":"Tebet","distance":1230,"line":2,"transit":false,"i_lat":-6.226659},{"i_lat":-6.209883,"station_name":"Manggarai","is_transit":true,"line":2,"i_long":106.84912,"time":4,"station_id":"MRI","distance":2610,"transit":true},{"i_long":106.858896,"line":1,"station_name":"Matraman","distance":1275,"is_transit":false,"transit":false,"station_id":"MTR","time":2,"i_lat":-6.212485},{"time":8,"transit":false,"station_name":"Jatinegara","is_transit":false,"distance":1377,"i_long":106.86807400000001,"line":1,"i_lat":-6.215091,"station_id":"JNG"},{"distance":3395,"station_id":"KLD","is_transit":false,"i_long":106.899548,"line":1,"station_name":"Klender","i_lat":-6.2135,"time":3,"transit":false},{"i_long":106.922662,"line":1,"is_transit":false,"time":2,"distance":3100,"transit":false,"station_name":"Buaran","i_lat":-6.215568,"station_id":"BUA"},{"line":1,"distance":1305,"station_id":"KLDB","station_name":"Klenderbaru","i_lat":-6.217455,"transit":false,"is_transit":false,"i_long":106.939679,"time":1}],[{"distance":0,"station_id":"UI","station_name":"Univ. Indonesia","line":2,"transit":false,"i_lat":-6.360749,"time":0,"i_long":106.831474,"is_transit":false},{"i_lat":-6.339291,"transit":false,"line":2,"i_long":106.834175,"time":3,"distance":2264,"station_name":"Univ. Pancasila","station_id":"UP","is_transit":false},{"distance":1029,"station_id":"LNA","i_long":106.832616,"i_lat":-6.330363,"time":2,"transit":false,"station_name":"Lenteng Agung","is_transit":false,"line":2},{"i_long":106.838896,"station_name":"Tanjung Barat","i_lat":-6.3080680000000005,"is_transit":false,"transit":false,"time":3,"station_id":"TNT","distance":2671,"line":2},{"is_transit":false,"station_name":"Pasar Minggu","distance":2820,"time":4,"i_long":106.843999,"line":2,"transit":false,"station_id":"PSM","i_lat":-6.2842400000000005},{"i_lat":-6.263214,"is_transit":false,"station_name":"Pasar Minggu Baru","transit":false,"distance":2380,"time":2,"i_long":106.851577,"station_id":"PSMB","line":2},{"i_long":106.85449,"distance":824,"transit":false,"station_id":"DRN","station_name":"Duren Kalibata","i_lat":-6.255332,"is_transit":false,"time":2,"line":2},{"is_transit":false,"transit":false,"line":2,"station_name":"Cawang","distance":1546,"i_long":106.856607,"station_id":"CW","i_lat":-6.242512,"time":3},{"i_long":106.857948,"station_id":"TEB","time":2,"station_name":"Tebet","is_transit":false,"transit":false,"i_lat":-6.226659,"line":2,"distance":1230},{"distance":2610,"line":2,"is_transit":true,"station_name":"Manggarai","station_id":"MRI","transit":true,"i_long":106.84912,"i_lat":-6.209883,"time":4},{"distance":3186,"i_lat":-6.202263,"i_long":106.822649,"time":4,"is_transit":false,"transit":false,"station_name":"Sudirman","station_id":"SUD","line":1},{"i_lat":-6.201433,"distance":280,"line":1,"transit":false,"time":1,"is_transit":false,"station_id":"SUDB","station_name":"Sudirman Baru","i_long":106.819881},{"i_long":106.816351,"distance":471,"station_name":"Karet","time":1,"is_transit":false,"line":1,"station_id":"KAT","i_lat":-6.20132,"transit":false},{"transit":false,"distance":2029,"i_long":106.811091,"line":1,"time":5,"is_transit":false,"station_name":"Tanah Abang","i_lat":-6.185545,"station_id":"THB"},{"time":8,"i_lat":-6.155215,"line":1,"i_long":106.800832,"station_name":"Duri","is_transit":false,"transit":false,"distance":3632,"station_id":"DU"},{"transit":false,"station_name":"Angke","distance":1230,"i_lat":-6.144674,"time":4,"station_id":"AK","i_long":106.79867,"line":1,"is_transit":false},{"distance":4102,"i_lat":-6.132549,"i_long":106.826365,"station_id":"KPB","is_transit":true,"station_name":"Kampung Bandan","transit":true,"line":4,"time":9},{"i_long":106.836569,"time":3,"station_name":"Rajawali","distance":1444,"transit":false,"is_transit":false,"station_id":"RJW","line":11,"i_lat":-6.14505},{"is_transit":false,"transit":false,"i_lat":-6.161728,"distance":1901,"line":11,"time":5,"station_name":"Kemayoran","station_id":"KMO","i_long":106.839204},{"distance":1436,"time":4,"transit":false,"is_transit":false,"i_long":106.84368,"station_id":"PSE","i_lat":-6.174784,"station_name":"Pasar Senen","line":11},{"line":11,"i_long":106.850107,"i_lat":-6.185975,"time":8,"is_transit":false,"transit":false,"distance":1567,"station_name":"Gang Sentiong","station_id":"GST"},{"time":1,"distance":973,"i_lat":-6.193792,"line":11,"station_id":"KMT","is_transit":false,"transit":false,"i_long":106.855437,"station_name":"Kramat"},{"time":2,"distance":1829,"transit":false,"station_id":"POK","i_lat":-6.209188,"i_long":106.861737,"is_transit":false,"line":11,"station_name":"Pondok Jati"},{"station_id":"JNG","i_long":106.86807400000001,"is_transit":true,"time":9,"station_name":"Jatinegara","i_lat":-6.215091,"distance":1236,"transit":true,"line":1},{"station_name":"Klender","i_lat":-6.2135,"distance":3395,"transit":false,"station_id":"KLD","time":3,"is_transit":false,"line":1,"i_long":106.899548},{"i_long":106.922662,"is_transit":false,"distance":3100,"i_lat":-6.215568,"station_id":"BUA","transit":false,"station_name":"Buaran","time":2,"line":1},{"line":1,"distance":1305,"station_name":"Klenderbaru","transit":false,"station_id":"KLDB","i_long":106.939679,"time":1,"is_transit":false,"i_lat":-6.217455}],[{"station_name":"Univ. Indonesia","i_long":106.831474,"distance":0,"time":0,"is_transit":false,"i_lat":-6.360749,"line":2,"transit":false,"station_id":"UI"},{"station_id":"UP","line":2,"time":3,"i_lat":-6.339291,"is_transit":false,"distance":2264,"station_name":"Univ. Pancasila","transit":false,"i_long":106.834175},{"is_transit":false,"station_id":"LNA","time":2,"line":2,"distance":1029,"i_long":106.832616,"transit":false,"i_lat":-6.330363,"station_name":"Lenteng Agung"},{"is_transit":false,"transit":false,"i_lat":-6.3080680000000005,"distance":2671,"station_name":"Tanjung Barat","station_id":"TNT","time":3,"line":2,"i_long":106.838896},{"time":4,"transit":false,"is_transit":false,"i_long":106.843999,"distance":2820,"i_lat":-6.2842400000000005,"station_id":"PSM","line":2,"station_name":"Pasar Minggu"},{"distance":2380,"station_id":"PSMB","is_transit":false,"i_long":106.851577,"i_lat":-6.263214,"transit":false,"line":2,"station_name":"Pasar Minggu Baru","time":2},{"i_lat":-6.255332,"transit":false,"time":2,"station_name":"Duren Kalibata","line":2,"is_transit":false,"i_long":106.85449,"station_id":"DRN","distance":824},{"station_name":"Cawang","station_id":"CW","transit":false,"distance":1546,"time":3,"is_transit":false,"line":2,"i_lat":-6.242512,"i_long":106.856607},{"is_transit":false,"i_lat":-6.226659,"distance":1230,"station_id":"TEB","station_name":"Tebet","transit":false,"time":2,"line":2,"i_long":106.857948},{"i_long":106.84912,"line":2,"time":4,"station_name":"Manggarai","distance":2610,"transit":false,"station_id":"MRI","is_transit":false,"i_lat":-6.209883},{"station_name":"Cikini","i_lat":-6.198556,"is_transit":false,"station_id":"CKI","distance":1590,"i_long":106.840169,"line":2,"time":4,"transit":false},{"transit":false,"time":3,"distance":1750,"i_long":106.832183,"station_name":"Gondangdia","is_transit":false,"station_id":"GDD","i_lat":-6.186295,"line":2},{"distance":2015,"i_lat":-6.166716,"line":2,"is_transit":false,"station_name":"Juanda","time":4,"i_long":106.828284,"transit":false,"station_id":"JUA"},{"time":2,"is_transit":false,"station_name":"Sawah Besar","distance":1149,"transit":false,"i_long":106.827103,"i_lat":-6.160725,"station_id":"SW","line":2},{"time":2,"is_transit":false,"station_id":"MGB","i_lat":-6.149769,"line":2,"station_name":"Manggabesar","i_long":106.82482,"distance":906,"transit":false},{"transit":false,"station_name":"Jayakarta","is_transit":false,"i_long":106.820901,"time":2,"i_lat":-6.141205,"distance":1080,"station_id":"JAY","line":2},{"i_lat":-6.137569,"line":2,"station_name":"Jakarta Kota","time":4,"station_id":"JAKK","transit":true,"is_transit":true,"distance":1264,"i_long":106.812439},{"line":4,"i_long":106.826365,"transit":true,"is_transit":true,"station_name":"Kampung Bandan","i_lat":-6.132549,"distance":1364,"time":3,"station_id":"KPB"},{"distance":1444,"transit":false,"is_transit":false,"time":3,"i_long":106.836569,"line":11,"station_id":"RJW","station_name":"Rajawali","i_lat":-6.14505},{"distance":1901,"i_lat":-6.161728,"line":11,"station_name":"Kemayoran","station_id":"KMO","is_transit":false,"i_long":106.839204,"transit":false,"time":5},{"is_transit":false,"i_long":106.84368,"distance":1436,"line":11,"station_name":"Pasar Senen","station_id":"PSE","transit":false,"i_lat":-6.174784,"time":4},{"is_transit":false,"transit":false,"station_id":"GST","i_long":106.850107,"time":8,"station_name":"Gang Sentiong","line":11,"i_lat":-6.185975,"distance":1567},{"station_name":"Kramat","i_lat":-6.193792,"line":11,"station_id":"KMT","is_transit":false,"distance":973,"i_long":106.855437,"time":1,"transit":false},{"station_name":"Pondok Jati","distance":1829,"transit":false,"i_lat":-6.209188,"i_long":106.861737,"line":11,"station_id":"POK","is_transit":false,"time":2},{"distance":1236,"i_lat":-6.215091,"station_name":"Jatinegara","time":9,"i_long":106.86807400000001,"transit":true,"station_id":"JNG","is_transit":true,"line":1},{"station_name":"Klender","i_long":106.899548,"i_lat":-6.2135,"transit":false,"time":3,"is_transit":false,"distance":3395,"station_id":"KLD","line":1},{"i_lat":-6.215568,"station_name":"Buaran","station_id":"BUA","is_transit":false,"transit":false,"distance":3100,"i_long":106.922662,"line":1,"time":2},{"transit":false,"station_name":"Klenderbaru","is_transit":false,"i_lat":-6.217455,"i_long":106.939679,"time":1,"distance":1305,"line":1,"station_id":"KLDB"}]]}