{"data":[[{"time":0,"transit":false,"line":2,"is_transit":false,"station_name":"Univ. Indonesia","station_id":"UI","distance":0,"i_long":106.831474,"i_lat":-6.360749},{"distance":2264,"line":2,"is_transit":false,"transit":false,"station_name":"Univ. Pancasila","station_id":"UP","time":3,"i_long":106.834175,"i_lat":-6.339291},{"time":2,"transit":false,"i_long":106.832616,"is_transit":false,"station_name":"Lenteng Agung","station_id":"LNA","distance":1029,"i_lat":-6.330363,"line":2},{"time":3,"i_long":106.838896,"is_transit":false,"line":2,"transit":false,"station_name":"Tanjung Barat","station_id":"TNT","distance":2671,"i_lat":-6.3080680000000005},{"station_id":"PSM","is_transit":false,"i_lat":-6.2842400000000005,"time":4,"distance":2820,"transit":false,"station_name":"Pasar Minggu","i_long":106.843999,"line":2},{"i_long":106.851577,"station_id":"PSMB","time":2,"transit":false,"is_transit":false,"distance":2380,"line":2,"i_lat":-6.263214,"station_name":"Pasar Minggu Baru"},{"distance":824,"station_id":"DRN","i_lat":-6.255332,"is_transit":false,"line":2,"station_name":"Duren Kalibata","transit":false,"i_long":106.85449,"time":2},{"station_id":"CW","time":3,"i_lat":-6.242512,"is_transit":false,"distance":1546,"station_name":"Cawang","transit":false,"i_long":106.856607,"line":2},{"i_long":106.857948,"station_name":"Tebet","transit":false,"station_id":"TEB","time":2,"is_transit":false,"distance":1230,"line":2,"i_lat":-6.226659},{"i_lat":-6.209883,"line":2,"i_long":106.84912,"station_name":"Manggarai","distance":2610,"is_transit":true,"transit":true,"station_id":"MRI","time":4},{"station_name":"Sudirman","i_lat":-6.202263,"is_transit":false,"i_long":106.822649,"distance":3186,"line":1,"transit":false,"station_id":"SUD","time":4},{"distance":280,"time":1,"station_name":"Sudirman Baru","transit":false,"station_id":"SUDB","i_lat":-6.201433,"i_long":106.819881,"line":1,"is_transit":false},{"is_transit":false,"time":1,"i_lat":-6.20132,"i_long":106.816351,"transit":false,"line":1,"station_name":"Karet","station_id":"KAT","distance":471},{"transit":true,"time":5,"line":1,"is_transit":true,"station_id":"THB","distance":2029,"i_lat":-6.185545,"station_name":"Tanah Abang","i_long":106.811091},{"line":6,"transit":false,"is_transit":false,"i_lat":-6.207404,"i_long":106.79689,"station_id":"PLM","time":6,"distance":3191,"station_name":"Palmerah"},{"is_transit":false,"distance":3737,"station_id":"KBY","line":6,"i_lat":-6.237242,"i_long":106.780334,"transit":false,"time":7,"station_name":"Kebayoran"}],[{"i_long":106.831474,"station_id":"UI","time":0,"i_lat":-6.360749,"is_transit":false,"station_name":"Univ. Indonesia","distance":0,"line":2,"transit":false},{"station_name":"Univ. Pancasila","i_lat":-6.339291,"distance":2264,"station_id":"UP","time":3,"is_transit":false,"i_long":106.834175,"transit":false,"line":2},{"transit":false,"distance":1029,"i_lat":-6.330363,"is_transit":false,"i_long":106.832616,"station_name":"Lenteng Agung","station_id":"LNA","time":2,"line":2},{"line":2,"distance":2671,"station_id":"TNT","time":3,"i_lat":-6.3080680000000005,"transit":false,"is_transit":false,"station_name":"Tanjung Barat","i_long":106.838896},{"is_transit":false,"transit":false,"line":2,"i_lat":-6.2842400000000005,"station_id":"PSM","station_name":"Pasar Minggu","time":4,"i_long":106.843999,"distance":2820},{"is_transit":false,"line":2,"distance":2380,"i_long":106.851577,"transit":false,"i_lat":-6.263214,"time":2,"station_name":"Pasar Minggu Baru","station_id":"PSMB"},{"is_transit":false,"i_long":106.85449,"i_lat":-6.255332,"station_name":"Duren Kalibata","transit":false,"time":2,"distance":824,"line":2,"station_id":"DRN"},{"station_id":"CW","distance":1546,"is_transit":false,"transit":false,"i_lat":-6.242512,"line":2,"i_long":106.856607,"time":3,"station_name":"Cawang"},{"i_lat":-6.226659,"i_long":106.857948,"line":2,"station_name":"Tebet","is_transit":false,"distance":1230,"station_id":"TEB","time":2,"transit":false},{"is_transit":false,"distance":2610,"station_id":"MRI","i_long":106.84912,"line":2,"i_lat":-6.209883,"transit":false,"station_name":"Manggarai","time":4},{"line":2,"station_id":"CKI","distance":1590,"i_long":106.840169,"station_name":"Cikini","time":4,"transit":false,"is_transit":false,"i_lat":-6.198556},{"time":3,"is_transit":false,"transit":false,"distance":1750,"station_id":"GDD","line":2,"station_name":"Gondangdia","i_lat":-6.186295,"i_long":106.832183},{"time":4,"is_transit":false,"station_name":"Juanda","distance":2015,"i_long":106.828284,"transit":false,"i_lat":-6.166716,"station_id":"JUA","line":2},{"is_transit":false,"i_lat":-6.160725,"i_long":106.827103,"line":2,"station_id":"SW","distance":1149,"transit":false,"station_name":"Sawah Besar","time":2},{"station_name":"Manggabesar","is_transit":false,"time":2,"transit":false,"line":2,"i_lat":-6.149769,"i_long":106.82482,"station_id":"MGB","distance":906},{"station_id":"JAY","line":2,"station_name":"Jayakarta","i_long":106.820901,"i_lat":-6.141205,"transit":false,"is_transit":false,"distance":1080,"time":2},{"i_lat":-6.137569,"distance":1264,"station_id":"JAKK","time":4,"station_name":"Jakarta Kota","is_transit":true,"i_long":106.812439,"line":2,"transit":true},{"station_name":"Kampung Bandan","line":4,"i_lat":-6.132549,"station_id":"KPB","distance":1364,"transit":true,"time":3,"is_transit":true,"i_long":106.826365},{"line":1,"i_lat":-6.144674,"station_name":"Angke","station_id":"AK","is_transit":false,"transit":false,"distance":4102,"i_long":106.79867,"time":9},{"station_name":"Duri","is_transit":false,"time":4,"transit":false,"distance":1230,"i_lat":-6.155215,"i_long":106.800832,"station_id":"DU","line":1},{"is_transit":true,"time":8,"station_name":"Tanah Abang","transit":true,"distance":3632,"station_id":"THB","line":1,"i_long":106.811091,"i_lat":-6.185545},{"i_lat":-6.207404,"station_id":"PLM","station_name":"Palmerah","time":6,"i_long":106.79689,"line":6,"distance":3191,"is_transit":false,"transit":false},{"transit":false,"time":7,"line":6,"i_long":106.780334,"station_id":"KBY","distance":3737,"is_transit":false,"i_lat":-6.237242,"station_name":"Kebayoran"}],[{"is_transit":false,"station_name":"Univ. Indonesia","distance":0,"station_id":"UI","i_lat":-6.360749,"transit":false,"line":2,"i_long":106.831474,"time":0},{"station_id":"UP","transit":false,"time":3,"i_long":106.834175,"station_name":"Univ. Pancasila","i_lat":-6.339291,"is_transit":false,"line":2,"distance":2264},{"station_id":"LNA","distance":1029,"i_long":106.832616,"is_transit":false,"line":2,"time":2,"i_lat":-6.330363,"transit":false,"station_name":"Lenteng Agung"},{"station_name":"Tanjung Barat","i_long":106.838896,"distance":2671,"station_id":"TNT","line":2,"i_lat":-6.3080680000000005,"transit":false,"time":3,"is_transit":false},{"transit":false,"station_name":"Pasar Minggu","is_transit":false,"i_long":106.843999,"line":2,"station_id":"PSM","time":4,"distance":2820,"i_lat":-6.2842400000000005},{"i_lat":-6.263214,"distance":2380,"station_name":"Pasar Minggu Baru","is_transit":false,"i_long":106.851577,"station_id":"PSMB","transit":false,"time":2,"line":2},{"station_id":"DRN","station_name":"Duren Kalibata","transit":false,"time":2,"i_long":106.85449,"i_lat":-6.255332,"is_transit":false,"distance":824,"line":2},{"is_transit":false,"transit":false,"station_id":"CW","station_name":"Cawang","time":3,"distance":1546,"line":2,"i_long":106.856607,"i_lat":-6.242512},{"station_id":"TEB","time":2,"i_long":106.857948,"line":2,"station_name":"Tebet","is_transit":false,"i_lat":-6.226659,"transit":false,"distance":1230},{"time":4,"transit":true,"station_id":"MRI","station_name":"Manggarai","is_transit":true,"i_lat":-6.209883,"distance":2610,"i_long":106.84912,"line":2},{"distance":1275,"transit":false,"station_id":"MTR","is_transit":false,"i_long":106.858896,"time":2,"station_name":"Matraman","line":1,"i_lat":-6.212485},{"i_long":106.86807400000001,"transit":true,"station_id":"JNG","is_transit":true,"distance":1377,"i_lat":-6.215091,"line":1,"station_name":"Jatinegara","time":8},{"station_name":"Pondok Jati","transit":false,"station_id":"POK","time":2,"is_transit":false,"distance":1236,"i_long":106.861737,"line":11,"i_lat":-6.209188},{"distance":1829,"station_name":"Kramat","is_transit":false,"i_lat":-6.193792,"i_long":106.855437,"station_id":"KMT","time":2,"line":11,"transit":false},{"is_transit":false,"i_lat":-6.185975,"i_long":106.850107,"line":11,"station_id":"GST","station_name":"Gang Sentiong","transit":false,"time":1,"distance":973},{"distance":1567,"time":8,"station_name":"Pasar Senen","station_id":"PSE","is_transit":false,"line":11,"i_long":106.84368,"i_lat":-6.174784,"transit":false},{"line":11,"is_transit":false,"station_name":"Kemayoran","i_lat":-6.161728,"time":4,"transit":false,"station_id":"KMO","i_long":106.839204,"distance":1436},{"line":11,"station_name":"Rajawali","is_transit":false,"distance":1901,"transit":false,"station_id":"RJW","i_lat":-6.14505,"time":5,"i_long":106.836569},{"station_id":"KPB","is_transit":true,"time":3,"i_lat":-6.132549,"station_name":"Kampung Bandan","i_long":106.826365,"line":4,"distance":1444,"transit":true},{"station_name":"Angke","is_transit":false,"distance":4102,"i_lat":-6.144674,"i_long":106.79867,"time":9,"line":1,"station_id":"AK","transit":false},{"time":4,"station_id":"DU","distance":1230,"is_transit":false,"station_name":"Duri","transit":false,"i_long":106.800832,"line":1,"i_lat":-6.155215},{"i_lat":-6.185545,"station_name":"Tanah Abang","distance":3632,"line":1,"station_id":"THB","transit":true,"i_long":106.811091,"time":8,"is_transit":true},{"i_long":106.79689,"is_transit":false,"time":6,"i_lat":-6.207404,"station_id":"PLM","station_name":"Palmerah","transit":false,"line":6,"distance":3191},{"station_id":"KBY","transit":false,"time":7,"i_lat":-6.237242,"station_name":"Kebayoran","i_long":106.780334,"distance":3737,"line":6,"is_transit":false}]]}