{"data":[[{"distance":0,"transit":false,"station_id":"UI","line":2,"station_name":"Univ. Indonesia","is_transit":false,"i_lat":-6.360749,"i_long":106.831474,"time":0},{"i_lat":-6.339291,"is_transit":false,"distance":2264,"line":2,"station_name":"Univ. Pancasila","time":3,"station_id":"UP","transit":false,"i_long":106.834175},{"i_long":106.832616,"i_lat":-6.330363,"distance":1029,"time":2,"station_name":"Lenteng Agung","transit":false,"is_transit":false,"line":2,"station_id":"LNA"},{"station_id":"TNT","transit":false,"i_long":106.838896,"i_lat":-6.3080680000000005,"distance":2671,"line":2,"time":3,"station_name":"Tanjung Barat","is_transit":false},{"transit":false,"station_id":"PSM","line":2,"i_lat":-6.2842400000000005,"distance":2820,"is_transit":false,"i_long":106.843999,"time":4,"station_name":"Pasar Minggu"},{"line":2,"station_id":"PSMB","is_transit":false,"station_name":"Pasar Minggu Baru","time":2,"i_long":106.851577,"transit":false,"i_lat":-6.263214,"distance":2380},{"station_name":"Duren Kalibata","i_long":106.85449,"transit":false,"time":2,"distance":824,"i_lat":-6.255332,"line":2,"is_transit":false,"station_id":"DRN"},{"is_transit":false,"station_id":"CW","i_lat":-6.242512,"i_long":106.856607,"line":2,"station_name":"Cawang","transit":false,"time":3,"distance":1546},{"is_transit":false,"station_id":"TEB","transit":false,"distance":1230,"line":2,"time":2,"station_name":"Tebet","i_lat":-6.226659,"i_long":106.857948},{"distance":2610,"i_lat":-6.209883,"i_long":106.84912,"is_transit":false,"station_name":"Manggarai","time":4,"transit":false,"line":2,"station_id":"MRI"},{"time":4,"distance":1590,"i_lat":-6.198556,"station_name":"Cikini","is_transit":false,"line":2,"transit":false,"station_id":"CKI","i_long":106.840169},{"is_transit":false,"i_lat":-6.186295,"time":3,"transit":false,"station_name":"Gondangdia","line":2,"distance":1750,"i_long":106.832183,"station_id":"GDD"},{"distance":2015,"i_lat":-6.166716,"transit":false,"time":4,"i_long":106.828284,"station_id":"JUA","is_transit":false,"line":2,"station_name":"Juanda"},{"station_name":"Sawah Besar","line":2,"station_id":"SW","transit":false,"time":2,"distance":1149,"is_transit":false,"i_long":106.827103,"i_lat":-6.160725},{"is_transit":false,"station_id":"MGB","time":2,"station_name":"Manggabesar","distance":906,"transit":false,"i_lat":-6.149769,"line":2,"i_long":106.82482}],[{"is_transit":false,"transit":false,"distance":0,"station_id":"UI","i_long":106.831474,"i_lat":-6.360749,"line":2,"station_name":"Univ. Indonesia","time":0},{"transit":false,"time":3,"i_lat":-6.339291,"station_id":"UP","station_name":"Univ. Pancasila","i_long":106.834175,"line":2,"is_transit":false,"distance":2264},{"i_long":106.832616,"station_id":"LNA","time":2,"station_name":"Lenteng Agung","i_lat":-6.330363,"transit":false,"is_transit":false,"distance":1029,"line":2},{"station_name":"Tanjung Barat","is_transit":false,"line":2,"distance":2671,"i_lat":-6.3080680000000005,"transit":false,"station_id":"TNT","i_long":106.838896,"time":3},{"station_id":"PSM","station_name":"Pasar Minggu","line":2,"transit":false,"time":4,"distance":2820,"i_long":106.843999,"is_transit":false,"i_lat":-6.2842400000000005},{"time":2,"distance":2380,"station_name":"Pasar Minggu Baru","station_id":"PSMB","is_transit":false,"i_lat":-6.263214,"i_long":106.851577,"transit":false,"line":2},{"distance":824,"transit":false,"i_lat":-6.255332,"is_transit":false,"i_long":106.85449,"line":2,"station_name":"Duren Kalibata","time":2,"station_id":"DRN"},{"station_name":"Cawang","distance":1546,"i_lat":-6.242512,"station_id":"CW","transit":false,"i_long":106.856607,"line":2,"is_transit":false,"time":3},{"i_long":106.857948,"station_name":"Tebet","i_lat":-6.226659,"station_id":"TEB","transit":false,"is_transit":false,"distance":1230,"line":2,"time":2},{"time":4,"is_transit":true,"transit":true,"station_id":"MRI","distance":2610,"i_long":106.84912,"line":2,"i_lat":-6.209883,"station_name":"Manggarai"},{"line":1,"i_long":106.822649,"transit":false,"station_id":"SUD","is_transit":false,"station_name":"Sudirman","time":4,"distance":3186,"i_lat":-6.202263},{"distance":280,"station_id":"SUDB","i_long":106.819881,"time":1,"station_name":"Sudirman Baru","is_transit":false,"i_lat":-6.201433,"transit":false,"line":1},{"distance":471,"transit":false,"time":1,"is_transit":false,"i_lat":-6.20132,"i_long":106.816351,"line":1,"station_id":"KAT","station_name":"Karet"},{"distance":2029,"line":1,"station_name":"Tanah Abang","station_id":"THB","time":5,"is_transit":false,"i_lat":-6.185545,"i_long":106.811091,"transit":false},{"station_id":"DU","distance":3632,"is_transit":false,"line":1,"station_name":"Duri","transit":false,"i_long":106.800832,"time":8,"i_lat":-6.155215},{"line":1,"station_id":"AK","time":4,"i_lat":-6.144674,"station_name":"Angke","is_transit":false,"transit":false,"distance":1230,"i_long":106.79867},{"i_lat":-6.132549,"station_name":"Kampung Bandan","is_transit":true,"time":9,"transit":true,"distance":4102,"i_long":106.826365,"station_id":"KPB","line":4},{"i_long":106.812439,"line":2,"i_lat":-6.137569,"station_id":"JAKK","station_name":"Jakarta Kota","transit":true,"is_transit":true,"time":3,"distance":1364},{"distance":1264,"line":2,"time":4,"station_id":"JAY","is_transit":false,"transit":false,"station_name":"Jayakarta","i_lat":-6.141205,"i_long":106.820901},{"time":2,"station_name":"Manggabesar","station_id":"MGB","is_transit":false,"distance":1080,"i_long":106.82482,"line":2,"transit":false,"i_lat":-6.149769}],[{"station_id":"UI","distance":0,"is_transit":false,"i_lat":-6.360749,"station_name":"Univ. Indonesia","time":0,"line":2,"i_long":106.831474,"transit":false},{"transit":false,"line":2,"time":3,"i_lat":-6.339291,"station_id":"UP","station_name":"Univ. Pancasila","is_transit":false,"distance":2264,"i_long":106.834175},{"is_transit":false,"time":2,"line":2,"transit":false,"i_long":106.832616,"i_lat":-6.330363,"distance":1029,"station_id":"LNA","station_name":"Lenteng Agung"},{"station_id":"TNT","is_transit":false,"transit":false,"distance":2671,"i_lat":-6.3080680000000005,"time":3,"station_name":"Tanjung Barat","i_long":106.838896,"line":2},{"line":2,"station_id":"PSM","is_transit":false,"station_name":"Pasar Minggu","distance":2820,"i_lat":-6.2842400000000005,"i_long":106.843999,"transit":false,"time":4},{"time":2,"is_transit":false,"i_lat":-6.263214,"station_id":"PSMB","station_name":"Pasar Minggu Baru","distance":2380,"transit":false,"i_long":106.851577,"line":2},{"i_long":106.85449,"transit":false,"station_name":"Duren Kalibata","is_transit":false,"time":2,"i_lat":-6.255332,"distance":824,"station_id":"DRN","line":2},{"transit":false,"is_transit":false,"station_name":"Cawang","i_lat":-6.242512,"i_long":106.856607,"distance":1546,"station_id":"CW","time":3,"line":2},{"line":2,"station_id":"TEB","time":2,"transit":false,"i_long":106.857948,"station_name":"Tebet","is_transit":false,"i_lat":-6.226659,"distance":1230},{"line":2,"distance":2610,"i_long":106.84912,"transit":true,"station_name":"Manggarai","is_transit":true,"i_lat":-6.209883,"time":4,"station_id":"MRI"},{"distance":1275,"station_id":"MTR","i_lat":-6.212485,"line":1,"time":2,"transit":false,"station_name":"Matraman","i_long":106.858896,"is_transit":false},{"station_name":"Jatinegara","i_long":106.86807400000001,"time":8,"is_transit":true,"distance":1377,"station_id":"JNG","line":1,"transit":true,"i_lat":-6.215091},{"distance":1236,"transit":false,"i_long":106.861737,"time":2,"station_id":"POK","i_lat":-6.209188,"is_transit":false,"station_name":"Pondok Jati","line":11},{"distance":1829,"i_lat":-6.193792,"transit":false,"station_name":"Kramat","i_long":106.855437,"line":11,"is_transit":false,"time":2,"station_id":"KMT"},{"is_transit":false,"station_name":"Gang Sentiong","i_lat":-6.185975,"transit":false,"distance":973,"time":1,"i_long":106.850107,"line":11,"station_id":"GST"},{"station_id":"PSE","station_name":"Pasar Senen","time":8,"is_transit":false,"line":11,"i_lat":-6.174784,"i_long":106.84368,"distance":1567,"transit":false},{"i_lat":-6.161728,"i_long":106.839204,"distance":1436,"line":11,"station_name":"Kemayoran","time":4,"station_id":"KMO","is_transit":false,"transit":false},{"i_long":106.836569,"distance":1901,"i_lat":-6.14505,"station_name":"Rajawali","station_id":"RJW","is_transit":false,"line":11,"time":5,"transit":false},{"distance":1444,"i_lat":-6.132549,"i_long":106.826365,"station_id":"KPB","line":4,"is_transit":true,"transit":true,"time":3,"station_name":"Kampung Bandan"},{"station_id":"JAKK","time":3,"line":2,"is_transit":true,"i_lat":-6.137569,"station_name":"Jakarta Kota","distance":1364,"transit":true,"i_long":106.812439},{"is_transit":false,"time":4,"line":2,"station_id":"JAY","transit":false,"distance":1264,"i_long":106.820901,"i_lat":-6.141205,"station_name":"Jayakarta"},{"station_id":"MGB","is_transit":false,"i_lat":-6.149769,"transit":false,"station_name":"Manggabesar","line":2,"distance":1080,"i_long":106.82482,"time":2}]]}