{"data":[[{"i_long":106.831474,"i_lat":-6.360749,"line":2,"is_transit":false,"station_name":"Univ. Indonesia","transit":false,"distance":0,"time":0,"station_id":"UI"},{"time":3,"distance":2264,"station_name":"Univ. Pancasila","transit":false,"is_transit":false,"i_long":106.834175,"line":2,"station_id":"UP","i_lat":-6.339291},{"distance":1029,"station_name":"Lenteng Agung","time":2,"i_lat":-6.330363,"transit":false,"i_long":106.832616,"line":2,"station_id":"LNA","is_transit":false},{"is_transit":false,"station_name":"Tanjung Barat","i_lat":-6.3080680000000005,"distance":2671,"i_long":106.838896,"transit":false,"time":3,"line":2,"station_id":"TNT"},{"i_lat":-6.2842400000000005,"is_transit":false,"i_long":106.843999,"line":2,"transit":false,"station_name":"Pasar Minggu","station_id":"PSM","time":4,"distance":2820},{"time":2,"line":2,"distance":2380,"station_id":"PSMB","station_name":"Pasar Minggu Baru","transit":false,"i_lat":-6.263214,"i_long":106.851577,"is_transit":false},{"is_transit":false,"station_id":"DRN","transit":false,"time":2,"distance":824,"station_name":"Duren Kalibata","i_long":106.85449,"line":0,"i_lat":-6.255332},{"station_id":"CW","i_lat":-6.242512,"station_name":"Cawang","time":3,"distance":1546,"is_transit":false,"transit":false,"i_long":106.856607,"line":0},{"is_transit":false,"distance":1230,"station_id":"TEB","station_name":"Tebet","i_lat":-6.226659,"time":2,"transit":false,"i_long":106.857948,"line":2},{"station_id":"MRI","station_name":"Manggarai","transit":true,"i_long":106.84912,"is_transit":true,"distance":2610,"time":4,"line":0,"i_lat":-6.209883},{"distance":1590,"is_transit":false,"i_lat":-6.198556,"station_id":"CKI","i_long":106.840169,"line":0,"station_name":"Cikini","transit":false,"time":4},{"line":2,"i_lat":-6.186295,"station_name":"Gondangdia","transit":false,"i_long":106.832183,"distance":1750,"time":3,"is_transit":false,"station_id":"GDD"},{"distance":2015,"is_transit":false,"i_lat":-6.166716,"i_long":106.828284,"station_id":"JUA","time":4,"station_name":"Juanda","transit":false,"line":2},{"line":2,"station_id":"SW","transit":false,"is_transit":false,"i_lat":-6.160725,"distance":1149,"station_name":"Sawah Besar","i_long":106.827103,"time":2},{"time":2,"i_long":106.82482,"i_lat":-6.149769,"station_id":"MGB","is_transit":false,"distance":906,"transit":false,"line":2,"station_name":"Manggabesar"}],[{"station_name":"Univ. Indonesia","transit":false,"time":0,"line":2,"i_lat":-6.360749,"distance":0,"i_long":106.831474,"is_transit":false,"station_id":"UI"},{"is_transit":false,"time":3,"i_long":106.834175,"station_name":"Univ. Pancasila","i_lat":-6.339291,"station_id":"UP","transit":false,"line":2,"distance":2264},{"line":2,"i_lat":-6.330363,"station_name":"Lenteng Agung","station_id":"LNA","is_transit":false,"transit":false,"time":2,"distance":1029,"i_long":106.832616},{"transit":false,"i_lat":-6.3080680000000005,"line":2,"is_transit":false,"station_name":"Tanjung Barat","station_id":"TNT","i_long":106.838896,"distance":2671,"time":3},{"transit":false,"i_lat":-6.2842400000000005,"time":4,"line":2,"is_transit":false,"i_long":106.843999,"distance":2820,"station_name":"Pasar Minggu","station_id":"PSM"},{"station_name":"Pasar Minggu Baru","is_transit":false,"transit":false,"distance":2380,"station_id":"PSMB","i_long":106.851577,"i_lat":-6.263214,"time":2,"line":2},{"is_transit":false,"time":2,"line":0,"i_long":106.85449,"station_name":"Duren Kalibata","transit":false,"distance":824,"station_id":"DRN","i_lat":-6.255332},{"i_lat":-6.242512,"i_long":106.856607,"station_id":"CW","station_name":"Cawang","distance":1546,"is_transit":false,"transit":false,"time":3,"line":0},{"line":2,"distance":1230,"station_name":"Tebet","station_id":"TEB","i_lat":-6.226659,"i_long":106.857948,"time":2,"is_transit":false,"transit":false},{"i_long":106.84912,"time":4,"is_transit":true,"station_id":"MRI","distance":2610,"line":0,"station_name":"Manggarai","i_lat":-6.209883,"transit":true},{"line":1,"i_lat":-6.202263,"is_transit":false,"distance":3186,"transit":false,"station_name":"Sudirman","i_long":106.822649,"station_id":"SUD","time":4},{"station_name":"Sudirman Baru","line":1,"transit":false,"i_lat":-6.201433,"station_id":"SUDB","i_long":106.819881,"distance":280,"is_transit":false,"time":1},{"is_transit":false,"distance":471,"station_name":"Karet","i_lat":-6.20132,"line":1,"station_id":"KAT","transit":false,"i_long":106.816351,"time":1},{"i_lat":-6.185545,"i_long":106.811091,"station_id":"THB","transit":false,"time":5,"is_transit":true,"line":1,"distance":2029,"station_name":"Tanah Abang"},{"i_lat":-6.155215,"distance":3632,"station_id":"DU","station_name":"Duri","time":8,"line":1,"transit":true,"is_transit":true,"i_long":106.800832},{"i_long":106.79867,"line":0,"station_id":"AK","time":4,"transit":false,"distance":1230,"is_transit":false,"station_name":"Angke","i_lat":-6.144674},{"is_transit":true,"i_lat":-6.132549,"distance":4102,"station_name":"Kampung Bandan","time":9,"station_id":"KPB","transit":false,"i_long":106.826365,"line":0},{"line":0,"station_name":"Jakarta Kota","time":3,"transit":true,"is_transit":true,"distance":1364,"i_lat":-6.137569,"station_id":"JAKK","i_long":106.812439},{"transit":false,"time":4,"i_long":106.820901,"line":7,"distance":1264,"station_id":"JAY","is_transit":false,"station_name":"Jayakarta","i_lat":-6.141205},{"line":2,"distance":1080,"i_lat":-6.149769,"station_name":"Manggabesar","station_id":"MGB","i_long":106.82482,"transit":false,"time":2,"is_transit":false}],[{"is_transit":false,"i_lat":-6.360749,"i_long":106.831474,"distance":0,"station_name":"Univ. Indonesia","station_id":"UI","transit":false,"line":2,"time":0},{"line":2,"distance":2264,"is_transit":false,"transit":false,"station_id":"UP","i_lat":-6.339291,"i_long":106.834175,"station_name":"Univ. Pancasila","time":3},{"is_transit":false,"distance":1029,"station_name":"Lenteng Agung","time":2,"i_long":106.832616,"station_id":"LNA","transit":false,"i_lat":-6.330363,"line":2},{"is_transit":false,"station_name":"Tanjung Barat","transit":false,"station_id":"TNT","time":3,"i_lat":-6.3080680000000005,"line":2,"i_long":106.838896,"distance":2671},{"line":2,"is_transit":false,"i_lat":-6.2842400000000005,"distance":2820,"time":4,"station_id":"PSM","transit":false,"i_long":106.843999,"station_name":"Pasar Minggu"},{"i_long":106.851577,"line":2,"distance":2380,"station_name":"Pasar Minggu Baru","is_transit":false,"station_id":"PSMB","transit":false,"time":2,"i_lat":-6.263214},{"i_long":106.85449,"time":2,"is_transit":false,"transit":false,"station_id":"DRN","station_name":"Duren Kalibata","line":0,"distance":824,"i_lat":-6.255332},{"i_lat":-6.242512,"distance":1546,"transit":false,"station_id":"CW","time":3,"is_transit":false,"station_name":"Cawang","i_long":106.856607,"line":0},{"transit":false,"i_long":106.857948,"i_lat":-6.226659,"distance":1230,"station_id":"TEB","station_name":"Tebet","line":2,"is_transit":false,"time":2},{"distance":2610,"is_transit":true,"time":4,"i_long":106.84912,"station_name":"Manggarai","line":0,"transit":true,"i_lat":-6.209883,"station_id":"MRI"},{"i_long":106.858896,"line":1,"station_id":"MTR","transit":false,"station_name":"Matraman","distance":1275,"time":2,"i_lat":-6.212485,"is_transit":false},{"i_lat":-6.215091,"station_name":"Jatinegara","i_long":106.86807400000001,"is_transit":true,"station_id":"JNG","time":8,"distance":1377,"transit":true,"line":0},{"time":2,"line":11,"i_long":106.861737,"distance":1236,"is_transit":false,"station_id":"POK","transit":false,"i_lat":-6.209188,"station_name":"Pondok Jati"},{"transit":false,"i_lat":-6.193792,"i_long":106.855437,"station_name":"Kramat","line":11,"distance":1829,"station_id":"KMT","time":2,"is_transit":false},{"time":1,"transit":false,"station_name":"Gang Sentiong","line":11,"station_id":"GST","distance":973,"i_lat":-6.185975,"is_transit":false,"i_long":106.850107},{"station_name":"Pasar Senen","station_id":"PSE","is_transit":false,"i_lat":-6.174784,"distance":1567,"i_long":106.84368,"time":8,"transit":false,"line":11},{"i_long":106.839204,"is_transit":false,"i_lat":-6.161728,"line":11,"station_name":"Kemayoran","station_id":"KMO","transit":false,"time":4,"distance":1436},{"is_transit":false,"i_long":106.836569,"station_id":"RJW","station_name":"Rajawali","time":5,"line":11,"distance":1901,"transit":false,"i_lat":-6.14505},{"time":3,"i_long":106.826365,"line":0,"is_transit":true,"i_lat":-6.132549,"station_id":"KPB","distance":1444,"station_name":"Kampung Bandan","transit":true},{"distance":1364,"transit":true,"time":3,"station_name":"Jakarta Kota","is_transit":true,"i_lat":-6.137569,"i_long":106.812439,"line":0,"station_id":"JAKK"},{"time":4,"i_long":106.820901,"is_transit":false,"station_id":"JAY","transit":false,"i_lat":-6.141205,"station_name":"Jayakarta","distance":1264,"line":7},{"i_lat":-6.149769,"transit":false,"distance":1080,"i_long":106.82482,"station_id":"MGB","is_transit":false,"station_name":"Manggabesar","time":2,"line":2}]]}