{"data":[[{"time":0,"distance":0,"station_id":"UI","station_name":"Univ. Indonesia","is_transit":false,"transit":false,"i_lat":-6.360749,"i_long":106.831474,"line":2},{"station_name":"Univ. Pancasila","distance":2264,"line":2,"is_transit":false,"i_long":106.834175,"time":3,"station_id":"UP","transit":false,"i_lat":-6.339291},{"line":2,"transit":false,"station_id":"LNA","i_lat":-6.330363,"is_transit":false,"distance":1029,"time":2,"station_name":"Lenteng Agung","i_long":106.832616},{"station_name":"Tanjung Barat","is_transit":false,"time":3,"transit":false,"i_long":106.838896,"i_lat":-6.3080680000000005,"distance":2671,"line":2,"station_id":"TNT"},{"i_long":106.843999,"station_id":"PSM","i_lat":-6.2842400000000005,"time":4,"distance":2820,"station_name":"Pasar Minggu","is_transit":false,"transit":false,"line":2},{"i_long":106.851577,"station_id":"PSMB","is_transit":false,"i_lat":-6.263214,"transit":false,"line":2,"time":2,"distance":2380,"station_name":"Pasar Minggu Baru"},{"i_lat":-6.255332,"line":2,"distance":824,"station_id":"DRN","transit":false,"time":2,"i_long":106.85449,"station_name":"Duren Kalibata","is_transit":false},{"line":2,"distance":1546,"is_transit":false,"i_lat":-6.242512,"station_name":"Cawang","time":3,"transit":false,"i_long":106.856607,"station_id":"CW"},{"i_long":106.857948,"is_transit":false,"station_id":"TEB","line":2,"i_lat":-6.226659,"distance":1230,"station_name":"Tebet","transit":false,"time":2},{"station_name":"Manggarai","distance":2610,"station_id":"MRI","is_transit":false,"transit":false,"i_long":106.84912,"line":2,"i_lat":-6.209883,"time":4}]]}