{"data":[[{"i_long":106.831474,"line":2,"station_name":"Univ. Indonesia","station_id":"UI","is_transit":false,"i_lat":-6.360749,"distance":0,"time":0,"transit":false},{"is_transit":false,"station_id":"UP","i_lat":-6.339291,"i_long":106.834175,"station_name":"Univ. Pancasila","time":3,"distance":2264,"line":2,"transit":false},{"station_name":"Lenteng Agung","line":2,"is_transit":false,"transit":false,"station_id":"LNA","distance":1029,"i_long":106.832616,"i_lat":-6.330363,"time":2},{"distance":2671,"transit":false,"station_id":"TNT","is_transit":false,"i_lat":-6.3080680000000005,"time":3,"station_name":"Tanjung Barat","line":2,"i_long":106.838896},{"distance":2820,"transit":false,"station_name":"Pasar Minggu","i_lat":-6.2842400000000005,"station_id":"PSM","i_long":106.843999,"is_transit":false,"line":2,"time":4},{"station_name":"Pasar Minggu Baru","i_long":106.851577,"station_id":"PSMB","line":2,"distance":2380,"time":2,"i_lat":-6.263214,"is_transit":false,"transit":false},{"distance":824,"is_transit":false,"i_long":106.85449,"line":2,"station_name":"Duren Kalibata","i_lat":-6.255332,"time":2,"station_id":"DRN","transit":false},{"station_id":"CW","distance":1546,"line":2,"i_lat":-6.242512,"i_long":106.856607,"transit":false,"time":3,"is_transit":false,"station_name":"Cawang"},{"i_lat":-6.226659,"time":2,"is_transit":false,"transit":false,"station_name":"Tebet","line":2,"distance":1230,"station_id":"TEB","i_long":106.857948},{"i_lat":-6.209883,"distance":2610,"station_id":"MRI","station_name":"Manggarai","transit":false,"is_transit":false,"i_long":106.84912,"line":2,"time":4}]]}