{"data":[[{"time":0,"station_name":"Univ. Indonesia","i_long":106.831474,"transit":false,"i_lat":-6.360749,"station_id":"UI","distance":0,"line":2,"is_transit":false},{"station_name":"Univ. Pancasila","is_transit":false,"distance":2264,"line":2,"i_long":106.834175,"transit":false,"station_id":"UP","time":3,"i_lat":-6.339291},{"line":2,"i_lat":-6.330363,"is_transit":false,"station_id":"LNA","time":2,"station_name":"Lenteng Agung","i_long":106.832616,"transit":false,"distance":1029},{"i_long":106.838896,"line":2,"time":3,"transit":false,"is_transit":false,"distance":2671,"station_name":"Tanjung Barat","i_lat":-6.3080680000000005,"station_id":"TNT"},{"is_transit":false,"transit":false,"i_lat":-6.2842400000000005,"station_id":"PSM","time":4,"station_name":"Pasar Minggu","line":2,"distance":2820,"i_long":106.843999},{"station_id":"PSMB","time":2,"distance":2380,"is_transit":false,"i_lat":-6.263214,"station_name":"Pasar Minggu Baru","line":2,"i_long":106.851577,"transit":false},{"i_lat":-6.255332,"i_long":106.85449,"station_id":"DRN","time":2,"distance":824,"transit":false,"line":2,"station_name":"Duren Kalibata","is_transit":false},{"time":3,"i_lat":-6.242512,"distance":1546,"line":2,"station_name":"Cawang","station_id":"CW","i_long":106.856607,"transit":false,"is_transit":false},{"line":2,"transit":false,"is_transit":false,"station_id":"TEB","time":2,"i_lat":-6.226659,"station_name":"Tebet","distance":1230,"i_long":106.857948},{"station_name":"Manggarai","station_id":"MRI","distance":2610,"is_transit":false,"i_long":106.84912,"i_lat":-6.209883,"line":2,"transit":false,"time":4}]]}