{"data":[[{"is_transit":false,"distance":0,"time":0,"station_id":"UI","transit":false,"i_lat":-6.360749,"station_name":"Univ. Indonesia","i_long":106.831474,"line":2},{"is_transit":false,"transit":false,"station_name":"Univ. Pancasila","i_lat":-6.339291,"line":2,"station_id":"UP","distance":2264,"i_long":106.834175,"time":3},{"distance":1029,"station_id":"LNA","i_long":106.832616,"time":2,"is_transit":false,"i_lat":-6.330363,"station_name":"Lenteng Agung","transit":false,"line":2},{"distance":2671,"is_transit":false,"line":2,"time":3,"transit":false,"i_long":106.838896,"i_lat":-6.3080680000000005,"station_id":"TNT","station_name":"Tanjung Barat"},{"station_id":"PSM","time":4,"is_transit":false,"transit":false,"station_name":"Pasar Minggu","i_long":106.843999,"line":2,"distance":2820,"i_lat":-6.2842400000000005},{"station_id":"PSMB","i_lat":-6.263214,"i_long":106.851577,"line":2,"distance":2380,"transit":false,"time":2,"station_name":"Pasar Minggu Baru","is_transit":false},{"is_transit":false,"i_lat":-6.255332,"distance":824,"transit":false,"time":2,"line":2,"i_long":106.85449,"station_name":"Duren Kalibata","station_id":"DRN"},{"station_name":"Cawang","i_long":106.856607,"station_id":"CW","line":2,"i_lat":-6.242512,"transit":false,"time":3,"distance":1546,"is_transit":false},{"i_lat":-6.226659,"line":2,"is_transit":false,"i_long":106.857948,"distance":1230,"transit":false,"time":2,"station_name":"Tebet","station_id":"TEB"},{"transit":false,"line":2,"station_name":"Manggarai","i_lat":-6.209883,"i_long":106.84912,"is_transit":false,"distance":2610,"station_id":"MRI","time":4},{"is_transit":false,"line":2,"station_id":"CKI","i_lat":-6.198556,"station_name":"Cikini","transit":false,"time":4,"i_long":106.840169,"distance":1590},{"station_id":"GDD","is_transit":false,"time":3,"i_lat":-6.186295,"transit":false,"i_long":106.832183,"line":2,"distance":1750,"station_name":"Gondangdia"},{"line":2,"distance":2015,"time":4,"is_transit":false,"i_long":106.828284,"station_id":"JUA","transit":false,"i_lat":-6.166716,"station_name":"Juanda"},{"is_transit":false,"transit":false,"time":2,"distance":1149,"station_id":"SW","i_lat":-6.160725,"i_long":106.827103,"station_name":"Sawah Besar","line":2},{"is_transit":false,"station_name":"Manggabesar","transit":false,"i_lat":-6.149769,"time":2,"i_long":106.82482,"line":2,"distance":906,"station_id":"MGB"}],[{"time":0,"station_name":"Univ. Indonesia","i_long":106.831474,"i_lat":-6.360749,"line":2,"station_id":"UI","transit":false,"is_transit":false,"distance":0},{"i_lat":-6.339291,"time":3,"station_id":"UP","distance":2264,"is_transit":false,"transit":false,"station_name":"Univ. Pancasila","i_long":106.834175,"line":2},{"station_name":"Lenteng Agung","station_id":"LNA","time":2,"distance":1029,"line":2,"transit":false,"is_transit":false,"i_lat":-6.330363,"i_long":106.832616},{"is_transit":false,"i_lat":-6.3080680000000005,"station_id":"TNT","station_name":"Tanjung Barat","i_long":106.838896,"distance":2671,"line":2,"transit":false,"time":3},{"transit":false,"station_name":"Pasar Minggu","i_lat":-6.2842400000000005,"i_long":106.843999,"distance":2820,"line":2,"station_id":"PSM","is_transit":false,"time":4},{"station_id":"PSMB","i_long":106.851577,"is_transit":false,"transit":false,"distance":2380,"station_name":"Pasar Minggu Baru","line":2,"time":2,"i_lat":-6.263214},{"transit":false,"is_transit":false,"time":2,"i_lat":-6.255332,"station_name":"Duren Kalibata","station_id":"DRN","distance":824,"i_long":106.85449,"line":2},{"transit":false,"i_lat":-6.242512,"i_long":106.856607,"is_transit":false,"time":3,"distance":1546,"line":2,"station_name":"Cawang","station_id":"CW"},{"station_id":"TEB","distance":1230,"time":2,"transit":false,"i_long":106.857948,"is_transit":false,"line":2,"station_name":"Tebet","i_lat":-6.226659},{"is_transit":true,"station_id":"MRI","i_long":106.84912,"time":4,"station_name":"Manggarai","line":2,"distance":2610,"transit":true,"i_lat":-6.209883},{"time":4,"i_long":106.822649,"i_lat":-6.202263,"line":1,"station_id":"SUD","transit":false,"station_name":"Sudirman","distance":3186,"is_transit":false},{"is_transit":false,"station_name":"Sudirman Baru","line":1,"i_long":106.819881,"station_id":"SUDB","i_lat":-6.201433,"time":1,"transit":false,"distance":280},{"station_name":"Karet","i_long":106.816351,"transit":false,"i_lat":-6.20132,"line":1,"distance":471,"station_id":"KAT","time":1,"is_transit":false},{"line":1,"station_id":"THB","i_long":106.811091,"distance":2029,"station_name":"Tanah Abang","i_lat":-6.185545,"is_transit":false,"transit":false,"time":5},{"station_name":"Duri","time":8,"distance":3632,"station_id":"DU","i_lat":-6.155215,"line":1,"transit":false,"is_transit":false,"i_long":106.800832},{"is_transit":false,"line":1,"i_lat":-6.144674,"i_long":106.79867,"station_id":"AK","transit":false,"station_name":"Angke","time":4,"distance":1230},{"transit":true,"station_id":"KPB","time":9,"i_long":106.826365,"is_transit":true,"station_name":"Kampung Bandan","line":4,"i_lat":-6.132549,"distance":4102},{"is_transit":true,"time":3,"station_id":"JAKK","transit":true,"i_lat":-6.137569,"line":2,"distance":1364,"i_long":106.812439,"station_name":"Jakarta Kota"},{"is_transit":false,"station_id":"JAY","line":2,"time":4,"distance":1264,"i_lat":-6.141205,"transit":false,"station_name":"Jayakarta","i_long":106.820901},{"station_id":"MGB","distance":1080,"station_name":"Manggabesar","is_transit":false,"time":2,"transit":false,"line":2,"i_lat":-6.149769,"i_long":106.82482}],[{"i_long":106.831474,"i_lat":-6.360749,"time":0,"is_transit":false,"station_id":"UI","line":2,"transit":false,"distance":0,"station_name":"Univ. Indonesia"},{"transit":false,"station_name":"Univ. Pancasila","station_id":"UP","i_lat":-6.339291,"distance":2264,"is_transit":false,"line":2,"i_long":106.834175,"time":3},{"transit":false,"station_name":"Lenteng Agung","line":2,"i_lat":-6.330363,"station_id":"LNA","is_transit":false,"time":2,"distance":1029,"i_long":106.832616},{"distance":2671,"is_transit":false,"transit":false,"i_long":106.838896,"line":2,"station_name":"Tanjung Barat","station_id":"TNT","time":3,"i_lat":-6.3080680000000005},{"station_name":"Pasar Minggu","station_id":"PSM","is_transit":false,"time":4,"i_lat":-6.2842400000000005,"distance":2820,"i_long":106.843999,"line":2,"transit":false},{"i_long":106.851577,"distance":2380,"transit":false,"line":2,"is_transit":false,"station_id":"PSMB","i_lat":-6.263214,"station_name":"Pasar Minggu Baru","time":2},{"i_long":106.85449,"transit":false,"line":2,"time":2,"station_id":"DRN","is_transit":false,"distance":824,"i_lat":-6.255332,"station_name":"Duren Kalibata"},{"line":2,"station_id":"CW","is_transit":false,"transit":false,"i_long":106.856607,"time":3,"i_lat":-6.242512,"station_name":"Cawang","distance":1546},{"is_transit":false,"distance":1230,"station_id":"TEB","time":2,"transit":false,"i_lat":-6.226659,"i_long":106.857948,"line":2,"station_name":"Tebet"},{"time":4,"i_long":106.84912,"i_lat":-6.209883,"station_name":"Manggarai","line":2,"is_transit":true,"transit":true,"station_id":"MRI","distance":2610},{"is_transit":false,"i_long":106.858896,"line":1,"time":2,"station_name":"Matraman","transit":false,"distance":1275,"station_id":"MTR","i_lat":-6.212485},{"i_long":106.86807400000001,"i_lat":-6.215091,"distance":1377,"time":8,"is_transit":true,"line":1,"station_id":"JNG","station_name":"Jatinegara","transit":true},{"transit":false,"distance":1236,"station_name":"Pondok Jati","is_transit":false,"station_id":"POK","line":11,"time":2,"i_lat":-6.209188,"i_long":106.861737},{"i_lat":-6.193792,"transit":false,"i_long":106.855437,"is_transit":false,"distance":1829,"line":11,"station_id":"KMT","time":2,"station_name":"Kramat"},{"i_long":106.850107,"line":11,"station_name":"Gang Sentiong","time":1,"is_transit":false,"distance":973,"station_id":"GST","transit":false,"i_lat":-6.185975},{"transit":false,"is_transit":false,"i_long":106.84368,"station_id":"PSE","time":8,"line":11,"distance":1567,"station_name":"Pasar Senen","i_lat":-6.174784},{"distance":1436,"station_name":"Kemayoran","transit":false,"station_id":"KMO","i_long":106.839204,"line":11,"time":4,"i_lat":-6.161728,"is_transit":false},{"station_name":"Rajawali","i_lat":-6.14505,"station_id":"RJW","is_transit":false,"i_long":106.836569,"time":5,"line":11,"transit":false,"distance":1901},{"station_name":"Kampung Bandan","time":3,"i_lat":-6.132549,"is_transit":true,"line":4,"i_long":106.826365,"station_id":"KPB","transit":true,"distance":1444},{"is_transit":true,"transit":true,"time":3,"line":2,"station_id":"JAKK","station_name":"Jakarta Kota","distance":1364,"i_lat":-6.137569,"i_long":106.812439},{"transit":false,"station_name":"Jayakarta","is_transit":false,"station_id":"JAY","i_lat":-6.141205,"time":4,"line":2,"distance":1264,"i_long":106.820901},{"time":2,"is_transit":false,"station_id":"MGB","i_lat":-6.149769,"transit":false,"distance":1080,"i_long":106.82482,"line":2,"station_name":"Manggabesar"}]]}