{"data":[[{"is_transit":false,"i_lat":-6.360749,"time":0,"distance":0,"station_name":"Univ. Indonesia","line":2,"station_id":"UI","i_long":106.831474,"transit":false},{"i_long":106.834175,"i_lat":-6.339291,"station_id":"UP","station_name":"Univ. Pancasila","is_transit":false,"transit":false,"distance":2264,"time":3,"line":2},{"i_lat":-6.330363,"line":2,"transit":false,"i_long":106.832616,"time":2,"distance":1029,"station_id":"LNA","station_name":"Lenteng Agung","is_transit":false},{"time":3,"station_id":"TNT","transit":false,"is_transit":false,"i_lat":-6.3080680000000005,"distance":2671,"line":2,"station_name":"Tanjung Barat","i_long":106.838896},{"i_lat":-6.2842400000000005,"transit":false,"distance":2820,"is_transit":false,"station_name":"Pasar Minggu","time":4,"i_long":106.843999,"station_id":"PSM","line":2},{"line":2,"transit":false,"i_long":106.851577,"station_name":"Pasar Minggu Baru","time":2,"is_transit":false,"distance":2380,"station_id":"PSMB","i_lat":-6.263214},{"distance":824,"i_lat":-6.255332,"i_long":106.85449,"time":2,"station_name":"Duren Kalibata","station_id":"DRN","line":0,"is_transit":false,"transit":false},{"station_name":"Cawang","transit":false,"time":3,"distance":1546,"i_long":106.856607,"is_transit":false,"line":0,"i_lat":-6.242512,"station_id":"CW"},{"time":2,"station_id":"TEB","line":2,"distance":1230,"station_name":"Tebet","is_transit":false,"i_lat":-6.226659,"transit":false,"i_long":106.857948},{"station_name":"Manggarai","i_lat":-6.209883,"transit":false,"line":0,"distance":2610,"is_transit":true,"time":4,"station_id":"MRI","i_long":106.84912}]]}