{"data":[[{"station_name":"Univ. Indonesia","time":0,"is_transit":false,"i_lat":-6.360749,"station_id":"UI","i_long":106.831474,"distance":0,"transit":false,"line":2},{"station_name":"Univ. Pancasila","station_id":"UP","i_lat":-6.339291,"distance":2264,"line":2,"time":3,"transit":false,"is_transit":false,"i_long":106.834175},{"is_transit":false,"station_id":"LNA","time":2,"i_long":106.832616,"i_lat":-6.330363,"distance":1029,"station_name":"Lenteng Agung","transit":false,"line":2},{"line":2,"i_lat":-6.3080680000000005,"time":3,"station_name":"Tanjung Barat","is_transit":false,"station_id":"TNT","transit":false,"i_long":106.838896,"distance":2671},{"transit":false,"is_transit":false,"i_lat":-6.2842400000000005,"time":4,"distance":2820,"station_id":"PSM","station_name":"Pasar Minggu","i_long":106.843999,"line":2},{"is_transit":false,"transit":false,"distance":2380,"i_long":106.851577,"line":2,"i_lat":-6.263214,"station_id":"PSMB","time":2,"station_name":"Pasar Minggu Baru"},{"distance":824,"i_lat":-6.255332,"i_long":106.85449,"time":2,"is_transit":false,"station_name":"Duren Kalibata","transit":false,"line":2,"station_id":"DRN"},{"time":3,"transit":false,"station_name":"Cawang","i_lat":-6.242512,"station_id":"CW","distance":1546,"line":2,"i_long":106.856607,"is_transit":false},{"time":2,"line":2,"distance":1230,"station_name":"Tebet","i_lat":-6.226659,"i_long":106.857948,"station_id":"TEB","is_transit":false,"transit":false},{"line":2,"station_id":"MRI","is_transit":false,"i_lat":-6.209883,"station_name":"Manggarai","distance":2610,"transit":false,"i_long":106.84912,"time":4},{"transit":false,"line":2,"distance":1590,"is_transit":false,"time":4,"station_id":"CKI","i_long":106.840169,"station_name":"Cikini","i_lat":-6.198556},{"distance":1750,"transit":false,"is_transit":false,"line":2,"time":3,"station_id":"GDD","station_name":"Gondangdia","i_long":106.832183,"i_lat":-6.186295},{"i_lat":-6.166716,"transit":false,"i_long":106.828284,"station_id":"JUA","time":4,"line":2,"distance":2015,"is_transit":false,"station_name":"Juanda"},{"station_id":"SW","i_long":106.827103,"i_lat":-6.160725,"distance":1149,"station_name":"Sawah Besar","is_transit":false,"transit":false,"line":2,"time":2},{"distance":906,"i_long":106.82482,"line":2,"is_transit":false,"i_lat":-6.149769,"station_name":"Manggabesar","time":2,"station_id":"MGB","transit":false}],[{"i_long":106.831474,"time":0,"station_id":"UI","transit":false,"is_transit":false,"i_lat":-6.360749,"distance":0,"station_name":"Univ. Indonesia","line":2},{"time":3,"distance":2264,"station_id":"UP","is_transit":false,"line":2,"i_lat":-6.339291,"i_long":106.834175,"station_name":"Univ. Pancasila","transit":false},{"is_transit":false,"time":2,"station_id":"LNA","line":2,"distance":1029,"i_lat":-6.330363,"transit":false,"station_name":"Lenteng Agung","i_long":106.832616},{"station_id":"TNT","line":2,"transit":false,"i_lat":-6.3080680000000005,"i_long":106.838896,"time":3,"distance":2671,"station_name":"Tanjung Barat","is_transit":false},{"station_id":"PSM","transit":false,"i_long":106.843999,"station_name":"Pasar Minggu","distance":2820,"time":4,"is_transit":false,"i_lat":-6.2842400000000005,"line":2},{"line":2,"is_transit":false,"i_lat":-6.263214,"i_long":106.851577,"station_id":"PSMB","time":2,"distance":2380,"station_name":"Pasar Minggu Baru","transit":false},{"station_name":"Duren Kalibata","is_transit":false,"transit":false,"line":2,"i_lat":-6.255332,"i_long":106.85449,"station_id":"DRN","time":2,"distance":824},{"i_long":106.856607,"line":2,"distance":1546,"station_id":"CW","time":3,"station_name":"Cawang","is_transit":false,"transit":false,"i_lat":-6.242512},{"i_lat":-6.226659,"line":2,"transit":false,"time":2,"distance":1230,"is_transit":false,"station_id":"TEB","station_name":"Tebet","i_long":106.857948},{"station_name":"Manggarai","transit":true,"i_lat":-6.209883,"is_transit":true,"i_long":106.84912,"line":2,"station_id":"MRI","time":4,"distance":2610},{"time":4,"station_name":"Sudirman","line":1,"station_id":"SUD","distance":3186,"transit":false,"is_transit":false,"i_long":106.822649,"i_lat":-6.202263},{"line":1,"is_transit":false,"station_name":"Sudirman Baru","i_long":106.819881,"time":1,"transit":false,"i_lat":-6.201433,"distance":280,"station_id":"SUDB"},{"is_transit":false,"station_id":"KAT","transit":false,"station_name":"Karet","distance":471,"i_lat":-6.20132,"time":1,"i_long":106.816351,"line":1},{"station_id":"THB","time":5,"station_name":"Tanah Abang","i_lat":-6.185545,"i_long":106.811091,"distance":2029,"transit":false,"line":1,"is_transit":false},{"time":8,"distance":3632,"is_transit":false,"i_long":106.800832,"station_name":"Duri","station_id":"DU","i_lat":-6.155215,"line":1,"transit":false},{"time":4,"is_transit":false,"i_long":106.79867,"distance":1230,"station_id":"AK","transit":false,"station_name":"Angke","line":1,"i_lat":-6.144674},{"i_long":106.826365,"is_transit":true,"time":9,"distance":4102,"station_id":"KPB","line":4,"i_lat":-6.132549,"transit":true,"station_name":"Kampung Bandan"},{"distance":1364,"time":3,"station_id":"JAKK","station_name":"Jakarta Kota","i_lat":-6.137569,"is_transit":true,"transit":true,"line":2,"i_long":106.812439},{"i_lat":-6.141205,"station_name":"Jayakarta","i_long":106.820901,"station_id":"JAY","transit":false,"line":2,"time":4,"distance":1264,"is_transit":false},{"station_id":"MGB","time":2,"transit":false,"distance":1080,"i_lat":-6.149769,"line":2,"is_transit":false,"i_long":106.82482,"station_name":"Manggabesar"}],[{"is_transit":false,"i_long":106.831474,"line":2,"transit":false,"station_id":"UI","station_name":"Univ. Indonesia","time":0,"i_lat":-6.360749,"distance":0},{"is_transit":false,"i_long":106.834175,"time":3,"station_id":"UP","distance":2264,"transit":false,"station_name":"Univ. Pancasila","i_lat":-6.339291,"line":2},{"time":2,"i_lat":-6.330363,"i_long":106.832616,"station_id":"LNA","transit":false,"station_name":"Lenteng Agung","distance":1029,"is_transit":false,"line":2},{"station_name":"Tanjung Barat","i_long":106.838896,"transit":false,"distance":2671,"is_transit":false,"time":3,"i_lat":-6.3080680000000005,"line":2,"station_id":"TNT"},{"line":2,"time":4,"station_id":"PSM","i_lat":-6.2842400000000005,"distance":2820,"i_long":106.843999,"transit":false,"station_name":"Pasar Minggu","is_transit":false},{"distance":2380,"station_name":"Pasar Minggu Baru","is_transit":false,"transit":false,"i_lat":-6.263214,"i_long":106.851577,"line":2,"station_id":"PSMB","time":2},{"station_name":"Duren Kalibata","station_id":"DRN","line":2,"time":2,"distance":824,"is_transit":false,"i_lat":-6.255332,"i_long":106.85449,"transit":false},{"is_transit":false,"i_long":106.856607,"line":2,"distance":1546,"station_name":"Cawang","i_lat":-6.242512,"time":3,"station_id":"CW","transit":false},{"i_lat":-6.226659,"i_long":106.857948,"line":2,"station_name":"Tebet","is_transit":false,"distance":1230,"time":2,"transit":false,"station_id":"TEB"},{"line":2,"transit":true,"is_transit":true,"station_name":"Manggarai","i_lat":-6.209883,"station_id":"MRI","time":4,"distance":2610,"i_long":106.84912},{"is_transit":false,"station_name":"Matraman","line":1,"i_lat":-6.212485,"time":2,"i_long":106.858896,"station_id":"MTR","transit":false,"distance":1275},{"distance":1377,"line":1,"time":8,"i_lat":-6.215091,"i_long":106.86807400000001,"is_transit":true,"transit":true,"station_name":"Jatinegara","station_id":"JNG"},{"distance":1236,"station_id":"POK","transit":false,"time":2,"i_lat":-6.209188,"i_long":106.861737,"is_transit":false,"line":11,"station_name":"Pondok Jati"},{"i_long":106.855437,"distance":1829,"station_id":"KMT","is_transit":false,"transit":false,"i_lat":-6.193792,"time":2,"station_name":"Kramat","line":11},{"transit":false,"distance":973,"station_name":"Gang Sentiong","station_id":"GST","line":11,"time":1,"i_long":106.850107,"is_transit":false,"i_lat":-6.185975},{"transit":false,"station_id":"PSE","line":11,"time":8,"i_lat":-6.174784,"distance":1567,"is_transit":false,"station_name":"Pasar Senen","i_long":106.84368},{"station_name":"Kemayoran","distance":1436,"i_lat":-6.161728,"i_long":106.839204,"time":4,"is_transit":false,"transit":false,"line":11,"station_id":"KMO"},{"station_name":"Rajawali","station_id":"RJW","transit":false,"is_transit":false,"time":5,"distance":1901,"i_long":106.836569,"line":11,"i_lat":-6.14505},{"station_id":"KPB","transit":true,"distance":1444,"i_long":106.826365,"station_name":"Kampung Bandan","time":3,"i_lat":-6.132549,"line":4,"is_transit":true},{"transit":true,"distance":1364,"line":2,"i_lat":-6.137569,"is_transit":true,"station_id":"JAKK","station_name":"Jakarta Kota","time":3,"i_long":106.812439},{"is_transit":false,"station_id":"JAY","i_lat":-6.141205,"i_long":106.820901,"transit":false,"time":4,"line":2,"distance":1264,"station_name":"Jayakarta"},{"transit":false,"time":2,"i_lat":-6.149769,"station_id":"MGB","distance":1080,"station_name":"Manggabesar","is_transit":false,"line":2,"i_long":106.82482}]]}