{"data":[[{"transit":false,"station_name":"Univ. Indonesia","i_long":106.831474,"is_transit":false,"station_id":"UI","line":2,"distance":0,"time":0,"i_lat":-6.360749},{"time":3,"station_name":"Univ. Pancasila","distance":2264,"i_long":106.834175,"station_id":"UP","is_transit":false,"line":2,"transit":false,"i_lat":-6.339291},{"i_long":106.832616,"line":2,"transit":false,"station_id":"LNA","time":2,"distance":1029,"station_name":"Lenteng Agung","is_transit":false,"i_lat":-6.330363},{"time":3,"line":2,"station_name":"Tanjung Barat","transit":false,"i_lat":-6.3080680000000005,"is_transit":false,"distance":2671,"station_id":"TNT","i_long":106.838896},{"station_name":"Pasar Minggu","i_long":106.843999,"distance":2820,"is_transit":false,"station_id":"PSM","time":4,"i_lat":-6.2842400000000005,"transit":false,"line":2},{"time":2,"is_transit":false,"station_name":"Pasar Minggu Baru","transit":false,"i_long":106.851577,"station_id":"PSMB","distance":2380,"i_lat":-6.263214,"line":2}]]}