{"data":[[{"station_id":"UI","transit":false,"is_transit":false,"i_long":106.831474,"line":2,"station_name":"Univ. Indonesia","i_lat":-6.360749,"time":0,"distance":0},{"i_long":106.834175,"is_transit":false,"station_id":"UP","transit":false,"line":2,"i_lat":-6.339291,"time":3,"station_name":"Univ. Pancasila","distance":2264},{"time":2,"station_id":"LNA","distance":1029,"station_name":"Lenteng Agung","i_long":106.832616,"is_transit":false,"line":2,"i_lat":-6.330363,"transit":false},{"i_lat":-6.3080680000000005,"is_transit":false,"station_name":"Tanjung Barat","i_long":106.838896,"station_id":"TNT","distance":2671,"transit":false,"line":2,"time":3},{"station_name":"Pasar Minggu","i_lat":-6.2842400000000005,"i_long":106.843999,"line":2,"is_transit":false,"transit":false,"distance":2820,"station_id":"PSM","time":4},{"distance":2380,"is_transit":false,"time":2,"transit":false,"station_name":"Pasar Minggu Baru","i_lat":-6.263214,"station_id":"PSMB","i_long":106.851577,"line":2}]]}