{"data":[[{"time":0,"distance":0,"station_name":"Univ. Indonesia","station_id":"UI","line":2,"i_lat":-6.360749,"i_long":106.831474,"transit":false,"is_transit":false},{"transit":false,"time":3,"station_id":"UP","i_lat":-6.339291,"distance":2264,"i_long":106.834175,"line":2,"station_name":"Univ. Pancasila","is_transit":false},{"distance":1029,"i_long":106.832616,"transit":false,"station_name":"Lenteng Agung","station_id":"LNA","time":2,"i_lat":-6.330363,"line":2,"is_transit":false},{"is_transit":false,"station_name":"Tanjung Barat","time":3,"i_lat":-6.3080680000000005,"transit":false,"i_long":106.838896,"distance":2671,"station_id":"TNT","line":2},{"i_long":106.843999,"station_id":"PSM","i_lat":-6.2842400000000005,"transit":false,"distance":2820,"station_name":"Pasar Minggu","is_transit":false,"time":4,"line":2},{"line":2,"station_name":"Pasar Minggu Baru","distance":2380,"transit":false,"station_id":"PSMB","time":2,"i_lat":-6.263214,"i_long":106.851577,"is_transit":false}]]}