{"data":[[{"transit":false,"i_lat":-6.360749,"station_id":"UI","line":2,"is_transit":false,"station_name":"Univ. Indonesia","i_long":106.831474,"time":0,"distance":0},{"distance":2264,"station_name":"Univ. Pancasila","i_lat":-6.339291,"time":3,"i_long":106.834175,"transit":false,"is_transit":false,"line":2,"station_id":"UP"},{"distance":1029,"time":2,"is_transit":false,"transit":false,"line":2,"station_name":"Lenteng Agung","i_long":106.832616,"station_id":"LNA","i_lat":-6.330363},{"transit":false,"line":2,"i_lat":-6.3080680000000005,"time":3,"station_id":"TNT","is_transit":false,"station_name":"Tanjung Barat","distance":2671,"i_long":106.838896},{"station_name":"Pasar Minggu","time":4,"station_id":"PSM","i_long":106.843999,"distance":2820,"transit":false,"is_transit":false,"i_lat":-6.2842400000000005,"line":2},{"station_name":"Pasar Minggu Baru","is_transit":false,"transit":false,"i_lat":-6.263214,"station_id":"PSMB","distance":2380,"line":2,"i_long":106.851577,"time":2}]]}