{"data":[[{"is_transit":false,"transit":false,"i_long":106.831474,"i_lat":-6.360749,"station_name":"Univ. Indonesia","time":0,"distance":0,"line":2,"station_id":"UI"},{"transit":false,"line":2,"time":3,"distance":2264,"is_transit":false,"i_long":106.834175,"i_lat":-6.339291,"station_name":"Univ. Pancasila","station_id":"UP"},{"distance":1029,"is_transit":false,"line":2,"station_id":"LNA","i_lat":-6.330363,"time":2,"transit":false,"station_name":"Lenteng Agung","i_long":106.832616},{"distance":2671,"line":2,"time":3,"i_lat":-6.3080680000000005,"transit":false,"station_id":"TNT","i_long":106.838896,"station_name":"Tanjung Barat","is_transit":false},{"i_lat":-6.2842400000000005,"i_long":106.843999,"is_transit":false,"station_name":"Pasar Minggu","time":4,"transit":false,"line":2,"distance":2820,"station_id":"PSM"},{"station_name":"Pasar Minggu Baru","i_long":106.851577,"station_id":"PSMB","time":2,"line":2,"transit":false,"is_transit":false,"i_lat":-6.263214,"distance":2380},{"station_name":"Duren Kalibata","is_transit":false,"transit":false,"time":2,"line":2,"station_id":"DRN","distance":824,"i_long":106.85449,"i_lat":-6.255332},{"distance":1546,"station_id":"CW","i_long":106.856607,"station_name":"Cawang","time":3,"i_lat":-6.242512,"is_transit":false,"line":2,"transit":false},{"i_lat":-6.226659,"distance":1230,"time":2,"transit":false,"i_long":106.857948,"line":2,"is_transit":false,"station_name":"Tebet","station_id":"TEB"},{"station_name":"Manggarai","i_long":106.84912,"station_id":"MRI","time":4,"distance":2610,"is_transit":true,"i_lat":-6.209883,"line":2,"transit":true},{"line":1,"station_name":"Sudirman","distance":3186,"i_long":106.822649,"i_lat":-6.202263,"is_transit":false,"time":4,"transit":false,"station_id":"SUD"},{"station_name":"Sudirman Baru","transit":false,"station_id":"SUDB","i_long":106.819881,"line":1,"distance":280,"i_lat":-6.201433,"is_transit":false,"time":1},{"transit":false,"i_lat":-6.20132,"i_long":106.816351,"station_id":"KAT","is_transit":false,"station_name":"Karet","time":1,"line":1,"distance":471},{"distance":2029,"i_long":106.811091,"time":5,"station_name":"Tanah Abang","line":1,"i_lat":-6.185545,"is_transit":true,"transit":true,"station_id":"THB"},{"i_long":106.79689,"station_id":"PLM","line":6,"transit":false,"is_transit":false,"time":6,"distance":3191,"i_lat":-6.207404,"station_name":"Palmerah"},{"time":7,"line":6,"station_name":"Kebayoran","station_id":"KBY","transit":false,"distance":3737,"is_transit":false,"i_lat":-6.237242,"i_long":106.780334},{"distance":6218,"station_name":"Pondokranji","is_transit":false,"time":8,"transit":false,"station_id":"PDJ","i_lat":-6.276362,"line":6,"i_long":106.74273},{"i_long":106.728916,"time":3,"is_transit":false,"distance":2179,"transit":false,"station_name":"Jurangmangu","station_id":"JMU","line":6,"i_lat":-6.288927},{"distance":1994,"i_lat":-6.296963,"line":6,"transit":false,"is_transit":false,"i_long":106.712277,"station_id":"SDM","time":4,"station_name":"Sudimara"},{"is_transit":false,"time":6,"station_name":"Rawa Buntu","i_long":106.675475,"transit":false,"station_id":"RU","i_lat":-6.314823,"distance":4566,"line":6}],[{"i_lat":-6.360749,"time":0,"line":2,"i_long":106.831474,"station_name":"Univ. Indonesia","is_transit":false,"transit":false,"station_id":"UI","distance":0},{"transit":false,"i_long":106.834175,"distance":2264,"i_lat":-6.339291,"line":2,"is_transit":false,"station_id":"UP","time":3,"station_name":"Univ. Pancasila"},{"line":2,"station_name":"Lenteng Agung","i_long":106.832616,"time":2,"is_transit":false,"station_id":"LNA","transit":false,"i_lat":-6.330363,"distance":1029},{"distance":2671,"is_transit":false,"line":2,"time":3,"i_long":106.838896,"transit":false,"station_id":"TNT","i_lat":-6.3080680000000005,"station_name":"Tanjung Barat"},{"is_transit":false,"line":2,"i_long":106.843999,"distance":2820,"station_name":"Pasar Minggu","time":4,"i_lat":-6.2842400000000005,"transit":false,"station_id":"PSM"},{"station_id":"PSMB","transit":false,"i_long":106.851577,"is_transit":false,"line":2,"i_lat":-6.263214,"distance":2380,"station_name":"Pasar Minggu Baru","time":2},{"transit":false,"is_transit":false,"time":2,"distance":824,"i_long":106.85449,"i_lat":-6.255332,"line":2,"station_id":"DRN","station_name":"Duren Kalibata"},{"time":3,"i_long":106.856607,"transit":false,"is_transit":false,"line":2,"station_id":"CW","distance":1546,"station_name":"Cawang","i_lat":-6.242512},{"transit":false,"station_id":"TEB","is_transit":false,"line":2,"distance":1230,"time":2,"i_long":106.857948,"i_lat":-6.226659,"station_name":"Tebet"},{"station_name":"Manggarai","line":2,"i_lat":-6.209883,"distance":2610,"station_id":"MRI","is_transit":false,"i_long":106.84912,"transit":false,"time":4},{"time":4,"distance":1590,"is_transit":false,"line":2,"transit":false,"station_name":"Cikini","i_long":106.840169,"station_id":"CKI","i_lat":-6.198556},{"station_id":"GDD","line":2,"i_long":106.832183,"time":3,"transit":false,"distance":1750,"is_transit":false,"i_lat":-6.186295,"station_name":"Gondangdia"},{"time":4,"station_name":"Juanda","i_long":106.828284,"transit":false,"station_id":"JUA","distance":2015,"line":2,"i_lat":-6.166716,"is_transit":false},{"is_transit":false,"line":2,"transit":false,"station_name":"Sawah Besar","station_id":"SW","i_lat":-6.160725,"time":2,"distance":1149,"i_long":106.827103},{"i_long":106.82482,"transit":false,"i_lat":-6.149769,"distance":906,"station_name":"Manggabesar","line":2,"station_id":"MGB","is_transit":false,"time":2},{"station_name":"Jayakarta","is_transit":false,"transit":false,"distance":1080,"station_id":"JAY","i_lat":-6.141205,"i_long":106.820901,"time":2,"line":2},{"i_long":106.812439,"line":2,"time":4,"transit":true,"i_lat":-6.137569,"is_transit":true,"station_id":"JAKK","station_name":"Jakarta Kota","distance":1264},{"station_id":"KPB","i_long":106.826365,"distance":1364,"transit":true,"is_transit":true,"i_lat":-6.132549,"station_name":"Kampung Bandan","line":4,"time":3},{"time":9,"distance":4102,"station_name":"Angke","station_id":"AK","transit":false,"i_lat":-6.144674,"is_transit":false,"i_long":106.79867,"line":1},{"time":4,"distance":1230,"line":1,"transit":false,"i_long":106.800832,"station_name":"Duri","station_id":"DU","is_transit":false,"i_lat":-6.155215},{"i_long":106.811091,"line":1,"distance":3632,"station_id":"THB","transit":true,"station_name":"Tanah Abang","time":8,"is_transit":true,"i_lat":-6.185545},{"time":6,"station_id":"PLM","distance":3191,"is_transit":false,"transit":false,"line":6,"i_lat":-6.207404,"i_long":106.79689,"station_name":"Palmerah"},{"transit":false,"time":7,"i_lat":-6.237242,"station_id":"KBY","line":6,"is_transit":false,"distance":3737,"station_name":"Kebayoran","i_long":106.780334},{"distance":6218,"i_lat":-6.276362,"station_id":"PDJ","line":6,"station_name":"Pondokranji","transit":false,"is_transit":false,"time":8,"i_long":106.74273},{"transit":false,"distance":2179,"station_name":"Jurangmangu","i_lat":-6.288927,"is_transit":false,"i_long":106.728916,"line":6,"station_id":"JMU","time":3},{"time":4,"station_name":"Sudimara","is_transit":false,"line":6,"station_id":"SDM","transit":false,"distance":1994,"i_lat":-6.296963,"i_long":106.712277},{"time":6,"transit":false,"is_transit":false,"distance":4566,"i_long":106.675475,"line":6,"station_id":"RU","i_lat":-6.314823,"station_name":"Rawa Buntu"}],[{"transit":false,"is_transit":false,"i_long":106.831474,"station_id":"UI","line":2,"time":0,"i_lat":-6.360749,"station_name":"Univ. Indonesia","distance":0},{"time":3,"station_name":"Univ. Pancasila","i_long":106.834175,"line":2,"is_transit":false,"station_id":"UP","i_lat":-6.339291,"distance":2264,"transit":false},{"transit":false,"station_id":"LNA","line":2,"i_lat":-6.330363,"i_long":106.832616,"distance":1029,"station_name":"Lenteng Agung","is_transit":false,"time":2},{"transit":false,"i_long":106.838896,"station_name":"Tanjung Barat","is_transit":false,"distance":2671,"i_lat":-6.3080680000000005,"station_id":"TNT","line":2,"time":3},{"time":4,"distance":2820,"line":2,"transit":false,"i_long":106.843999,"i_lat":-6.2842400000000005,"station_id":"PSM","station_name":"Pasar Minggu","is_transit":false},{"distance":2380,"station_name":"Pasar Minggu Baru","i_long":106.851577,"time":2,"station_id":"PSMB","transit":false,"line":2,"i_lat":-6.263214,"is_transit":false},{"station_name":"Duren Kalibata","time":2,"station_id":"DRN","distance":824,"i_lat":-6.255332,"i_long":106.85449,"line":2,"transit":false,"is_transit":false},{"station_name":"Cawang","transit":false,"is_transit":false,"time":3,"i_long":106.856607,"distance":1546,"line":2,"station_id":"CW","i_lat":-6.242512},{"i_lat":-6.226659,"time":2,"distance":1230,"i_long":106.857948,"is_transit":false,"station_id":"TEB","transit":false,"station_name":"Tebet","line":2},{"transit":true,"distance":2610,"time":4,"i_long":106.84912,"station_id":"MRI","line":2,"i_lat":-6.209883,"station_name":"Manggarai","is_transit":true},{"line":1,"i_long":106.858896,"station_name":"Matraman","distance":1275,"transit":false,"station_id":"MTR","is_transit":false,"time":2,"i_lat":-6.212485},{"line":1,"station_id":"JNG","i_long":106.86807400000001,"is_transit":true,"i_lat":-6.215091,"station_name":"Jatinegara","time":8,"transit":true,"distance":1377},{"transit":false,"station_id":"POK","is_transit":false,"time":2,"line":11,"station_name":"Pondok Jati","distance":1236,"i_lat":-6.209188,"i_long":106.861737},{"distance":1829,"is_transit":false,"station_id":"KMT","time":2,"i_lat":-6.193792,"station_name":"Kramat","transit":false,"i_long":106.855437,"line":11},{"station_name":"Gang Sentiong","i_lat":-6.185975,"is_transit":false,"line":11,"transit":false,"i_long":106.850107,"station_id":"GST","time":1,"distance":973},{"i_long":106.84368,"time":8,"line":11,"station_name":"Pasar Senen","is_transit":false,"distance":1567,"i_lat":-6.174784,"station_id":"PSE","transit":false},{"line":11,"i_long":106.839204,"i_lat":-6.161728,"transit":false,"station_id":"KMO","station_name":"Kemayoran","is_transit":false,"time":4,"distance":1436},{"is_transit":false,"station_name":"Rajawali","time":5,"transit":false,"station_id":"RJW","i_lat":-6.14505,"i_long":106.836569,"line":11,"distance":1901},{"i_lat":-6.132549,"time":3,"distance":1444,"station_name":"Kampung Bandan","i_long":106.826365,"transit":true,"is_transit":true,"station_id":"KPB","line":4},{"is_transit":false,"transit":false,"time":9,"line":1,"station_id":"AK","distance":4102,"station_name":"Angke","i_lat":-6.144674,"i_long":106.79867},{"is_transit":false,"distance":1230,"transit":false,"i_lat":-6.155215,"time":4,"station_name":"Duri","i_long":106.800832,"station_id":"DU","line":1},{"transit":true,"station_id":"THB","is_transit":true,"station_name":"Tanah Abang","time":8,"i_lat":-6.185545,"distance":3632,"i_long":106.811091,"line":1},{"i_lat":-6.207404,"i_long":106.79689,"transit":false,"distance":3191,"station_name":"Palmerah","station_id":"PLM","time":6,"is_transit":false,"line":6},{"time":7,"station_id":"KBY","i_long":106.780334,"distance":3737,"transit":false,"station_name":"Kebayoran","i_lat":-6.237242,"line":6,"is_transit":false},{"distance":6218,"is_transit":false,"time":8,"i_long":106.74273,"i_lat":-6.276362,"transit":false,"station_name":"Pondokranji","station_id":"PDJ","line":6},{"i_lat":-6.288927,"line":6,"distance":2179,"is_transit":false,"time":3,"transit":false,"station_id":"JMU","station_name":"Jurangmangu","i_long":106.728916},{"is_transit":false,"i_lat":-6.296963,"line":6,"transit":false,"station_name":"Sudimara","station_id":"SDM","i_long":106.712277,"time":4,"distance":1994},{"time":6,"i_lat":-6.314823,"station_id":"RU","distance":4566,"is_transit":false,"i_long":106.675475,"transit":false,"line":6,"station_name":"Rawa Buntu"}]]}