{"data":[[{"line":2,"transit":false,"station_id":"UI","is_transit":false,"distance":0,"i_long":106.831474,"i_lat":-6.360749,"time":0,"station_name":"Univ. Indonesia"},{"transit":false,"time":3,"i_lat":-6.339291,"i_long":106.834175,"distance":2264,"station_id":"UP","station_name":"Univ. Pancasila","line":2,"is_transit":false},{"i_long":106.832616,"line":2,"distance":1029,"transit":false,"station_id":"LNA","i_lat":-6.330363,"station_name":"Lenteng Agung","is_transit":false,"time":2},{"time":3,"line":2,"station_name":"Tanjung Barat","transit":false,"is_transit":false,"station_id":"TNT","distance":2671,"i_lat":-6.3080680000000005,"i_long":106.838896},{"i_long":106.843999,"transit":false,"distance":2820,"station_id":"PSM","line":2,"time":4,"is_transit":false,"station_name":"Pasar Minggu","i_lat":-6.2842400000000005},{"time":2,"transit":false,"distance":2380,"is_transit":false,"station_name":"Pasar Minggu Baru","line":2,"i_lat":-6.263214,"i_long":106.851577,"station_id":"PSMB"},{"station_id":"DRN","i_long":106.85449,"station_name":"Duren Kalibata","is_transit":false,"distance":824,"time":2,"i_lat":-6.255332,"line":0,"transit":false},{"time":3,"i_long":106.856607,"i_lat":-6.242512,"transit":false,"is_transit":false,"line":0,"station_name":"Cawang","station_id":"CW","distance":1546},{"station_id":"TEB","is_transit":false,"time":2,"i_lat":-6.226659,"distance":1230,"i_long":106.857948,"line":2,"transit":false,"station_name":"Tebet"},{"line":0,"i_long":106.84912,"is_transit":true,"station_id":"MRI","station_name":"Manggarai","distance":2610,"transit":true,"i_lat":-6.209883,"time":4},{"station_name":"Sudirman","i_lat":-6.202263,"time":4,"distance":3186,"line":1,"i_long":106.822649,"station_id":"SUD","is_transit":false,"transit":false},{"i_lat":-6.201433,"time":1,"station_name":"Sudirman Baru","transit":false,"is_transit":false,"distance":280,"line":1,"station_id":"SUDB","i_long":106.819881},{"transit":false,"i_long":106.816351,"station_id":"KAT","time":1,"distance":471,"line":1,"is_transit":false,"station_name":"Karet","i_lat":-6.20132},{"i_lat":-6.185545,"line":1,"i_long":106.811091,"transit":true,"station_id":"THB","station_name":"Tanah Abang","is_transit":true,"time":5,"distance":2029},{"time":6,"station_name":"Palmerah","station_id":"PLM","i_lat":-6.207404,"distance":3191,"line":6,"is_transit":false,"transit":false,"i_long":106.79689},{"time":7,"i_long":106.780334,"distance":3737,"transit":false,"is_transit":false,"station_id":"KBY","i_lat":-6.237242,"line":6,"station_name":"Kebayoran"},{"i_lat":-6.276362,"i_long":106.74273,"time":8,"station_name":"Pondokranji","is_transit":false,"distance":6218,"line":6,"station_id":"PDJ","transit":false},{"transit":false,"station_id":"JMU","i_lat":-6.288927,"i_long":106.728916,"line":6,"time":3,"distance":2179,"is_transit":false,"station_name":"Jurangmangu"},{"station_id":"SDM","line":6,"i_long":106.712277,"time":4,"i_lat":-6.296963,"transit":false,"station_name":"Sudimara","distance":1994,"is_transit":false},{"station_id":"RU","is_transit":false,"time":6,"transit":false,"line":6,"i_lat":-6.314823,"station_name":"Rawa Buntu","distance":4566,"i_long":106.675475}],[{"station_name":"Univ. Indonesia","i_lat":-6.360749,"distance":0,"is_transit":false,"station_id":"UI","time":0,"transit":false,"line":2,"i_long":106.831474},{"transit":false,"line":2,"is_transit":false,"i_long":106.834175,"station_id":"UP","station_name":"Univ. Pancasila","time":3,"i_lat":-6.339291,"distance":2264},{"i_lat":-6.330363,"line":2,"station_id":"LNA","time":2,"station_name":"Lenteng Agung","distance":1029,"is_transit":false,"transit":false,"i_long":106.832616},{"i_lat":-6.3080680000000005,"transit":false,"i_long":106.838896,"station_name":"Tanjung Barat","is_transit":false,"station_id":"TNT","time":3,"distance":2671,"line":2},{"line":2,"transit":false,"i_long":106.843999,"is_transit":false,"i_lat":-6.2842400000000005,"station_id":"PSM","distance":2820,"time":4,"station_name":"Pasar Minggu"},{"station_id":"PSMB","distance":2380,"station_name":"Pasar Minggu Baru","is_transit":false,"transit":false,"i_long":106.851577,"line":2,"time":2,"i_lat":-6.263214},{"line":0,"transit":false,"i_long":106.85449,"time":2,"is_transit":false,"distance":824,"station_id":"DRN","station_name":"Duren Kalibata","i_lat":-6.255332},{"transit":false,"i_lat":-6.242512,"i_long":106.856607,"station_id":"CW","is_transit":false,"line":0,"station_name":"Cawang","time":3,"distance":1546},{"time":2,"transit":false,"i_lat":-6.226659,"is_transit":false,"line":2,"station_name":"Tebet","i_long":106.857948,"station_id":"TEB","distance":1230},{"transit":true,"i_long":106.84912,"station_id":"MRI","i_lat":-6.209883,"distance":2610,"station_name":"Manggarai","is_transit":true,"line":0,"time":4},{"line":0,"station_id":"CKI","time":4,"i_long":106.840169,"distance":1590,"transit":false,"station_name":"Cikini","i_lat":-6.198556,"is_transit":false},{"station_name":"Gondangdia","i_lat":-6.186295,"is_transit":false,"transit":false,"i_long":106.832183,"line":2,"time":3,"distance":1750,"station_id":"GDD"},{"station_id":"JUA","transit":false,"i_lat":-6.166716,"time":4,"i_long":106.828284,"station_name":"Juanda","distance":2015,"is_transit":false,"line":2},{"time":2,"i_long":106.827103,"station_name":"Sawah Besar","is_transit":false,"station_id":"SW","transit":false,"line":2,"i_lat":-6.160725,"distance":1149},{"transit":false,"line":2,"is_transit":false,"i_lat":-6.149769,"distance":906,"station_name":"Manggabesar","time":2,"i_long":106.82482,"station_id":"MGB"},{"station_id":"JAY","i_long":106.820901,"line":7,"transit":false,"is_transit":false,"i_lat":-6.141205,"station_name":"Jayakarta","time":2,"distance":1080},{"i_lat":-6.137569,"distance":1264,"station_id":"JAKK","time":4,"line":0,"transit":true,"station_name":"Jakarta Kota","is_transit":true,"i_long":106.812439},{"transit":false,"station_id":"KPB","line":0,"i_lat":-6.132549,"i_long":106.826365,"station_name":"Kampung Bandan","time":3,"distance":1364,"is_transit":true},{"distance":4102,"station_id":"AK","transit":false,"station_name":"Angke","is_transit":false,"i_long":106.79867,"i_lat":-6.144674,"line":0,"time":9},{"i_long":106.800832,"is_transit":true,"station_name":"Duri","time":4,"distance":1230,"transit":true,"station_id":"DU","line":1,"i_lat":-6.155215},{"line":1,"station_id":"THB","i_long":106.811091,"is_transit":true,"time":8,"transit":true,"i_lat":-6.185545,"distance":3632,"station_name":"Tanah Abang"},{"station_name":"Palmerah","station_id":"PLM","time":6,"is_transit":false,"transit":false,"i_lat":-6.207404,"i_long":106.79689,"distance":3191,"line":6},{"i_long":106.780334,"is_transit":false,"distance":3737,"i_lat":-6.237242,"transit":false,"line":6,"station_id":"KBY","time":7,"station_name":"Kebayoran"},{"station_name":"Pondokranji","i_long":106.74273,"transit":false,"time":8,"line":6,"is_transit":false,"distance":6218,"station_id":"PDJ","i_lat":-6.276362},{"time":3,"station_name":"Jurangmangu","is_transit":false,"transit":false,"i_lat":-6.288927,"line":6,"station_id":"JMU","distance":2179,"i_long":106.728916},{"transit":false,"i_long":106.712277,"line":6,"i_lat":-6.296963,"station_name":"Sudimara","is_transit":false,"time":4,"station_id":"SDM","distance":1994},{"station_name":"Rawa Buntu","time":6,"transit":false,"is_transit":false,"i_lat":-6.314823,"distance":4566,"line":6,"station_id":"RU","i_long":106.675475}],[{"i_lat":-6.360749,"line":2,"is_transit":false,"time":0,"transit":false,"station_id":"UI","distance":0,"i_long":106.831474,"station_name":"Univ. Indonesia"},{"transit":false,"station_id":"UP","time":3,"distance":2264,"i_lat":-6.339291,"line":2,"station_name":"Univ. Pancasila","i_long":106.834175,"is_transit":false},{"i_long":106.832616,"time":2,"transit":false,"station_name":"Lenteng Agung","i_lat":-6.330363,"line":2,"station_id":"LNA","is_transit":false,"distance":1029},{"line":2,"distance":2671,"i_lat":-6.3080680000000005,"station_id":"TNT","i_long":106.838896,"time":3,"transit":false,"station_name":"Tanjung Barat","is_transit":false},{"station_name":"Pasar Minggu","transit":false,"is_transit":false,"station_id":"PSM","time":4,"distance":2820,"i_lat":-6.2842400000000005,"line":2,"i_long":106.843999},{"time":2,"i_lat":-6.263214,"i_long":106.851577,"line":2,"station_id":"PSMB","station_name":"Pasar Minggu Baru","is_transit":false,"transit":false,"distance":2380},{"transit":false,"i_long":106.85449,"time":2,"line":0,"distance":824,"is_transit":false,"station_name":"Duren Kalibata","i_lat":-6.255332,"station_id":"DRN"},{"station_name":"Cawang","i_long":106.856607,"distance":1546,"transit":false,"line":0,"is_transit":false,"i_lat":-6.242512,"time":3,"station_id":"CW"},{"i_lat":-6.226659,"transit":false,"station_name":"Tebet","line":2,"station_id":"TEB","is_transit":false,"i_long":106.857948,"time":2,"distance":1230},{"station_id":"MRI","station_name":"Manggarai","is_transit":true,"i_long":106.84912,"time":4,"distance":2610,"i_lat":-6.209883,"line":0,"transit":true},{"station_name":"Matraman","station_id":"MTR","is_transit":false,"i_lat":-6.212485,"i_long":106.858896,"line":1,"distance":1275,"transit":false,"time":2},{"station_id":"JNG","station_name":"Jatinegara","time":8,"is_transit":true,"i_long":106.86807400000001,"distance":1377,"i_lat":-6.215091,"transit":true,"line":0},{"transit":false,"station_id":"POK","station_name":"Pondok Jati","distance":1236,"i_lat":-6.209188,"is_transit":false,"line":11,"time":2,"i_long":106.861737},{"station_id":"KMT","i_long":106.855437,"time":2,"station_name":"Kramat","line":11,"is_transit":false,"i_lat":-6.193792,"transit":false,"distance":1829},{"station_name":"Gang Sentiong","transit":false,"distance":973,"i_long":106.850107,"station_id":"GST","line":11,"i_lat":-6.185975,"is_transit":false,"time":1},{"time":8,"station_name":"Pasar Senen","i_long":106.84368,"station_id":"PSE","transit":false,"i_lat":-6.174784,"line":11,"is_transit":false,"distance":1567},{"line":11,"time":4,"transit":false,"station_name":"Kemayoran","station_id":"KMO","is_transit":false,"distance":1436,"i_lat":-6.161728,"i_long":106.839204},{"transit":false,"station_id":"RJW","time":5,"i_long":106.836569,"i_lat":-6.14505,"distance":1901,"line":11,"is_transit":false,"station_name":"Rajawali"},{"distance":1444,"station_id":"KPB","line":0,"station_name":"Kampung Bandan","time":3,"is_transit":true,"i_lat":-6.132549,"transit":true,"i_long":106.826365},{"distance":4102,"time":9,"i_long":106.79867,"is_transit":false,"station_name":"Angke","line":0,"station_id":"AK","i_lat":-6.144674,"transit":false},{"time":4,"station_name":"Duri","is_transit":true,"distance":1230,"transit":true,"i_long":106.800832,"line":1,"station_id":"DU","i_lat":-6.155215},{"i_long":106.811091,"distance":3632,"line":1,"time":8,"station_id":"THB","is_transit":true,"transit":true,"i_lat":-6.185545,"station_name":"Tanah Abang"},{"i_lat":-6.207404,"i_long":106.79689,"is_transit":false,"station_id":"PLM","station_name":"Palmerah","distance":3191,"line":6,"time":6,"transit":false},{"station_id":"KBY","time":7,"is_transit":false,"i_long":106.780334,"i_lat":-6.237242,"line":6,"transit":false,"station_name":"Kebayoran","distance":3737},{"station_id":"PDJ","transit":false,"station_name":"Pondokranji","is_transit":false,"time":8,"distance":6218,"i_long":106.74273,"i_lat":-6.276362,"line":6},{"station_id":"JMU","time":3,"line":6,"distance":2179,"transit":false,"i_lat":-6.288927,"i_long":106.728916,"is_transit":false,"station_name":"Jurangmangu"},{"distance":1994,"is_transit":false,"station_id":"SDM","time":4,"i_lat":-6.296963,"i_long":106.712277,"station_name":"Sudimara","transit":false,"line":6},{"distance":4566,"is_transit":false,"station_id":"RU","i_long":106.675475,"line":6,"i_lat":-6.314823,"time":6,"transit":false,"station_name":"Rawa Buntu"}]]}