{"data":[[{"station_id":"UI","is_transit":false,"i_long":106.831474,"line":2,"i_lat":-6.360749,"distance":0,"time":0,"station_name":"Univ. Indonesia","transit":false},{"distance":2264,"is_transit":false,"i_lat":-6.339291,"i_long":106.834175,"station_name":"Univ. Pancasila","time":3,"station_id":"UP","transit":false,"line":2},{"station_name":"Lenteng Agung","is_transit":false,"line":2,"i_long":106.832616,"transit":false,"distance":1029,"i_lat":-6.330363,"station_id":"LNA","time":2},{"transit":false,"i_long":106.838896,"line":2,"i_lat":-6.3080680000000005,"time":3,"station_id":"TNT","station_name":"Tanjung Barat","distance":2671,"is_transit":false},{"is_transit":false,"transit":false,"distance":2820,"time":4,"i_lat":-6.2842400000000005,"station_id":"PSM","station_name":"Pasar Minggu","i_long":106.843999,"line":2},{"station_id":"PSMB","distance":2380,"is_transit":false,"transit":false,"i_lat":-6.263214,"station_name":"Pasar Minggu Baru","i_long":106.851577,"time":2,"line":2},{"transit":false,"distance":824,"station_name":"Duren Kalibata","station_id":"DRN","i_lat":-6.255332,"is_transit":false,"i_long":106.85449,"time":2,"line":2},{"station_name":"Cawang","time":3,"distance":1546,"station_id":"CW","i_long":106.856607,"line":2,"i_lat":-6.242512,"transit":false,"is_transit":false},{"transit":false,"distance":1230,"i_lat":-6.226659,"is_transit":false,"i_long":106.857948,"line":2,"time":2,"station_name":"Tebet","station_id":"TEB"},{"i_lat":-6.209883,"time":4,"is_transit":true,"station_name":"Manggarai","station_id":"MRI","transit":true,"line":2,"distance":2610,"i_long":106.84912},{"time":4,"line":1,"transit":false,"distance":3186,"station_name":"Sudirman","i_lat":-6.202263,"is_transit":false,"i_long":106.822649,"station_id":"SUD"},{"i_long":106.819881,"line":1,"i_lat":-6.201433,"time":1,"is_transit":false,"transit":false,"station_name":"Sudirman Baru","station_id":"SUDB","distance":280},{"station_name":"Karet","transit":false,"i_lat":-6.20132,"line":1,"i_long":106.816351,"distance":471,"station_id":"KAT","is_transit":false,"time":1},{"is_transit":true,"transit":true,"distance":2029,"station_name":"Tanah Abang","i_long":106.811091,"line":1,"time":5,"station_id":"THB","i_lat":-6.185545},{"distance":3191,"i_lat":-6.207404,"line":6,"is_transit":false,"station_id":"PLM","transit":false,"time":6,"station_name":"Palmerah","i_long":106.79689},{"station_id":"KBY","station_name":"Kebayoran","i_long":106.780334,"i_lat":-6.237242,"time":7,"is_transit":false,"transit":false,"distance":3737,"line":6},{"line":6,"i_long":106.74273,"station_name":"Pondokranji","distance":6218,"is_transit":false,"i_lat":-6.276362,"time":8,"transit":false,"station_id":"PDJ"},{"transit":false,"i_lat":-6.288927,"line":6,"is_transit":false,"distance":2179,"station_id":"JMU","i_long":106.728916,"station_name":"Jurangmangu","time":3},{"i_long":106.712277,"line":6,"station_id":"SDM","is_transit":false,"i_lat":-6.296963,"time":4,"distance":1994,"transit":false,"station_name":"Sudimara"},{"is_transit":false,"time":6,"i_lat":-6.314823,"station_name":"Rawa Buntu","transit":false,"line":6,"i_long":106.675475,"station_id":"RU","distance":4566}],[{"station_name":"Univ. Indonesia","transit":false,"i_lat":-6.360749,"i_long":106.831474,"time":0,"station_id":"UI","line":2,"is_transit":false,"distance":0},{"line":2,"is_transit":false,"transit":false,"i_lat":-6.339291,"distance":2264,"i_long":106.834175,"time":3,"station_name":"Univ. Pancasila","station_id":"UP"},{"i_lat":-6.330363,"station_id":"LNA","is_transit":false,"line":2,"time":2,"distance":1029,"i_long":106.832616,"transit":false,"station_name":"Lenteng Agung"},{"transit":false,"i_lat":-6.3080680000000005,"line":2,"i_long":106.838896,"is_transit":false,"station_name":"Tanjung Barat","station_id":"TNT","time":3,"distance":2671},{"line":2,"transit":false,"station_name":"Pasar Minggu","is_transit":false,"time":4,"i_lat":-6.2842400000000005,"distance":2820,"i_long":106.843999,"station_id":"PSM"},{"line":2,"distance":2380,"i_lat":-6.263214,"time":2,"transit":false,"station_name":"Pasar Minggu Baru","station_id":"PSMB","is_transit":false,"i_long":106.851577},{"is_transit":false,"station_name":"Duren Kalibata","i_lat":-6.255332,"line":2,"transit":false,"station_id":"DRN","time":2,"i_long":106.85449,"distance":824},{"distance":1546,"transit":false,"station_name":"Cawang","is_transit":false,"station_id":"CW","i_lat":-6.242512,"i_long":106.856607,"line":2,"time":3},{"is_transit":false,"i_lat":-6.226659,"line":2,"station_id":"TEB","station_name":"Tebet","transit":false,"i_long":106.857948,"distance":1230,"time":2},{"i_lat":-6.209883,"time":4,"line":2,"is_transit":false,"distance":2610,"station_name":"Manggarai","station_id":"MRI","i_long":106.84912,"transit":false},{"station_name":"Cikini","distance":1590,"i_long":106.840169,"is_transit":false,"time":4,"i_lat":-6.198556,"line":2,"transit":false,"station_id":"CKI"},{"i_lat":-6.186295,"time":3,"station_name":"Gondangdia","distance":1750,"station_id":"GDD","transit":false,"is_transit":false,"line":2,"i_long":106.832183},{"time":4,"i_lat":-6.166716,"transit":false,"distance":2015,"is_transit":false,"line":2,"station_name":"Juanda","station_id":"JUA","i_long":106.828284},{"station_name":"Sawah Besar","transit":false,"time":2,"station_id":"SW","i_long":106.827103,"distance":1149,"i_lat":-6.160725,"line":2,"is_transit":false},{"station_id":"MGB","distance":906,"is_transit":false,"transit":false,"line":2,"i_long":106.82482,"station_name":"Manggabesar","time":2,"i_lat":-6.149769},{"i_lat":-6.141205,"is_transit":false,"transit":false,"time":2,"i_long":106.820901,"line":2,"station_id":"JAY","station_name":"Jayakarta","distance":1080},{"station_id":"JAKK","i_lat":-6.137569,"i_long":106.812439,"line":2,"transit":true,"station_name":"Jakarta Kota","time":4,"distance":1264,"is_transit":true},{"station_name":"Kampung Bandan","line":4,"transit":true,"distance":1364,"station_id":"KPB","i_lat":-6.132549,"time":3,"is_transit":true,"i_long":106.826365},{"time":9,"transit":false,"station_id":"AK","i_long":106.79867,"is_transit":false,"line":1,"i_lat":-6.144674,"station_name":"Angke","distance":4102},{"transit":false,"time":4,"distance":1230,"i_lat":-6.155215,"station_name":"Duri","station_id":"DU","i_long":106.800832,"line":1,"is_transit":false},{"i_lat":-6.185545,"i_long":106.811091,"is_transit":true,"line":1,"station_name":"Tanah Abang","time":8,"transit":true,"distance":3632,"station_id":"THB"},{"station_id":"PLM","i_lat":-6.207404,"i_long":106.79689,"is_transit":false,"time":6,"line":6,"transit":false,"distance":3191,"station_name":"Palmerah"},{"distance":3737,"i_long":106.780334,"time":7,"i_lat":-6.237242,"station_name":"Kebayoran","line":6,"is_transit":false,"transit":false,"station_id":"KBY"},{"transit":false,"station_name":"Pondokranji","i_lat":-6.276362,"station_id":"PDJ","line":6,"distance":6218,"i_long":106.74273,"is_transit":false,"time":8},{"transit":false,"line":6,"time":3,"i_long":106.728916,"i_lat":-6.288927,"station_id":"JMU","distance":2179,"is_transit":false,"station_name":"Jurangmangu"},{"is_transit":false,"distance":1994,"i_long":106.712277,"transit":false,"line":6,"station_name":"Sudimara","station_id":"SDM","time":4,"i_lat":-6.296963},{"distance":4566,"station_name":"Rawa Buntu","i_long":106.675475,"line":6,"i_lat":-6.314823,"transit":false,"station_id":"RU","time":6,"is_transit":false}],[{"i_lat":-6.360749,"is_transit":false,"distance":0,"station_id":"UI","station_name":"Univ. Indonesia","transit":false,"line":2,"time":0,"i_long":106.831474},{"i_lat":-6.339291,"station_id":"UP","is_transit":false,"transit":false,"station_name":"Univ. Pancasila","i_long":106.834175,"line":2,"time":3,"distance":2264},{"time":2,"i_lat":-6.330363,"i_long":106.832616,"station_id":"LNA","transit":false,"line":2,"station_name":"Lenteng Agung","distance":1029,"is_transit":false},{"station_name":"Tanjung Barat","line":2,"time":3,"transit":false,"i_lat":-6.3080680000000005,"distance":2671,"station_id":"TNT","is_transit":false,"i_long":106.838896},{"time":4,"distance":2820,"i_lat":-6.2842400000000005,"line":2,"station_id":"PSM","transit":false,"station_name":"Pasar Minggu","is_transit":false,"i_long":106.843999},{"i_lat":-6.263214,"station_name":"Pasar Minggu Baru","is_transit":false,"time":2,"i_long":106.851577,"line":2,"station_id":"PSMB","distance":2380,"transit":false},{"i_lat":-6.255332,"is_transit":false,"transit":false,"distance":824,"station_name":"Duren Kalibata","i_long":106.85449,"station_id":"DRN","line":2,"time":2},{"is_transit":false,"distance":1546,"station_name":"Cawang","time":3,"line":2,"i_lat":-6.242512,"transit":false,"i_long":106.856607,"station_id":"CW"},{"transit":false,"distance":1230,"station_name":"Tebet","is_transit":false,"i_long":106.857948,"line":2,"time":2,"i_lat":-6.226659,"station_id":"TEB"},{"i_long":106.84912,"distance":2610,"is_transit":true,"line":2,"station_name":"Manggarai","time":4,"transit":true,"station_id":"MRI","i_lat":-6.209883},{"station_name":"Matraman","station_id":"MTR","transit":false,"i_lat":-6.212485,"line":1,"i_long":106.858896,"is_transit":false,"time":2,"distance":1275},{"station_id":"JNG","i_lat":-6.215091,"station_name":"Jatinegara","distance":1377,"i_long":106.86807400000001,"is_transit":true,"line":1,"transit":true,"time":8},{"is_transit":false,"transit":false,"line":11,"time":2,"distance":1236,"station_name":"Pondok Jati","station_id":"POK","i_lat":-6.209188,"i_long":106.861737},{"transit":false,"time":2,"line":11,"station_id":"KMT","is_transit":false,"distance":1829,"i_lat":-6.193792,"i_long":106.855437,"station_name":"Kramat"},{"station_name":"Gang Sentiong","distance":973,"i_lat":-6.185975,"station_id":"GST","transit":false,"i_long":106.850107,"is_transit":false,"line":11,"time":1},{"i_long":106.84368,"time":8,"station_name":"Pasar Senen","transit":false,"distance":1567,"line":11,"is_transit":false,"station_id":"PSE","i_lat":-6.174784},{"distance":1436,"transit":false,"time":4,"station_id":"KMO","line":11,"is_transit":false,"i_long":106.839204,"station_name":"Kemayoran","i_lat":-6.161728},{"i_long":106.836569,"distance":1901,"transit":false,"station_id":"RJW","line":11,"time":5,"i_lat":-6.14505,"station_name":"Rajawali","is_transit":false},{"i_lat":-6.132549,"i_long":106.826365,"line":4,"transit":true,"distance":1444,"is_transit":true,"time":3,"station_name":"Kampung Bandan","station_id":"KPB"},{"transit":false,"time":9,"distance":4102,"station_name":"Angke","station_id":"AK","line":1,"is_transit":false,"i_long":106.79867,"i_lat":-6.144674},{"is_transit":false,"transit":false,"station_name":"Duri","i_lat":-6.155215,"i_long":106.800832,"line":1,"station_id":"DU","distance":1230,"time":4},{"time":8,"is_transit":true,"station_id":"THB","distance":3632,"i_long":106.811091,"i_lat":-6.185545,"transit":true,"line":1,"station_name":"Tanah Abang"},{"station_id":"PLM","time":6,"distance":3191,"line":6,"is_transit":false,"transit":false,"i_lat":-6.207404,"station_name":"Palmerah","i_long":106.79689},{"is_transit":false,"station_id":"KBY","i_lat":-6.237242,"i_long":106.780334,"transit":false,"time":7,"station_name":"Kebayoran","line":6,"distance":3737},{"i_long":106.74273,"station_id":"PDJ","line":6,"is_transit":false,"time":8,"transit":false,"distance":6218,"i_lat":-6.276362,"station_name":"Pondokranji"},{"i_long":106.728916,"time":3,"line":6,"distance":2179,"station_name":"Jurangmangu","is_transit":false,"station_id":"JMU","i_lat":-6.288927,"transit":false},{"time":4,"is_transit":false,"transit":false,"station_id":"SDM","i_long":106.712277,"distance":1994,"line":6,"station_name":"Sudimara","i_lat":-6.296963},{"station_id":"RU","i_lat":-6.314823,"i_long":106.675475,"is_transit":false,"distance":4566,"station_name":"Rawa Buntu","line":6,"time":6,"transit":false}]]}