{"data":[[{"is_transit":false,"i_lat":-6.360749,"i_long":106.831474,"transit":false,"station_name":"Univ. Indonesia","line":2,"distance":0,"time":0,"station_id":"UI"},{"distance":2264,"station_id":"UP","is_transit":false,"line":2,"transit":false,"i_lat":-6.339291,"time":3,"station_name":"Univ. Pancasila","i_long":106.834175},{"time":2,"transit":false,"line":2,"station_name":"Lenteng Agung","i_lat":-6.330363,"distance":1029,"i_long":106.832616,"is_transit":false,"station_id":"LNA"},{"station_name":"Tanjung Barat","station_id":"TNT","time":3,"i_lat":-6.3080680000000005,"i_long":106.838896,"distance":2671,"is_transit":false,"transit":false,"line":2},{"transit":false,"is_transit":false,"station_id":"PSM","line":2,"distance":2820,"time":4,"i_lat":-6.2842400000000005,"station_name":"Pasar Minggu","i_long":106.843999},{"line":2,"is_transit":false,"transit":false,"distance":2380,"station_id":"PSMB","time":2,"i_lat":-6.263214,"i_long":106.851577,"station_name":"Pasar Minggu Baru"},{"time":2,"transit":false,"line":2,"distance":824,"i_long":106.85449,"station_name":"Duren Kalibata","i_lat":-6.255332,"is_transit":false,"station_id":"DRN"},{"time":3,"i_long":106.856607,"station_name":"Cawang","line":2,"i_lat":-6.242512,"is_transit":false,"transit":false,"distance":1546,"station_id":"CW"},{"distance":1230,"time":2,"station_id":"TEB","is_transit":false,"station_name":"Tebet","i_lat":-6.226659,"transit":false,"line":2,"i_long":106.857948},{"transit":true,"i_long":106.84912,"line":2,"station_id":"MRI","station_name":"Manggarai","distance":2610,"i_lat":-6.209883,"time":4,"is_transit":true},{"station_name":"Sudirman","i_lat":-6.202263,"transit":false,"time":4,"distance":3186,"line":1,"station_id":"SUD","is_transit":false,"i_long":106.822649},{"time":1,"station_name":"Sudirman Baru","distance":280,"i_long":106.819881,"station_id":"SUDB","transit":false,"line":1,"is_transit":false,"i_lat":-6.201433},{"time":1,"transit":false,"distance":471,"i_lat":-6.20132,"station_id":"KAT","station_name":"Karet","line":1,"is_transit":false,"i_long":106.816351},{"is_transit":false,"distance":2029,"i_lat":-6.185545,"station_name":"Tanah Abang","i_long":106.811091,"time":5,"station_id":"THB","transit":false,"line":1},{"is_transit":true,"time":8,"station_name":"Duri","station_id":"DU","distance":3632,"line":1,"transit":true,"i_long":106.800832,"i_lat":-6.155215},{"i_lat":-6.162021,"distance":1700,"is_transit":false,"station_name":"Grogol","i_long":106.788277,"time":3,"station_id":"GGL","transit":false,"line":5},{"distance":2036,"transit":false,"station_name":"Pesing","time":2,"i_long":106.771379,"is_transit":false,"line":5,"station_id":"PSG","i_lat":-6.161433},{"station_id":"TKO","station_name":"Taman Kota","line":5,"is_transit":false,"i_lat":-6.1587309999999995,"distance":1614,"time":2,"i_long":106.756522,"transit":false},{"is_transit":false,"transit":false,"station_name":"Bojongindah","time":2,"i_long":106.737035,"station_id":"BOI","i_lat":-6.159876,"distance":2334,"line":5},{"station_name":"Rawa Buaya","transit":false,"station_id":"RW","i_long":106.723064,"is_transit":false,"line":5,"time":4,"distance":1152,"i_lat":-6.162758}],[{"i_lat":-6.360749,"distance":0,"i_long":106.831474,"is_transit":false,"time":0,"station_name":"Univ. Indonesia","line":2,"transit":false,"station_id":"UI"},{"line":2,"i_lat":-6.339291,"transit":false,"distance":2264,"station_id":"UP","station_name":"Univ. Pancasila","is_transit":false,"i_long":106.834175,"time":3},{"i_lat":-6.330363,"i_long":106.832616,"line":2,"time":2,"station_name":"Lenteng Agung","distance":1029,"is_transit":false,"transit":false,"station_id":"LNA"},{"time":3,"line":2,"station_id":"TNT","distance":2671,"i_lat":-6.3080680000000005,"station_name":"Tanjung Barat","transit":false,"is_transit":false,"i_long":106.838896},{"i_lat":-6.2842400000000005,"station_name":"Pasar Minggu","i_long":106.843999,"line":2,"station_id":"PSM","transit":false,"is_transit":false,"distance":2820,"time":4},{"is_transit":false,"line":2,"distance":2380,"time":2,"transit":false,"station_name":"Pasar Minggu Baru","i_long":106.851577,"i_lat":-6.263214,"station_id":"PSMB"},{"line":2,"i_lat":-6.255332,"i_long":106.85449,"distance":824,"transit":false,"station_id":"DRN","is_transit":false,"time":2,"station_name":"Duren Kalibata"},{"is_transit":false,"station_name":"Cawang","line":2,"i_lat":-6.242512,"i_long":106.856607,"station_id":"CW","time":3,"distance":1546,"transit":false},{"transit":false,"station_name":"Tebet","i_lat":-6.226659,"line":2,"distance":1230,"time":2,"i_long":106.857948,"station_id":"TEB","is_transit":false},{"i_lat":-6.209883,"station_id":"MRI","transit":false,"distance":2610,"i_long":106.84912,"line":2,"is_transit":false,"time":4,"station_name":"Manggarai"},{"time":4,"station_id":"CKI","line":2,"distance":1590,"transit":false,"is_transit":false,"station_name":"Cikini","i_lat":-6.198556,"i_long":106.840169},{"is_transit":false,"station_name":"Gondangdia","line":2,"transit":false,"distance":1750,"station_id":"GDD","time":3,"i_lat":-6.186295,"i_long":106.832183},{"station_id":"JUA","transit":false,"distance":2015,"i_lat":-6.166716,"i_long":106.828284,"is_transit":false,"station_name":"Juanda","line":2,"time":4},{"i_lat":-6.160725,"line":2,"transit":false,"distance":1149,"time":2,"station_name":"Sawah Besar","is_transit":false,"station_id":"SW","i_long":106.827103},{"i_lat":-6.149769,"distance":906,"station_name":"Manggabesar","i_long":106.82482,"is_transit":false,"transit":false,"time":2,"line":2,"station_id":"MGB"},{"time":2,"line":2,"distance":1080,"station_id":"JAY","is_transit":false,"i_long":106.820901,"station_name":"Jayakarta","transit":false,"i_lat":-6.141205},{"station_id":"JAKK","transit":true,"station_name":"Jakarta Kota","time":4,"i_long":106.812439,"distance":1264,"is_transit":true,"line":2,"i_lat":-6.137569},{"i_long":106.826365,"line":4,"transit":true,"station_name":"Kampung Bandan","time":3,"station_id":"KPB","is_transit":true,"distance":1364,"i_lat":-6.132549},{"is_transit":false,"i_lat":-6.144674,"distance":4102,"i_long":106.79867,"station_name":"Angke","transit":false,"time":9,"station_id":"AK","line":1},{"i_long":106.800832,"distance":1230,"transit":true,"line":1,"station_name":"Duri","is_transit":true,"station_id":"DU","time":4,"i_lat":-6.155215},{"i_long":106.788277,"time":3,"distance":1700,"station_id":"GGL","line":5,"station_name":"Grogol","is_transit":false,"transit":false,"i_lat":-6.162021},{"time":2,"distance":2036,"station_id":"PSG","i_long":106.771379,"transit":false,"station_name":"Pesing","line":5,"i_lat":-6.161433,"is_transit":false},{"transit":false,"station_name":"Taman Kota","distance":1614,"i_lat":-6.1587309999999995,"i_long":106.756522,"station_id":"TKO","line":5,"time":2,"is_transit":false},{"i_lat":-6.159876,"line":5,"station_id":"BOI","i_long":106.737035,"transit":false,"station_name":"Bojongindah","time":2,"distance":2334,"is_transit":false},{"line":5,"time":4,"transit":false,"station_name":"Rawa Buaya","i_lat":-6.162758,"distance":1152,"i_long":106.723064,"is_transit":false,"station_id":"RW"}],[{"is_transit":false,"i_long":106.831474,"time":0,"line":2,"station_name":"Univ. Indonesia","distance":0,"station_id":"UI","i_lat":-6.360749,"transit":false},{"line":2,"time":3,"i_lat":-6.339291,"i_long":106.834175,"station_id":"UP","station_name":"Univ. Pancasila","transit":false,"is_transit":false,"distance":2264},{"i_long":106.832616,"station_id":"LNA","is_transit":false,"time":2,"distance":1029,"transit":false,"i_lat":-6.330363,"line":2,"station_name":"Lenteng Agung"},{"station_name":"Tanjung Barat","line":2,"i_lat":-6.3080680000000005,"is_transit":false,"transit":false,"distance":2671,"i_long":106.838896,"station_id":"TNT","time":3},{"i_lat":-6.2842400000000005,"time":4,"is_transit":false,"i_long":106.843999,"station_name":"Pasar Minggu","line":2,"station_id":"PSM","transit":false,"distance":2820},{"is_transit":false,"station_id":"PSMB","transit":false,"i_long":106.851577,"i_lat":-6.263214,"distance":2380,"station_name":"Pasar Minggu Baru","time":2,"line":2},{"station_id":"DRN","distance":824,"station_name":"Duren Kalibata","is_transit":false,"line":2,"i_lat":-6.255332,"transit":false,"i_long":106.85449,"time":2},{"distance":1546,"transit":false,"station_id":"CW","i_lat":-6.242512,"station_name":"Cawang","is_transit":false,"time":3,"line":2,"i_long":106.856607},{"station_name":"Tebet","distance":1230,"i_lat":-6.226659,"station_id":"TEB","is_transit":false,"line":2,"i_long":106.857948,"time":2,"transit":false},{"station_id":"MRI","i_lat":-6.209883,"is_transit":true,"transit":true,"distance":2610,"station_name":"Manggarai","time":4,"i_long":106.84912,"line":2},{"time":2,"i_lat":-6.212485,"distance":1275,"transit":false,"i_long":106.858896,"station_name":"Matraman","is_transit":false,"station_id":"MTR","line":1},{"station_name":"Jatinegara","distance":1377,"station_id":"JNG","transit":true,"i_lat":-6.215091,"line":1,"time":8,"i_long":106.86807400000001,"is_transit":true},{"distance":1236,"i_long":106.861737,"is_transit":false,"station_id":"POK","transit":false,"i_lat":-6.209188,"time":2,"line":11,"station_name":"Pondok Jati"},{"distance":1829,"line":11,"time":2,"i_lat":-6.193792,"station_id":"KMT","is_transit":false,"station_name":"Kramat","i_long":106.855437,"transit":false},{"is_transit":false,"transit":false,"distance":973,"station_id":"GST","i_long":106.850107,"i_lat":-6.185975,"time":1,"station_name":"Gang Sentiong","line":11},{"station_id":"PSE","is_transit":false,"station_name":"Pasar Senen","time":8,"i_long":106.84368,"transit":false,"distance":1567,"line":11,"i_lat":-6.174784},{"time":4,"station_name":"Kemayoran","distance":1436,"i_lat":-6.161728,"transit":false,"line":11,"i_long":106.839204,"is_transit":false,"station_id":"KMO"},{"time":5,"station_name":"Rajawali","transit":false,"is_transit":false,"line":11,"i_long":106.836569,"station_id":"RJW","i_lat":-6.14505,"distance":1901},{"is_transit":true,"station_id":"KPB","i_long":106.826365,"time":3,"station_name":"Kampung Bandan","i_lat":-6.132549,"transit":true,"distance":1444,"line":4},{"i_lat":-6.144674,"station_name":"Angke","is_transit":false,"transit":false,"i_long":106.79867,"line":1,"station_id":"AK","distance":4102,"time":9},{"i_long":106.800832,"station_name":"Duri","is_transit":true,"station_id":"DU","time":4,"transit":true,"distance":1230,"i_lat":-6.155215,"line":1},{"station_id":"GGL","station_name":"Grogol","transit":false,"i_lat":-6.162021,"time":3,"distance":1700,"line":5,"i_long":106.788277,"is_transit":false},{"transit":false,"distance":2036,"time":2,"i_long":106.771379,"is_transit":false,"station_id":"PSG","i_lat":-6.161433,"line":5,"station_name":"Pesing"},{"line":5,"i_lat":-6.1587309999999995,"distance":1614,"i_long":106.756522,"time":2,"is_transit":false,"transit":false,"station_id":"TKO","station_name":"Taman Kota"},{"distance":2334,"is_transit":false,"transit":false,"station_name":"Bojongindah","i_lat":-6.159876,"time":2,"i_long":106.737035,"line":5,"station_id":"BOI"},{"line":5,"station_name":"Rawa Buaya","distance":1152,"is_transit":false,"i_lat":-6.162758,"station_id":"RW","time":4,"transit":false,"i_long":106.723064}]]}