{"data":[[{"station_name":"Univ. Indonesia","line":2,"time":0,"is_transit":false,"transit":false,"i_lat":-6.360749,"station_id":"UI","i_long":106.831474,"distance":0},{"station_name":"Univ. Pancasila","i_long":106.834175,"i_lat":-6.339291,"line":2,"time":3,"station_id":"UP","distance":2264,"is_transit":false,"transit":false},{"distance":1029,"is_transit":false,"i_lat":-6.330363,"line":2,"transit":false,"station_id":"LNA","station_name":"Lenteng Agung","i_long":106.832616,"time":2},{"is_transit":false,"station_id":"TNT","station_name":"Tanjung Barat","time":3,"transit":false,"i_lat":-6.3080680000000005,"line":2,"distance":2671,"i_long":106.838896},{"station_id":"PSM","distance":2820,"i_lat":-6.2842400000000005,"line":2,"transit":false,"is_transit":false,"time":4,"station_name":"Pasar Minggu","i_long":106.843999},{"is_transit":false,"line":2,"transit":false,"station_name":"Pasar Minggu Baru","station_id":"PSMB","time":2,"distance":2380,"i_lat":-6.263214,"i_long":106.851577},{"station_name":"Duren Kalibata","station_id":"DRN","is_transit":false,"distance":824,"line":2,"transit":false,"i_long":106.85449,"time":2,"i_lat":-6.255332},{"line":2,"distance":1546,"i_long":106.856607,"time":3,"is_transit":false,"transit":false,"i_lat":-6.242512,"station_id":"CW","station_name":"Cawang"},{"distance":1230,"is_transit":false,"i_lat":-6.226659,"station_id":"TEB","station_name":"Tebet","line":2,"time":2,"transit":false,"i_long":106.857948},{"is_transit":true,"line":2,"station_name":"Manggarai","transit":true,"station_id":"MRI","time":4,"i_long":106.84912,"distance":2610,"i_lat":-6.209883},{"i_long":106.822649,"line":1,"distance":3186,"time":4,"transit":false,"station_id":"SUD","station_name":"Sudirman","is_transit":false,"i_lat":-6.202263},{"station_id":"SUDB","is_transit":false,"i_lat":-6.201433,"i_long":106.819881,"line":1,"transit":false,"station_name":"Sudirman Baru","time":1,"distance":280},{"i_lat":-6.20132,"station_id":"KAT","is_transit":false,"line":1,"i_long":106.816351,"transit":false,"distance":471,"time":1,"station_name":"Karet"},{"i_long":106.811091,"station_name":"Tanah Abang","transit":false,"station_id":"THB","is_transit":false,"i_lat":-6.185545,"distance":2029,"time":5,"line":1},{"station_name":"Duri","is_transit":true,"distance":3632,"transit":true,"station_id":"DU","i_lat":-6.155215,"i_long":106.800832,"line":1,"time":8},{"distance":1700,"transit":false,"i_long":106.788277,"station_id":"GGL","is_transit":false,"i_lat":-6.162021,"line":5,"time":3,"station_name":"Grogol"},{"i_lat":-6.161433,"station_name":"Pesing","line":5,"i_long":106.771379,"time":2,"is_transit":false,"transit":false,"distance":2036,"station_id":"PSG"},{"i_long":106.756522,"i_lat":-6.1587309999999995,"distance":1614,"station_name":"Taman Kota","station_id":"TKO","line":5,"time":2,"transit":false,"is_transit":false},{"is_transit":false,"transit":false,"i_long":106.737035,"i_lat":-6.159876,"time":2,"line":5,"station_id":"BOI","distance":2334,"station_name":"Bojongindah"},{"time":4,"distance":1152,"transit":false,"station_id":"RW","i_lat":-6.162758,"is_transit":false,"line":5,"station_name":"Rawa Buaya","i_long":106.723064}],[{"station_id":"UI","station_name":"Univ. Indonesia","is_transit":false,"time":0,"distance":0,"i_long":106.831474,"line":2,"transit":false,"i_lat":-6.360749},{"i_lat":-6.339291,"is_transit":false,"station_name":"Univ. Pancasila","time":3,"line":2,"distance":2264,"i_long":106.834175,"transit":false,"station_id":"UP"},{"time":2,"transit":false,"is_transit":false,"distance":1029,"line":2,"i_long":106.832616,"station_name":"Lenteng Agung","i_lat":-6.330363,"station_id":"LNA"},{"i_lat":-6.3080680000000005,"distance":2671,"time":3,"station_name":"Tanjung Barat","line":2,"transit":false,"station_id":"TNT","is_transit":false,"i_long":106.838896},{"time":4,"distance":2820,"i_lat":-6.2842400000000005,"line":2,"is_transit":false,"i_long":106.843999,"station_id":"PSM","transit":false,"station_name":"Pasar Minggu"},{"station_id":"PSMB","is_transit":false,"time":2,"transit":false,"distance":2380,"i_lat":-6.263214,"line":2,"station_name":"Pasar Minggu Baru","i_long":106.851577},{"is_transit":false,"time":2,"transit":false,"distance":824,"i_lat":-6.255332,"line":2,"i_long":106.85449,"station_name":"Duren Kalibata","station_id":"DRN"},{"distance":1546,"transit":false,"time":3,"is_transit":false,"i_long":106.856607,"i_lat":-6.242512,"station_id":"CW","line":2,"station_name":"Cawang"},{"is_transit":false,"transit":false,"station_id":"TEB","station_name":"Tebet","i_long":106.857948,"line":2,"time":2,"distance":1230,"i_lat":-6.226659},{"time":4,"line":2,"station_id":"MRI","i_long":106.84912,"i_lat":-6.209883,"distance":2610,"station_name":"Manggarai","is_transit":false,"transit":false},{"i_long":106.840169,"station_id":"CKI","time":4,"station_name":"Cikini","distance":1590,"i_lat":-6.198556,"line":2,"transit":false,"is_transit":false},{"i_lat":-6.186295,"transit":false,"station_name":"Gondangdia","line":2,"is_transit":false,"i_long":106.832183,"station_id":"GDD","time":3,"distance":1750},{"i_long":106.828284,"i_lat":-6.166716,"station_id":"JUA","time":4,"station_name":"Juanda","distance":2015,"line":2,"is_transit":false,"transit":false},{"station_id":"SW","distance":1149,"station_name":"Sawah Besar","is_transit":false,"time":2,"i_lat":-6.160725,"i_long":106.827103,"line":2,"transit":false},{"station_name":"Manggabesar","transit":false,"distance":906,"i_long":106.82482,"station_id":"MGB","line":2,"is_transit":false,"time":2,"i_lat":-6.149769},{"distance":1080,"station_name":"Jayakarta","i_lat":-6.141205,"line":2,"time":2,"transit":false,"is_transit":false,"station_id":"JAY","i_long":106.820901},{"i_long":106.812439,"is_transit":true,"station_id":"JAKK","transit":true,"i_lat":-6.137569,"station_name":"Jakarta Kota","line":2,"distance":1264,"time":4},{"transit":true,"station_id":"KPB","is_transit":true,"line":4,"station_name":"Kampung Bandan","distance":1364,"time":3,"i_lat":-6.132549,"i_long":106.826365},{"i_lat":-6.144674,"is_transit":false,"line":1,"station_id":"AK","transit":false,"i_long":106.79867,"distance":4102,"time":9,"station_name":"Angke"},{"distance":1230,"station_id":"DU","i_long":106.800832,"line":1,"transit":true,"time":4,"is_transit":true,"i_lat":-6.155215,"station_name":"Duri"},{"station_name":"Grogol","time":3,"transit":false,"is_transit":false,"station_id":"GGL","i_lat":-6.162021,"i_long":106.788277,"distance":1700,"line":5},{"is_transit":false,"distance":2036,"station_id":"PSG","station_name":"Pesing","i_long":106.771379,"line":5,"i_lat":-6.161433,"time":2,"transit":false},{"time":2,"line":5,"station_id":"TKO","i_long":106.756522,"i_lat":-6.1587309999999995,"station_name":"Taman Kota","transit":false,"is_transit":false,"distance":1614},{"transit":false,"line":5,"station_id":"BOI","station_name":"Bojongindah","time":2,"is_transit":false,"distance":2334,"i_lat":-6.159876,"i_long":106.737035},{"line":5,"transit":false,"distance":1152,"time":4,"i_long":106.723064,"i_lat":-6.162758,"is_transit":false,"station_name":"Rawa Buaya","station_id":"RW"}],[{"distance":0,"i_lat":-6.360749,"line":2,"i_long":106.831474,"station_name":"Univ. Indonesia","transit":false,"station_id":"UI","is_transit":false,"time":0},{"station_name":"Univ. Pancasila","station_id":"UP","i_lat":-6.339291,"transit":false,"distance":2264,"i_long":106.834175,"line":2,"is_transit":false,"time":3},{"line":2,"distance":1029,"station_id":"LNA","transit":false,"time":2,"is_transit":false,"i_long":106.832616,"i_lat":-6.330363,"station_name":"Lenteng Agung"},{"station_name":"Tanjung Barat","transit":false,"station_id":"TNT","is_transit":false,"time":3,"distance":2671,"i_lat":-6.3080680000000005,"i_long":106.838896,"line":2},{"is_transit":false,"i_long":106.843999,"line":2,"station_name":"Pasar Minggu","time":4,"distance":2820,"i_lat":-6.2842400000000005,"transit":false,"station_id":"PSM"},{"time":2,"transit":false,"line":2,"station_name":"Pasar Minggu Baru","i_long":106.851577,"station_id":"PSMB","distance":2380,"is_transit":false,"i_lat":-6.263214},{"station_name":"Duren Kalibata","station_id":"DRN","i_lat":-6.255332,"is_transit":false,"line":2,"transit":false,"time":2,"distance":824,"i_long":106.85449},{"is_transit":false,"i_lat":-6.242512,"i_long":106.856607,"station_name":"Cawang","station_id":"CW","line":2,"distance":1546,"transit":false,"time":3},{"station_name":"Tebet","i_long":106.857948,"station_id":"TEB","i_lat":-6.226659,"is_transit":false,"transit":false,"line":2,"distance":1230,"time":2},{"distance":2610,"line":2,"i_long":106.84912,"is_transit":true,"time":4,"i_lat":-6.209883,"station_name":"Manggarai","station_id":"MRI","transit":true},{"line":1,"transit":false,"i_lat":-6.212485,"station_name":"Matraman","distance":1275,"time":2,"is_transit":false,"i_long":106.858896,"station_id":"MTR"},{"station_name":"Jatinegara","i_lat":-6.215091,"is_transit":true,"transit":true,"time":8,"station_id":"JNG","i_long":106.86807400000001,"line":1,"distance":1377},{"is_transit":false,"i_long":106.861737,"line":11,"distance":1236,"transit":false,"time":2,"station_name":"Pondok Jati","station_id":"POK","i_lat":-6.209188},{"station_name":"Kramat","line":11,"transit":false,"time":2,"i_lat":-6.193792,"station_id":"KMT","is_transit":false,"distance":1829,"i_long":106.855437},{"transit":false,"distance":973,"time":1,"station_id":"GST","is_transit":false,"line":11,"station_name":"Gang Sentiong","i_long":106.850107,"i_lat":-6.185975},{"line":11,"distance":1567,"station_name":"Pasar Senen","is_transit":false,"i_lat":-6.174784,"transit":false,"station_id":"PSE","time":8,"i_long":106.84368},{"station_id":"KMO","time":4,"i_long":106.839204,"transit":false,"is_transit":false,"station_name":"Kemayoran","line":11,"i_lat":-6.161728,"distance":1436},{"station_id":"RJW","transit":false,"distance":1901,"time":5,"is_transit":false,"station_name":"Rajawali","i_lat":-6.14505,"i_long":106.836569,"line":11},{"distance":1444,"i_lat":-6.132549,"i_long":106.826365,"station_id":"KPB","is_transit":true,"station_name":"Kampung Bandan","time":3,"line":4,"transit":true},{"line":1,"i_long":106.79867,"station_name":"Angke","i_lat":-6.144674,"transit":false,"is_transit":false,"station_id":"AK","time":9,"distance":4102},{"is_transit":true,"time":4,"station_name":"Duri","station_id":"DU","transit":true,"line":1,"distance":1230,"i_lat":-6.155215,"i_long":106.800832},{"time":3,"transit":false,"is_transit":false,"station_name":"Grogol","i_lat":-6.162021,"distance":1700,"i_long":106.788277,"line":5,"station_id":"GGL"},{"line":5,"transit":false,"is_transit":false,"time":2,"distance":2036,"station_name":"Pesing","i_lat":-6.161433,"station_id":"PSG","i_long":106.771379},{"station_id":"TKO","is_transit":false,"time":2,"distance":1614,"i_lat":-6.1587309999999995,"i_long":106.756522,"transit":false,"line":5,"station_name":"Taman Kota"},{"i_long":106.737035,"station_id":"BOI","time":2,"i_lat":-6.159876,"line":5,"is_transit":false,"transit":false,"station_name":"Bojongindah","distance":2334},{"i_long":106.723064,"station_name":"Rawa Buaya","station_id":"RW","time":4,"line":5,"is_transit":false,"distance":1152,"transit":false,"i_lat":-6.162758}]]}