{"data":[[{"transit":false,"station_name":"Univ. Indonesia","is_transit":false,"i_long":106.831474,"line":2,"distance":0,"i_lat":-6.360749,"station_id":"UI","time":0},{"time":3,"station_name":"Univ. Pancasila","distance":2264,"i_lat":-6.339291,"transit":false,"station_id":"UP","line":2,"is_transit":false,"i_long":106.834175},{"is_transit":false,"station_name":"Lenteng Agung","i_lat":-6.330363,"i_long":106.832616,"station_id":"LNA","transit":false,"distance":1029,"line":2,"time":2},{"time":3,"i_long":106.838896,"station_id":"TNT","line":2,"is_transit":false,"transit":false,"distance":2671,"station_name":"Tanjung Barat","i_lat":-6.3080680000000005},{"is_transit":false,"transit":false,"station_name":"Pasar Minggu","station_id":"PSM","line":2,"time":4,"i_lat":-6.2842400000000005,"i_long":106.843999,"distance":2820},{"i_long":106.851577,"station_name":"Pasar Minggu Baru","time":2,"distance":2380,"station_id":"PSMB","transit":false,"i_lat":-6.263214,"is_transit":false,"line":2},{"station_id":"DRN","time":2,"distance":824,"transit":false,"is_transit":false,"line":0,"station_name":"Duren Kalibata","i_long":106.85449,"i_lat":-6.255332},{"line":0,"station_name":"Cawang","distance":1546,"transit":false,"i_long":106.856607,"is_transit":false,"station_id":"CW","time":3,"i_lat":-6.242512},{"station_name":"Tebet","distance":1230,"station_id":"TEB","is_transit":false,"time":2,"i_lat":-6.226659,"line":2,"i_long":106.857948,"transit":false},{"station_name":"Manggarai","i_lat":-6.209883,"distance":2610,"is_transit":true,"time":4,"i_long":106.84912,"station_id":"MRI","transit":true,"line":0},{"station_id":"SUD","is_transit":false,"transit":false,"i_long":106.822649,"line":1,"station_name":"Sudirman","time":4,"distance":3186,"i_lat":-6.202263},{"line":1,"is_transit":false,"station_name":"Sudirman Baru","i_lat":-6.201433,"distance":280,"transit":false,"time":1,"station_id":"SUDB","i_long":106.819881},{"distance":471,"i_long":106.816351,"is_transit":false,"time":1,"i_lat":-6.20132,"station_name":"Karet","transit":false,"station_id":"KAT","line":1},{"station_name":"Tanah Abang","is_transit":true,"transit":false,"i_lat":-6.185545,"i_long":106.811091,"time":5,"line":1,"distance":2029,"station_id":"THB"},{"distance":3632,"transit":true,"line":1,"station_id":"DU","station_name":"Duri","time":8,"i_lat":-6.155215,"is_transit":true,"i_long":106.800832},{"is_transit":false,"i_long":106.788277,"time":3,"i_lat":-6.162021,"line":5,"station_id":"GGL","distance":1700,"transit":false,"station_name":"Grogol"},{"is_transit":false,"station_id":"PSG","distance":2036,"i_long":106.771379,"line":5,"time":2,"i_lat":-6.161433,"transit":false,"station_name":"Pesing"},{"station_name":"Taman Kota","i_lat":-6.1587309999999995,"i_long":106.756522,"distance":1614,"time":2,"station_id":"TKO","transit":false,"line":5,"is_transit":false},{"line":0,"transit":false,"station_id":"BOI","time":2,"i_lat":-6.159876,"station_name":"Bojongindah","is_transit":false,"i_long":106.737035,"distance":2334},{"i_lat":-6.162758,"station_id":"RW","station_name":"Rawa Buaya","time":4,"distance":1152,"transit":false,"is_transit":false,"line":5,"i_long":106.723064}],[{"time":0,"distance":0,"line":2,"station_name":"Univ. Indonesia","i_long":106.831474,"station_id":"UI","is_transit":false,"transit":false,"i_lat":-6.360749},{"distance":2264,"i_lat":-6.339291,"station_id":"UP","transit":false,"station_name":"Univ. Pancasila","is_transit":false,"i_long":106.834175,"line":2,"time":3},{"station_name":"Lenteng Agung","i_lat":-6.330363,"i_long":106.832616,"line":2,"transit":false,"time":2,"station_id":"LNA","is_transit":false,"distance":1029},{"i_long":106.838896,"line":2,"station_name":"Tanjung Barat","is_transit":false,"station_id":"TNT","distance":2671,"i_lat":-6.3080680000000005,"transit":false,"time":3},{"time":4,"station_id":"PSM","distance":2820,"station_name":"Pasar Minggu","is_transit":false,"transit":false,"i_lat":-6.2842400000000005,"i_long":106.843999,"line":2},{"transit":false,"i_lat":-6.263214,"station_name":"Pasar Minggu Baru","line":2,"station_id":"PSMB","i_long":106.851577,"time":2,"is_transit":false,"distance":2380},{"time":2,"is_transit":false,"i_lat":-6.255332,"line":0,"transit":false,"distance":824,"i_long":106.85449,"station_id":"DRN","station_name":"Duren Kalibata"},{"station_id":"CW","station_name":"Cawang","is_transit":false,"transit":false,"line":0,"distance":1546,"time":3,"i_lat":-6.242512,"i_long":106.856607},{"is_transit":false,"station_name":"Tebet","i_lat":-6.226659,"distance":1230,"transit":false,"station_id":"TEB","i_long":106.857948,"time":2,"line":2},{"is_transit":true,"i_lat":-6.209883,"line":0,"station_name":"Manggarai","i_long":106.84912,"transit":true,"time":4,"station_id":"MRI","distance":2610},{"i_lat":-6.198556,"is_transit":false,"line":0,"distance":1590,"transit":false,"i_long":106.840169,"station_id":"CKI","station_name":"Cikini","time":4},{"station_id":"GDD","distance":1750,"line":2,"is_transit":false,"transit":false,"time":3,"i_long":106.832183,"station_name":"Gondangdia","i_lat":-6.186295},{"i_lat":-6.166716,"station_name":"Juanda","transit":false,"i_long":106.828284,"line":2,"distance":2015,"is_transit":false,"station_id":"JUA","time":4},{"station_id":"SW","transit":false,"is_transit":false,"time":2,"i_long":106.827103,"i_lat":-6.160725,"distance":1149,"station_name":"Sawah Besar","line":2},{"station_id":"MGB","time":2,"line":2,"station_name":"Manggabesar","transit":false,"distance":906,"i_long":106.82482,"is_transit":false,"i_lat":-6.149769},{"is_transit":false,"distance":1080,"transit":false,"line":7,"station_id":"JAY","i_lat":-6.141205,"station_name":"Jayakarta","i_long":106.820901,"time":2},{"line":0,"station_id":"JAKK","station_name":"Jakarta Kota","is_transit":true,"time":4,"distance":1264,"i_lat":-6.137569,"i_long":106.812439,"transit":true},{"station_name":"Kampung Bandan","i_long":106.826365,"is_transit":true,"transit":false,"line":0,"distance":1364,"i_lat":-6.132549,"station_id":"KPB","time":3},{"is_transit":false,"distance":4102,"line":0,"station_name":"Angke","station_id":"AK","time":9,"i_lat":-6.144674,"transit":false,"i_long":106.79867},{"transit":true,"is_transit":true,"station_id":"DU","i_lat":-6.155215,"station_name":"Duri","i_long":106.800832,"line":1,"distance":1230,"time":4},{"distance":1700,"transit":false,"station_id":"GGL","station_name":"Grogol","is_transit":false,"line":5,"i_lat":-6.162021,"time":3,"i_long":106.788277},{"station_id":"PSG","i_long":106.771379,"transit":false,"i_lat":-6.161433,"time":2,"is_transit":false,"distance":2036,"line":5,"station_name":"Pesing"},{"transit":false,"time":2,"distance":1614,"i_lat":-6.1587309999999995,"line":5,"station_id":"TKO","i_long":106.756522,"station_name":"Taman Kota","is_transit":false},{"distance":2334,"i_long":106.737035,"station_id":"BOI","station_name":"Bojongindah","line":0,"time":2,"i_lat":-6.159876,"transit":false,"is_transit":false},{"is_transit":false,"i_lat":-6.162758,"station_id":"RW","distance":1152,"time":4,"i_long":106.723064,"station_name":"Rawa Buaya","line":5,"transit":false}],[{"i_long":106.831474,"is_transit":false,"station_name":"Univ. Indonesia","station_id":"UI","time":0,"distance":0,"transit":false,"i_lat":-6.360749,"line":2},{"time":3,"distance":2264,"station_name":"Univ. Pancasila","line":2,"i_lat":-6.339291,"station_id":"UP","is_transit":false,"transit":false,"i_long":106.834175},{"is_transit":false,"station_id":"LNA","i_lat":-6.330363,"transit":false,"line":2,"time":2,"distance":1029,"i_long":106.832616,"station_name":"Lenteng Agung"},{"transit":false,"i_lat":-6.3080680000000005,"line":2,"time":3,"station_name":"Tanjung Barat","station_id":"TNT","i_long":106.838896,"is_transit":false,"distance":2671},{"distance":2820,"i_lat":-6.2842400000000005,"is_transit":false,"time":4,"line":2,"transit":false,"station_name":"Pasar Minggu","i_long":106.843999,"station_id":"PSM"},{"station_name":"Pasar Minggu Baru","i_lat":-6.263214,"is_transit":false,"i_long":106.851577,"station_id":"PSMB","distance":2380,"transit":false,"time":2,"line":2},{"distance":824,"station_id":"DRN","station_name":"Duren Kalibata","time":2,"is_transit":false,"i_lat":-6.255332,"transit":false,"i_long":106.85449,"line":0},{"station_id":"CW","transit":false,"time":3,"line":0,"distance":1546,"station_name":"Cawang","i_lat":-6.242512,"is_transit":false,"i_long":106.856607},{"distance":1230,"i_lat":-6.226659,"transit":false,"station_id":"TEB","station_name":"Tebet","is_transit":false,"line":2,"i_long":106.857948,"time":2},{"transit":true,"station_id":"MRI","i_lat":-6.209883,"time":4,"is_transit":true,"station_name":"Manggarai","distance":2610,"i_long":106.84912,"line":0},{"transit":false,"station_name":"Matraman","time":2,"line":1,"is_transit":false,"i_lat":-6.212485,"station_id":"MTR","distance":1275,"i_long":106.858896},{"station_name":"Jatinegara","station_id":"JNG","is_transit":true,"i_lat":-6.215091,"line":0,"i_long":106.86807400000001,"distance":1377,"transit":true,"time":8},{"station_id":"POK","distance":1236,"is_transit":false,"line":11,"time":2,"i_lat":-6.209188,"transit":false,"station_name":"Pondok Jati","i_long":106.861737},{"time":2,"i_lat":-6.193792,"station_name":"Kramat","i_long":106.855437,"is_transit":false,"station_id":"KMT","transit":false,"line":11,"distance":1829},{"distance":973,"time":1,"station_name":"Gang Sentiong","i_lat":-6.185975,"line":11,"station_id":"GST","is_transit":false,"i_long":106.850107,"transit":false},{"is_transit":false,"station_id":"PSE","time":8,"distance":1567,"transit":false,"i_lat":-6.174784,"i_long":106.84368,"station_name":"Pasar Senen","line":11},{"time":4,"line":11,"transit":false,"is_transit":false,"i_lat":-6.161728,"station_id":"KMO","station_name":"Kemayoran","distance":1436,"i_long":106.839204},{"station_id":"RJW","is_transit":false,"i_long":106.836569,"distance":1901,"line":11,"station_name":"Rajawali","i_lat":-6.14505,"time":5,"transit":false},{"station_id":"KPB","line":0,"is_transit":true,"transit":true,"i_long":106.826365,"time":3,"distance":1444,"station_name":"Kampung Bandan","i_lat":-6.132549},{"time":9,"transit":false,"is_transit":false,"line":0,"station_name":"Angke","distance":4102,"station_id":"AK","i_lat":-6.144674,"i_long":106.79867},{"i_lat":-6.155215,"i_long":106.800832,"line":1,"station_id":"DU","time":4,"transit":true,"is_transit":true,"distance":1230,"station_name":"Duri"},{"is_transit":false,"station_name":"Grogol","distance":1700,"transit":false,"i_lat":-6.162021,"station_id":"GGL","i_long":106.788277,"line":5,"time":3},{"is_transit":false,"station_name":"Pesing","distance":2036,"station_id":"PSG","i_long":106.771379,"transit":false,"i_lat":-6.161433,"line":5,"time":2},{"line":5,"distance":1614,"i_lat":-6.1587309999999995,"station_id":"TKO","is_transit":false,"time":2,"station_name":"Taman Kota","transit":false,"i_long":106.756522},{"transit":false,"station_id":"BOI","i_long":106.737035,"line":0,"time":2,"distance":2334,"is_transit":false,"station_name":"Bojongindah","i_lat":-6.159876},{"is_transit":false,"station_name":"Rawa Buaya","line":5,"time":4,"transit":false,"i_lat":-6.162758,"distance":1152,"station_id":"RW","i_long":106.723064}]]}