{"data":[[{"i_long":106.831474,"station_id":"UI","station_name":"Univ. Indonesia","distance":0,"is_transit":false,"i_lat":-6.360749,"time":0,"transit":false,"line":2},{"i_lat":-6.339291,"time":3,"i_long":106.834175,"distance":2264,"station_name":"Univ. Pancasila","is_transit":false,"station_id":"UP","transit":false,"line":2},{"line":2,"station_name":"Lenteng Agung","i_long":106.832616,"transit":false,"i_lat":-6.330363,"distance":1029,"time":2,"is_transit":false,"station_id":"LNA"},{"i_long":106.838896,"time":3,"station_name":"Tanjung Barat","distance":2671,"transit":false,"is_transit":false,"station_id":"TNT","line":2,"i_lat":-6.3080680000000005},{"is_transit":false,"transit":false,"i_lat":-6.2842400000000005,"distance":2820,"line":2,"time":4,"station_name":"Pasar Minggu","station_id":"PSM","i_long":106.843999},{"distance":2380,"time":2,"transit":false,"is_transit":false,"i_long":106.851577,"station_id":"PSMB","i_lat":-6.263214,"station_name":"Pasar Minggu Baru","line":2},{"line":2,"i_long":106.85449,"i_lat":-6.255332,"time":2,"is_transit":false,"transit":false,"distance":824,"station_name":"Duren Kalibata","station_id":"DRN"},{"distance":1546,"station_name":"Cawang","i_lat":-6.242512,"line":2,"station_id":"CW","is_transit":false,"transit":false,"i_long":106.856607,"time":3},{"time":2,"station_name":"Tebet","transit":false,"station_id":"TEB","i_lat":-6.226659,"i_long":106.857948,"is_transit":false,"line":2,"distance":1230},{"station_id":"MRI","i_long":106.84912,"is_transit":true,"time":4,"station_name":"Manggarai","i_lat":-6.209883,"distance":2610,"transit":true,"line":2},{"station_name":"Sudirman","i_lat":-6.202263,"distance":3186,"is_transit":false,"station_id":"SUD","time":4,"transit":false,"line":1,"i_long":106.822649},{"i_long":106.819881,"is_transit":false,"distance":280,"i_lat":-6.201433,"station_id":"SUDB","transit":false,"time":1,"station_name":"Sudirman Baru","line":1},{"line":1,"distance":471,"station_name":"Karet","station_id":"KAT","transit":false,"i_long":106.816351,"time":1,"is_transit":false,"i_lat":-6.20132},{"station_name":"Tanah Abang","i_long":106.811091,"distance":2029,"time":5,"is_transit":true,"i_lat":-6.185545,"line":1,"station_id":"THB","transit":true},{"station_id":"PLM","line":6,"time":6,"i_lat":-6.207404,"is_transit":false,"distance":3191,"station_name":"Palmerah","transit":false,"i_long":106.79689},{"is_transit":false,"station_id":"KBY","time":7,"line":6,"distance":3737,"i_long":106.780334,"transit":false,"i_lat":-6.237242,"station_name":"Kebayoran"},{"is_transit":false,"transit":false,"i_lat":-6.276362,"distance":6218,"station_id":"PDJ","station_name":"Pondokranji","time":8,"line":6,"i_long":106.74273},{"i_long":106.728916,"station_id":"JMU","transit":false,"distance":2179,"i_lat":-6.288927,"is_transit":false,"station_name":"Jurangmangu","line":6,"time":3},{"time":4,"is_transit":false,"transit":false,"line":6,"distance":1994,"station_id":"SDM","station_name":"Sudimara","i_lat":-6.296963,"i_long":106.712277},{"i_long":106.675475,"is_transit":false,"station_name":"Rawa Buntu","distance":4566,"time":6,"i_lat":-6.314823,"transit":false,"line":6,"station_id":"RU"}],[{"is_transit":false,"i_long":106.831474,"i_lat":-6.360749,"station_name":"Univ. Indonesia","line":2,"time":0,"distance":0,"station_id":"UI","transit":false},{"distance":2264,"station_id":"UP","is_transit":false,"transit":false,"station_name":"Univ. Pancasila","i_long":106.834175,"time":3,"i_lat":-6.339291,"line":2},{"distance":1029,"station_name":"Lenteng Agung","station_id":"LNA","is_transit":false,"i_long":106.832616,"i_lat":-6.330363,"time":2,"transit":false,"line":2},{"line":2,"time":3,"is_transit":false,"i_lat":-6.3080680000000005,"transit":false,"distance":2671,"station_id":"TNT","station_name":"Tanjung Barat","i_long":106.838896},{"distance":2820,"is_transit":false,"time":4,"i_lat":-6.2842400000000005,"i_long":106.843999,"transit":false,"line":2,"station_name":"Pasar Minggu","station_id":"PSM"},{"line":2,"distance":2380,"station_id":"PSMB","i_lat":-6.263214,"i_long":106.851577,"time":2,"is_transit":false,"transit":false,"station_name":"Pasar Minggu Baru"},{"i_long":106.85449,"i_lat":-6.255332,"time":2,"station_id":"DRN","is_transit":false,"distance":824,"line":2,"station_name":"Duren Kalibata","transit":false},{"time":3,"transit":false,"station_name":"Cawang","i_long":106.856607,"station_id":"CW","i_lat":-6.242512,"is_transit":false,"distance":1546,"line":2},{"station_id":"TEB","distance":1230,"i_lat":-6.226659,"time":2,"transit":false,"is_transit":false,"station_name":"Tebet","i_long":106.857948,"line":2},{"is_transit":false,"i_long":106.84912,"line":2,"time":4,"station_id":"MRI","distance":2610,"transit":false,"i_lat":-6.209883,"station_name":"Manggarai"},{"station_name":"Cikini","i_lat":-6.198556,"station_id":"CKI","transit":false,"i_long":106.840169,"line":2,"distance":1590,"is_transit":false,"time":4},{"station_name":"Gondangdia","i_lat":-6.186295,"station_id":"GDD","is_transit":false,"transit":false,"time":3,"i_long":106.832183,"line":2,"distance":1750},{"time":4,"line":2,"is_transit":false,"transit":false,"station_id":"JUA","i_lat":-6.166716,"i_long":106.828284,"station_name":"Juanda","distance":2015},{"is_transit":false,"i_long":106.827103,"station_id":"SW","line":2,"transit":false,"station_name":"Sawah Besar","i_lat":-6.160725,"distance":1149,"time":2},{"station_name":"Manggabesar","distance":906,"is_transit":false,"transit":false,"i_lat":-6.149769,"i_long":106.82482,"station_id":"MGB","line":2,"time":2},{"is_transit":false,"i_long":106.820901,"time":2,"transit":false,"line":2,"distance":1080,"i_lat":-6.141205,"station_id":"JAY","station_name":"Jayakarta"},{"line":2,"time":4,"i_long":106.812439,"i_lat":-6.137569,"distance":1264,"station_name":"Jakarta Kota","transit":true,"is_transit":true,"station_id":"JAKK"},{"distance":1364,"time":3,"station_id":"KPB","station_name":"Kampung Bandan","i_lat":-6.132549,"i_long":106.826365,"is_transit":true,"transit":true,"line":4},{"i_lat":-6.144674,"i_long":106.79867,"transit":false,"line":1,"time":9,"station_id":"AK","is_transit":false,"station_name":"Angke","distance":4102},{"transit":false,"i_lat":-6.155215,"distance":1230,"line":1,"station_id":"DU","i_long":106.800832,"time":4,"is_transit":false,"station_name":"Duri"},{"station_id":"THB","station_name":"Tanah Abang","is_transit":true,"distance":3632,"transit":true,"i_long":106.811091,"time":8,"line":1,"i_lat":-6.185545},{"i_long":106.79689,"is_transit":false,"line":6,"time":6,"station_id":"PLM","i_lat":-6.207404,"distance":3191,"station_name":"Palmerah","transit":false},{"distance":3737,"i_long":106.780334,"station_name":"Kebayoran","is_transit":false,"time":7,"i_lat":-6.237242,"station_id":"KBY","transit":false,"line":6},{"transit":false,"distance":6218,"station_id":"PDJ","i_long":106.74273,"station_name":"Pondokranji","line":6,"i_lat":-6.276362,"is_transit":false,"time":8},{"time":3,"is_transit":false,"station_name":"Jurangmangu","distance":2179,"i_long":106.728916,"line":6,"i_lat":-6.288927,"transit":false,"station_id":"JMU"},{"time":4,"distance":1994,"transit":false,"line":6,"is_transit":false,"station_name":"Sudimara","i_lat":-6.296963,"i_long":106.712277,"station_id":"SDM"},{"i_lat":-6.314823,"i_long":106.675475,"time":6,"distance":4566,"transit":false,"station_name":"Rawa Buntu","line":6,"is_transit":false,"station_id":"RU"}],[{"time":0,"transit":false,"distance":0,"is_transit":false,"i_lat":-6.360749,"station_id":"UI","station_name":"Univ. Indonesia","i_long":106.831474,"line":2},{"i_long":106.834175,"i_lat":-6.339291,"time":3,"station_name":"Univ. Pancasila","distance":2264,"line":2,"transit":false,"station_id":"UP","is_transit":false},{"station_name":"Lenteng Agung","is_transit":false,"i_lat":-6.330363,"time":2,"distance":1029,"station_id":"LNA","i_long":106.832616,"line":2,"transit":false},{"i_lat":-6.3080680000000005,"i_long":106.838896,"line":2,"station_id":"TNT","transit":false,"time":3,"station_name":"Tanjung Barat","distance":2671,"is_transit":false},{"time":4,"distance":2820,"i_lat":-6.2842400000000005,"station_id":"PSM","line":2,"is_transit":false,"station_name":"Pasar Minggu","transit":false,"i_long":106.843999},{"station_id":"PSMB","is_transit":false,"transit":false,"i_lat":-6.263214,"line":2,"time":2,"distance":2380,"station_name":"Pasar Minggu Baru","i_long":106.851577},{"i_long":106.85449,"line":2,"station_name":"Duren Kalibata","time":2,"station_id":"DRN","transit":false,"distance":824,"is_transit":false,"i_lat":-6.255332},{"station_name":"Cawang","line":2,"transit":false,"i_lat":-6.242512,"station_id":"CW","time":3,"is_transit":false,"distance":1546,"i_long":106.856607},{"i_lat":-6.226659,"line":2,"transit":false,"distance":1230,"i_long":106.857948,"is_transit":false,"station_name":"Tebet","time":2,"station_id":"TEB"},{"line":2,"i_lat":-6.209883,"is_transit":true,"station_id":"MRI","transit":true,"time":4,"distance":2610,"station_name":"Manggarai","i_long":106.84912},{"time":2,"distance":1275,"station_name":"Matraman","line":1,"i_lat":-6.212485,"is_transit":false,"transit":false,"station_id":"MTR","i_long":106.858896},{"station_name":"Jatinegara","i_lat":-6.215091,"i_long":106.86807400000001,"is_transit":true,"distance":1377,"line":1,"time":8,"transit":true,"station_id":"JNG"},{"line":11,"is_transit":false,"i_lat":-6.209188,"i_long":106.861737,"transit":false,"distance":1236,"station_id":"POK","station_name":"Pondok Jati","time":2},{"transit":false,"station_name":"Kramat","i_lat":-6.193792,"line":11,"time":2,"distance":1829,"is_transit":false,"i_long":106.855437,"station_id":"KMT"},{"time":1,"distance":973,"line":11,"transit":false,"i_long":106.850107,"station_id":"GST","is_transit":false,"station_name":"Gang Sentiong","i_lat":-6.185975},{"station_name":"Pasar Senen","i_long":106.84368,"time":8,"station_id":"PSE","distance":1567,"is_transit":false,"line":11,"transit":false,"i_lat":-6.174784},{"distance":1436,"station_id":"KMO","time":4,"is_transit":false,"station_name":"Kemayoran","i_long":106.839204,"i_lat":-6.161728,"line":11,"transit":false},{"i_long":106.836569,"time":5,"is_transit":false,"distance":1901,"station_name":"Rajawali","transit":false,"station_id":"RJW","line":11,"i_lat":-6.14505},{"station_name":"Kampung Bandan","time":3,"is_transit":true,"line":4,"station_id":"KPB","transit":true,"i_lat":-6.132549,"i_long":106.826365,"distance":1444},{"i_lat":-6.144674,"line":1,"i_long":106.79867,"time":9,"is_transit":false,"distance":4102,"station_id":"AK","transit":false,"station_name":"Angke"},{"distance":1230,"time":4,"is_transit":false,"station_id":"DU","transit":false,"line":1,"i_lat":-6.155215,"station_name":"Duri","i_long":106.800832},{"time":8,"line":1,"station_name":"Tanah Abang","i_lat":-6.185545,"station_id":"THB","transit":true,"is_transit":true,"i_long":106.811091,"distance":3632},{"line":6,"is_transit":false,"transit":false,"time":6,"distance":3191,"station_id":"PLM","i_long":106.79689,"i_lat":-6.207404,"station_name":"Palmerah"},{"time":7,"i_lat":-6.237242,"distance":3737,"station_id":"KBY","i_long":106.780334,"line":6,"is_transit":false,"transit":false,"station_name":"Kebayoran"},{"distance":6218,"i_lat":-6.276362,"station_name":"Pondokranji","station_id":"PDJ","i_long":106.74273,"time":8,"transit":false,"line":6,"is_transit":false},{"distance":2179,"station_name":"Jurangmangu","is_transit":false,"station_id":"JMU","i_lat":-6.288927,"i_long":106.728916,"line":6,"transit":false,"time":3},{"station_name":"Sudimara","time":4,"transit":false,"i_lat":-6.296963,"is_transit":false,"distance":1994,"i_long":106.712277,"station_id":"SDM","line":6},{"transit":false,"i_long":106.675475,"station_name":"Rawa Buntu","station_id":"RU","time":6,"line":6,"distance":4566,"is_transit":false,"i_lat":-6.314823}]]}