{"data":[[{"station_id":"UI","line":2,"station_name":"Univ. Indonesia","i_lat":-6.360749,"i_long":106.831474,"time":0,"distance":0,"transit":false,"is_transit":false},{"i_lat":-6.339291,"time":3,"distance":2264,"station_name":"Univ. Pancasila","is_transit":false,"transit":false,"i_long":106.834175,"line":2,"station_id":"UP"},{"station_id":"LNA","station_name":"Lenteng Agung","is_transit":false,"distance":1029,"line":2,"i_long":106.832616,"transit":false,"i_lat":-6.330363,"time":2},{"i_lat":-6.3080680000000005,"distance":2671,"station_id":"TNT","is_transit":false,"transit":false,"station_name":"Tanjung Barat","i_long":106.838896,"line":2,"time":3},{"transit":false,"line":2,"i_lat":-6.2842400000000005,"station_id":"PSM","i_long":106.843999,"distance":2820,"time":4,"station_name":"Pasar Minggu","is_transit":false},{"is_transit":false,"i_lat":-6.263214,"line":2,"time":2,"station_id":"PSMB","station_name":"Pasar Minggu Baru","transit":false,"i_long":106.851577,"distance":2380},{"i_long":106.85449,"is_transit":false,"line":2,"i_lat":-6.255332,"station_name":"Duren Kalibata","transit":false,"time":2,"station_id":"DRN","distance":824},{"distance":1546,"is_transit":false,"station_id":"CW","time":3,"i_lat":-6.242512,"i_long":106.856607,"transit":false,"station_name":"Cawang","line":2},{"station_name":"Tebet","is_transit":false,"time":2,"distance":1230,"station_id":"TEB","i_long":106.857948,"i_lat":-6.226659,"line":2,"transit":false},{"distance":2610,"line":2,"is_transit":true,"station_name":"Manggarai","i_lat":-6.209883,"station_id":"MRI","transit":true,"i_long":106.84912,"time":4},{"line":1,"station_name":"Sudirman","i_long":106.822649,"station_id":"SUD","i_lat":-6.202263,"is_transit":false,"transit":false,"distance":3186,"time":4},{"i_long":106.819881,"line":1,"time":1,"distance":280,"transit":false,"i_lat":-6.201433,"station_name":"Sudirman Baru","is_transit":false,"station_id":"SUDB"},{"i_lat":-6.20132,"time":1,"i_long":106.816351,"line":1,"is_transit":false,"station_name":"Karet","station_id":"KAT","distance":471,"transit":false},{"is_transit":false,"i_long":106.811091,"distance":2029,"station_name":"Tanah Abang","station_id":"THB","time":5,"i_lat":-6.185545,"line":1,"transit":false},{"i_lat":-6.155215,"station_name":"Duri","is_transit":true,"transit":true,"line":1,"time":8,"distance":3632,"i_long":106.800832,"station_id":"DU"},{"transit":false,"i_lat":-6.162021,"line":5,"i_long":106.788277,"distance":1700,"time":3,"station_name":"Grogol","station_id":"GGL","is_transit":false},{"distance":2036,"is_transit":false,"time":2,"line":5,"station_name":"Pesing","station_id":"PSG","transit":false,"i_lat":-6.161433,"i_long":106.771379},{"distance":1614,"transit":false,"i_lat":-6.1587309999999995,"line":5,"i_long":106.756522,"is_transit":false,"station_name":"Taman Kota","station_id":"TKO","time":2},{"i_lat":-6.159876,"station_id":"BOI","i_long":106.737035,"line":5,"transit":false,"station_name":"Bojongindah","is_transit":false,"time":2,"distance":2334},{"time":4,"station_id":"RW","distance":1152,"transit":false,"is_transit":false,"station_name":"Rawa Buaya","i_lat":-6.162758,"i_long":106.723064,"line":5}],[{"line":2,"transit":false,"distance":0,"station_id":"UI","is_transit":false,"station_name":"Univ. Indonesia","i_lat":-6.360749,"i_long":106.831474,"time":0},{"transit":false,"time":3,"station_name":"Univ. Pancasila","station_id":"UP","i_lat":-6.339291,"line":2,"is_transit":false,"i_long":106.834175,"distance":2264},{"station_id":"LNA","station_name":"Lenteng Agung","is_transit":false,"line":2,"i_lat":-6.330363,"transit":false,"time":2,"distance":1029,"i_long":106.832616},{"distance":2671,"station_id":"TNT","time":3,"is_transit":false,"station_name":"Tanjung Barat","line":2,"i_long":106.838896,"transit":false,"i_lat":-6.3080680000000005},{"distance":2820,"i_lat":-6.2842400000000005,"line":2,"is_transit":false,"station_id":"PSM","transit":false,"time":4,"i_long":106.843999,"station_name":"Pasar Minggu"},{"distance":2380,"time":2,"i_lat":-6.263214,"station_id":"PSMB","station_name":"Pasar Minggu Baru","line":2,"transit":false,"i_long":106.851577,"is_transit":false},{"station_name":"Duren Kalibata","i_lat":-6.255332,"station_id":"DRN","time":2,"is_transit":false,"distance":824,"transit":false,"i_long":106.85449,"line":2},{"line":2,"is_transit":false,"transit":false,"distance":1546,"i_lat":-6.242512,"station_id":"CW","time":3,"i_long":106.856607,"station_name":"Cawang"},{"station_id":"TEB","time":2,"station_name":"Tebet","is_transit":false,"transit":false,"line":2,"distance":1230,"i_long":106.857948,"i_lat":-6.226659},{"station_id":"MRI","station_name":"Manggarai","time":4,"transit":false,"line":2,"i_long":106.84912,"i_lat":-6.209883,"is_transit":false,"distance":2610},{"distance":1590,"station_name":"Cikini","line":2,"transit":false,"i_lat":-6.198556,"is_transit":false,"station_id":"CKI","i_long":106.840169,"time":4},{"is_transit":false,"time":3,"transit":false,"line":2,"i_long":106.832183,"station_name":"Gondangdia","distance":1750,"station_id":"GDD","i_lat":-6.186295},{"station_name":"Juanda","time":4,"i_long":106.828284,"i_lat":-6.166716,"distance":2015,"is_transit":false,"line":2,"transit":false,"station_id":"JUA"},{"is_transit":false,"distance":1149,"station_id":"SW","i_lat":-6.160725,"station_name":"Sawah Besar","time":2,"transit":false,"i_long":106.827103,"line":2},{"distance":906,"transit":false,"time":2,"station_name":"Manggabesar","i_long":106.82482,"station_id":"MGB","line":2,"i_lat":-6.149769,"is_transit":false},{"is_transit":false,"distance":1080,"station_id":"JAY","time":2,"line":2,"station_name":"Jayakarta","i_long":106.820901,"i_lat":-6.141205,"transit":false},{"i_lat":-6.137569,"line":2,"distance":1264,"time":4,"is_transit":true,"station_id":"JAKK","transit":true,"station_name":"Jakarta Kota","i_long":106.812439},{"station_name":"Kampung Bandan","i_long":106.826365,"transit":true,"is_transit":true,"station_id":"KPB","time":3,"distance":1364,"i_lat":-6.132549,"line":4},{"distance":4102,"i_lat":-6.144674,"is_transit":false,"i_long":106.79867,"transit":false,"station_id":"AK","time":9,"station_name":"Angke","line":1},{"i_lat":-6.155215,"distance":1230,"line":1,"i_long":106.800832,"station_id":"DU","time":4,"station_name":"Duri","is_transit":true,"transit":true},{"time":3,"station_id":"GGL","station_name":"Grogol","transit":false,"i_long":106.788277,"line":5,"is_transit":false,"distance":1700,"i_lat":-6.162021},{"transit":false,"time":2,"i_lat":-6.161433,"i_long":106.771379,"line":5,"station_name":"Pesing","distance":2036,"is_transit":false,"station_id":"PSG"},{"distance":1614,"line":5,"station_id":"TKO","time":2,"transit":false,"i_lat":-6.1587309999999995,"is_transit":false,"station_name":"Taman Kota","i_long":106.756522},{"distance":2334,"i_long":106.737035,"station_id":"BOI","i_lat":-6.159876,"station_name":"Bojongindah","is_transit":false,"line":5,"time":2,"transit":false},{"time":4,"i_long":106.723064,"line":5,"station_id":"RW","distance":1152,"station_name":"Rawa Buaya","transit":false,"is_transit":false,"i_lat":-6.162758}],[{"distance":0,"i_long":106.831474,"station_name":"Univ. Indonesia","is_transit":false,"time":0,"line":2,"transit":false,"i_lat":-6.360749,"station_id":"UI"},{"time":3,"station_name":"Univ. Pancasila","line":2,"i_long":106.834175,"transit":false,"station_id":"UP","distance":2264,"is_transit":false,"i_lat":-6.339291},{"time":2,"is_transit":false,"distance":1029,"station_id":"LNA","station_name":"Lenteng Agung","transit":false,"i_long":106.832616,"line":2,"i_lat":-6.330363},{"time":3,"transit":false,"station_id":"TNT","station_name":"Tanjung Barat","i_lat":-6.3080680000000005,"is_transit":false,"distance":2671,"i_long":106.838896,"line":2},{"time":4,"station_id":"PSM","is_transit":false,"station_name":"Pasar Minggu","distance":2820,"transit":false,"i_long":106.843999,"i_lat":-6.2842400000000005,"line":2},{"station_name":"Pasar Minggu Baru","station_id":"PSMB","i_lat":-6.263214,"line":2,"distance":2380,"i_long":106.851577,"time":2,"transit":false,"is_transit":false},{"line":2,"i_lat":-6.255332,"transit":false,"distance":824,"station_id":"DRN","time":2,"station_name":"Duren Kalibata","i_long":106.85449,"is_transit":false},{"station_id":"CW","distance":1546,"is_transit":false,"transit":false,"station_name":"Cawang","line":2,"time":3,"i_lat":-6.242512,"i_long":106.856607},{"line":2,"i_lat":-6.226659,"station_id":"TEB","time":2,"transit":false,"distance":1230,"i_long":106.857948,"station_name":"Tebet","is_transit":false},{"i_lat":-6.209883,"station_name":"Manggarai","i_long":106.84912,"time":4,"line":2,"station_id":"MRI","transit":true,"is_transit":true,"distance":2610},{"line":1,"transit":false,"station_name":"Matraman","i_lat":-6.212485,"i_long":106.858896,"station_id":"MTR","time":2,"distance":1275,"is_transit":false},{"distance":1377,"line":1,"transit":true,"time":8,"station_name":"Jatinegara","station_id":"JNG","is_transit":true,"i_lat":-6.215091,"i_long":106.86807400000001},{"transit":false,"is_transit":false,"i_lat":-6.209188,"i_long":106.861737,"station_id":"POK","station_name":"Pondok Jati","line":11,"distance":1236,"time":2},{"i_long":106.855437,"distance":1829,"line":11,"time":2,"i_lat":-6.193792,"transit":false,"station_name":"Kramat","station_id":"KMT","is_transit":false},{"is_transit":false,"transit":false,"station_id":"GST","i_lat":-6.185975,"distance":973,"time":1,"i_long":106.850107,"station_name":"Gang Sentiong","line":11},{"time":8,"station_name":"Pasar Senen","i_long":106.84368,"line":11,"transit":false,"is_transit":false,"distance":1567,"i_lat":-6.174784,"station_id":"PSE"},{"station_id":"KMO","time":4,"station_name":"Kemayoran","i_long":106.839204,"transit":false,"distance":1436,"line":11,"is_transit":false,"i_lat":-6.161728},{"transit":false,"line":11,"is_transit":false,"i_long":106.836569,"station_id":"RJW","i_lat":-6.14505,"station_name":"Rajawali","distance":1901,"time":5},{"i_lat":-6.132549,"time":3,"i_long":106.826365,"line":4,"station_name":"Kampung Bandan","distance":1444,"station_id":"KPB","transit":true,"is_transit":true},{"i_long":106.79867,"is_transit":false,"distance":4102,"transit":false,"i_lat":-6.144674,"station_name":"Angke","line":1,"time":9,"station_id":"AK"},{"distance":1230,"line":1,"station_name":"Duri","is_transit":true,"station_id":"DU","i_lat":-6.155215,"time":4,"transit":true,"i_long":106.800832},{"station_id":"GGL","distance":1700,"station_name":"Grogol","i_long":106.788277,"line":5,"i_lat":-6.162021,"time":3,"is_transit":false,"transit":false},{"transit":false,"distance":2036,"i_long":106.771379,"i_lat":-6.161433,"line":5,"station_name":"Pesing","is_transit":false,"station_id":"PSG","time":2},{"time":2,"transit":false,"distance":1614,"is_transit":false,"i_long":106.756522,"i_lat":-6.1587309999999995,"station_id":"TKO","station_name":"Taman Kota","line":5},{"station_id":"BOI","i_lat":-6.159876,"station_name":"Bojongindah","distance":2334,"time":2,"transit":false,"i_long":106.737035,"line":5,"is_transit":false},{"i_long":106.723064,"line":5,"station_name":"Rawa Buaya","station_id":"RW","transit":false,"distance":1152,"time":4,"is_transit":false,"i_lat":-6.162758}]]}