{"data":[[{"time":0,"i_long":106.831474,"line":2,"station_id":"UI","distance":0,"transit":false,"is_transit":false,"i_lat":-6.360749,"station_name":"Univ. Indonesia"},{"line":2,"station_id":"UP","distance":2264,"time":3,"i_lat":-6.339291,"transit":false,"i_long":106.834175,"station_name":"Univ. Pancasila","is_transit":false},{"station_name":"Lenteng Agung","is_transit":false,"transit":false,"line":2,"station_id":"LNA","i_lat":-6.330363,"distance":1029,"time":2,"i_long":106.832616},{"time":3,"distance":2671,"i_long":106.838896,"line":2,"station_name":"Tanjung Barat","is_transit":false,"station_id":"TNT","transit":false,"i_lat":-6.3080680000000005},{"transit":false,"is_transit":false,"i_lat":-6.2842400000000005,"distance":2820,"time":4,"i_long":106.843999,"line":2,"station_id":"PSM","station_name":"Pasar Minggu"},{"line":2,"distance":2380,"station_name":"Pasar Minggu Baru","time":2,"station_id":"PSMB","transit":false,"i_lat":-6.263214,"is_transit":false,"i_long":106.851577},{"distance":824,"i_long":106.85449,"transit":false,"time":2,"station_name":"Duren Kalibata","is_transit":false,"line":0,"station_id":"DRN","i_lat":-6.255332},{"i_lat":-6.242512,"line":0,"i_long":106.856607,"transit":false,"is_transit":false,"station_name":"Cawang","station_id":"CW","time":3,"distance":1546},{"line":2,"station_id":"TEB","station_name":"Tebet","time":2,"transit":false,"is_transit":false,"distance":1230,"i_lat":-6.226659,"i_long":106.857948},{"is_transit":true,"station_id":"MRI","transit":true,"i_long":106.84912,"i_lat":-6.209883,"distance":2610,"station_name":"Manggarai","time":4,"line":0},{"line":1,"station_id":"SUD","is_transit":false,"distance":3186,"station_name":"Sudirman","time":4,"i_long":106.822649,"i_lat":-6.202263,"transit":false},{"station_id":"SUDB","station_name":"Sudirman Baru","is_transit":false,"distance":280,"time":1,"line":1,"transit":false,"i_lat":-6.201433,"i_long":106.819881},{"station_name":"Karet","station_id":"KAT","time":1,"distance":471,"line":1,"i_lat":-6.20132,"is_transit":false,"transit":false,"i_long":106.816351},{"station_name":"Tanah Abang","time":5,"station_id":"THB","transit":true,"is_transit":true,"i_long":106.811091,"line":1,"distance":2029,"i_lat":-6.185545},{"station_id":"PLM","distance":3191,"i_lat":-6.207404,"station_name":"Palmerah","transit":false,"is_transit":false,"line":6,"i_long":106.79689,"time":6},{"station_id":"KBY","i_long":106.780334,"station_name":"Kebayoran","line":6,"time":7,"distance":3737,"transit":false,"i_lat":-6.237242,"is_transit":false},{"transit":false,"i_long":106.74273,"line":6,"distance":6218,"station_id":"PDJ","station_name":"Pondokranji","is_transit":false,"time":8,"i_lat":-6.276362},{"is_transit":false,"i_long":106.728916,"line":6,"station_id":"JMU","station_name":"Jurangmangu","i_lat":-6.288927,"time":3,"distance":2179,"transit":false},{"line":6,"distance":1994,"station_name":"Sudimara","time":4,"i_long":106.712277,"station_id":"SDM","transit":false,"i_lat":-6.296963,"is_transit":false}],[{"distance":0,"transit":false,"i_long":106.831474,"i_lat":-6.360749,"line":2,"is_transit":false,"time":0,"station_name":"Univ. Indonesia","station_id":"UI"},{"time":3,"distance":2264,"i_long":106.834175,"transit":false,"station_name":"Univ. Pancasila","i_lat":-6.339291,"is_transit":false,"line":2,"station_id":"UP"},{"station_id":"LNA","i_lat":-6.330363,"line":2,"transit":false,"i_long":106.832616,"is_transit":false,"station_name":"Lenteng Agung","time":2,"distance":1029},{"station_id":"TNT","station_name":"Tanjung Barat","is_transit":false,"time":3,"i_lat":-6.3080680000000005,"distance":2671,"line":2,"i_long":106.838896,"transit":false},{"is_transit":false,"i_lat":-6.2842400000000005,"time":4,"transit":false,"station_id":"PSM","line":2,"station_name":"Pasar Minggu","distance":2820,"i_long":106.843999},{"is_transit":false,"station_name":"Pasar Minggu Baru","i_long":106.851577,"time":2,"i_lat":-6.263214,"transit":false,"station_id":"PSMB","distance":2380,"line":2},{"distance":824,"line":0,"transit":false,"i_lat":-6.255332,"is_transit":false,"station_id":"DRN","i_long":106.85449,"station_name":"Duren Kalibata","time":2},{"i_lat":-6.242512,"station_id":"CW","station_name":"Cawang","is_transit":false,"transit":false,"distance":1546,"i_long":106.856607,"line":0,"time":3},{"transit":false,"i_long":106.857948,"i_lat":-6.226659,"station_name":"Tebet","station_id":"TEB","time":2,"is_transit":false,"distance":1230,"line":2},{"line":0,"station_id":"MRI","station_name":"Manggarai","distance":2610,"transit":true,"time":4,"i_lat":-6.209883,"i_long":106.84912,"is_transit":true},{"i_long":106.840169,"time":4,"transit":false,"is_transit":false,"station_id":"CKI","i_lat":-6.198556,"line":0,"station_name":"Cikini","distance":1590},{"line":2,"station_name":"Gondangdia","station_id":"GDD","is_transit":false,"i_lat":-6.186295,"time":3,"transit":false,"distance":1750,"i_long":106.832183},{"distance":2015,"i_long":106.828284,"transit":false,"station_name":"Juanda","is_transit":false,"station_id":"JUA","time":4,"line":2,"i_lat":-6.166716},{"time":2,"distance":1149,"transit":false,"is_transit":false,"station_id":"SW","station_name":"Sawah Besar","i_long":106.827103,"i_lat":-6.160725,"line":2},{"station_name":"Manggabesar","is_transit":false,"i_lat":-6.149769,"line":2,"distance":906,"time":2,"i_long":106.82482,"station_id":"MGB","transit":false},{"i_lat":-6.141205,"transit":false,"station_name":"Jayakarta","distance":1080,"i_long":106.820901,"time":2,"line":7,"is_transit":false,"station_id":"JAY"},{"line":0,"distance":1264,"transit":true,"i_long":106.812439,"station_name":"Jakarta Kota","time":4,"i_lat":-6.137569,"station_id":"JAKK","is_transit":true},{"station_name":"Kampung Bandan","is_transit":true,"time":3,"distance":1364,"i_lat":-6.132549,"station_id":"KPB","transit":false,"i_long":106.826365,"line":0},{"line":0,"station_id":"AK","is_transit":false,"i_long":106.79867,"distance":4102,"i_lat":-6.144674,"time":9,"transit":false,"station_name":"Angke"},{"line":1,"station_id":"DU","time":4,"i_lat":-6.155215,"i_long":106.800832,"is_transit":true,"distance":1230,"transit":true,"station_name":"Duri"},{"distance":3632,"line":1,"i_long":106.811091,"is_transit":true,"transit":true,"station_name":"Tanah Abang","i_lat":-6.185545,"station_id":"THB","time":8},{"transit":false,"time":6,"station_id":"PLM","is_transit":false,"i_long":106.79689,"station_name":"Palmerah","i_lat":-6.207404,"distance":3191,"line":6},{"line":6,"station_id":"KBY","distance":3737,"time":7,"is_transit":false,"i_lat":-6.237242,"i_long":106.780334,"station_name":"Kebayoran","transit":false},{"i_long":106.74273,"time":8,"line":6,"station_name":"Pondokranji","transit":false,"station_id":"PDJ","is_transit":false,"distance":6218,"i_lat":-6.276362},{"time":3,"station_id":"JMU","i_lat":-6.288927,"line":6,"transit":false,"distance":2179,"station_name":"Jurangmangu","is_transit":false,"i_long":106.728916},{"i_long":106.712277,"line":6,"transit":false,"distance":1994,"station_id":"SDM","time":4,"i_lat":-6.296963,"station_name":"Sudimara","is_transit":false}],[{"line":2,"station_id":"UI","i_long":106.831474,"i_lat":-6.360749,"time":0,"station_name":"Univ. Indonesia","distance":0,"transit":false,"is_transit":false},{"station_id":"UP","time":3,"line":2,"transit":false,"i_long":106.834175,"station_name":"Univ. Pancasila","distance":2264,"i_lat":-6.339291,"is_transit":false},{"is_transit":false,"time":2,"station_id":"LNA","transit":false,"i_lat":-6.330363,"i_long":106.832616,"line":2,"station_name":"Lenteng Agung","distance":1029},{"station_id":"TNT","i_long":106.838896,"distance":2671,"is_transit":false,"station_name":"Tanjung Barat","i_lat":-6.3080680000000005,"time":3,"line":2,"transit":false},{"transit":false,"station_name":"Pasar Minggu","line":2,"time":4,"distance":2820,"is_transit":false,"i_long":106.843999,"i_lat":-6.2842400000000005,"station_id":"PSM"},{"is_transit":false,"time":2,"distance":2380,"i_long":106.851577,"i_lat":-6.263214,"line":2,"station_id":"PSMB","station_name":"Pasar Minggu Baru","transit":false},{"station_id":"DRN","time":2,"station_name":"Duren Kalibata","is_transit":false,"distance":824,"i_lat":-6.255332,"transit":false,"i_long":106.85449,"line":0},{"time":3,"station_id":"CW","transit":false,"i_lat":-6.242512,"i_long":106.856607,"is_transit":false,"line":0,"station_name":"Cawang","distance":1546},{"time":2,"i_lat":-6.226659,"distance":1230,"transit":false,"is_transit":false,"line":2,"station_id":"TEB","station_name":"Tebet","i_long":106.857948},{"station_name":"Manggarai","line":0,"time":4,"is_transit":true,"station_id":"MRI","distance":2610,"transit":true,"i_long":106.84912,"i_lat":-6.209883},{"station_name":"Matraman","is_transit":false,"transit":false,"i_lat":-6.212485,"station_id":"MTR","i_long":106.858896,"line":1,"distance":1275,"time":2},{"is_transit":true,"station_name":"Jatinegara","station_id":"JNG","i_lat":-6.215091,"transit":true,"distance":1377,"i_long":106.86807400000001,"time":8,"line":0},{"i_lat":-6.209188,"is_transit":false,"line":11,"station_name":"Pondok Jati","station_id":"POK","distance":1236,"i_long":106.861737,"transit":false,"time":2},{"time":2,"i_lat":-6.193792,"station_id":"KMT","distance":1829,"line":11,"transit":false,"i_long":106.855437,"is_transit":false,"station_name":"Kramat"},{"station_id":"GST","distance":973,"station_name":"Gang Sentiong","i_long":106.850107,"line":11,"is_transit":false,"time":1,"i_lat":-6.185975,"transit":false},{"is_transit":false,"time":8,"distance":1567,"i_lat":-6.174784,"line":11,"station_name":"Pasar Senen","transit":false,"station_id":"PSE","i_long":106.84368},{"line":11,"transit":false,"is_transit":false,"distance":1436,"station_name":"Kemayoran","i_lat":-6.161728,"station_id":"KMO","time":4,"i_long":106.839204},{"station_name":"Rajawali","transit":false,"i_lat":-6.14505,"station_id":"RJW","time":5,"is_transit":false,"i_long":106.836569,"line":11,"distance":1901},{"line":0,"time":3,"station_name":"Kampung Bandan","station_id":"KPB","distance":1444,"i_lat":-6.132549,"transit":true,"i_long":106.826365,"is_transit":true},{"station_id":"AK","time":9,"transit":false,"line":0,"distance":4102,"i_lat":-6.144674,"i_long":106.79867,"is_transit":false,"station_name":"Angke"},{"is_transit":true,"distance":1230,"station_id":"DU","line":1,"transit":true,"i_lat":-6.155215,"i_long":106.800832,"station_name":"Duri","time":4},{"distance":3632,"is_transit":true,"i_long":106.811091,"line":1,"time":8,"station_id":"THB","station_name":"Tanah Abang","i_lat":-6.185545,"transit":true},{"station_name":"Palmerah","station_id":"PLM","transit":false,"is_transit":false,"time":6,"distance":3191,"i_lat":-6.207404,"i_long":106.79689,"line":6},{"i_lat":-6.237242,"is_transit":false,"station_id":"KBY","transit":false,"distance":3737,"i_long":106.780334,"station_name":"Kebayoran","line":6,"time":7},{"time":8,"i_lat":-6.276362,"station_id":"PDJ","line":6,"i_long":106.74273,"transit":false,"is_transit":false,"station_name":"Pondokranji","distance":6218},{"is_transit":false,"station_id":"JMU","station_name":"Jurangmangu","distance":2179,"i_long":106.728916,"line":6,"transit":false,"i_lat":-6.288927,"time":3},{"is_transit":false,"transit":false,"time":4,"distance":1994,"station_name":"Sudimara","station_id":"SDM","i_lat":-6.296963,"line":6,"i_long":106.712277}]]}