{"data":[[{"station_id":"UI","distance":0,"i_long":106.831474,"line":2,"transit":false,"station_name":"Univ. Indonesia","time":0,"is_transit":false,"i_lat":-6.360749},{"time":3,"distance":2264,"i_long":106.834175,"station_id":"UP","is_transit":false,"line":2,"station_name":"Univ. Pancasila","transit":false,"i_lat":-6.339291},{"distance":1029,"i_long":106.832616,"transit":false,"station_id":"LNA","time":2,"line":2,"i_lat":-6.330363,"is_transit":false,"station_name":"Lenteng Agung"},{"transit":false,"station_id":"TNT","is_transit":false,"distance":2671,"time":3,"station_name":"Tanjung Barat","i_long":106.838896,"i_lat":-6.3080680000000005,"line":2},{"station_id":"PSM","i_long":106.843999,"station_name":"Pasar Minggu","time":4,"i_lat":-6.2842400000000005,"distance":2820,"transit":false,"is_transit":false,"line":2},{"station_id":"PSMB","i_long":106.851577,"transit":false,"time":2,"is_transit":false,"line":2,"distance":2380,"station_name":"Pasar Minggu Baru","i_lat":-6.263214},{"time":2,"transit":false,"i_long":106.85449,"is_transit":false,"station_id":"DRN","station_name":"Duren Kalibata","line":2,"distance":824,"i_lat":-6.255332},{"distance":1546,"i_lat":-6.242512,"transit":false,"station_name":"Cawang","is_transit":false,"line":2,"time":3,"station_id":"CW","i_long":106.856607},{"line":2,"station_name":"Tebet","is_transit":false,"time":2,"distance":1230,"transit":false,"i_long":106.857948,"station_id":"TEB","i_lat":-6.226659},{"line":2,"is_transit":false,"distance":2610,"i_lat":-6.209883,"station_id":"MRI","i_long":106.84912,"time":4,"transit":false,"station_name":"Manggarai"},{"time":4,"transit":false,"i_long":106.840169,"i_lat":-6.198556,"is_transit":false,"station_name":"Cikini","station_id":"CKI","distance":1590,"line":2},{"is_transit":false,"time":3,"transit":false,"station_name":"Gondangdia","i_long":106.832183,"i_lat":-6.186295,"station_id":"GDD","line":2,"distance":1750},{"is_transit":false,"distance":2015,"time":4,"station_id":"JUA","station_name":"Juanda","i_lat":-6.166716,"i_long":106.828284,"line":2,"transit":false},{"i_long":106.827103,"station_id":"SW","is_transit":false,"transit":false,"i_lat":-6.160725,"station_name":"Sawah Besar","distance":1149,"time":2,"line":2}],[{"i_long":106.831474,"station_id":"UI","i_lat":-6.360749,"time":0,"is_transit":false,"distance":0,"station_name":"Univ. Indonesia","line":2,"transit":false},{"i_long":106.834175,"line":2,"station_name":"Univ. Pancasila","time":3,"distance":2264,"i_lat":-6.339291,"transit":false,"station_id":"UP","is_transit":false},{"transit":false,"distance":1029,"time":2,"station_id":"LNA","i_long":106.832616,"is_transit":false,"station_name":"Lenteng Agung","line":2,"i_lat":-6.330363},{"time":3,"line":2,"i_long":106.838896,"station_name":"Tanjung Barat","i_lat":-6.3080680000000005,"transit":false,"is_transit":false,"distance":2671,"station_id":"TNT"},{"distance":2820,"station_id":"PSM","line":2,"i_lat":-6.2842400000000005,"time":4,"is_transit":false,"transit":false,"i_long":106.843999,"station_name":"Pasar Minggu"},{"line":2,"station_name":"Pasar Minggu Baru","i_long":106.851577,"transit":false,"is_transit":false,"time":2,"station_id":"PSMB","distance":2380,"i_lat":-6.263214},{"i_long":106.85449,"time":2,"distance":824,"line":2,"is_transit":false,"transit":false,"station_name":"Duren Kalibata","station_id":"DRN","i_lat":-6.255332},{"i_lat":-6.242512,"is_transit":false,"time":3,"transit":false,"station_id":"CW","i_long":106.856607,"station_name":"Cawang","distance":1546,"line":2},{"i_lat":-6.226659,"station_id":"TEB","station_name":"Tebet","time":2,"i_long":106.857948,"line":2,"is_transit":false,"distance":1230,"transit":false},{"i_long":106.84912,"distance":2610,"is_transit":true,"time":4,"station_id":"MRI","station_name":"Manggarai","line":2,"transit":true,"i_lat":-6.209883},{"line":1,"transit":false,"distance":3186,"station_id":"SUD","time":4,"station_name":"Sudirman","is_transit":false,"i_lat":-6.202263,"i_long":106.822649},{"is_transit":false,"time":1,"i_long":106.819881,"station_name":"Sudirman Baru","station_id":"SUDB","transit":false,"distance":280,"i_lat":-6.201433,"line":1},{"line":1,"distance":471,"transit":false,"i_long":106.816351,"is_transit":false,"station_id":"KAT","i_lat":-6.20132,"time":1,"station_name":"Karet"},{"station_id":"THB","distance":2029,"i_lat":-6.185545,"station_name":"Tanah Abang","i_long":106.811091,"is_transit":false,"time":5,"transit":false,"line":1},{"time":8,"i_long":106.800832,"distance":3632,"line":1,"transit":false,"station_id":"DU","is_transit":false,"i_lat":-6.155215,"station_name":"Duri"},{"is_transit":false,"i_long":106.79867,"line":1,"station_name":"Angke","i_lat":-6.144674,"distance":1230,"station_id":"AK","transit":false,"time":4},{"distance":4102,"i_lat":-6.132549,"station_name":"Kampung Bandan","time":9,"is_transit":true,"i_long":106.826365,"station_id":"KPB","transit":true,"line":4},{"i_long":106.812439,"station_id":"JAKK","is_transit":true,"time":3,"distance":1364,"transit":true,"station_name":"Jakarta Kota","i_lat":-6.137569,"line":2},{"line":2,"i_long":106.820901,"time":4,"i_lat":-6.141205,"is_transit":false,"station_id":"JAY","distance":1264,"station_name":"Jayakarta","transit":false},{"station_id":"MGB","distance":1080,"transit":false,"station_name":"Manggabesar","is_transit":false,"time":2,"line":2,"i_long":106.82482,"i_lat":-6.149769},{"is_transit":false,"time":2,"station_id":"SW","i_long":106.827103,"station_name":"Sawah Besar","transit":false,"distance":906,"i_lat":-6.160725,"line":2}],[{"is_transit":false,"station_id":"UI","i_long":106.831474,"line":2,"i_lat":-6.360749,"distance":0,"transit":false,"time":0,"station_name":"Univ. Indonesia"},{"time":3,"i_lat":-6.339291,"line":2,"station_name":"Univ. Pancasila","distance":2264,"station_id":"UP","transit":false,"i_long":106.834175,"is_transit":false},{"i_lat":-6.330363,"i_long":106.832616,"line":2,"is_transit":false,"station_id":"LNA","time":2,"station_name":"Lenteng Agung","distance":1029,"transit":false},{"station_id":"TNT","transit":false,"i_long":106.838896,"line":2,"time":3,"i_lat":-6.3080680000000005,"distance":2671,"is_transit":false,"station_name":"Tanjung Barat"},{"distance":2820,"i_lat":-6.2842400000000005,"time":4,"line":2,"is_transit":false,"transit":false,"station_name":"Pasar Minggu","station_id":"PSM","i_long":106.843999},{"time":2,"station_name":"Pasar Minggu Baru","is_transit":false,"station_id":"PSMB","line":2,"distance":2380,"transit":false,"i_long":106.851577,"i_lat":-6.263214},{"i_long":106.85449,"distance":824,"i_lat":-6.255332,"line":2,"time":2,"is_transit":false,"station_name":"Duren Kalibata","station_id":"DRN","transit":false},{"i_long":106.856607,"is_transit":false,"line":2,"distance":1546,"station_name":"Cawang","time":3,"i_lat":-6.242512,"station_id":"CW","transit":false},{"i_long":106.857948,"is_transit":false,"station_id":"TEB","transit":false,"i_lat":-6.226659,"line":2,"distance":1230,"station_name":"Tebet","time":2},{"time":4,"transit":true,"station_id":"MRI","is_transit":true,"station_name":"Manggarai","i_long":106.84912,"distance":2610,"i_lat":-6.209883,"line":2},{"station_id":"MTR","time":2,"i_long":106.858896,"line":1,"station_name":"Matraman","transit":false,"i_lat":-6.212485,"is_transit":false,"distance":1275},{"distance":1377,"is_transit":true,"station_id":"JNG","station_name":"Jatinegara","i_lat":-6.215091,"i_long":106.86807400000001,"line":1,"transit":true,"time":8},{"i_lat":-6.209188,"i_long":106.861737,"transit":false,"time":2,"station_name":"Pondok Jati","line":11,"station_id":"POK","is_transit":false,"distance":1236},{"station_id":"KMT","line":11,"i_long":106.855437,"transit":false,"i_lat":-6.193792,"station_name":"Kramat","time":2,"is_transit":false,"distance":1829},{"transit":false,"i_lat":-6.185975,"time":1,"distance":973,"station_name":"Gang Sentiong","station_id":"GST","is_transit":false,"i_long":106.850107,"line":11},{"i_lat":-6.174784,"station_name":"Pasar Senen","is_transit":false,"line":11,"transit":false,"i_long":106.84368,"time":8,"distance":1567,"station_id":"PSE"},{"is_transit":false,"time":4,"i_lat":-6.161728,"line":11,"i_long":106.839204,"station_name":"Kemayoran","transit":false,"distance":1436,"station_id":"KMO"},{"time":5,"station_name":"Rajawali","transit":false,"is_transit":false,"i_lat":-6.14505,"i_long":106.836569,"station_id":"RJW","line":11,"distance":1901},{"station_name":"Kampung Bandan","station_id":"KPB","time":3,"is_transit":true,"i_lat":-6.132549,"distance":1444,"transit":true,"i_long":106.826365,"line":4},{"is_transit":true,"distance":1364,"line":2,"station_name":"Jakarta Kota","i_long":106.812439,"transit":true,"station_id":"JAKK","i_lat":-6.137569,"time":3},{"station_id":"JAY","distance":1264,"is_transit":false,"i_lat":-6.141205,"line":2,"station_name":"Jayakarta","time":4,"transit":false,"i_long":106.820901},{"transit":false,"station_name":"Manggabesar","i_long":106.82482,"station_id":"MGB","line":2,"i_lat":-6.149769,"distance":1080,"is_transit":false,"time":2},{"i_long":106.827103,"station_name":"Sawah Besar","line":2,"i_lat":-6.160725,"time":2,"transit":false,"station_id":"SW","is_transit":false,"distance":906}]]}