{"data":[[{"time":0,"distance":0,"transit":false,"station_id":"UI","station_name":"Univ. Indonesia","is_transit":false,"i_lat":-6.360749,"line":2,"i_long":106.831474},{"distance":2264,"station_id":"UP","time":3,"station_name":"Univ. Pancasila","line":2,"i_lat":-6.339291,"is_transit":false,"transit":false,"i_long":106.834175},{"station_name":"Lenteng Agung","transit":false,"line":2,"distance":1029,"station_id":"LNA","time":2,"is_transit":false,"i_lat":-6.330363,"i_long":106.832616},{"transit":false,"i_long":106.838896,"line":2,"time":3,"i_lat":-6.3080680000000005,"is_transit":false,"station_id":"TNT","station_name":"Tanjung Barat","distance":2671},{"is_transit":false,"station_name":"Pasar Minggu","i_long":106.843999,"transit":false,"line":2,"i_lat":-6.2842400000000005,"time":4,"distance":2820,"station_id":"PSM"},{"transit":false,"i_long":106.851577,"line":2,"time":2,"station_id":"PSMB","i_lat":-6.263214,"distance":2380,"station_name":"Pasar Minggu Baru","is_transit":false},{"distance":824,"time":2,"station_id":"DRN","line":2,"transit":false,"station_name":"Duren Kalibata","i_lat":-6.255332,"i_long":106.85449,"is_transit":false},{"distance":1546,"i_lat":-6.242512,"line":2,"time":3,"is_transit":false,"station_id":"CW","transit":false,"i_long":106.856607,"station_name":"Cawang"},{"i_long":106.857948,"distance":1230,"station_id":"TEB","time":2,"is_transit":false,"transit":false,"line":2,"station_name":"Tebet","i_lat":-6.226659},{"distance":2610,"i_long":106.84912,"is_transit":false,"station_name":"Manggarai","line":2,"station_id":"MRI","time":4,"transit":false,"i_lat":-6.209883},{"distance":1590,"line":2,"transit":false,"time":4,"station_id":"CKI","station_name":"Cikini","i_lat":-6.198556,"i_long":106.840169,"is_transit":false},{"is_transit":false,"line":2,"station_id":"GDD","i_lat":-6.186295,"station_name":"Gondangdia","time":3,"transit":false,"i_long":106.832183,"distance":1750},{"distance":2015,"i_long":106.828284,"transit":false,"station_id":"JUA","is_transit":false,"station_name":"Juanda","time":4,"i_lat":-6.166716,"line":2},{"station_name":"Sawah Besar","i_lat":-6.160725,"distance":1149,"i_long":106.827103,"is_transit":false,"station_id":"SW","transit":false,"line":2,"time":2}],[{"i_long":106.831474,"is_transit":false,"station_name":"Univ. Indonesia","line":2,"distance":0,"station_id":"UI","transit":false,"i_lat":-6.360749,"time":0},{"is_transit":false,"transit":false,"station_id":"UP","i_long":106.834175,"line":2,"time":3,"i_lat":-6.339291,"station_name":"Univ. Pancasila","distance":2264},{"i_lat":-6.330363,"time":2,"station_id":"LNA","station_name":"Lenteng Agung","distance":1029,"is_transit":false,"transit":false,"i_long":106.832616,"line":2},{"station_id":"TNT","station_name":"Tanjung Barat","is_transit":false,"line":2,"distance":2671,"transit":false,"time":3,"i_lat":-6.3080680000000005,"i_long":106.838896},{"station_name":"Pasar Minggu","i_lat":-6.2842400000000005,"is_transit":false,"distance":2820,"station_id":"PSM","line":2,"i_long":106.843999,"time":4,"transit":false},{"i_long":106.851577,"i_lat":-6.263214,"distance":2380,"transit":false,"time":2,"station_name":"Pasar Minggu Baru","is_transit":false,"line":2,"station_id":"PSMB"},{"i_long":106.85449,"i_lat":-6.255332,"time":2,"is_transit":false,"line":2,"distance":824,"station_name":"Duren Kalibata","station_id":"DRN","transit":false},{"station_id":"CW","i_lat":-6.242512,"station_name":"Cawang","line":2,"time":3,"is_transit":false,"i_long":106.856607,"distance":1546,"transit":false},{"is_transit":false,"time":2,"i_lat":-6.226659,"i_long":106.857948,"line":2,"distance":1230,"station_id":"TEB","transit":false,"station_name":"Tebet"},{"station_id":"MRI","distance":2610,"transit":true,"is_transit":true,"i_long":106.84912,"line":2,"station_name":"Manggarai","time":4,"i_lat":-6.209883},{"is_transit":false,"distance":3186,"station_name":"Sudirman","i_lat":-6.202263,"i_long":106.822649,"time":4,"line":1,"station_id":"SUD","transit":false},{"station_id":"SUDB","line":1,"station_name":"Sudirman Baru","is_transit":false,"i_lat":-6.201433,"time":1,"transit":false,"i_long":106.819881,"distance":280},{"time":1,"i_long":106.816351,"station_id":"KAT","station_name":"Karet","transit":false,"distance":471,"i_lat":-6.20132,"is_transit":false,"line":1},{"time":5,"transit":false,"distance":2029,"station_name":"Tanah Abang","i_long":106.811091,"station_id":"THB","is_transit":false,"i_lat":-6.185545,"line":1},{"is_transit":false,"transit":false,"time":8,"distance":3632,"station_id":"DU","i_lat":-6.155215,"i_long":106.800832,"line":1,"station_name":"Duri"},{"line":1,"station_id":"AK","i_lat":-6.144674,"time":4,"i_long":106.79867,"transit":false,"is_transit":false,"distance":1230,"station_name":"Angke"},{"line":4,"distance":4102,"transit":true,"i_lat":-6.132549,"station_id":"KPB","station_name":"Kampung Bandan","i_long":106.826365,"is_transit":true,"time":9},{"distance":1364,"i_long":106.812439,"transit":true,"station_name":"Jakarta Kota","station_id":"JAKK","is_transit":true,"i_lat":-6.137569,"line":2,"time":3},{"station_name":"Jayakarta","time":4,"transit":false,"is_transit":false,"station_id":"JAY","i_lat":-6.141205,"i_long":106.820901,"line":2,"distance":1264},{"distance":1080,"station_name":"Manggabesar","is_transit":false,"time":2,"i_lat":-6.149769,"line":2,"i_long":106.82482,"transit":false,"station_id":"MGB"},{"distance":906,"transit":false,"i_lat":-6.160725,"i_long":106.827103,"line":2,"time":2,"is_transit":false,"station_name":"Sawah Besar","station_id":"SW"}],[{"time":0,"distance":0,"station_name":"Univ. Indonesia","is_transit":false,"i_long":106.831474,"transit":false,"i_lat":-6.360749,"line":2,"station_id":"UI"},{"i_lat":-6.339291,"distance":2264,"station_id":"UP","is_transit":false,"station_name":"Univ. Pancasila","i_long":106.834175,"transit":false,"time":3,"line":2},{"transit":false,"station_id":"LNA","is_transit":false,"station_name":"Lenteng Agung","time":2,"distance":1029,"i_lat":-6.330363,"i_long":106.832616,"line":2},{"i_long":106.838896,"distance":2671,"station_id":"TNT","i_lat":-6.3080680000000005,"time":3,"transit":false,"is_transit":false,"station_name":"Tanjung Barat","line":2},{"station_id":"PSM","time":4,"is_transit":false,"transit":false,"i_lat":-6.2842400000000005,"station_name":"Pasar Minggu","i_long":106.843999,"distance":2820,"line":2},{"time":2,"station_id":"PSMB","line":2,"i_lat":-6.263214,"i_long":106.851577,"distance":2380,"transit":false,"station_name":"Pasar Minggu Baru","is_transit":false},{"distance":824,"time":2,"transit":false,"station_name":"Duren Kalibata","station_id":"DRN","i_long":106.85449,"line":2,"is_transit":false,"i_lat":-6.255332},{"station_name":"Cawang","station_id":"CW","is_transit":false,"transit":false,"distance":1546,"line":2,"i_long":106.856607,"i_lat":-6.242512,"time":3},{"i_long":106.857948,"i_lat":-6.226659,"line":2,"station_name":"Tebet","transit":false,"time":2,"is_transit":false,"station_id":"TEB","distance":1230},{"time":4,"distance":2610,"transit":true,"station_name":"Manggarai","is_transit":true,"station_id":"MRI","i_lat":-6.209883,"line":2,"i_long":106.84912},{"is_transit":false,"time":2,"transit":false,"station_name":"Matraman","i_lat":-6.212485,"line":1,"station_id":"MTR","i_long":106.858896,"distance":1275},{"station_name":"Jatinegara","station_id":"JNG","i_long":106.86807400000001,"transit":true,"line":1,"is_transit":true,"distance":1377,"i_lat":-6.215091,"time":8},{"distance":1236,"i_lat":-6.209188,"i_long":106.861737,"time":2,"transit":false,"is_transit":false,"line":11,"station_id":"POK","station_name":"Pondok Jati"},{"is_transit":false,"station_id":"KMT","i_long":106.855437,"distance":1829,"i_lat":-6.193792,"time":2,"station_name":"Kramat","transit":false,"line":11},{"station_id":"GST","time":1,"distance":973,"is_transit":false,"line":11,"i_lat":-6.185975,"station_name":"Gang Sentiong","transit":false,"i_long":106.850107},{"is_transit":false,"station_id":"PSE","i_long":106.84368,"line":11,"i_lat":-6.174784,"time":8,"transit":false,"distance":1567,"station_name":"Pasar Senen"},{"station_id":"KMO","i_lat":-6.161728,"station_name":"Kemayoran","time":4,"transit":false,"distance":1436,"is_transit":false,"i_long":106.839204,"line":11},{"station_id":"RJW","is_transit":false,"station_name":"Rajawali","transit":false,"distance":1901,"time":5,"i_long":106.836569,"i_lat":-6.14505,"line":11},{"distance":1444,"transit":true,"time":3,"line":4,"station_name":"Kampung Bandan","i_long":106.826365,"is_transit":true,"i_lat":-6.132549,"station_id":"KPB"},{"distance":1364,"i_lat":-6.137569,"station_id":"JAKK","is_transit":true,"station_name":"Jakarta Kota","transit":true,"line":2,"i_long":106.812439,"time":3},{"is_transit":false,"transit":false,"distance":1264,"station_name":"Jayakarta","station_id":"JAY","i_long":106.820901,"i_lat":-6.141205,"time":4,"line":2},{"distance":1080,"transit":false,"station_id":"MGB","time":2,"i_lat":-6.149769,"i_long":106.82482,"line":2,"is_transit":false,"station_name":"Manggabesar"},{"i_long":106.827103,"i_lat":-6.160725,"time":2,"is_transit":false,"station_id":"SW","station_name":"Sawah Besar","line":2,"distance":906,"transit":false}]]}