{"data":[[{"transit":false,"station_name":"Univ. Indonesia","time":0,"is_transit":false,"i_lat":-6.360749,"i_long":106.831474,"distance":0,"line":2,"station_id":"UI"},{"transit":false,"is_transit":false,"i_lat":-6.339291,"station_name":"Univ. Pancasila","distance":2264,"line":2,"station_id":"UP","time":3,"i_long":106.834175},{"is_transit":false,"station_name":"Lenteng Agung","transit":false,"station_id":"LNA","time":2,"i_lat":-6.330363,"distance":1029,"i_long":106.832616,"line":2},{"i_long":106.838896,"time":3,"station_id":"TNT","station_name":"Tanjung Barat","is_transit":false,"distance":2671,"i_lat":-6.3080680000000005,"line":2,"transit":false},{"i_lat":-6.2842400000000005,"i_long":106.843999,"station_name":"Pasar Minggu","time":4,"line":2,"transit":false,"station_id":"PSM","is_transit":false,"distance":2820},{"time":2,"distance":2380,"station_id":"PSMB","i_long":106.851577,"line":2,"station_name":"Pasar Minggu Baru","is_transit":false,"transit":false,"i_lat":-6.263214},{"distance":824,"station_name":"Duren Kalibata","transit":false,"line":2,"time":2,"is_transit":false,"station_id":"DRN","i_lat":-6.255332,"i_long":106.85449},{"distance":1546,"i_long":106.856607,"station_id":"CW","is_transit":false,"i_lat":-6.242512,"station_name":"Cawang","transit":false,"line":2,"time":3},{"distance":1230,"transit":false,"station_id":"TEB","is_transit":false,"i_long":106.857948,"i_lat":-6.226659,"time":2,"station_name":"Tebet","line":2},{"i_long":106.84912,"line":2,"station_id":"MRI","i_lat":-6.209883,"distance":2610,"transit":true,"station_name":"Manggarai","is_transit":true,"time":4},{"i_long":106.822649,"transit":false,"time":4,"station_name":"Sudirman","station_id":"SUD","distance":3186,"i_lat":-6.202263,"line":1,"is_transit":false},{"is_transit":false,"transit":false,"distance":280,"line":1,"station_id":"SUDB","i_lat":-6.201433,"time":1,"i_long":106.819881,"station_name":"Sudirman Baru"},{"time":1,"i_lat":-6.20132,"distance":471,"is_transit":false,"transit":false,"line":1,"i_long":106.816351,"station_name":"Karet","station_id":"KAT"},{"i_lat":-6.185545,"distance":2029,"time":5,"i_long":106.811091,"transit":true,"line":1,"is_transit":true,"station_name":"Tanah Abang","station_id":"THB"},{"transit":false,"time":6,"i_lat":-6.207404,"line":6,"station_name":"Palmerah","distance":3191,"i_long":106.79689,"station_id":"PLM","is_transit":false},{"station_name":"Kebayoran","station_id":"KBY","i_lat":-6.237242,"is_transit":false,"transit":false,"distance":3737,"line":6,"i_long":106.780334,"time":7},{"line":6,"is_transit":false,"transit":false,"i_long":106.74273,"time":8,"station_name":"Pondokranji","distance":6218,"i_lat":-6.276362,"station_id":"PDJ"},{"station_id":"JMU","station_name":"Jurangmangu","i_long":106.728916,"is_transit":false,"i_lat":-6.288927,"line":6,"time":3,"distance":2179,"transit":false},{"distance":1994,"station_name":"Sudimara","transit":false,"time":4,"i_long":106.712277,"is_transit":false,"station_id":"SDM","line":6,"i_lat":-6.296963}],[{"station_name":"Univ. Indonesia","station_id":"UI","transit":false,"is_transit":false,"distance":0,"i_lat":-6.360749,"i_long":106.831474,"line":2,"time":0},{"i_long":106.834175,"station_id":"UP","line":2,"distance":2264,"time":3,"station_name":"Univ. Pancasila","transit":false,"is_transit":false,"i_lat":-6.339291},{"i_lat":-6.330363,"transit":false,"distance":1029,"time":2,"station_id":"LNA","line":2,"station_name":"Lenteng Agung","is_transit":false,"i_long":106.832616},{"station_name":"Tanjung Barat","i_lat":-6.3080680000000005,"transit":false,"line":2,"time":3,"distance":2671,"station_id":"TNT","is_transit":false,"i_long":106.838896},{"distance":2820,"time":4,"i_lat":-6.2842400000000005,"i_long":106.843999,"station_name":"Pasar Minggu","station_id":"PSM","is_transit":false,"line":2,"transit":false},{"station_name":"Pasar Minggu Baru","station_id":"PSMB","i_lat":-6.263214,"i_long":106.851577,"distance":2380,"time":2,"transit":false,"line":2,"is_transit":false},{"is_transit":false,"transit":false,"distance":824,"station_name":"Duren Kalibata","time":2,"i_lat":-6.255332,"station_id":"DRN","i_long":106.85449,"line":2},{"station_id":"CW","is_transit":false,"i_lat":-6.242512,"line":2,"i_long":106.856607,"time":3,"station_name":"Cawang","distance":1546,"transit":false},{"station_name":"Tebet","distance":1230,"line":2,"i_lat":-6.226659,"station_id":"TEB","is_transit":false,"time":2,"i_long":106.857948,"transit":false},{"transit":false,"station_id":"MRI","time":4,"i_long":106.84912,"line":2,"is_transit":false,"station_name":"Manggarai","distance":2610,"i_lat":-6.209883},{"line":2,"station_name":"Cikini","transit":false,"i_long":106.840169,"time":4,"i_lat":-6.198556,"is_transit":false,"distance":1590,"station_id":"CKI"},{"transit":false,"distance":1750,"station_name":"Gondangdia","station_id":"GDD","time":3,"i_long":106.832183,"line":2,"i_lat":-6.186295,"is_transit":false},{"station_id":"JUA","transit":false,"station_name":"Juanda","distance":2015,"time":4,"is_transit":false,"i_long":106.828284,"line":2,"i_lat":-6.166716},{"distance":1149,"i_long":106.827103,"time":2,"is_transit":false,"i_lat":-6.160725,"station_name":"Sawah Besar","line":2,"station_id":"SW","transit":false},{"transit":false,"i_lat":-6.149769,"line":2,"is_transit":false,"station_name":"Manggabesar","station_id":"MGB","distance":906,"i_long":106.82482,"time":2},{"is_transit":false,"transit":false,"i_lat":-6.141205,"line":2,"station_id":"JAY","time":2,"station_name":"Jayakarta","i_long":106.820901,"distance":1080},{"distance":1264,"is_transit":true,"i_lat":-6.137569,"i_long":106.812439,"line":2,"station_name":"Jakarta Kota","time":4,"transit":true,"station_id":"JAKK"},{"transit":true,"distance":1364,"time":3,"station_id":"KPB","station_name":"Kampung Bandan","i_long":106.826365,"line":4,"is_transit":true,"i_lat":-6.132549},{"i_lat":-6.144674,"line":1,"distance":4102,"station_id":"AK","i_long":106.79867,"transit":false,"station_name":"Angke","is_transit":false,"time":9},{"time":4,"transit":false,"station_id":"DU","distance":1230,"i_long":106.800832,"is_transit":false,"station_name":"Duri","i_lat":-6.155215,"line":1},{"transit":true,"time":8,"i_lat":-6.185545,"i_long":106.811091,"distance":3632,"line":1,"is_transit":true,"station_name":"Tanah Abang","station_id":"THB"},{"station_name":"Palmerah","station_id":"PLM","transit":false,"time":6,"line":6,"distance":3191,"i_lat":-6.207404,"is_transit":false,"i_long":106.79689},{"i_long":106.780334,"distance":3737,"station_name":"Kebayoran","station_id":"KBY","line":6,"is_transit":false,"time":7,"transit":false,"i_lat":-6.237242},{"line":6,"time":8,"station_id":"PDJ","station_name":"Pondokranji","i_lat":-6.276362,"is_transit":false,"i_long":106.74273,"transit":false,"distance":6218},{"station_id":"JMU","i_lat":-6.288927,"is_transit":false,"transit":false,"station_name":"Jurangmangu","line":6,"time":3,"distance":2179,"i_long":106.728916},{"station_id":"SDM","time":4,"line":6,"i_lat":-6.296963,"is_transit":false,"station_name":"Sudimara","distance":1994,"i_long":106.712277,"transit":false}],[{"distance":0,"i_lat":-6.360749,"transit":false,"i_long":106.831474,"station_name":"Univ. Indonesia","station_id":"UI","line":2,"is_transit":false,"time":0},{"transit":false,"station_name":"Univ. Pancasila","is_transit":false,"i_lat":-6.339291,"line":2,"i_long":106.834175,"station_id":"UP","time":3,"distance":2264},{"time":2,"is_transit":false,"i_long":106.832616,"line":2,"station_name":"Lenteng Agung","i_lat":-6.330363,"station_id":"LNA","distance":1029,"transit":false},{"line":2,"station_name":"Tanjung Barat","i_lat":-6.3080680000000005,"is_transit":false,"i_long":106.838896,"time":3,"transit":false,"distance":2671,"station_id":"TNT"},{"line":2,"i_lat":-6.2842400000000005,"i_long":106.843999,"distance":2820,"is_transit":false,"station_id":"PSM","time":4,"station_name":"Pasar Minggu","transit":false},{"station_name":"Pasar Minggu Baru","transit":false,"i_lat":-6.263214,"distance":2380,"time":2,"station_id":"PSMB","i_long":106.851577,"is_transit":false,"line":2},{"is_transit":false,"line":2,"station_id":"DRN","transit":false,"station_name":"Duren Kalibata","time":2,"i_long":106.85449,"distance":824,"i_lat":-6.255332},{"station_name":"Cawang","is_transit":false,"i_long":106.856607,"time":3,"i_lat":-6.242512,"distance":1546,"transit":false,"station_id":"CW","line":2},{"transit":false,"is_transit":false,"time":2,"distance":1230,"i_lat":-6.226659,"line":2,"i_long":106.857948,"station_id":"TEB","station_name":"Tebet"},{"station_id":"MRI","distance":2610,"station_name":"Manggarai","is_transit":true,"line":2,"time":4,"i_lat":-6.209883,"transit":true,"i_long":106.84912},{"transit":false,"is_transit":false,"time":2,"i_lat":-6.212485,"line":1,"station_name":"Matraman","i_long":106.858896,"distance":1275,"station_id":"MTR"},{"time":8,"station_name":"Jatinegara","is_transit":true,"distance":1377,"i_lat":-6.215091,"line":1,"station_id":"JNG","i_long":106.86807400000001,"transit":true},{"distance":1236,"transit":false,"station_id":"POK","i_lat":-6.209188,"i_long":106.861737,"station_name":"Pondok Jati","line":11,"is_transit":false,"time":2},{"transit":false,"time":2,"is_transit":false,"distance":1829,"i_lat":-6.193792,"station_name":"Kramat","i_long":106.855437,"station_id":"KMT","line":11},{"i_long":106.850107,"transit":false,"is_transit":false,"distance":973,"time":1,"station_id":"GST","line":11,"station_name":"Gang Sentiong","i_lat":-6.185975},{"is_transit":false,"line":11,"transit":false,"station_name":"Pasar Senen","time":8,"distance":1567,"i_lat":-6.174784,"i_long":106.84368,"station_id":"PSE"},{"transit":false,"station_name":"Kemayoran","time":4,"i_lat":-6.161728,"line":11,"station_id":"KMO","distance":1436,"is_transit":false,"i_long":106.839204},{"transit":false,"station_name":"Rajawali","station_id":"RJW","distance":1901,"i_lat":-6.14505,"is_transit":false,"time":5,"line":11,"i_long":106.836569},{"station_name":"Kampung Bandan","time":3,"i_long":106.826365,"station_id":"KPB","is_transit":true,"distance":1444,"i_lat":-6.132549,"transit":true,"line":4},{"time":9,"i_long":106.79867,"station_id":"AK","i_lat":-6.144674,"is_transit":false,"station_name":"Angke","transit":false,"distance":4102,"line":1},{"station_name":"Duri","is_transit":false,"line":1,"transit":false,"i_lat":-6.155215,"distance":1230,"station_id":"DU","time":4,"i_long":106.800832},{"i_lat":-6.185545,"transit":true,"is_transit":true,"i_long":106.811091,"time":8,"distance":3632,"station_name":"Tanah Abang","line":1,"station_id":"THB"},{"time":6,"station_id":"PLM","i_lat":-6.207404,"transit":false,"i_long":106.79689,"station_name":"Palmerah","distance":3191,"is_transit":false,"line":6},{"transit":false,"station_id":"KBY","is_transit":false,"i_lat":-6.237242,"i_long":106.780334,"station_name":"Kebayoran","time":7,"distance":3737,"line":6},{"time":8,"distance":6218,"i_long":106.74273,"transit":false,"is_transit":false,"line":6,"i_lat":-6.276362,"station_name":"Pondokranji","station_id":"PDJ"},{"i_lat":-6.288927,"i_long":106.728916,"distance":2179,"station_id":"JMU","time":3,"transit":false,"is_transit":false,"station_name":"Jurangmangu","line":6},{"is_transit":false,"i_lat":-6.296963,"station_name":"Sudimara","i_long":106.712277,"line":6,"station_id":"SDM","time":4,"transit":false,"distance":1994}]]}