{"data":[[{"i_lat":-6.360749,"line":2,"time":0,"station_name":"Univ. Indonesia","transit":false,"station_id":"UI","is_transit":false,"i_long":106.831474,"distance":0},{"i_long":106.834175,"station_name":"Univ. Pancasila","distance":2264,"line":2,"transit":false,"is_transit":false,"time":3,"station_id":"UP","i_lat":-6.339291},{"station_name":"Lenteng Agung","station_id":"LNA","is_transit":false,"i_lat":-6.330363,"transit":false,"time":2,"distance":1029,"i_long":106.832616,"line":2},{"transit":false,"line":2,"i_long":106.838896,"station_id":"TNT","time":3,"distance":2671,"is_transit":false,"i_lat":-6.3080680000000005,"station_name":"Tanjung Barat"},{"station_id":"PSM","is_transit":false,"i_lat":-6.2842400000000005,"time":4,"station_name":"Pasar Minggu","transit":false,"i_long":106.843999,"line":2,"distance":2820},{"line":2,"station_name":"Pasar Minggu Baru","time":2,"station_id":"PSMB","i_lat":-6.263214,"transit":false,"distance":2380,"is_transit":false,"i_long":106.851577},{"i_lat":-6.255332,"transit":false,"distance":824,"i_long":106.85449,"station_id":"DRN","time":2,"line":2,"is_transit":false,"station_name":"Duren Kalibata"},{"time":3,"is_transit":false,"station_name":"Cawang","station_id":"CW","i_long":106.856607,"i_lat":-6.242512,"transit":false,"line":2,"distance":1546},{"i_lat":-6.226659,"i_long":106.857948,"line":2,"transit":false,"is_transit":false,"distance":1230,"station_name":"Tebet","station_id":"TEB","time":2},{"station_id":"MRI","i_lat":-6.209883,"line":2,"is_transit":true,"i_long":106.84912,"transit":true,"station_name":"Manggarai","time":4,"distance":2610},{"i_long":106.822649,"station_name":"Sudirman","transit":false,"station_id":"SUD","is_transit":false,"time":4,"distance":3186,"i_lat":-6.202263,"line":1},{"transit":false,"distance":280,"i_long":106.819881,"time":1,"is_transit":false,"station_name":"Sudirman Baru","line":1,"station_id":"SUDB","i_lat":-6.201433},{"is_transit":false,"i_long":106.816351,"distance":471,"line":1,"station_name":"Karet","i_lat":-6.20132,"station_id":"KAT","transit":false,"time":1},{"distance":2029,"station_id":"THB","i_lat":-6.185545,"station_name":"Tanah Abang","i_long":106.811091,"transit":true,"time":5,"is_transit":true,"line":1},{"station_id":"PLM","is_transit":false,"line":6,"distance":3191,"transit":false,"i_long":106.79689,"i_lat":-6.207404,"station_name":"Palmerah","time":6},{"line":6,"i_long":106.780334,"distance":3737,"transit":false,"is_transit":false,"station_name":"Kebayoran","station_id":"KBY","i_lat":-6.237242,"time":7},{"time":8,"i_long":106.74273,"i_lat":-6.276362,"is_transit":false,"line":6,"transit":false,"station_name":"Pondokranji","station_id":"PDJ","distance":6218},{"i_long":106.728916,"i_lat":-6.288927,"station_name":"Jurangmangu","is_transit":false,"time":3,"line":6,"distance":2179,"transit":false,"station_id":"JMU"},{"transit":false,"station_id":"SDM","time":4,"station_name":"Sudimara","is_transit":false,"i_lat":-6.296963,"distance":1994,"i_long":106.712277,"line":6}],[{"i_long":106.831474,"is_transit":false,"transit":false,"station_name":"Univ. Indonesia","time":0,"station_id":"UI","distance":0,"line":2,"i_lat":-6.360749},{"i_long":106.834175,"station_id":"UP","is_transit":false,"station_name":"Univ. Pancasila","distance":2264,"line":2,"time":3,"i_lat":-6.339291,"transit":false},{"line":2,"transit":false,"i_long":106.832616,"station_name":"Lenteng Agung","distance":1029,"station_id":"LNA","i_lat":-6.330363,"time":2,"is_transit":false},{"distance":2671,"transit":false,"station_id":"TNT","is_transit":false,"station_name":"Tanjung Barat","i_long":106.838896,"i_lat":-6.3080680000000005,"line":2,"time":3},{"distance":2820,"station_id":"PSM","station_name":"Pasar Minggu","is_transit":false,"i_lat":-6.2842400000000005,"line":2,"i_long":106.843999,"time":4,"transit":false},{"station_name":"Pasar Minggu Baru","time":2,"distance":2380,"is_transit":false,"i_lat":-6.263214,"i_long":106.851577,"transit":false,"line":2,"station_id":"PSMB"},{"i_long":106.85449,"time":2,"station_name":"Duren Kalibata","distance":824,"is_transit":false,"i_lat":-6.255332,"station_id":"DRN","transit":false,"line":2},{"station_id":"CW","i_lat":-6.242512,"transit":false,"time":3,"i_long":106.856607,"line":2,"distance":1546,"station_name":"Cawang","is_transit":false},{"i_long":106.857948,"distance":1230,"transit":false,"line":2,"station_name":"Tebet","station_id":"TEB","is_transit":false,"i_lat":-6.226659,"time":2},{"transit":false,"station_id":"MRI","time":4,"is_transit":false,"i_lat":-6.209883,"i_long":106.84912,"line":2,"station_name":"Manggarai","distance":2610},{"i_lat":-6.198556,"time":4,"is_transit":false,"line":2,"i_long":106.840169,"transit":false,"station_id":"CKI","station_name":"Cikini","distance":1590},{"i_lat":-6.186295,"i_long":106.832183,"station_name":"Gondangdia","transit":false,"distance":1750,"is_transit":false,"time":3,"line":2,"station_id":"GDD"},{"is_transit":false,"i_lat":-6.166716,"station_name":"Juanda","station_id":"JUA","line":2,"transit":false,"i_long":106.828284,"distance":2015,"time":4},{"transit":false,"time":2,"is_transit":false,"distance":1149,"line":2,"i_long":106.827103,"i_lat":-6.160725,"station_name":"Sawah Besar","station_id":"SW"},{"i_lat":-6.149769,"distance":906,"is_transit":false,"station_name":"Manggabesar","i_long":106.82482,"station_id":"MGB","time":2,"line":2,"transit":false},{"i_long":106.820901,"station_id":"JAY","time":2,"station_name":"Jayakarta","is_transit":false,"i_lat":-6.141205,"distance":1080,"line":2,"transit":false},{"transit":true,"is_transit":true,"distance":1264,"time":4,"i_lat":-6.137569,"i_long":106.812439,"station_id":"JAKK","station_name":"Jakarta Kota","line":2},{"i_long":106.826365,"distance":1364,"station_id":"KPB","line":4,"station_name":"Kampung Bandan","transit":true,"i_lat":-6.132549,"is_transit":true,"time":3},{"i_long":106.79867,"station_id":"AK","time":9,"line":1,"station_name":"Angke","distance":4102,"i_lat":-6.144674,"transit":false,"is_transit":false},{"distance":1230,"station_name":"Duri","station_id":"DU","is_transit":false,"i_lat":-6.155215,"i_long":106.800832,"time":4,"line":1,"transit":false},{"is_transit":true,"transit":true,"station_id":"THB","i_lat":-6.185545,"i_long":106.811091,"station_name":"Tanah Abang","distance":3632,"line":1,"time":8},{"i_long":106.79689,"station_name":"Palmerah","i_lat":-6.207404,"transit":false,"is_transit":false,"time":6,"station_id":"PLM","line":6,"distance":3191},{"transit":false,"is_transit":false,"station_name":"Kebayoran","time":7,"station_id":"KBY","i_lat":-6.237242,"distance":3737,"i_long":106.780334,"line":6},{"station_name":"Pondokranji","is_transit":false,"i_lat":-6.276362,"time":8,"line":6,"distance":6218,"transit":false,"i_long":106.74273,"station_id":"PDJ"},{"i_long":106.728916,"time":3,"transit":false,"distance":2179,"i_lat":-6.288927,"line":6,"station_id":"JMU","station_name":"Jurangmangu","is_transit":false},{"station_id":"SDM","time":4,"is_transit":false,"i_long":106.712277,"i_lat":-6.296963,"distance":1994,"transit":false,"line":6,"station_name":"Sudimara"}],[{"transit":false,"distance":0,"station_id":"UI","is_transit":false,"line":2,"i_lat":-6.360749,"i_long":106.831474,"station_name":"Univ. Indonesia","time":0},{"time":3,"station_name":"Univ. Pancasila","i_long":106.834175,"i_lat":-6.339291,"transit":false,"distance":2264,"is_transit":false,"station_id":"UP","line":2},{"time":2,"transit":false,"is_transit":false,"station_name":"Lenteng Agung","distance":1029,"i_lat":-6.330363,"line":2,"i_long":106.832616,"station_id":"LNA"},{"station_id":"TNT","i_lat":-6.3080680000000005,"time":3,"distance":2671,"line":2,"station_name":"Tanjung Barat","is_transit":false,"i_long":106.838896,"transit":false},{"station_name":"Pasar Minggu","transit":false,"time":4,"is_transit":false,"station_id":"PSM","distance":2820,"i_lat":-6.2842400000000005,"i_long":106.843999,"line":2},{"station_name":"Pasar Minggu Baru","time":2,"station_id":"PSMB","is_transit":false,"i_lat":-6.263214,"transit":false,"distance":2380,"i_long":106.851577,"line":2},{"time":2,"i_lat":-6.255332,"transit":false,"i_long":106.85449,"line":2,"station_id":"DRN","is_transit":false,"distance":824,"station_name":"Duren Kalibata"},{"i_lat":-6.242512,"is_transit":false,"station_name":"Cawang","time":3,"station_id":"CW","i_long":106.856607,"distance":1546,"line":2,"transit":false},{"line":2,"i_long":106.857948,"transit":false,"time":2,"distance":1230,"station_name":"Tebet","station_id":"TEB","i_lat":-6.226659,"is_transit":false},{"transit":true,"station_name":"Manggarai","i_long":106.84912,"line":2,"is_transit":true,"distance":2610,"station_id":"MRI","i_lat":-6.209883,"time":4},{"station_name":"Matraman","station_id":"MTR","is_transit":false,"transit":false,"distance":1275,"i_lat":-6.212485,"i_long":106.858896,"line":1,"time":2},{"transit":true,"i_long":106.86807400000001,"station_name":"Jatinegara","distance":1377,"station_id":"JNG","i_lat":-6.215091,"line":1,"time":8,"is_transit":true},{"distance":1236,"i_lat":-6.209188,"time":2,"transit":false,"line":11,"station_name":"Pondok Jati","is_transit":false,"station_id":"POK","i_long":106.861737},{"time":2,"is_transit":false,"i_long":106.855437,"distance":1829,"transit":false,"i_lat":-6.193792,"line":11,"station_name":"Kramat","station_id":"KMT"},{"transit":false,"station_name":"Gang Sentiong","distance":973,"is_transit":false,"i_lat":-6.185975,"line":11,"i_long":106.850107,"time":1,"station_id":"GST"},{"time":8,"is_transit":false,"distance":1567,"i_lat":-6.174784,"i_long":106.84368,"transit":false,"line":11,"station_name":"Pasar Senen","station_id":"PSE"},{"time":4,"distance":1436,"station_id":"KMO","transit":false,"is_transit":false,"i_lat":-6.161728,"i_long":106.839204,"line":11,"station_name":"Kemayoran"},{"is_transit":false,"transit":false,"line":11,"station_name":"Rajawali","i_long":106.836569,"i_lat":-6.14505,"distance":1901,"station_id":"RJW","time":5},{"distance":1444,"i_lat":-6.132549,"i_long":106.826365,"time":3,"station_name":"Kampung Bandan","line":4,"station_id":"KPB","is_transit":true,"transit":true},{"is_transit":false,"transit":false,"station_id":"AK","distance":4102,"i_lat":-6.144674,"line":1,"station_name":"Angke","time":9,"i_long":106.79867},{"station_id":"DU","time":4,"station_name":"Duri","i_long":106.800832,"is_transit":false,"transit":false,"distance":1230,"i_lat":-6.155215,"line":1},{"i_long":106.811091,"distance":3632,"line":1,"station_name":"Tanah Abang","station_id":"THB","time":8,"transit":true,"is_transit":true,"i_lat":-6.185545},{"transit":false,"is_transit":false,"i_lat":-6.207404,"i_long":106.79689,"distance":3191,"station_name":"Palmerah","line":6,"time":6,"station_id":"PLM"},{"station_id":"KBY","transit":false,"i_lat":-6.237242,"i_long":106.780334,"station_name":"Kebayoran","is_transit":false,"distance":3737,"time":7,"line":6},{"is_transit":false,"time":8,"station_id":"PDJ","line":6,"distance":6218,"station_name":"Pondokranji","i_lat":-6.276362,"i_long":106.74273,"transit":false},{"is_transit":false,"distance":2179,"station_name":"Jurangmangu","station_id":"JMU","i_long":106.728916,"transit":false,"i_lat":-6.288927,"line":6,"time":3},{"station_name":"Sudimara","i_lat":-6.296963,"time":4,"station_id":"SDM","is_transit":false,"distance":1994,"i_long":106.712277,"line":6,"transit":false}]]}