{"data":[[{"station_id":"UI","station_name":"Univ. Indonesia","is_transit":false,"distance":0,"i_lat":-6.360749,"time":0,"transit":false,"i_long":106.831474,"line":2},{"i_long":106.834175,"station_name":"Univ. Pancasila","time":3,"distance":2264,"station_id":"UP","transit":false,"line":2,"i_lat":-6.339291,"is_transit":false},{"distance":1029,"is_transit":false,"transit":false,"station_name":"Lenteng Agung","station_id":"LNA","i_lat":-6.330363,"time":2,"i_long":106.832616,"line":2},{"station_id":"TNT","is_transit":false,"i_long":106.838896,"distance":2671,"station_name":"Tanjung Barat","transit":false,"i_lat":-6.3080680000000005,"line":2,"time":3},{"i_lat":-6.2842400000000005,"station_name":"Pasar Minggu","line":2,"transit":false,"i_long":106.843999,"distance":2820,"time":4,"is_transit":false,"station_id":"PSM"},{"is_transit":false,"station_name":"Pasar Minggu Baru","i_lat":-6.263214,"i_long":106.851577,"line":2,"distance":2380,"transit":false,"station_id":"PSMB","time":2},{"is_transit":false,"i_long":106.85449,"station_name":"Duren Kalibata","time":2,"distance":824,"station_id":"DRN","line":2,"i_lat":-6.255332,"transit":false},{"distance":1546,"transit":false,"is_transit":false,"i_long":106.856607,"station_id":"CW","line":2,"time":3,"i_lat":-6.242512,"station_name":"Cawang"},{"distance":1230,"i_lat":-6.226659,"line":2,"station_name":"Tebet","transit":false,"is_transit":false,"i_long":106.857948,"station_id":"TEB","time":2},{"i_long":106.84912,"i_lat":-6.209883,"line":2,"time":4,"station_id":"MRI","is_transit":false,"station_name":"Manggarai","distance":2610,"transit":false},{"i_long":106.840169,"station_name":"Cikini","time":4,"distance":1590,"i_lat":-6.198556,"is_transit":false,"station_id":"CKI","line":2,"transit":false},{"transit":false,"i_long":106.832183,"station_id":"GDD","is_transit":false,"time":3,"i_lat":-6.186295,"distance":1750,"station_name":"Gondangdia","line":2},{"transit":false,"time":4,"station_id":"JUA","station_name":"Juanda","distance":2015,"is_transit":false,"i_lat":-6.166716,"i_long":106.828284,"line":2},{"station_id":"SW","station_name":"Sawah Besar","is_transit":false,"line":2,"distance":1149,"time":2,"i_lat":-6.160725,"i_long":106.827103,"transit":false}],[{"station_name":"Univ. Indonesia","is_transit":false,"time":0,"distance":0,"line":2,"transit":false,"station_id":"UI","i_lat":-6.360749,"i_long":106.831474},{"is_transit":false,"line":2,"station_name":"Univ. Pancasila","i_lat":-6.339291,"distance":2264,"transit":false,"i_long":106.834175,"time":3,"station_id":"UP"},{"i_long":106.832616,"i_lat":-6.330363,"station_name":"Lenteng Agung","distance":1029,"transit":false,"time":2,"line":2,"is_transit":false,"station_id":"LNA"},{"station_id":"TNT","line":2,"transit":false,"time":3,"is_transit":false,"distance":2671,"station_name":"Tanjung Barat","i_lat":-6.3080680000000005,"i_long":106.838896},{"i_long":106.843999,"station_id":"PSM","station_name":"Pasar Minggu","distance":2820,"line":2,"is_transit":false,"transit":false,"i_lat":-6.2842400000000005,"time":4},{"i_lat":-6.263214,"transit":false,"is_transit":false,"station_name":"Pasar Minggu Baru","station_id":"PSMB","time":2,"distance":2380,"i_long":106.851577,"line":2},{"station_name":"Duren Kalibata","distance":824,"i_long":106.85449,"is_transit":false,"time":2,"line":2,"transit":false,"station_id":"DRN","i_lat":-6.255332},{"time":3,"distance":1546,"is_transit":false,"line":2,"i_lat":-6.242512,"station_id":"CW","station_name":"Cawang","i_long":106.856607,"transit":false},{"station_id":"TEB","time":2,"station_name":"Tebet","i_long":106.857948,"is_transit":false,"transit":false,"distance":1230,"i_lat":-6.226659,"line":2},{"line":2,"is_transit":true,"i_lat":-6.209883,"i_long":106.84912,"transit":true,"distance":2610,"station_name":"Manggarai","station_id":"MRI","time":4},{"i_lat":-6.202263,"i_long":106.822649,"is_transit":false,"line":1,"transit":false,"station_name":"Sudirman","station_id":"SUD","time":4,"distance":3186},{"time":1,"distance":280,"transit":false,"station_id":"SUDB","i_lat":-6.201433,"is_transit":false,"station_name":"Sudirman Baru","i_long":106.819881,"line":1},{"station_name":"Karet","transit":false,"i_long":106.816351,"time":1,"distance":471,"is_transit":false,"station_id":"KAT","line":1,"i_lat":-6.20132},{"time":5,"station_id":"THB","i_lat":-6.185545,"line":1,"is_transit":false,"distance":2029,"station_name":"Tanah Abang","i_long":106.811091,"transit":false},{"i_lat":-6.155215,"i_long":106.800832,"transit":false,"station_name":"Duri","distance":3632,"line":1,"is_transit":false,"time":8,"station_id":"DU"},{"line":1,"station_name":"Angke","i_lat":-6.144674,"is_transit":false,"i_long":106.79867,"transit":false,"distance":1230,"station_id":"AK","time":4},{"i_lat":-6.132549,"station_name":"Kampung Bandan","line":4,"time":9,"station_id":"KPB","transit":true,"is_transit":true,"distance":4102,"i_long":106.826365},{"i_long":106.812439,"is_transit":true,"time":3,"station_name":"Jakarta Kota","i_lat":-6.137569,"line":2,"distance":1364,"station_id":"JAKK","transit":true},{"station_name":"Jayakarta","time":4,"station_id":"JAY","is_transit":false,"i_lat":-6.141205,"line":2,"distance":1264,"i_long":106.820901,"transit":false},{"transit":false,"station_name":"Manggabesar","i_long":106.82482,"distance":1080,"time":2,"i_lat":-6.149769,"station_id":"MGB","is_transit":false,"line":2},{"time":2,"station_id":"SW","i_lat":-6.160725,"is_transit":false,"line":2,"station_name":"Sawah Besar","i_long":106.827103,"distance":906,"transit":false}],[{"is_transit":false,"distance":0,"station_name":"Univ. Indonesia","i_lat":-6.360749,"station_id":"UI","transit":false,"time":0,"i_long":106.831474,"line":2},{"is_transit":false,"station_id":"UP","i_long":106.834175,"time":3,"transit":false,"station_name":"Univ. Pancasila","distance":2264,"i_lat":-6.339291,"line":2},{"i_lat":-6.330363,"station_name":"Lenteng Agung","line":2,"time":2,"station_id":"LNA","is_transit":false,"transit":false,"i_long":106.832616,"distance":1029},{"transit":false,"time":3,"distance":2671,"station_name":"Tanjung Barat","station_id":"TNT","i_long":106.838896,"line":2,"i_lat":-6.3080680000000005,"is_transit":false},{"station_id":"PSM","i_lat":-6.2842400000000005,"transit":false,"is_transit":false,"station_name":"Pasar Minggu","time":4,"distance":2820,"i_long":106.843999,"line":2},{"station_id":"PSMB","i_long":106.851577,"line":2,"is_transit":false,"i_lat":-6.263214,"station_name":"Pasar Minggu Baru","time":2,"distance":2380,"transit":false},{"i_lat":-6.255332,"line":2,"station_name":"Duren Kalibata","transit":false,"is_transit":false,"station_id":"DRN","time":2,"i_long":106.85449,"distance":824},{"time":3,"i_long":106.856607,"distance":1546,"station_id":"CW","line":2,"i_lat":-6.242512,"transit":false,"is_transit":false,"station_name":"Cawang"},{"distance":1230,"i_lat":-6.226659,"time":2,"i_long":106.857948,"line":2,"transit":false,"station_id":"TEB","station_name":"Tebet","is_transit":false},{"station_id":"MRI","transit":true,"time":4,"station_name":"Manggarai","is_transit":true,"i_long":106.84912,"line":2,"i_lat":-6.209883,"distance":2610},{"line":1,"i_lat":-6.212485,"i_long":106.858896,"is_transit":false,"time":2,"transit":false,"station_name":"Matraman","distance":1275,"station_id":"MTR"},{"station_name":"Jatinegara","is_transit":true,"time":8,"i_long":106.86807400000001,"transit":true,"station_id":"JNG","distance":1377,"line":1,"i_lat":-6.215091},{"time":2,"i_lat":-6.209188,"station_id":"POK","distance":1236,"i_long":106.861737,"transit":false,"line":11,"station_name":"Pondok Jati","is_transit":false},{"time":2,"is_transit":false,"i_long":106.855437,"i_lat":-6.193792,"line":11,"station_id":"KMT","station_name":"Kramat","transit":false,"distance":1829},{"is_transit":false,"i_long":106.850107,"time":1,"i_lat":-6.185975,"line":11,"station_id":"GST","station_name":"Gang Sentiong","transit":false,"distance":973},{"transit":false,"is_transit":false,"i_long":106.84368,"time":8,"distance":1567,"i_lat":-6.174784,"line":11,"station_id":"PSE","station_name":"Pasar Senen"},{"transit":false,"is_transit":false,"distance":1436,"i_long":106.839204,"station_name":"Kemayoran","station_id":"KMO","line":11,"time":4,"i_lat":-6.161728},{"station_name":"Rajawali","i_lat":-6.14505,"is_transit":false,"i_long":106.836569,"time":5,"distance":1901,"line":11,"station_id":"RJW","transit":false},{"is_transit":true,"time":3,"i_lat":-6.132549,"i_long":106.826365,"transit":true,"distance":1444,"station_id":"KPB","line":4,"station_name":"Kampung Bandan"},{"station_name":"Jakarta Kota","time":3,"i_long":106.812439,"is_transit":true,"distance":1364,"transit":true,"station_id":"JAKK","i_lat":-6.137569,"line":2},{"time":4,"station_name":"Jayakarta","line":2,"is_transit":false,"i_long":106.820901,"i_lat":-6.141205,"transit":false,"station_id":"JAY","distance":1264},{"i_long":106.82482,"is_transit":false,"distance":1080,"station_id":"MGB","time":2,"i_lat":-6.149769,"transit":false,"line":2,"station_name":"Manggabesar"},{"distance":906,"station_id":"SW","line":2,"station_name":"Sawah Besar","i_lat":-6.160725,"i_long":106.827103,"transit":false,"is_transit":false,"time":2}]]}