{"data":[[{"line":2,"distance":0,"is_transit":false,"station_id":"UI","station_name":"Univ. Indonesia","transit":false,"i_lat":-6.360749,"i_long":106.831474,"time":0},{"time":3,"station_id":"UP","is_transit":false,"i_long":106.834175,"distance":2264,"station_name":"Univ. Pancasila","i_lat":-6.339291,"line":2,"transit":false},{"station_name":"Lenteng Agung","line":2,"time":2,"transit":false,"i_long":106.832616,"station_id":"LNA","i_lat":-6.330363,"is_transit":false,"distance":1029},{"is_transit":false,"i_long":106.838896,"i_lat":-6.3080680000000005,"station_id":"TNT","transit":false,"time":3,"line":2,"distance":2671,"station_name":"Tanjung Barat"},{"i_long":106.843999,"station_name":"Pasar Minggu","i_lat":-6.2842400000000005,"line":2,"transit":false,"station_id":"PSM","is_transit":false,"time":4,"distance":2820},{"transit":false,"i_long":106.851577,"station_id":"PSMB","distance":2380,"station_name":"Pasar Minggu Baru","is_transit":false,"i_lat":-6.263214,"line":2,"time":2},{"station_id":"DRN","time":2,"transit":false,"is_transit":false,"distance":824,"station_name":"Duren Kalibata","i_long":106.85449,"i_lat":-6.255332,"line":0},{"station_id":"CW","is_transit":false,"line":0,"i_lat":-6.242512,"time":3,"distance":1546,"station_name":"Cawang","transit":false,"i_long":106.856607},{"transit":false,"line":2,"distance":1230,"i_long":106.857948,"station_name":"Tebet","i_lat":-6.226659,"time":2,"station_id":"TEB","is_transit":false},{"station_id":"MRI","line":0,"station_name":"Manggarai","time":4,"distance":2610,"i_long":106.84912,"transit":true,"is_transit":true,"i_lat":-6.209883},{"time":4,"station_name":"Cikini","is_transit":false,"i_lat":-6.198556,"line":0,"station_id":"CKI","transit":false,"i_long":106.840169,"distance":1590},{"time":3,"line":2,"i_long":106.832183,"distance":1750,"transit":false,"station_name":"Gondangdia","i_lat":-6.186295,"station_id":"GDD","is_transit":false},{"is_transit":false,"i_lat":-6.166716,"i_long":106.828284,"station_name":"Juanda","distance":2015,"line":2,"station_id":"JUA","time":4,"transit":false},{"distance":1149,"line":2,"is_transit":false,"station_name":"Sawah Besar","transit":false,"i_lat":-6.160725,"time":2,"station_id":"SW","i_long":106.827103}],[{"i_long":106.831474,"station_name":"Univ. Indonesia","is_transit":false,"i_lat":-6.360749,"distance":0,"line":2,"time":0,"transit":false,"station_id":"UI"},{"i_lat":-6.339291,"time":3,"distance":2264,"is_transit":false,"station_id":"UP","station_name":"Univ. Pancasila","transit":false,"i_long":106.834175,"line":2},{"station_id":"LNA","transit":false,"time":2,"line":2,"i_lat":-6.330363,"is_transit":false,"station_name":"Lenteng Agung","i_long":106.832616,"distance":1029},{"station_id":"TNT","i_lat":-6.3080680000000005,"distance":2671,"i_long":106.838896,"line":2,"station_name":"Tanjung Barat","time":3,"transit":false,"is_transit":false},{"time":4,"is_transit":false,"distance":2820,"transit":false,"station_id":"PSM","i_lat":-6.2842400000000005,"station_name":"Pasar Minggu","line":2,"i_long":106.843999},{"i_lat":-6.263214,"time":2,"station_name":"Pasar Minggu Baru","station_id":"PSMB","is_transit":false,"line":2,"i_long":106.851577,"distance":2380,"transit":false},{"is_transit":false,"i_long":106.85449,"transit":false,"i_lat":-6.255332,"distance":824,"station_id":"DRN","time":2,"line":0,"station_name":"Duren Kalibata"},{"i_long":106.856607,"line":0,"station_id":"CW","transit":false,"time":3,"distance":1546,"station_name":"Cawang","is_transit":false,"i_lat":-6.242512},{"is_transit":false,"station_id":"TEB","i_long":106.857948,"transit":false,"i_lat":-6.226659,"time":2,"line":2,"station_name":"Tebet","distance":1230},{"i_long":106.84912,"distance":2610,"station_id":"MRI","line":0,"station_name":"Manggarai","is_transit":true,"i_lat":-6.209883,"time":4,"transit":true},{"distance":3186,"line":1,"transit":false,"i_long":106.822649,"station_name":"Sudirman","is_transit":false,"i_lat":-6.202263,"station_id":"SUD","time":4},{"line":1,"station_id":"SUDB","is_transit":false,"distance":280,"transit":false,"i_lat":-6.201433,"time":1,"i_long":106.819881,"station_name":"Sudirman Baru"},{"time":1,"station_id":"KAT","i_lat":-6.20132,"transit":false,"distance":471,"i_long":106.816351,"line":1,"station_name":"Karet","is_transit":false},{"distance":2029,"transit":false,"i_lat":-6.185545,"i_long":106.811091,"station_name":"Tanah Abang","line":1,"time":5,"is_transit":true,"station_id":"THB"},{"time":8,"transit":true,"i_lat":-6.155215,"station_name":"Duri","i_long":106.800832,"distance":3632,"line":1,"is_transit":true,"station_id":"DU"},{"is_transit":false,"distance":1230,"transit":false,"line":0,"i_lat":-6.144674,"station_id":"AK","time":4,"i_long":106.79867,"station_name":"Angke"},{"station_id":"KPB","i_long":106.826365,"transit":false,"i_lat":-6.132549,"is_transit":true,"station_name":"Kampung Bandan","time":9,"distance":4102,"line":0},{"station_name":"Jakarta Kota","time":3,"station_id":"JAKK","is_transit":true,"transit":true,"i_lat":-6.137569,"line":0,"i_long":106.812439,"distance":1364},{"i_long":106.820901,"station_name":"Jayakarta","distance":1264,"transit":false,"station_id":"JAY","time":4,"line":7,"i_lat":-6.141205,"is_transit":false},{"transit":false,"station_name":"Manggabesar","distance":1080,"i_lat":-6.149769,"time":2,"station_id":"MGB","line":2,"i_long":106.82482,"is_transit":false},{"station_name":"Sawah Besar","transit":false,"i_lat":-6.160725,"is_transit":false,"time":2,"distance":906,"line":2,"station_id":"SW","i_long":106.827103}],[{"transit":false,"station_id":"UI","line":2,"i_lat":-6.360749,"time":0,"distance":0,"i_long":106.831474,"station_name":"Univ. Indonesia","is_transit":false},{"station_name":"Univ. Pancasila","distance":2264,"station_id":"UP","i_long":106.834175,"line":2,"is_transit":false,"time":3,"i_lat":-6.339291,"transit":false},{"is_transit":false,"transit":false,"i_lat":-6.330363,"i_long":106.832616,"station_id":"LNA","time":2,"station_name":"Lenteng Agung","line":2,"distance":1029},{"time":3,"transit":false,"distance":2671,"line":2,"is_transit":false,"station_id":"TNT","i_lat":-6.3080680000000005,"station_name":"Tanjung Barat","i_long":106.838896},{"is_transit":false,"time":4,"i_lat":-6.2842400000000005,"line":2,"transit":false,"station_id":"PSM","station_name":"Pasar Minggu","distance":2820,"i_long":106.843999},{"line":2,"distance":2380,"station_name":"Pasar Minggu Baru","station_id":"PSMB","i_long":106.851577,"is_transit":false,"time":2,"i_lat":-6.263214,"transit":false},{"distance":824,"time":2,"i_long":106.85449,"station_name":"Duren Kalibata","station_id":"DRN","transit":false,"is_transit":false,"i_lat":-6.255332,"line":0},{"time":3,"transit":false,"station_name":"Cawang","station_id":"CW","i_lat":-6.242512,"is_transit":false,"i_long":106.856607,"distance":1546,"line":0},{"i_long":106.857948,"station_id":"TEB","station_name":"Tebet","is_transit":false,"i_lat":-6.226659,"line":2,"distance":1230,"time":2,"transit":false},{"i_long":106.84912,"distance":2610,"i_lat":-6.209883,"transit":true,"time":4,"line":0,"is_transit":true,"station_id":"MRI","station_name":"Manggarai"},{"distance":1275,"station_id":"MTR","is_transit":false,"station_name":"Matraman","transit":false,"i_long":106.858896,"line":1,"i_lat":-6.212485,"time":2},{"distance":1377,"station_id":"JNG","station_name":"Jatinegara","time":8,"transit":true,"i_lat":-6.215091,"i_long":106.86807400000001,"line":0,"is_transit":true},{"is_transit":false,"i_long":106.861737,"station_name":"Pondok Jati","time":2,"distance":1236,"i_lat":-6.209188,"station_id":"POK","transit":false,"line":11},{"line":11,"i_lat":-6.193792,"i_long":106.855437,"station_id":"KMT","is_transit":false,"station_name":"Kramat","time":2,"distance":1829,"transit":false},{"distance":973,"is_transit":false,"line":11,"station_id":"GST","time":1,"i_long":106.850107,"station_name":"Gang Sentiong","i_lat":-6.185975,"transit":false},{"station_id":"PSE","is_transit":false,"transit":false,"i_long":106.84368,"distance":1567,"time":8,"i_lat":-6.174784,"station_name":"Pasar Senen","line":11},{"distance":1436,"i_lat":-6.161728,"i_long":106.839204,"line":11,"station_id":"KMO","transit":false,"is_transit":false,"station_name":"Kemayoran","time":4},{"is_transit":false,"line":11,"time":5,"transit":false,"i_long":106.836569,"station_id":"RJW","station_name":"Rajawali","distance":1901,"i_lat":-6.14505},{"line":0,"i_lat":-6.132549,"time":3,"station_id":"KPB","is_transit":true,"distance":1444,"station_name":"Kampung Bandan","i_long":106.826365,"transit":true},{"time":3,"station_name":"Jakarta Kota","is_transit":true,"distance":1364,"i_long":106.812439,"i_lat":-6.137569,"station_id":"JAKK","transit":true,"line":0},{"i_long":106.820901,"station_name":"Jayakarta","is_transit":false,"station_id":"JAY","transit":false,"line":7,"distance":1264,"time":4,"i_lat":-6.141205},{"is_transit":false,"distance":1080,"i_lat":-6.149769,"time":2,"transit":false,"line":2,"station_id":"MGB","station_name":"Manggabesar","i_long":106.82482},{"line":2,"i_lat":-6.160725,"distance":906,"station_name":"Sawah Besar","i_long":106.827103,"station_id":"SW","is_transit":false,"time":2,"transit":false}]]}