{"data":[[{"distance":0,"i_long":106.831474,"line":2,"time":0,"station_name":"Univ. Indonesia","station_id":"UI","transit":false,"is_transit":false,"i_lat":-6.360749},{"transit":false,"station_id":"UP","station_name":"Univ. Pancasila","i_long":106.834175,"is_transit":false,"i_lat":-6.339291,"distance":2264,"time":3,"line":2},{"i_lat":-6.330363,"line":2,"time":2,"station_id":"LNA","is_transit":false,"i_long":106.832616,"distance":1029,"transit":false,"station_name":"Lenteng Agung"},{"station_name":"Tanjung Barat","time":3,"i_lat":-6.3080680000000005,"distance":2671,"station_id":"TNT","transit":false,"line":2,"is_transit":false,"i_long":106.838896},{"transit":false,"time":4,"i_lat":-6.2842400000000005,"station_name":"Pasar Minggu","distance":2820,"i_long":106.843999,"line":2,"station_id":"PSM","is_transit":false},{"is_transit":false,"line":2,"time":2,"station_id":"PSMB","distance":2380,"transit":false,"station_name":"Pasar Minggu Baru","i_long":106.851577,"i_lat":-6.263214},{"i_long":106.85449,"i_lat":-6.255332,"line":2,"transit":false,"is_transit":false,"station_id":"DRN","time":2,"distance":824,"station_name":"Duren Kalibata"},{"station_name":"Cawang","i_lat":-6.242512,"i_long":106.856607,"distance":1546,"time":3,"is_transit":false,"line":2,"transit":false,"station_id":"CW"},{"i_long":106.857948,"line":2,"transit":false,"station_id":"TEB","is_transit":false,"i_lat":-6.226659,"station_name":"Tebet","time":2,"distance":1230},{"station_id":"MRI","transit":true,"distance":2610,"i_lat":-6.209883,"is_transit":true,"i_long":106.84912,"line":2,"time":4,"station_name":"Manggarai"},{"i_lat":-6.202263,"i_long":106.822649,"line":1,"time":4,"transit":false,"distance":3186,"station_name":"Sudirman","is_transit":false,"station_id":"SUD"},{"line":1,"time":1,"i_long":106.819881,"station_name":"Sudirman Baru","transit":false,"station_id":"SUDB","distance":280,"is_transit":false,"i_lat":-6.201433},{"station_id":"KAT","i_lat":-6.20132,"is_transit":false,"time":1,"line":1,"station_name":"Karet","i_long":106.816351,"transit":false,"distance":471},{"i_long":106.811091,"station_name":"Tanah Abang","time":5,"i_lat":-6.185545,"distance":2029,"line":1,"is_transit":false,"transit":false,"station_id":"THB"},{"station_id":"DU","station_name":"Duri","i_lat":-6.155215,"distance":3632,"is_transit":true,"i_long":106.800832,"time":8,"line":1,"transit":true},{"is_transit":false,"station_id":"GRG","i_lat":-6.162021,"transit":false,"station_name":"Grogol","line":5,"time":3,"distance":1700,"i_long":106.788277},{"time":2,"distance":2036,"transit":false,"station_id":"PSG","line":5,"is_transit":false,"i_long":106.771379,"station_name":"Pesing","i_lat":-6.161433},{"distance":1614,"i_lat":-6.1587309999999995,"is_transit":false,"i_long":106.756522,"line":5,"transit":false,"station_id":"TKO","time":2,"station_name":"Taman Kota"}],[{"is_transit":false,"station_name":"Univ. Indonesia","station_id":"UI","distance":0,"transit":false,"i_long":106.831474,"time":0,"i_lat":-6.360749,"line":2},{"line":2,"time":3,"is_transit":false,"i_long":106.834175,"station_name":"Univ. Pancasila","distance":2264,"i_lat":-6.339291,"transit":false,"station_id":"UP"},{"time":2,"is_transit":false,"distance":1029,"station_id":"LNA","i_lat":-6.330363,"station_name":"Lenteng Agung","i_long":106.832616,"line":2,"transit":false},{"distance":2671,"station_name":"Tanjung Barat","is_transit":false,"i_long":106.838896,"line":2,"time":3,"i_lat":-6.3080680000000005,"transit":false,"station_id":"TNT"},{"distance":2820,"i_lat":-6.2842400000000005,"i_long":106.843999,"time":4,"station_name":"Pasar Minggu","line":2,"transit":false,"is_transit":false,"station_id":"PSM"},{"station_id":"PSMB","line":2,"distance":2380,"i_lat":-6.263214,"time":2,"transit":false,"is_transit":false,"station_name":"Pasar Minggu Baru","i_long":106.851577},{"i_lat":-6.255332,"line":2,"time":2,"i_long":106.85449,"transit":false,"distance":824,"station_name":"Duren Kalibata","station_id":"DRN","is_transit":false},{"is_transit":false,"i_long":106.856607,"i_lat":-6.242512,"time":3,"line":2,"station_id":"CW","station_name":"Cawang","transit":false,"distance":1546},{"distance":1230,"i_long":106.857948,"time":2,"i_lat":-6.226659,"is_transit":false,"line":2,"station_name":"Tebet","station_id":"TEB","transit":false},{"transit":false,"distance":2610,"station_name":"Manggarai","is_transit":false,"i_lat":-6.209883,"station_id":"MRI","line":2,"time":4,"i_long":106.84912},{"time":4,"transit":false,"is_transit":false,"station_name":"Cikini","station_id":"CKI","distance":1590,"i_lat":-6.198556,"i_long":106.840169,"line":2},{"station_id":"GDD","station_name":"Gondangdia","line":2,"distance":1750,"time":3,"i_long":106.832183,"i_lat":-6.186295,"transit":false,"is_transit":false},{"line":2,"is_transit":false,"i_lat":-6.166716,"distance":2015,"transit":false,"time":4,"station_name":"Juanda","station_id":"JUA","i_long":106.828284},{"is_transit":false,"distance":1149,"transit":false,"i_long":106.827103,"i_lat":-6.160725,"station_name":"Sawah Besar","station_id":"SW","line":2,"time":2},{"station_id":"MGB","time":2,"transit":false,"station_name":"Manggabesar","distance":906,"i_long":106.82482,"is_transit":false,"i_lat":-6.149769,"line":2},{"i_long":106.820901,"transit":false,"time":2,"distance":1080,"is_transit":false,"line":2,"station_id":"JAY","station_name":"Jayakarta","i_lat":-6.141205},{"is_transit":true,"station_id":"JAKK","transit":true,"distance":1264,"station_name":"Jakarta Kota","i_lat":-6.137569,"time":4,"line":2,"i_long":106.812439},{"time":3,"station_name":"Kampung Bandan","transit":true,"station_id":"KPB","i_lat":-6.132549,"i_long":106.826365,"line":4,"distance":1364,"is_transit":true},{"transit":false,"station_name":"Angke","i_lat":-6.144674,"time":9,"distance":4102,"is_transit":false,"i_long":106.79867,"line":1,"station_id":"AK"},{"is_transit":true,"i_long":106.800832,"station_name":"Duri","transit":true,"station_id":"DU","time":4,"distance":1230,"i_lat":-6.155215,"line":1},{"distance":1700,"station_name":"Grogol","i_lat":-6.162021,"time":3,"transit":false,"line":5,"station_id":"GRG","is_transit":false,"i_long":106.788277},{"transit":false,"i_lat":-6.161433,"station_id":"PSG","distance":2036,"line":5,"time":2,"station_name":"Pesing","is_transit":false,"i_long":106.771379},{"is_transit":false,"transit":false,"i_lat":-6.1587309999999995,"i_long":106.756522,"station_id":"TKO","station_name":"Taman Kota","time":2,"distance":1614,"line":5}],[{"transit":false,"station_name":"Univ. Indonesia","station_id":"UI","is_transit":false,"time":0,"distance":0,"i_lat":-6.360749,"line":2,"i_long":106.831474},{"station_id":"UP","time":3,"is_transit":false,"i_lat":-6.339291,"line":2,"distance":2264,"station_name":"Univ. Pancasila","i_long":106.834175,"transit":false},{"line":2,"is_transit":false,"time":2,"transit":false,"station_id":"LNA","station_name":"Lenteng Agung","i_long":106.832616,"distance":1029,"i_lat":-6.330363},{"transit":false,"station_id":"TNT","line":2,"i_long":106.838896,"i_lat":-6.3080680000000005,"distance":2671,"is_transit":false,"station_name":"Tanjung Barat","time":3},{"station_name":"Pasar Minggu","station_id":"PSM","i_lat":-6.2842400000000005,"distance":2820,"i_long":106.843999,"time":4,"line":2,"transit":false,"is_transit":false},{"is_transit":false,"i_long":106.851577,"station_id":"PSMB","distance":2380,"transit":false,"i_lat":-6.263214,"time":2,"station_name":"Pasar Minggu Baru","line":2},{"time":2,"station_id":"DRN","station_name":"Duren Kalibata","distance":824,"is_transit":false,"line":2,"i_long":106.85449,"i_lat":-6.255332,"transit":false},{"i_lat":-6.242512,"station_id":"CW","station_name":"Cawang","time":3,"is_transit":false,"line":2,"i_long":106.856607,"distance":1546,"transit":false},{"i_long":106.857948,"station_id":"TEB","is_transit":false,"i_lat":-6.226659,"station_name":"Tebet","time":2,"transit":false,"distance":1230,"line":2},{"station_name":"Manggarai","i_long":106.84912,"distance":2610,"transit":true,"station_id":"MRI","i_lat":-6.209883,"is_transit":true,"line":2,"time":4},{"station_name":"Matraman","station_id":"MTR","distance":1275,"is_transit":false,"time":2,"i_long":106.858896,"transit":false,"i_lat":-6.212485,"line":1},{"time":8,"station_name":"Jatinegara","transit":true,"i_lat":-6.215091,"is_transit":true,"line":1,"i_long":106.86807400000001,"station_id":"JNG","distance":1377},{"station_id":"POK","transit":false,"line":11,"i_long":106.861737,"time":2,"i_lat":-6.209188,"distance":1236,"station_name":"Pondok Jati","is_transit":false},{"line":11,"time":2,"i_lat":-6.193792,"i_long":106.855437,"station_name":"Kramat","transit":false,"station_id":"KMT","is_transit":false,"distance":1829},{"time":1,"is_transit":false,"distance":973,"station_id":"GST","i_long":106.850107,"station_name":"Gang Sentiong","i_lat":-6.185975,"line":11,"transit":false},{"distance":1567,"station_id":"PSE","transit":false,"is_transit":false,"i_lat":-6.174784,"i_long":106.84368,"time":8,"line":11,"station_name":"Pasar Senen"},{"station_name":"Kemayoran","i_lat":-6.161728,"i_long":106.839204,"station_id":"KMO","distance":1436,"transit":false,"line":11,"time":4,"is_transit":false},{"station_id":"RJW","line":11,"time":5,"station_name":"Rajawali","is_transit":false,"transit":false,"i_lat":-6.14505,"i_long":106.836569,"distance":1901},{"distance":1444,"is_transit":true,"station_id":"KPB","transit":true,"line":4,"time":3,"i_lat":-6.132549,"i_long":106.826365,"station_name":"Kampung Bandan"},{"is_transit":false,"distance":4102,"transit":false,"station_id":"AK","station_name":"Angke","time":9,"i_lat":-6.144674,"line":1,"i_long":106.79867},{"i_lat":-6.155215,"i_long":106.800832,"station_name":"Duri","station_id":"DU","line":1,"transit":true,"is_transit":true,"time":4,"distance":1230},{"station_name":"Grogol","is_transit":false,"station_id":"GRG","transit":false,"i_lat":-6.162021,"distance":1700,"line":5,"i_long":106.788277,"time":3},{"is_transit":false,"station_name":"Pesing","i_lat":-6.161433,"distance":2036,"transit":false,"time":2,"line":5,"station_id":"PSG","i_long":106.771379},{"i_long":106.756522,"time":2,"station_name":"Taman Kota","transit":false,"i_lat":-6.1587309999999995,"station_id":"TKO","distance":1614,"line":5,"is_transit":false}]]}