{"data":[[{"transit":false,"time":0,"line":2,"station_name":"Univ. Indonesia","i_lat":-6.360749,"distance":0,"is_transit":false,"i_long":106.831474,"station_id":"UI"},{"time":3,"line":2,"station_name":"Univ. Pancasila","i_long":106.834175,"is_transit":false,"i_lat":-6.339291,"station_id":"UP","distance":2264,"transit":false},{"line":2,"time":2,"i_lat":-6.330363,"station_id":"LNA","is_transit":false,"distance":1029,"station_name":"Lenteng Agung","transit":false,"i_long":106.832616},{"distance":2671,"transit":false,"station_name":"Tanjung Barat","i_lat":-6.3080680000000005,"line":2,"is_transit":false,"station_id":"TNT","time":3,"i_long":106.838896},{"transit":false,"is_transit":false,"i_long":106.843999,"station_id":"PSM","distance":2820,"i_lat":-6.2842400000000005,"time":4,"station_name":"Pasar Minggu","line":2},{"distance":2380,"station_id":"PSMB","station_name":"Pasar Minggu Baru","i_lat":-6.263214,"i_long":106.851577,"transit":false,"time":2,"is_transit":false,"line":2},{"time":2,"i_long":106.85449,"is_transit":false,"line":0,"transit":false,"i_lat":-6.255332,"station_id":"DRN","station_name":"Duren Kalibata","distance":824},{"station_name":"Cawang","time":3,"distance":1546,"transit":false,"line":0,"i_lat":-6.242512,"station_id":"CW","is_transit":false,"i_long":106.856607},{"station_id":"TEB","station_name":"Tebet","is_transit":false,"time":2,"transit":false,"line":2,"i_lat":-6.226659,"i_long":106.857948,"distance":1230},{"is_transit":true,"time":4,"station_id":"MRI","station_name":"Manggarai","distance":2610,"transit":true,"i_lat":-6.209883,"i_long":106.84912,"line":0},{"i_long":106.822649,"is_transit":false,"distance":3186,"station_name":"Sudirman","line":1,"time":4,"station_id":"SUD","transit":false,"i_lat":-6.202263},{"is_transit":false,"time":1,"line":1,"distance":280,"i_lat":-6.201433,"i_long":106.819881,"station_name":"Sudirman Baru","station_id":"SUDB","transit":false},{"is_transit":false,"station_id":"KAT","time":1,"distance":471,"i_lat":-6.20132,"transit":false,"i_long":106.816351,"line":1,"station_name":"Karet"},{"transit":true,"i_lat":-6.185545,"time":5,"line":1,"station_name":"Tanah Abang","is_transit":true,"distance":2029,"i_long":106.811091,"station_id":"THB"},{"is_transit":false,"i_lat":-6.207404,"time":6,"station_name":"Palmerah","distance":3191,"transit":false,"station_id":"PLM","i_long":106.79689,"line":6},{"station_id":"KBY","distance":3737,"line":6,"station_name":"Kebayoran","time":7,"is_transit":false,"transit":false,"i_lat":-6.237242,"i_long":106.780334},{"line":6,"station_id":"PDJ","transit":false,"station_name":"Pondokranji","time":8,"i_lat":-6.276362,"i_long":106.74273,"distance":6218,"is_transit":false},{"is_transit":false,"i_lat":-6.288927,"line":6,"station_name":"Jurangmangu","distance":2179,"station_id":"JMU","i_long":106.728916,"transit":false,"time":3},{"station_name":"Sudimara","line":6,"i_long":106.712277,"time":4,"i_lat":-6.296963,"is_transit":false,"station_id":"SDM","transit":false,"distance":1994},{"time":6,"i_lat":-6.314823,"is_transit":false,"distance":4566,"station_id":"RU","transit":false,"station_name":"Rawa Buntu","line":6,"i_long":106.675475},{"distance":2413,"time":4,"station_name":"Serpong","station_id":"SRP","is_transit":false,"line":6,"i_lat":-6.319871,"transit":false,"i_long":106.66566},{"line":0,"time":4,"is_transit":false,"i_long":106.640411,"transit":false,"i_lat":-6.32484,"station_name":"Cisauk","distance":1784,"station_id":"CSK"},{"station_id":"CC","transit":false,"station_name":"Cicayur","time":4,"i_long":106.617853,"is_transit":false,"distance":2519,"i_lat":-6.329547,"line":0},{"is_transit":false,"transit":false,"time":8,"distance":5968,"station_name":"Parung Panjang","i_lat":-6.3441410000000005,"station_id":"PRP","i_long":106.568863,"line":6},{"line":0,"time":9,"station_id":"CJT","is_transit":false,"distance":7025,"transit":false,"i_lat":-6.354349,"station_name":"Cilejit","i_long":106.508482},{"time":6,"station_id":"DAR","station_name":"Daru","is_transit":false,"i_long":106.491338,"distance":2675,"transit":false,"i_lat":-6.338021,"line":0},{"is_transit":false,"station_id":"TEJ","i_lat":-6.327251,"station_name":"Tenjo","distance":3902,"transit":false,"line":6,"i_long":106.460812,"time":5}],[{"i_lat":-6.360749,"station_id":"UI","time":0,"distance":0,"i_long":106.831474,"line":2,"is_transit":false,"transit":false,"station_name":"Univ. Indonesia"},{"transit":false,"station_id":"UP","station_name":"Univ. Pancasila","is_transit":false,"distance":2264,"i_lat":-6.339291,"i_long":106.834175,"time":3,"line":2},{"station_name":"Lenteng Agung","transit":false,"i_lat":-6.330363,"is_transit":false,"distance":1029,"station_id":"LNA","time":2,"line":2,"i_long":106.832616},{"station_id":"TNT","time":3,"distance":2671,"line":2,"i_long":106.838896,"station_name":"Tanjung Barat","is_transit":false,"transit":false,"i_lat":-6.3080680000000005},{"is_transit":false,"i_long":106.843999,"distance":2820,"transit":false,"time":4,"station_name":"Pasar Minggu","station_id":"PSM","i_lat":-6.2842400000000005,"line":2},{"station_name":"Pasar Minggu Baru","is_transit":false,"distance":2380,"transit":false,"time":2,"station_id":"PSMB","i_long":106.851577,"i_lat":-6.263214,"line":2},{"transit":false,"line":0,"i_long":106.85449,"distance":824,"i_lat":-6.255332,"is_transit":false,"station_name":"Duren Kalibata","time":2,"station_id":"DRN"},{"station_id":"CW","line":0,"distance":1546,"time":3,"station_name":"Cawang","is_transit":false,"transit":false,"i_lat":-6.242512,"i_long":106.856607},{"is_transit":false,"line":2,"station_name":"Tebet","time":2,"transit":false,"i_lat":-6.226659,"distance":1230,"station_id":"TEB","i_long":106.857948},{"transit":true,"i_long":106.84912,"line":0,"station_id":"MRI","i_lat":-6.209883,"is_transit":true,"distance":2610,"time":4,"station_name":"Manggarai"},{"distance":1590,"time":4,"transit":false,"i_lat":-6.198556,"station_id":"CKI","line":0,"station_name":"Cikini","is_transit":false,"i_long":106.840169},{"is_transit":false,"time":3,"station_id":"GDD","transit":false,"distance":1750,"i_lat":-6.186295,"i_long":106.832183,"station_name":"Gondangdia","line":2},{"station_name":"Juanda","distance":2015,"station_id":"JUA","time":4,"transit":false,"line":2,"i_lat":-6.166716,"i_long":106.828284,"is_transit":false},{"station_name":"Sawah Besar","time":2,"distance":1149,"is_transit":false,"transit":false,"i_lat":-6.160725,"station_id":"SW","i_long":106.827103,"line":2},{"is_transit":false,"transit":false,"i_lat":-6.149769,"station_id":"MGB","time":2,"distance":906,"i_long":106.82482,"line":2,"station_name":"Manggabesar"},{"i_long":106.820901,"line":7,"station_id":"JAY","distance":1080,"time":2,"i_lat":-6.141205,"transit":false,"station_name":"Jayakarta","is_transit":false},{"station_name":"Jakarta Kota","transit":true,"i_lat":-6.137569,"is_transit":true,"line":0,"distance":1264,"i_long":106.812439,"time":4,"station_id":"JAKK"},{"time":3,"transit":false,"i_long":106.826365,"station_name":"Kampung Bandan","is_transit":true,"line":0,"i_lat":-6.132549,"station_id":"KPB","distance":1364},{"transit":false,"station_id":"AK","line":0,"i_lat":-6.144674,"time":9,"is_transit":false,"distance":4102,"i_long":106.79867,"station_name":"Angke"},{"station_id":"DU","line":1,"distance":1230,"time":4,"transit":true,"station_name":"Duri","i_lat":-6.155215,"i_long":106.800832,"is_transit":true},{"station_id":"THB","time":8,"is_transit":true,"i_lat":-6.185545,"transit":true,"station_name":"Tanah Abang","line":1,"distance":3632,"i_long":106.811091},{"transit":false,"i_lat":-6.207404,"is_transit":false,"station_name":"Palmerah","i_long":106.79689,"time":6,"line":6,"station_id":"PLM","distance":3191},{"station_name":"Kebayoran","transit":false,"i_lat":-6.237242,"line":6,"i_long":106.780334,"station_id":"KBY","is_transit":false,"time":7,"distance":3737},{"i_long":106.74273,"station_name":"Pondokranji","time":8,"station_id":"PDJ","i_lat":-6.276362,"distance":6218,"transit":false,"line":6,"is_transit":false},{"i_lat":-6.288927,"line":6,"station_name":"Jurangmangu","time":3,"is_transit":false,"i_long":106.728916,"distance":2179,"station_id":"JMU","transit":false},{"i_long":106.712277,"line":6,"station_id":"SDM","i_lat":-6.296963,"transit":false,"time":4,"station_name":"Sudimara","distance":1994,"is_transit":false},{"station_id":"RU","i_lat":-6.314823,"i_long":106.675475,"time":6,"station_name":"Rawa Buntu","distance":4566,"line":6,"is_transit":false,"transit":false},{"line":6,"distance":2413,"is_transit":false,"transit":false,"i_lat":-6.319871,"time":4,"station_name":"Serpong","station_id":"SRP","i_long":106.66566},{"i_lat":-6.32484,"line":0,"is_transit":false,"transit":false,"station_id":"CSK","distance":1784,"time":4,"i_long":106.640411,"station_name":"Cisauk"},{"line":0,"station_name":"Cicayur","is_transit":false,"station_id":"CC","i_lat":-6.329547,"distance":2519,"transit":false,"time":4,"i_long":106.617853},{"is_transit":false,"line":6,"station_name":"Parung Panjang","station_id":"PRP","time":8,"transit":false,"i_lat":-6.3441410000000005,"i_long":106.568863,"distance":5968},{"station_name":"Cilejit","i_long":106.508482,"distance":7025,"station_id":"CJT","time":9,"transit":false,"is_transit":false,"i_lat":-6.354349,"line":0},{"station_id":"DAR","time":6,"line":0,"transit":false,"i_lat":-6.338021,"i_long":106.491338,"is_transit":false,"station_name":"Daru","distance":2675},{"distance":3902,"station_id":"TEJ","is_transit":false,"i_lat":-6.327251,"time":5,"station_name":"Tenjo","transit":false,"line":6,"i_long":106.460812}],[{"distance":0,"station_name":"Univ. Indonesia","time":0,"transit":false,"line":2,"is_transit":false,"i_long":106.831474,"station_id":"UI","i_lat":-6.360749},{"station_id":"UP","time":3,"station_name":"Univ. Pancasila","i_long":106.834175,"is_transit":false,"distance":2264,"transit":false,"line":2,"i_lat":-6.339291},{"time":2,"distance":1029,"i_long":106.832616,"station_id":"LNA","line":2,"station_name":"Lenteng Agung","transit":false,"i_lat":-6.330363,"is_transit":false},{"time":3,"is_transit":false,"station_name":"Tanjung Barat","i_lat":-6.3080680000000005,"line":2,"station_id":"TNT","i_long":106.838896,"transit":false,"distance":2671},{"line":2,"is_transit":false,"transit":false,"station_id":"PSM","station_name":"Pasar Minggu","i_lat":-6.2842400000000005,"i_long":106.843999,"distance":2820,"time":4},{"i_long":106.851577,"i_lat":-6.263214,"station_id":"PSMB","station_name":"Pasar Minggu Baru","is_transit":false,"time":2,"line":2,"distance":2380,"transit":false},{"i_lat":-6.255332,"station_name":"Duren Kalibata","station_id":"DRN","is_transit":false,"time":2,"transit":false,"line":0,"distance":824,"i_long":106.85449},{"i_long":106.856607,"line":0,"time":3,"distance":1546,"is_transit":false,"station_id":"CW","station_name":"Cawang","transit":false,"i_lat":-6.242512},{"time":2,"i_long":106.857948,"station_name":"Tebet","is_transit":false,"transit":false,"distance":1230,"line":2,"i_lat":-6.226659,"station_id":"TEB"},{"i_long":106.84912,"station_name":"Manggarai","distance":2610,"i_lat":-6.209883,"station_id":"MRI","line":0,"is_transit":true,"time":4,"transit":true},{"i_lat":-6.212485,"transit":false,"line":1,"station_id":"MTR","time":2,"distance":1275,"is_transit":false,"i_long":106.858896,"station_name":"Matraman"},{"i_lat":-6.215091,"station_name":"Jatinegara","station_id":"JNG","is_transit":true,"distance":1377,"i_long":106.86807400000001,"transit":true,"line":0,"time":8},{"transit":false,"station_name":"Pondok Jati","i_long":106.861737,"time":2,"distance":1236,"line":11,"station_id":"POK","is_transit":false,"i_lat":-6.209188},{"line":11,"station_id":"KMT","station_name":"Kramat","is_transit":false,"i_long":106.855437,"distance":1829,"time":2,"transit":false,"i_lat":-6.193792},{"station_id":"GST","time":1,"is_transit":false,"i_lat":-6.185975,"station_name":"Gang Sentiong","i_long":106.850107,"transit":false,"line":11,"distance":973},{"is_transit":false,"i_long":106.84368,"station_id":"PSE","i_lat":-6.174784,"line":11,"distance":1567,"transit":false,"station_name":"Pasar Senen","time":8},{"station_name":"Kemayoran","is_transit":false,"station_id":"KMO","i_long":106.839204,"distance":1436,"time":4,"transit":false,"line":11,"i_lat":-6.161728},{"i_lat":-6.14505,"distance":1901,"line":11,"time":5,"is_transit":false,"transit":false,"station_name":"Rajawali","i_long":106.836569,"station_id":"RJW"},{"i_lat":-6.132549,"i_long":106.826365,"is_transit":true,"time":3,"line":0,"station_id":"KPB","distance":1444,"transit":true,"station_name":"Kampung Bandan"},{"i_long":106.79867,"line":0,"station_name":"Angke","is_transit":false,"station_id":"AK","time":9,"distance":4102,"i_lat":-6.144674,"transit":false},{"distance":1230,"is_transit":true,"transit":true,"i_long":106.800832,"i_lat":-6.155215,"station_id":"DU","station_name":"Duri","time":4,"line":1},{"time":8,"distance":3632,"transit":true,"i_lat":-6.185545,"i_long":106.811091,"is_transit":true,"station_name":"Tanah Abang","line":1,"station_id":"THB"},{"transit":false,"station_id":"PLM","i_lat":-6.207404,"i_long":106.79689,"station_name":"Palmerah","line":6,"is_transit":false,"time":6,"distance":3191},{"station_id":"KBY","time":7,"i_long":106.780334,"i_lat":-6.237242,"is_transit":false,"station_name":"Kebayoran","transit":false,"distance":3737,"line":6},{"transit":false,"i_lat":-6.276362,"i_long":106.74273,"is_transit":false,"distance":6218,"station_id":"PDJ","time":8,"station_name":"Pondokranji","line":6},{"transit":false,"i_long":106.728916,"i_lat":-6.288927,"station_id":"JMU","distance":2179,"time":3,"line":6,"station_name":"Jurangmangu","is_transit":false},{"i_long":106.712277,"station_id":"SDM","transit":false,"station_name":"Sudimara","line":6,"time":4,"is_transit":false,"distance":1994,"i_lat":-6.296963},{"station_name":"Rawa Buntu","line":6,"i_long":106.675475,"distance":4566,"transit":false,"i_lat":-6.314823,"time":6,"station_id":"RU","is_transit":false},{"station_name":"Serpong","distance":2413,"i_lat":-6.319871,"i_long":106.66566,"station_id":"SRP","is_transit":false,"time":4,"line":6,"transit":false},{"distance":1784,"is_transit":false,"transit":false,"station_name":"Cisauk","time":4,"i_lat":-6.32484,"station_id":"CSK","i_long":106.640411,"line":0},{"i_long":106.617853,"distance":2519,"line":0,"station_name":"Cicayur","station_id":"CC","i_lat":-6.329547,"time":4,"transit":false,"is_transit":false},{"distance":5968,"i_lat":-6.3441410000000005,"transit":false,"i_long":106.568863,"time":8,"is_transit":false,"line":6,"station_name":"Parung Panjang","station_id":"PRP"},{"time":9,"station_id":"CJT","distance":7025,"transit":false,"is_transit":false,"i_long":106.508482,"line":0,"i_lat":-6.354349,"station_name":"Cilejit"},{"time":6,"distance":2675,"i_lat":-6.338021,"line":0,"station_name":"Daru","station_id":"DAR","is_transit":false,"transit":false,"i_long":106.491338},{"station_id":"TEJ","station_name":"Tenjo","is_transit":false,"time":5,"distance":3902,"i_lat":-6.327251,"i_long":106.460812,"transit":false,"line":6}]]}