{"data":[[{"station_name":"Univ. Indonesia","i_lat":-6.360749,"time":0,"distance":0,"station_id":"UI","is_transit":false,"i_long":106.831474,"transit":false,"line":2},{"distance":2264,"station_name":"Univ. Pancasila","i_lat":-6.339291,"is_transit":false,"line":2,"transit":false,"station_id":"UP","time":3,"i_long":106.834175},{"line":2,"distance":1029,"time":2,"transit":false,"i_lat":-6.330363,"i_long":106.832616,"station_name":"Lenteng Agung","is_transit":false,"station_id":"LNA"},{"distance":2671,"line":2,"i_long":106.838896,"station_name":"Tanjung Barat","transit":false,"station_id":"TNT","time":3,"i_lat":-6.3080680000000005,"is_transit":false},{"transit":false,"line":2,"station_name":"Pasar Minggu","is_transit":false,"station_id":"PSM","i_lat":-6.2842400000000005,"time":4,"distance":2820,"i_long":106.843999},{"station_id":"PSMB","station_name":"Pasar Minggu Baru","is_transit":false,"transit":false,"distance":2380,"i_long":106.851577,"time":2,"line":2,"i_lat":-6.263214},{"is_transit":false,"distance":824,"station_id":"DRN","station_name":"Duren Kalibata","time":2,"transit":false,"i_lat":-6.255332,"i_long":106.85449,"line":2},{"i_lat":-6.242512,"station_name":"Cawang","is_transit":false,"i_long":106.856607,"time":3,"distance":1546,"station_id":"CW","transit":false,"line":2},{"line":2,"station_id":"TEB","station_name":"Tebet","is_transit":false,"i_lat":-6.226659,"distance":1230,"i_long":106.857948,"time":2,"transit":false},{"i_long":106.84912,"line":2,"time":4,"distance":2610,"station_id":"MRI","station_name":"Manggarai","i_lat":-6.209883,"is_transit":true,"transit":true},{"line":1,"station_name":"Sudirman","time":4,"distance":3186,"transit":false,"station_id":"SUD","is_transit":false,"i_lat":-6.202263,"i_long":106.822649},{"station_name":"Sudirman Baru","is_transit":false,"time":1,"distance":280,"i_lat":-6.201433,"i_long":106.819881,"line":1,"station_id":"SUDB","transit":false},{"time":1,"i_lat":-6.20132,"transit":false,"station_id":"KAT","is_transit":false,"line":1,"station_name":"Karet","i_long":106.816351,"distance":471},{"station_id":"THB","i_long":106.811091,"transit":true,"is_transit":true,"line":1,"station_name":"Tanah Abang","distance":2029,"time":5,"i_lat":-6.185545},{"distance":3191,"time":6,"is_transit":false,"station_name":"Palmerah","i_long":106.79689,"line":6,"station_id":"PLM","i_lat":-6.207404,"transit":false},{"station_name":"Kebayoran","is_transit":false,"i_long":106.780334,"station_id":"KBY","distance":3737,"transit":false,"line":6,"i_lat":-6.237242,"time":7},{"i_lat":-6.276362,"line":6,"transit":false,"station_id":"PDJ","distance":6218,"station_name":"Pondokranji","is_transit":false,"i_long":106.74273,"time":8},{"i_long":106.728916,"distance":2179,"transit":false,"station_name":"Jurangmangu","station_id":"JMU","i_lat":-6.288927,"line":6,"is_transit":false,"time":3},{"time":4,"station_id":"SDM","station_name":"Sudimara","distance":1994,"transit":false,"i_long":106.712277,"line":6,"is_transit":false,"i_lat":-6.296963},{"time":6,"is_transit":false,"station_name":"Rawa Buntu","i_long":106.675475,"distance":4566,"station_id":"RU","i_lat":-6.314823,"line":6,"transit":false},{"transit":false,"i_long":106.66566,"station_id":"SRP","distance":2413,"line":6,"station_name":"Serpong","time":4,"i_lat":-6.319871,"is_transit":false},{"distance":1784,"i_long":106.640411,"station_name":"Cisauk","station_id":"CSK","i_lat":-6.32484,"line":3,"transit":false,"time":4,"is_transit":false},{"i_long":106.617853,"is_transit":false,"time":4,"station_id":"CC","line":3,"distance":2519,"transit":false,"station_name":"Cicayur","i_lat":-6.329547},{"is_transit":false,"i_lat":-6.3441410000000005,"transit":false,"distance":5968,"station_name":"Parung Panjang","station_id":"PRP","i_long":106.568863,"time":8,"line":6},{"time":9,"i_lat":-6.354349,"distance":7025,"i_long":106.508482,"station_name":"Cilejit","line":3,"is_transit":false,"transit":false,"station_id":"CJT"},{"line":0,"time":6,"is_transit":false,"transit":false,"station_id":"DAR","i_lat":-6.338021,"i_long":106.491338,"distance":2675,"station_name":"Daru"},{"i_long":106.460812,"line":6,"transit":false,"i_lat":-6.327251,"distance":3902,"time":5,"station_name":"Tenjo","is_transit":false,"station_id":"TEJ"}],[{"station_name":"Univ. Indonesia","transit":false,"line":2,"distance":0,"i_lat":-6.360749,"is_transit":false,"i_long":106.831474,"time":0,"station_id":"UI"},{"i_long":106.834175,"is_transit":false,"station_name":"Univ. Pancasila","time":3,"distance":2264,"station_id":"UP","transit":false,"line":2,"i_lat":-6.339291},{"i_lat":-6.330363,"time":2,"transit":false,"station_id":"LNA","station_name":"Lenteng Agung","is_transit":false,"distance":1029,"line":2,"i_long":106.832616},{"line":2,"transit":false,"station_id":"TNT","station_name":"Tanjung Barat","is_transit":false,"distance":2671,"time":3,"i_lat":-6.3080680000000005,"i_long":106.838896},{"station_name":"Pasar Minggu","station_id":"PSM","time":4,"i_long":106.843999,"transit":false,"distance":2820,"i_lat":-6.2842400000000005,"line":2,"is_transit":false},{"transit":false,"station_name":"Pasar Minggu Baru","distance":2380,"line":2,"station_id":"PSMB","i_lat":-6.263214,"i_long":106.851577,"time":2,"is_transit":false},{"line":2,"station_id":"DRN","distance":824,"i_lat":-6.255332,"is_transit":false,"time":2,"transit":false,"station_name":"Duren Kalibata","i_long":106.85449},{"i_long":106.856607,"line":2,"time":3,"distance":1546,"transit":false,"station_id":"CW","i_lat":-6.242512,"is_transit":false,"station_name":"Cawang"},{"line":2,"i_lat":-6.226659,"station_name":"Tebet","distance":1230,"i_long":106.857948,"transit":false,"time":2,"is_transit":false,"station_id":"TEB"},{"line":2,"station_name":"Manggarai","station_id":"MRI","distance":2610,"i_long":106.84912,"transit":false,"i_lat":-6.209883,"time":4,"is_transit":false},{"i_lat":-6.198556,"line":2,"station_name":"Cikini","station_id":"CKI","transit":false,"i_long":106.840169,"time":4,"distance":1590,"is_transit":false},{"distance":1750,"station_id":"GDD","time":3,"i_lat":-6.186295,"line":2,"i_long":106.832183,"is_transit":false,"transit":false,"station_name":"Gondangdia"},{"station_name":"Juanda","line":2,"i_long":106.828284,"distance":2015,"time":4,"i_lat":-6.166716,"transit":false,"is_transit":false,"station_id":"JUA"},{"transit":false,"time":2,"distance":1149,"is_transit":false,"station_id":"SW","i_long":106.827103,"i_lat":-6.160725,"station_name":"Sawah Besar","line":2},{"time":2,"i_lat":-6.149769,"station_id":"MGB","transit":false,"station_name":"Manggabesar","i_long":106.82482,"is_transit":false,"line":2,"distance":906},{"line":2,"station_name":"Jayakarta","i_long":106.820901,"is_transit":false,"distance":1080,"station_id":"JAY","i_lat":-6.141205,"time":2,"transit":false},{"i_long":106.812439,"i_lat":-6.137569,"line":2,"station_id":"JAKK","time":4,"transit":true,"station_name":"Jakarta Kota","is_transit":true,"distance":1264},{"transit":true,"i_long":106.826365,"station_name":"Kampung Bandan","distance":1364,"i_lat":-6.132549,"station_id":"KPB","time":3,"is_transit":true,"line":4},{"station_id":"AK","station_name":"Angke","i_lat":-6.144674,"distance":4102,"transit":false,"time":9,"i_long":106.79867,"line":1,"is_transit":false},{"i_long":106.800832,"i_lat":-6.155215,"line":1,"station_name":"Duri","is_transit":false,"time":4,"distance":1230,"transit":false,"station_id":"DU"},{"time":8,"transit":true,"is_transit":true,"distance":3632,"i_long":106.811091,"station_name":"Tanah Abang","station_id":"THB","line":1,"i_lat":-6.185545},{"station_id":"PLM","time":6,"line":6,"distance":3191,"station_name":"Palmerah","transit":false,"i_lat":-6.207404,"i_long":106.79689,"is_transit":false},{"transit":false,"station_name":"Kebayoran","distance":3737,"i_lat":-6.237242,"line":6,"station_id":"KBY","i_long":106.780334,"is_transit":false,"time":7},{"transit":false,"station_name":"Pondokranji","is_transit":false,"line":6,"station_id":"PDJ","time":8,"distance":6218,"i_lat":-6.276362,"i_long":106.74273},{"station_name":"Jurangmangu","is_transit":false,"station_id":"JMU","line":6,"transit":false,"time":3,"distance":2179,"i_lat":-6.288927,"i_long":106.728916},{"distance":1994,"line":6,"is_transit":false,"transit":false,"i_long":106.712277,"station_id":"SDM","i_lat":-6.296963,"time":4,"station_name":"Sudimara"},{"is_transit":false,"time":6,"distance":4566,"station_name":"Rawa Buntu","i_lat":-6.314823,"line":6,"station_id":"RU","i_long":106.675475,"transit":false},{"i_lat":-6.319871,"i_long":106.66566,"is_transit":false,"station_id":"SRP","station_name":"Serpong","distance":2413,"line":6,"time":4,"transit":false},{"station_id":"CSK","i_long":106.640411,"line":3,"transit":false,"time":4,"distance":1784,"i_lat":-6.32484,"station_name":"Cisauk","is_transit":false},{"time":4,"is_transit":false,"i_lat":-6.329547,"station_id":"CC","transit":false,"distance":2519,"line":3,"i_long":106.617853,"station_name":"Cicayur"},{"station_name":"Parung Panjang","transit":false,"is_transit":false,"distance":5968,"line":6,"time":8,"station_id":"PRP","i_long":106.568863,"i_lat":-6.3441410000000005},{"station_id":"CJT","i_lat":-6.354349,"transit":false,"distance":7025,"is_transit":false,"time":9,"i_long":106.508482,"station_name":"Cilejit","line":3},{"station_id":"DAR","station_name":"Daru","time":6,"is_transit":false,"line":0,"i_long":106.491338,"distance":2675,"transit":false,"i_lat":-6.338021},{"station_id":"TEJ","station_name":"Tenjo","is_transit":false,"distance":3902,"line":6,"i_lat":-6.327251,"time":5,"transit":false,"i_long":106.460812}],[{"distance":0,"station_name":"Univ. Indonesia","transit":false,"station_id":"UI","is_transit":false,"i_long":106.831474,"i_lat":-6.360749,"line":2,"time":0},{"station_id":"UP","time":3,"transit":false,"distance":2264,"line":2,"is_transit":false,"i_lat":-6.339291,"station_name":"Univ. Pancasila","i_long":106.834175},{"station_name":"Lenteng Agung","is_transit":false,"transit":false,"distance":1029,"i_long":106.832616,"i_lat":-6.330363,"station_id":"LNA","time":2,"line":2},{"transit":false,"station_id":"TNT","distance":2671,"station_name":"Tanjung Barat","i_lat":-6.3080680000000005,"i_long":106.838896,"time":3,"is_transit":false,"line":2},{"station_id":"PSM","transit":false,"line":2,"station_name":"Pasar Minggu","is_transit":false,"i_lat":-6.2842400000000005,"time":4,"i_long":106.843999,"distance":2820},{"station_id":"PSMB","line":2,"distance":2380,"time":2,"station_name":"Pasar Minggu Baru","transit":false,"i_lat":-6.263214,"is_transit":false,"i_long":106.851577},{"line":2,"station_name":"Duren Kalibata","transit":false,"i_long":106.85449,"station_id":"DRN","i_lat":-6.255332,"distance":824,"time":2,"is_transit":false},{"line":2,"transit":false,"i_lat":-6.242512,"distance":1546,"i_long":106.856607,"time":3,"is_transit":false,"station_name":"Cawang","station_id":"CW"},{"transit":false,"station_name":"Tebet","distance":1230,"time":2,"i_lat":-6.226659,"station_id":"TEB","line":2,"is_transit":false,"i_long":106.857948},{"distance":2610,"transit":true,"line":2,"station_id":"MRI","time":4,"i_lat":-6.209883,"station_name":"Manggarai","is_transit":true,"i_long":106.84912},{"station_id":"MTR","distance":1275,"station_name":"Matraman","transit":false,"i_long":106.858896,"i_lat":-6.212485,"is_transit":false,"line":1,"time":2},{"station_id":"JNG","time":8,"i_lat":-6.215091,"line":1,"transit":true,"distance":1377,"i_long":106.86807400000001,"is_transit":true,"station_name":"Jatinegara"},{"transit":false,"station_name":"Pondok Jati","line":11,"station_id":"POK","time":2,"is_transit":false,"distance":1236,"i_lat":-6.209188,"i_long":106.861737},{"transit":false,"is_transit":false,"distance":1829,"line":11,"i_lat":-6.193792,"i_long":106.855437,"station_id":"KMT","time":2,"station_name":"Kramat"},{"time":1,"i_lat":-6.185975,"station_name":"Gang Sentiong","transit":false,"is_transit":false,"distance":973,"i_long":106.850107,"line":11,"station_id":"GST"},{"i_lat":-6.174784,"is_transit":false,"station_id":"PSE","time":8,"distance":1567,"station_name":"Pasar Senen","transit":false,"line":11,"i_long":106.84368},{"is_transit":false,"i_long":106.839204,"station_id":"KMO","distance":1436,"transit":false,"i_lat":-6.161728,"station_name":"Kemayoran","time":4,"line":11},{"time":5,"station_name":"Rajawali","i_lat":-6.14505,"line":11,"distance":1901,"transit":false,"station_id":"RJW","i_long":106.836569,"is_transit":false},{"station_id":"KPB","transit":true,"time":3,"i_long":106.826365,"is_transit":true,"line":4,"station_name":"Kampung Bandan","i_lat":-6.132549,"distance":1444},{"time":9,"station_name":"Angke","distance":4102,"i_long":106.79867,"i_lat":-6.144674,"is_transit":false,"line":1,"transit":false,"station_id":"AK"},{"i_long":106.800832,"time":4,"station_name":"Duri","transit":false,"line":1,"is_transit":false,"distance":1230,"station_id":"DU","i_lat":-6.155215},{"station_id":"THB","i_lat":-6.185545,"is_transit":true,"station_name":"Tanah Abang","transit":true,"i_long":106.811091,"distance":3632,"line":1,"time":8},{"station_name":"Palmerah","transit":false,"i_long":106.79689,"i_lat":-6.207404,"time":6,"station_id":"PLM","distance":3191,"line":6,"is_transit":false},{"distance":3737,"station_name":"Kebayoran","is_transit":false,"i_long":106.780334,"transit":false,"station_id":"KBY","line":6,"time":7,"i_lat":-6.237242},{"station_name":"Pondokranji","i_long":106.74273,"transit":false,"is_transit":false,"station_id":"PDJ","line":6,"distance":6218,"i_lat":-6.276362,"time":8},{"station_id":"JMU","transit":false,"is_transit":false,"time":3,"distance":2179,"i_lat":-6.288927,"i_long":106.728916,"station_name":"Jurangmangu","line":6},{"line":6,"time":4,"transit":false,"i_long":106.712277,"distance":1994,"i_lat":-6.296963,"station_name":"Sudimara","is_transit":false,"station_id":"SDM"},{"is_transit":false,"distance":4566,"i_lat":-6.314823,"station_name":"Rawa Buntu","i_long":106.675475,"time":6,"line":6,"station_id":"RU","transit":false},{"station_name":"Serpong","distance":2413,"is_transit":false,"i_lat":-6.319871,"transit":false,"time":4,"station_id":"SRP","i_long":106.66566,"line":6},{"i_long":106.640411,"transit":false,"is_transit":false,"distance":1784,"time":4,"station_id":"CSK","i_lat":-6.32484,"station_name":"Cisauk","line":3},{"station_name":"Cicayur","is_transit":false,"i_lat":-6.329547,"i_long":106.617853,"transit":false,"line":3,"station_id":"CC","time":4,"distance":2519},{"station_name":"Parung Panjang","time":8,"transit":false,"is_transit":false,"i_long":106.568863,"distance":5968,"station_id":"PRP","i_lat":-6.3441410000000005,"line":6},{"station_id":"CJT","transit":false,"distance":7025,"time":9,"station_name":"Cilejit","i_long":106.508482,"i_lat":-6.354349,"is_transit":false,"line":3},{"station_name":"Daru","time":6,"distance":2675,"i_long":106.491338,"transit":false,"is_transit":false,"line":0,"i_lat":-6.338021,"station_id":"DAR"},{"station_id":"TEJ","time":5,"is_transit":false,"i_long":106.460812,"transit":false,"distance":3902,"line":6,"i_lat":-6.327251,"station_name":"Tenjo"}]]}