{"data":[[{"i_long":106.831474,"line":2,"i_lat":-6.360749,"distance":0,"transit":false,"station_id":"UI","station_name":"Univ. Indonesia","time":0,"is_transit":false},{"transit":false,"station_name":"Univ. Pancasila","i_lat":-6.339291,"line":2,"i_long":106.834175,"distance":2264,"time":3,"station_id":"UP","is_transit":false},{"station_name":"Lenteng Agung","time":2,"line":2,"is_transit":false,"station_id":"LNA","i_lat":-6.330363,"distance":1029,"i_long":106.832616,"transit":false},{"line":2,"distance":2671,"is_transit":false,"station_id":"TNT","transit":false,"i_lat":-6.3080680000000005,"time":3,"station_name":"Tanjung Barat","i_long":106.838896},{"i_long":106.843999,"line":2,"is_transit":false,"time":4,"station_id":"PSM","i_lat":-6.2842400000000005,"distance":2820,"transit":false,"station_name":"Pasar Minggu"},{"i_long":106.851577,"is_transit":false,"time":2,"line":2,"transit":false,"station_name":"Pasar Minggu Baru","i_lat":-6.263214,"station_id":"PSMB","distance":2380},{"distance":824,"i_long":106.85449,"is_transit":false,"station_id":"DRN","transit":false,"line":2,"station_name":"Duren Kalibata","i_lat":-6.255332,"time":2},{"is_transit":false,"station_name":"Cawang","station_id":"CW","transit":false,"i_long":106.856607,"i_lat":-6.242512,"line":2,"distance":1546,"time":3},{"station_id":"TEB","distance":1230,"transit":false,"station_name":"Tebet","is_transit":false,"i_lat":-6.226659,"i_long":106.857948,"line":2,"time":2},{"line":2,"distance":2610,"is_transit":true,"transit":true,"i_lat":-6.209883,"station_id":"MRI","station_name":"Manggarai","time":4,"i_long":106.84912},{"i_lat":-6.212485,"station_id":"MTR","is_transit":false,"line":1,"time":2,"i_long":106.858896,"transit":false,"distance":1275,"station_name":"Matraman"},{"i_lat":-6.215091,"station_id":"JNG","time":8,"is_transit":false,"i_long":106.86807400000001,"distance":1377,"transit":false,"line":1,"station_name":"Jatinegara"},{"time":3,"is_transit":false,"station_name":"Klender","i_lat":-6.2135,"line":1,"distance":3395,"station_id":"KLD","i_long":106.899548,"transit":false},{"transit":false,"distance":3100,"station_name":"Buaran","time":2,"is_transit":false,"i_long":106.922662,"line":1,"station_id":"BUA","i_lat":-6.215568},{"i_lat":-6.217455,"distance":1305,"is_transit":false,"transit":false,"i_long":106.939679,"line":1,"time":1,"station_name":"Klenderbaru","station_id":"KLDB"},{"is_transit":false,"line":1,"time":8,"transit":false,"i_lat":-6.219053,"distance":1385,"station_id":"CUK","station_name":"Cakung","i_long":106.951283},{"time":3,"distance":3097,"station_id":"KRI","is_transit":false,"transit":false,"i_long":106.977657,"line":1,"station_name":"Kranji","i_lat":-6.224515},{"i_long":106.997013,"line":1,"i_lat":-6.236616,"station_name":"Bekasi","is_transit":false,"station_id":"BKS","distance":2520,"transit":false,"time":4},{"time":2,"i_lat":-6.248029,"line":1,"is_transit":false,"station_name":"Bekasi Timur","distance":2368,"i_long":107.016735,"station_id":"BKST","transit":false},{"i_lat":-6.258864,"transit":false,"station_name":"Tambun","i_long":107.055722,"time":7,"distance":4460,"station_id":"TB","line":1,"is_transit":false},{"i_lat":-6.261877,"is_transit":false,"i_long":107.083084,"station_name":"Cibitung","transit":false,"line":1,"time":3,"distance":3420,"station_id":"CIT"},{"line":1,"i_long":107.093313,"time":2,"station_id":"TLM","i_lat":-6.262938,"station_name":"Metland Telaga Murni","distance":2800,"is_transit":false,"transit":false}],[{"i_long":106.831474,"distance":0,"station_id":"UI","time":0,"station_name":"Univ. Indonesia","i_lat":-6.360749,"line":2,"is_transit":false,"transit":false},{"line":2,"is_transit":false,"i_lat":-6.339291,"transit":false,"station_name":"Univ. Pancasila","distance":2264,"time":3,"station_id":"UP","i_long":106.834175},{"time":2,"station_name":"Lenteng Agung","distance":1029,"is_transit":false,"station_id":"LNA","transit":false,"i_lat":-6.330363,"i_long":106.832616,"line":2},{"i_long":106.838896,"line":2,"station_name":"Tanjung Barat","i_lat":-6.3080680000000005,"distance":2671,"station_id":"TNT","is_transit":false,"transit":false,"time":3},{"i_long":106.843999,"i_lat":-6.2842400000000005,"is_transit":false,"transit":false,"time":4,"station_name":"Pasar Minggu","distance":2820,"station_id":"PSM","line":2},{"station_name":"Pasar Minggu Baru","transit":false,"time":2,"station_id":"PSMB","i_lat":-6.263214,"i_long":106.851577,"is_transit":false,"line":2,"distance":2380},{"station_name":"Duren Kalibata","is_transit":false,"i_lat":-6.255332,"transit":false,"line":2,"time":2,"station_id":"DRN","distance":824,"i_long":106.85449},{"station_id":"CW","i_long":106.856607,"i_lat":-6.242512,"distance":1546,"is_transit":false,"time":3,"line":2,"transit":false,"station_name":"Cawang"},{"station_id":"TEB","i_lat":-6.226659,"line":2,"transit":false,"station_name":"Tebet","distance":1230,"is_transit":false,"i_long":106.857948,"time":2},{"transit":true,"distance":2610,"i_long":106.84912,"line":2,"station_id":"MRI","time":4,"is_transit":true,"station_name":"Manggarai","i_lat":-6.209883},{"i_long":106.822649,"station_id":"SUD","transit":false,"is_transit":false,"distance":3186,"line":1,"i_lat":-6.202263,"time":4,"station_name":"Sudirman"},{"time":1,"is_transit":false,"transit":false,"distance":280,"i_lat":-6.201433,"i_long":106.819881,"station_id":"SUDB","station_name":"Sudirman Baru","line":1},{"distance":471,"is_transit":false,"station_id":"KAT","time":1,"station_name":"Karet","i_long":106.816351,"i_lat":-6.20132,"line":1,"transit":false},{"i_long":106.811091,"distance":2029,"station_id":"THB","i_lat":-6.185545,"line":1,"is_transit":false,"time":5,"transit":false,"station_name":"Tanah Abang"},{"transit":false,"station_name":"Duri","distance":3632,"line":1,"i_long":106.800832,"is_transit":false,"i_lat":-6.155215,"time":8,"station_id":"DU"},{"i_lat":-6.144674,"line":1,"time":4,"distance":1230,"station_id":"AK","i_long":106.79867,"station_name":"Angke","transit":false,"is_transit":false},{"station_id":"KPB","i_lat":-6.132549,"transit":true,"i_long":106.826365,"is_transit":true,"station_name":"Kampung Bandan","distance":4102,"line":4,"time":9},{"transit":false,"station_name":"Rajawali","line":11,"distance":1444,"is_transit":false,"station_id":"RJW","i_lat":-6.14505,"time":3,"i_long":106.836569},{"station_id":"KMO","is_transit":false,"transit":false,"i_long":106.839204,"line":11,"time":5,"distance":1901,"station_name":"Kemayoran","i_lat":-6.161728},{"i_lat":-6.174784,"line":11,"station_id":"PSE","distance":1436,"station_name":"Pasar Senen","is_transit":false,"i_long":106.84368,"time":4,"transit":false},{"station_name":"Gang Sentiong","transit":false,"line":11,"is_transit":false,"station_id":"GST","i_lat":-6.185975,"time":8,"distance":1567,"i_long":106.850107},{"i_lat":-6.193792,"line":11,"station_name":"Kramat","is_transit":false,"distance":973,"i_long":106.855437,"station_id":"KMT","transit":false,"time":1},{"time":2,"is_transit":false,"station_name":"Pondok Jati","station_id":"POK","i_long":106.861737,"transit":false,"i_lat":-6.209188,"distance":1829,"line":11},{"transit":true,"is_transit":true,"station_name":"Jatinegara","distance":1236,"i_lat":-6.215091,"time":9,"i_long":106.86807400000001,"line":1,"station_id":"JNG"},{"i_long":106.899548,"transit":false,"station_name":"Klender","time":3,"i_lat":-6.2135,"line":1,"station_id":"KLD","is_transit":false,"distance":3395},{"time":2,"transit":false,"is_transit":false,"i_lat":-6.215568,"distance":3100,"station_name":"Buaran","line":1,"station_id":"BUA","i_long":106.922662},{"line":1,"time":1,"transit":false,"station_name":"Klenderbaru","station_id":"KLDB","i_long":106.939679,"is_transit":false,"distance":1305,"i_lat":-6.217455},{"transit":false,"i_long":106.951283,"i_lat":-6.219053,"line":1,"station_name":"Cakung","is_transit":false,"distance":1385,"time":8,"station_id":"CUK"},{"station_id":"KRI","time":3,"distance":3097,"i_long":106.977657,"is_transit":false,"i_lat":-6.224515,"line":1,"station_name":"Kranji","transit":false},{"i_lat":-6.236616,"station_name":"Bekasi","distance":2520,"is_transit":false,"line":1,"station_id":"BKS","transit":false,"time":4,"i_long":106.997013},{"station_name":"Bekasi Timur","i_lat":-6.248029,"transit":false,"i_long":107.016735,"station_id":"BKST","line":1,"distance":2368,"is_transit":false,"time":2},{"i_lat":-6.258864,"distance":4460,"station_id":"TB","is_transit":false,"time":7,"station_name":"Tambun","i_long":107.055722,"transit":false,"line":1},{"station_name":"Cibitung","distance":3420,"time":3,"i_lat":-6.261877,"i_long":107.083084,"station_id":"CIT","line":1,"is_transit":false,"transit":false},{"station_id":"TLM","is_transit":false,"transit":false,"time":2,"i_long":107.093313,"station_name":"Metland Telaga Murni","distance":2800,"i_lat":-6.262938,"line":1}],[{"i_long":106.831474,"line":2,"transit":false,"station_name":"Univ. Indonesia","time":0,"station_id":"UI","is_transit":false,"distance":0,"i_lat":-6.360749},{"is_transit":false,"i_lat":-6.339291,"distance":2264,"i_long":106.834175,"station_name":"Univ. Pancasila","transit":false,"time":3,"station_id":"UP","line":2},{"i_long":106.832616,"distance":1029,"transit":false,"line":2,"station_name":"Lenteng Agung","is_transit":false,"station_id":"LNA","time":2,"i_lat":-6.330363},{"i_long":106.838896,"time":3,"distance":2671,"station_id":"TNT","line":2,"station_name":"Tanjung Barat","is_transit":false,"transit":false,"i_lat":-6.3080680000000005},{"time":4,"distance":2820,"station_id":"PSM","i_long":106.843999,"transit":false,"station_name":"Pasar Minggu","line":2,"i_lat":-6.2842400000000005,"is_transit":false},{"transit":false,"station_name":"Pasar Minggu Baru","distance":2380,"i_lat":-6.263214,"i_long":106.851577,"station_id":"PSMB","line":2,"time":2,"is_transit":false},{"i_lat":-6.255332,"line":2,"station_id":"DRN","i_long":106.85449,"transit":false,"station_name":"Duren Kalibata","time":2,"distance":824,"is_transit":false},{"line":2,"time":3,"transit":false,"station_name":"Cawang","i_lat":-6.242512,"distance":1546,"i_long":106.856607,"is_transit":false,"station_id":"CW"},{"is_transit":false,"i_long":106.857948,"time":2,"line":2,"station_name":"Tebet","distance":1230,"station_id":"TEB","i_lat":-6.226659,"transit":false},{"line":2,"time":4,"i_lat":-6.209883,"i_long":106.84912,"station_id":"MRI","station_name":"Manggarai","transit":false,"is_transit":false,"distance":2610},{"i_long":106.840169,"station_id":"CKI","is_transit":false,"time":4,"distance":1590,"transit":false,"i_lat":-6.198556,"line":2,"station_name":"Cikini"},{"station_name":"Gondangdia","line":2,"i_lat":-6.186295,"is_transit":false,"transit":false,"distance":1750,"i_long":106.832183,"station_id":"GDD","time":3},{"i_lat":-6.166716,"time":4,"is_transit":false,"i_long":106.828284,"station_name":"Juanda","line":2,"station_id":"JUA","transit":false,"distance":2015},{"is_transit":false,"station_id":"SW","transit":false,"i_long":106.827103,"i_lat":-6.160725,"distance":1149,"station_name":"Sawah Besar","time":2,"line":2},{"station_id":"MGB","distance":906,"station_name":"Manggabesar","is_transit":false,"line":2,"i_lat":-6.149769,"transit":false,"i_long":106.82482,"time":2},{"distance":1080,"transit":false,"station_id":"JAY","i_lat":-6.141205,"station_name":"Jayakarta","is_transit":false,"time":2,"line":2,"i_long":106.820901},{"station_name":"Jakarta Kota","distance":1264,"i_lat":-6.137569,"station_id":"JAKK","is_transit":true,"line":2,"i_long":106.812439,"time":4,"transit":true},{"station_id":"KPB","i_lat":-6.132549,"is_transit":true,"transit":true,"distance":1364,"station_name":"Kampung Bandan","time":3,"i_long":106.826365,"line":4},{"time":3,"i_lat":-6.14505,"distance":1444,"transit":false,"i_long":106.836569,"station_name":"Rajawali","is_transit":false,"station_id":"RJW","line":11},{"station_name":"Kemayoran","distance":1901,"station_id":"KMO","transit":false,"i_lat":-6.161728,"line":11,"time":5,"i_long":106.839204,"is_transit":false},{"distance":1436,"i_long":106.84368,"is_transit":false,"station_id":"PSE","transit":false,"i_lat":-6.174784,"time":4,"line":11,"station_name":"Pasar Senen"},{"distance":1567,"line":11,"time":8,"i_lat":-6.185975,"station_id":"GST","is_transit":false,"station_name":"Gang Sentiong","i_long":106.850107,"transit":false},{"is_transit":false,"transit":false,"distance":973,"station_id":"KMT","i_long":106.855437,"i_lat":-6.193792,"time":1,"station_name":"Kramat","line":11},{"station_id":"POK","is_transit":false,"station_name":"Pondok Jati","time":2,"i_long":106.861737,"transit":false,"distance":1829,"line":11,"i_lat":-6.209188},{"time":9,"station_name":"Jatinegara","distance":1236,"i_lat":-6.215091,"transit":true,"line":1,"i_long":106.86807400000001,"station_id":"JNG","is_transit":true},{"station_name":"Klender","distance":3395,"i_long":106.899548,"station_id":"KLD","is_transit":false,"i_lat":-6.2135,"transit":false,"time":3,"line":1},{"distance":3100,"time":2,"i_long":106.922662,"transit":false,"i_lat":-6.215568,"line":1,"station_name":"Buaran","is_transit":false,"station_id":"BUA"},{"time":1,"distance":1305,"station_id":"KLDB","is_transit":false,"transit":false,"i_long":106.939679,"station_name":"Klenderbaru","line":1,"i_lat":-6.217455},{"transit":false,"station_name":"Cakung","station_id":"CUK","distance":1385,"i_lat":-6.219053,"i_long":106.951283,"line":1,"is_transit":false,"time":8},{"time":3,"station_id":"KRI","station_name":"Kranji","distance":3097,"i_lat":-6.224515,"line":1,"transit":false,"i_long":106.977657,"is_transit":false},{"station_name":"Bekasi","line":1,"i_lat":-6.236616,"is_transit":false,"distance":2520,"i_long":106.997013,"transit":false,"station_id":"BKS","time":4},{"is_transit":false,"transit":false,"station_id":"BKST","time":2,"line":1,"distance":2368,"i_lat":-6.248029,"i_long":107.016735,"station_name":"Bekasi Timur"},{"station_name":"Tambun","i_lat":-6.258864,"i_long":107.055722,"is_transit":false,"distance":4460,"time":7,"station_id":"TB","transit":false,"line":1},{"line":1,"station_name":"Cibitung","station_id":"CIT","transit":false,"distance":3420,"is_transit":false,"time":3,"i_lat":-6.261877,"i_long":107.083084},{"station_id":"TLM","is_transit":false,"distance":2800,"line":1,"i_lat":-6.262938,"i_long":107.093313,"time":2,"transit":false,"station_name":"Metland Telaga Murni"}]]}