{"data":[[{"distance":0,"line":2,"time":0,"station_name":"Univ. Indonesia","i_long":106.831474,"i_lat":-6.360749,"station_id":"UI","is_transit":false,"transit":false},{"time":3,"i_long":106.834175,"line":2,"transit":false,"is_transit":false,"distance":2264,"i_lat":-6.339291,"station_name":"Univ. Pancasila","station_id":"UP"},{"distance":1029,"i_long":106.832616,"transit":false,"is_transit":false,"station_name":"Lenteng Agung","i_lat":-6.330363,"line":2,"station_id":"LNA","time":2},{"station_name":"Tanjung Barat","i_long":106.838896,"is_transit":false,"time":3,"distance":2671,"transit":false,"station_id":"TNT","i_lat":-6.3080680000000005,"line":2},{"station_name":"Pasar Minggu","distance":2820,"is_transit":false,"time":4,"i_lat":-6.2842400000000005,"transit":false,"i_long":106.843999,"line":2,"station_id":"PSM"},{"is_transit":false,"time":2,"transit":false,"station_id":"PSMB","distance":2380,"line":2,"i_long":106.851577,"i_lat":-6.263214,"station_name":"Pasar Minggu Baru"},{"i_lat":-6.255332,"station_name":"Duren Kalibata","station_id":"DRN","time":2,"distance":824,"i_long":106.85449,"is_transit":false,"transit":false,"line":2},{"station_name":"Cawang","i_lat":-6.242512,"transit":false,"i_long":106.856607,"time":3,"line":2,"distance":1546,"station_id":"CW","is_transit":false},{"station_name":"Tebet","time":2,"i_long":106.857948,"distance":1230,"line":2,"station_id":"TEB","is_transit":false,"transit":false,"i_lat":-6.226659},{"is_transit":true,"transit":true,"station_name":"Manggarai","i_long":106.84912,"station_id":"MRI","distance":2610,"time":4,"line":2,"i_lat":-6.209883},{"is_transit":false,"station_name":"Sudirman","i_lat":-6.202263,"station_id":"SUD","distance":3186,"line":1,"transit":false,"time":4,"i_long":106.822649},{"station_id":"SUDB","i_lat":-6.201433,"station_name":"Sudirman Baru","line":1,"transit":false,"is_transit":false,"time":1,"distance":280,"i_long":106.819881},{"transit":false,"distance":471,"line":1,"station_id":"KAT","i_lat":-6.20132,"i_long":106.816351,"time":1,"station_name":"Karet","is_transit":false},{"is_transit":false,"distance":2029,"i_lat":-6.185545,"line":1,"station_id":"THB","transit":false,"time":5,"i_long":106.811091,"station_name":"Tanah Abang"},{"distance":3632,"station_id":"DU","is_transit":true,"line":1,"station_name":"Duri","i_lat":-6.155215,"transit":true,"i_long":106.800832,"time":8},{"line":5,"transit":false,"distance":1700,"station_name":"Grogol","time":3,"station_id":"GGL","is_transit":false,"i_lat":-6.162021,"i_long":106.788277},{"line":5,"transit":false,"station_name":"Pesing","is_transit":false,"time":2,"distance":2036,"station_id":"PSG","i_long":106.771379,"i_lat":-6.161433},{"line":5,"i_lat":-6.1587309999999995,"is_transit":false,"distance":1614,"transit":false,"station_id":"TKO","i_long":106.756522,"station_name":"Taman Kota","time":2}],[{"time":0,"distance":0,"line":2,"i_long":106.831474,"is_transit":false,"station_name":"Univ. Indonesia","station_id":"UI","transit":false,"i_lat":-6.360749},{"distance":2264,"line":2,"is_transit":false,"station_name":"Univ. Pancasila","i_lat":-6.339291,"transit":false,"station_id":"UP","i_long":106.834175,"time":3},{"i_lat":-6.330363,"distance":1029,"i_long":106.832616,"transit":false,"station_name":"Lenteng Agung","station_id":"LNA","is_transit":false,"time":2,"line":2},{"distance":2671,"i_lat":-6.3080680000000005,"line":2,"is_transit":false,"station_id":"TNT","transit":false,"i_long":106.838896,"station_name":"Tanjung Barat","time":3},{"station_id":"PSM","i_lat":-6.2842400000000005,"transit":false,"station_name":"Pasar Minggu","line":2,"distance":2820,"is_transit":false,"time":4,"i_long":106.843999},{"station_id":"PSMB","is_transit":false,"distance":2380,"line":2,"time":2,"i_lat":-6.263214,"transit":false,"i_long":106.851577,"station_name":"Pasar Minggu Baru"},{"transit":false,"station_name":"Duren Kalibata","time":2,"is_transit":false,"i_long":106.85449,"distance":824,"line":2,"station_id":"DRN","i_lat":-6.255332},{"station_id":"CW","distance":1546,"is_transit":false,"line":2,"transit":false,"i_long":106.856607,"i_lat":-6.242512,"time":3,"station_name":"Cawang"},{"station_name":"Tebet","line":2,"time":2,"is_transit":false,"distance":1230,"station_id":"TEB","transit":false,"i_long":106.857948,"i_lat":-6.226659},{"is_transit":false,"i_lat":-6.209883,"transit":false,"station_name":"Manggarai","station_id":"MRI","distance":2610,"line":2,"time":4,"i_long":106.84912},{"line":2,"station_id":"CKI","is_transit":false,"time":4,"i_long":106.840169,"transit":false,"station_name":"Cikini","distance":1590,"i_lat":-6.198556},{"transit":false,"station_id":"GDD","i_lat":-6.186295,"distance":1750,"is_transit":false,"i_long":106.832183,"time":3,"station_name":"Gondangdia","line":2},{"transit":false,"station_name":"Juanda","distance":2015,"i_lat":-6.166716,"i_long":106.828284,"time":4,"is_transit":false,"line":2,"station_id":"JUA"},{"i_lat":-6.160725,"line":2,"i_long":106.827103,"station_name":"Sawah Besar","station_id":"SW","is_transit":false,"time":2,"distance":1149,"transit":false},{"distance":906,"station_id":"MGB","is_transit":false,"i_long":106.82482,"line":2,"transit":false,"station_name":"Manggabesar","time":2,"i_lat":-6.149769},{"station_name":"Jayakarta","station_id":"JAY","distance":1080,"transit":false,"time":2,"i_long":106.820901,"i_lat":-6.141205,"line":2,"is_transit":false},{"station_name":"Jakarta Kota","is_transit":true,"distance":1264,"transit":true,"station_id":"JAKK","i_lat":-6.137569,"i_long":106.812439,"time":4,"line":2},{"transit":true,"is_transit":true,"distance":1364,"i_long":106.826365,"line":4,"station_name":"Kampung Bandan","i_lat":-6.132549,"station_id":"KPB","time":3},{"distance":4102,"station_name":"Angke","time":9,"i_lat":-6.144674,"line":1,"transit":false,"i_long":106.79867,"station_id":"AK","is_transit":false},{"station_name":"Duri","station_id":"DU","is_transit":true,"distance":1230,"i_lat":-6.155215,"transit":true,"time":4,"i_long":106.800832,"line":1},{"station_id":"GGL","i_lat":-6.162021,"line":5,"time":3,"i_long":106.788277,"is_transit":false,"transit":false,"distance":1700,"station_name":"Grogol"},{"line":5,"station_id":"PSG","transit":false,"i_long":106.771379,"station_name":"Pesing","is_transit":false,"distance":2036,"time":2,"i_lat":-6.161433},{"station_name":"Taman Kota","i_lat":-6.1587309999999995,"transit":false,"i_long":106.756522,"time":2,"is_transit":false,"station_id":"TKO","line":5,"distance":1614}],[{"time":0,"station_name":"Univ. Indonesia","is_transit":false,"distance":0,"station_id":"UI","i_lat":-6.360749,"i_long":106.831474,"line":2,"transit":false},{"transit":false,"is_transit":false,"time":3,"station_name":"Univ. Pancasila","i_long":106.834175,"distance":2264,"line":2,"station_id":"UP","i_lat":-6.339291},{"station_id":"LNA","is_transit":false,"transit":false,"station_name":"Lenteng Agung","i_long":106.832616,"line":2,"i_lat":-6.330363,"distance":1029,"time":2},{"station_id":"TNT","is_transit":false,"distance":2671,"transit":false,"i_lat":-6.3080680000000005,"i_long":106.838896,"time":3,"line":2,"station_name":"Tanjung Barat"},{"time":4,"i_lat":-6.2842400000000005,"distance":2820,"i_long":106.843999,"is_transit":false,"line":2,"station_name":"Pasar Minggu","transit":false,"station_id":"PSM"},{"transit":false,"station_id":"PSMB","i_lat":-6.263214,"station_name":"Pasar Minggu Baru","distance":2380,"is_transit":false,"i_long":106.851577,"time":2,"line":2},{"station_id":"DRN","time":2,"is_transit":false,"line":2,"transit":false,"distance":824,"i_long":106.85449,"i_lat":-6.255332,"station_name":"Duren Kalibata"},{"time":3,"distance":1546,"line":2,"i_lat":-6.242512,"i_long":106.856607,"transit":false,"station_name":"Cawang","station_id":"CW","is_transit":false},{"distance":1230,"line":2,"time":2,"transit":false,"station_name":"Tebet","station_id":"TEB","i_lat":-6.226659,"i_long":106.857948,"is_transit":false},{"i_lat":-6.209883,"i_long":106.84912,"station_name":"Manggarai","is_transit":true,"time":4,"distance":2610,"transit":true,"line":2,"station_id":"MRI"},{"time":2,"distance":1275,"i_lat":-6.212485,"transit":false,"i_long":106.858896,"station_id":"MTR","is_transit":false,"line":1,"station_name":"Matraman"},{"station_name":"Jatinegara","is_transit":true,"station_id":"JNG","time":8,"distance":1377,"i_long":106.86807400000001,"i_lat":-6.215091,"transit":true,"line":1},{"is_transit":false,"i_long":106.861737,"transit":false,"time":2,"line":11,"distance":1236,"station_name":"Pondok Jati","station_id":"POK","i_lat":-6.209188},{"time":2,"is_transit":false,"distance":1829,"transit":false,"i_lat":-6.193792,"line":11,"i_long":106.855437,"station_id":"KMT","station_name":"Kramat"},{"i_lat":-6.185975,"station_name":"Gang Sentiong","is_transit":false,"station_id":"GST","time":1,"transit":false,"i_long":106.850107,"line":11,"distance":973},{"line":11,"time":8,"i_lat":-6.174784,"distance":1567,"is_transit":false,"station_name":"Pasar Senen","i_long":106.84368,"transit":false,"station_id":"PSE"},{"station_id":"KMO","i_long":106.839204,"time":4,"distance":1436,"transit":false,"i_lat":-6.161728,"line":11,"is_transit":false,"station_name":"Kemayoran"},{"station_id":"RJW","distance":1901,"transit":false,"station_name":"Rajawali","line":11,"i_lat":-6.14505,"i_long":106.836569,"is_transit":false,"time":5},{"station_name":"Kampung Bandan","i_long":106.826365,"line":4,"station_id":"KPB","is_transit":true,"i_lat":-6.132549,"time":3,"distance":1444,"transit":true},{"station_id":"AK","is_transit":false,"time":9,"distance":4102,"i_lat":-6.144674,"i_long":106.79867,"line":1,"station_name":"Angke","transit":false},{"transit":true,"i_lat":-6.155215,"is_transit":true,"station_name":"Duri","distance":1230,"i_long":106.800832,"time":4,"station_id":"DU","line":1},{"time":3,"distance":1700,"i_long":106.788277,"is_transit":false,"line":5,"i_lat":-6.162021,"station_name":"Grogol","transit":false,"station_id":"GGL"},{"is_transit":false,"line":5,"transit":false,"time":2,"distance":2036,"i_long":106.771379,"station_name":"Pesing","station_id":"PSG","i_lat":-6.161433},{"i_lat":-6.1587309999999995,"station_id":"TKO","is_transit":false,"time":2,"transit":false,"station_name":"Taman Kota","distance":1614,"line":5,"i_long":106.756522}]]}