{"data":[[{"line":2,"distance":0,"station_id":"UI","time":0,"is_transit":false,"i_long":106.831474,"i_lat":-6.360749,"transit":false,"station_name":"Univ. Indonesia"},{"i_long":106.834175,"is_transit":false,"transit":false,"distance":2264,"time":3,"line":2,"i_lat":-6.339291,"station_id":"UP","station_name":"Univ. Pancasila"},{"distance":1029,"station_name":"Lenteng Agung","station_id":"LNA","time":2,"i_long":106.832616,"transit":false,"i_lat":-6.330363,"is_transit":false,"line":2},{"time":3,"line":2,"station_id":"TNT","i_lat":-6.3080680000000005,"i_long":106.838896,"is_transit":false,"station_name":"Tanjung Barat","distance":2671,"transit":false},{"is_transit":false,"transit":false,"time":4,"distance":2820,"station_id":"PSM","station_name":"Pasar Minggu","i_lat":-6.2842400000000005,"line":2,"i_long":106.843999},{"transit":false,"line":2,"station_id":"PSMB","station_name":"Pasar Minggu Baru","is_transit":false,"i_long":106.851577,"time":2,"i_lat":-6.263214,"distance":2380},{"station_name":"Duren Kalibata","i_long":106.85449,"distance":824,"station_id":"DRN","i_lat":-6.255332,"is_transit":false,"line":0,"transit":false,"time":2},{"is_transit":false,"transit":false,"i_long":106.856607,"distance":1546,"station_name":"Cawang","time":3,"i_lat":-6.242512,"station_id":"CW","line":0},{"distance":1230,"i_long":106.857948,"line":2,"is_transit":false,"transit":false,"i_lat":-6.226659,"station_name":"Tebet","time":2,"station_id":"TEB"},{"station_name":"Manggarai","time":4,"station_id":"MRI","distance":2610,"line":0,"transit":true,"i_lat":-6.209883,"i_long":106.84912,"is_transit":true},{"time":2,"station_id":"MTR","is_transit":false,"line":1,"station_name":"Matraman","transit":false,"i_long":106.858896,"distance":1275,"i_lat":-6.212485},{"time":8,"is_transit":true,"transit":false,"distance":1377,"station_id":"JNG","line":0,"station_name":"Jatinegara","i_long":106.86807400000001,"i_lat":-6.215091},{"transit":false,"station_name":"Klender","line":1,"i_lat":-6.2135,"distance":3395,"i_long":106.899548,"time":3,"is_transit":false,"station_id":"KLD"},{"transit":false,"time":2,"line":0,"i_lat":-6.215568,"station_name":"Buaran","station_id":"BUA","i_long":106.922662,"is_transit":false,"distance":3100},{"transit":false,"station_name":"Klenderbaru","i_lat":-6.217455,"i_long":106.939679,"is_transit":false,"line":1,"distance":1305,"station_id":"KLDB","time":1},{"transit":false,"i_lat":-6.219053,"station_id":"CUK","i_long":106.951283,"distance":1385,"line":0,"time":8,"is_transit":false,"station_name":"Cakung"},{"distance":3097,"line":1,"i_long":106.977657,"transit":false,"is_transit":false,"i_lat":-6.224515,"station_name":"Kranji","time":3,"station_id":"KRI"},{"line":0,"station_id":"BKS","station_name":"Bekasi","transit":false,"i_long":106.997013,"distance":2520,"time":4,"i_lat":-6.236616,"is_transit":false},{"station_name":"Bekasi Timur","i_lat":-6.248029,"i_long":107.016735,"is_transit":false,"transit":false,"distance":2368,"station_id":"BKST","time":2,"line":0},{"transit":false,"is_transit":false,"time":7,"i_long":107.055722,"station_name":"Tambun","i_lat":-6.258864,"station_id":"TB","line":1,"distance":4460},{"station_name":"Cibitung","station_id":"CIT","time":3,"i_long":107.083084,"i_lat":-6.261877,"transit":false,"is_transit":false,"line":0,"distance":3420},{"is_transit":false,"time":2,"line":1,"distance":2800,"station_name":"Metland Telaga Murni","station_id":"TLM","transit":false,"i_long":107.093313,"i_lat":-6.262938}],[{"i_lat":-6.360749,"is_transit":false,"time":0,"i_long":106.831474,"line":2,"station_name":"Univ. Indonesia","station_id":"UI","transit":false,"distance":0},{"time":3,"is_transit":false,"station_id":"UP","i_long":106.834175,"i_lat":-6.339291,"line":2,"distance":2264,"station_name":"Univ. Pancasila","transit":false},{"is_transit":false,"i_long":106.832616,"station_name":"Lenteng Agung","i_lat":-6.330363,"station_id":"LNA","distance":1029,"transit":false,"time":2,"line":2},{"i_lat":-6.3080680000000005,"distance":2671,"i_long":106.838896,"station_id":"TNT","station_name":"Tanjung Barat","is_transit":false,"time":3,"line":2,"transit":false},{"station_id":"PSM","i_long":106.843999,"transit":false,"line":2,"distance":2820,"time":4,"i_lat":-6.2842400000000005,"is_transit":false,"station_name":"Pasar Minggu"},{"station_name":"Pasar Minggu Baru","distance":2380,"is_transit":false,"station_id":"PSMB","transit":false,"time":2,"line":2,"i_long":106.851577,"i_lat":-6.263214},{"i_lat":-6.255332,"station_id":"DRN","transit":false,"station_name":"Duren Kalibata","distance":824,"line":0,"is_transit":false,"time":2,"i_long":106.85449},{"time":3,"distance":1546,"line":0,"station_name":"Cawang","i_long":106.856607,"transit":false,"i_lat":-6.242512,"is_transit":false,"station_id":"CW"},{"station_name":"Tebet","time":2,"transit":false,"i_long":106.857948,"line":2,"distance":1230,"station_id":"TEB","i_lat":-6.226659,"is_transit":false},{"distance":2610,"transit":true,"i_lat":-6.209883,"time":4,"station_name":"Manggarai","line":0,"i_long":106.84912,"is_transit":true,"station_id":"MRI"},{"is_transit":false,"station_name":"Sudirman","distance":3186,"transit":false,"i_lat":-6.202263,"line":1,"station_id":"SUD","i_long":106.822649,"time":4},{"time":1,"distance":280,"station_id":"SUDB","transit":false,"is_transit":false,"i_long":106.819881,"station_name":"Sudirman Baru","i_lat":-6.201433,"line":1},{"distance":471,"transit":false,"i_lat":-6.20132,"line":1,"station_name":"Karet","i_long":106.816351,"station_id":"KAT","time":1,"is_transit":false},{"time":5,"is_transit":true,"station_name":"Tanah Abang","transit":false,"line":1,"station_id":"THB","distance":2029,"i_long":106.811091,"i_lat":-6.185545},{"station_name":"Duri","i_long":106.800832,"i_lat":-6.155215,"station_id":"DU","transit":true,"time":8,"distance":3632,"line":1,"is_transit":true},{"transit":false,"station_id":"AK","line":0,"time":4,"distance":1230,"is_transit":false,"station_name":"Angke","i_lat":-6.144674,"i_long":106.79867},{"line":0,"distance":4102,"i_lat":-6.132549,"station_name":"Kampung Bandan","is_transit":true,"transit":true,"time":9,"i_long":106.826365,"station_id":"KPB"},{"station_id":"RJW","distance":1444,"i_lat":-6.14505,"line":11,"is_transit":false,"transit":false,"i_long":106.836569,"time":3,"station_name":"Rajawali"},{"i_lat":-6.161728,"transit":false,"line":11,"station_id":"KMO","time":5,"is_transit":false,"station_name":"Kemayoran","distance":1901,"i_long":106.839204},{"i_lat":-6.174784,"transit":false,"distance":1436,"station_name":"Pasar Senen","time":4,"i_long":106.84368,"line":11,"station_id":"PSE","is_transit":false},{"i_lat":-6.185975,"distance":1567,"time":8,"i_long":106.850107,"line":11,"station_id":"GST","transit":false,"station_name":"Gang Sentiong","is_transit":false},{"station_name":"Kramat","transit":false,"i_lat":-6.193792,"time":1,"i_long":106.855437,"is_transit":false,"line":11,"distance":973,"station_id":"KMT"},{"line":11,"station_name":"Pondok Jati","station_id":"POK","i_lat":-6.209188,"time":2,"distance":1829,"is_transit":false,"i_long":106.861737,"transit":false},{"distance":1236,"time":9,"station_id":"JNG","station_name":"Jatinegara","i_long":106.86807400000001,"line":0,"is_transit":true,"i_lat":-6.215091,"transit":true},{"is_transit":false,"i_long":106.899548,"distance":3395,"station_name":"Klender","line":1,"transit":false,"time":3,"i_lat":-6.2135,"station_id":"KLD"},{"distance":3100,"is_transit":false,"station_id":"BUA","transit":false,"station_name":"Buaran","i_lat":-6.215568,"time":2,"i_long":106.922662,"line":0},{"time":1,"i_lat":-6.217455,"is_transit":false,"station_id":"KLDB","station_name":"Klenderbaru","transit":false,"distance":1305,"i_long":106.939679,"line":1},{"transit":false,"distance":1385,"time":8,"i_lat":-6.219053,"is_transit":false,"station_name":"Cakung","station_id":"CUK","i_long":106.951283,"line":0},{"is_transit":false,"station_name":"Kranji","line":1,"transit":false,"i_long":106.977657,"station_id":"KRI","i_lat":-6.224515,"time":3,"distance":3097},{"distance":2520,"transit":false,"station_id":"BKS","i_lat":-6.236616,"i_long":106.997013,"station_name":"Bekasi","is_transit":false,"line":0,"time":4},{"i_lat":-6.248029,"transit":false,"distance":2368,"line":0,"is_transit":false,"station_id":"BKST","station_name":"Bekasi Timur","i_long":107.016735,"time":2},{"station_id":"TB","station_name":"Tambun","transit":false,"time":7,"i_long":107.055722,"line":1,"i_lat":-6.258864,"distance":4460,"is_transit":false},{"i_lat":-6.261877,"is_transit":false,"distance":3420,"line":0,"transit":false,"time":3,"station_name":"Cibitung","station_id":"CIT","i_long":107.083084},{"station_id":"TLM","i_lat":-6.262938,"i_long":107.093313,"time":2,"station_name":"Metland Telaga Murni","is_transit":false,"line":1,"transit":false,"distance":2800}],[{"i_lat":-6.360749,"i_long":106.831474,"transit":false,"station_id":"UI","distance":0,"station_name":"Univ. Indonesia","line":2,"time":0,"is_transit":false},{"i_lat":-6.339291,"time":3,"i_long":106.834175,"distance":2264,"is_transit":false,"station_name":"Univ. Pancasila","line":2,"station_id":"UP","transit":false},{"is_transit":false,"time":2,"station_name":"Lenteng Agung","line":2,"distance":1029,"i_long":106.832616,"station_id":"LNA","transit":false,"i_lat":-6.330363},{"i_long":106.838896,"is_transit":false,"transit":false,"station_id":"TNT","distance":2671,"time":3,"i_lat":-6.3080680000000005,"station_name":"Tanjung Barat","line":2},{"station_id":"PSM","station_name":"Pasar Minggu","distance":2820,"is_transit":false,"line":2,"i_lat":-6.2842400000000005,"i_long":106.843999,"transit":false,"time":4},{"i_long":106.851577,"line":2,"time":2,"distance":2380,"is_transit":false,"transit":false,"station_id":"PSMB","station_name":"Pasar Minggu Baru","i_lat":-6.263214},{"is_transit":false,"station_id":"DRN","time":2,"distance":824,"i_lat":-6.255332,"station_name":"Duren Kalibata","transit":false,"line":0,"i_long":106.85449},{"i_long":106.856607,"station_name":"Cawang","distance":1546,"time":3,"transit":false,"station_id":"CW","i_lat":-6.242512,"line":0,"is_transit":false},{"is_transit":false,"station_name":"Tebet","transit":false,"i_long":106.857948,"station_id":"TEB","distance":1230,"line":2,"i_lat":-6.226659,"time":2},{"distance":2610,"transit":true,"time":4,"station_id":"MRI","i_lat":-6.209883,"station_name":"Manggarai","line":0,"is_transit":true,"i_long":106.84912},{"is_transit":false,"i_lat":-6.198556,"i_long":106.840169,"station_name":"Cikini","transit":false,"station_id":"CKI","line":0,"time":4,"distance":1590},{"transit":false,"distance":1750,"time":3,"i_lat":-6.186295,"line":2,"is_transit":false,"station_name":"Gondangdia","i_long":106.832183,"station_id":"GDD"},{"i_lat":-6.166716,"is_transit":false,"transit":false,"i_long":106.828284,"station_name":"Juanda","station_id":"JUA","time":4,"distance":2015,"line":2},{"i_lat":-6.160725,"is_transit":false,"i_long":106.827103,"time":2,"station_name":"Sawah Besar","line":2,"station_id":"SW","transit":false,"distance":1149},{"station_name":"Manggabesar","line":2,"distance":906,"station_id":"MGB","transit":false,"time":2,"i_long":106.82482,"is_transit":false,"i_lat":-6.149769},{"station_id":"JAY","line":7,"is_transit":false,"transit":false,"distance":1080,"time":2,"i_lat":-6.141205,"station_name":"Jayakarta","i_long":106.820901},{"station_id":"JAKK","transit":true,"time":4,"station_name":"Jakarta Kota","is_transit":true,"distance":1264,"i_long":106.812439,"i_lat":-6.137569,"line":0},{"line":0,"is_transit":true,"station_id":"KPB","transit":true,"i_lat":-6.132549,"i_long":106.826365,"station_name":"Kampung Bandan","distance":1364,"time":3},{"station_id":"RJW","line":11,"transit":false,"time":3,"station_name":"Rajawali","i_long":106.836569,"is_transit":false,"distance":1444,"i_lat":-6.14505},{"station_name":"Kemayoran","distance":1901,"i_lat":-6.161728,"i_long":106.839204,"transit":false,"line":11,"time":5,"is_transit":false,"station_id":"KMO"},{"station_id":"PSE","time":4,"i_lat":-6.174784,"line":11,"distance":1436,"is_transit":false,"station_name":"Pasar Senen","transit":false,"i_long":106.84368},{"line":11,"station_id":"GST","time":8,"station_name":"Gang Sentiong","distance":1567,"i_long":106.850107,"transit":false,"is_transit":false,"i_lat":-6.185975},{"is_transit":false,"distance":973,"i_long":106.855437,"transit":false,"line":11,"station_name":"Kramat","i_lat":-6.193792,"station_id":"KMT","time":1},{"line":11,"time":2,"station_id":"POK","i_long":106.861737,"i_lat":-6.209188,"distance":1829,"station_name":"Pondok Jati","transit":false,"is_transit":false},{"line":0,"i_lat":-6.215091,"station_id":"JNG","i_long":106.86807400000001,"time":9,"distance":1236,"is_transit":true,"transit":true,"station_name":"Jatinegara"},{"i_lat":-6.2135,"distance":3395,"i_long":106.899548,"transit":false,"time":3,"line":1,"station_id":"KLD","station_name":"Klender","is_transit":false},{"station_id":"BUA","i_long":106.922662,"station_name":"Buaran","distance":3100,"is_transit":false,"line":0,"time":2,"i_lat":-6.215568,"transit":false},{"transit":false,"station_id":"KLDB","line":1,"i_long":106.939679,"i_lat":-6.217455,"station_name":"Klenderbaru","time":1,"is_transit":false,"distance":1305},{"i_lat":-6.219053,"time":8,"is_transit":false,"i_long":106.951283,"station_id":"CUK","distance":1385,"line":0,"transit":false,"station_name":"Cakung"},{"station_name":"Kranji","time":3,"i_long":106.977657,"distance":3097,"station_id":"KRI","i_lat":-6.224515,"is_transit":false,"line":1,"transit":false},{"distance":2520,"is_transit":false,"i_lat":-6.236616,"time":4,"station_name":"Bekasi","station_id":"BKS","transit":false,"i_long":106.997013,"line":0},{"distance":2368,"station_name":"Bekasi Timur","time":2,"is_transit":false,"station_id":"BKST","i_long":107.016735,"line":0,"transit":false,"i_lat":-6.248029},{"station_id":"TB","time":7,"i_long":107.055722,"distance":4460,"i_lat":-6.258864,"is_transit":false,"station_name":"Tambun","transit":false,"line":1},{"i_long":107.083084,"distance":3420,"transit":false,"station_name":"Cibitung","i_lat":-6.261877,"time":3,"is_transit":false,"station_id":"CIT","line":0},{"time":2,"i_lat":-6.262938,"i_long":107.093313,"line":1,"is_transit":false,"station_name":"Metland Telaga Murni","distance":2800,"station_id":"TLM","transit":false}]]}