{"data":[[{"line":2,"is_transit":false,"station_id":"UI","distance":0,"i_long":106.831474,"station_name":"Univ. Indonesia","time":0,"transit":false,"i_lat":-6.360749},{"i_long":106.834175,"time":3,"station_id":"UP","transit":false,"station_name":"Univ. Pancasila","i_lat":-6.339291,"is_transit":false,"distance":2264,"line":2},{"transit":false,"station_id":"LNA","station_name":"Lenteng Agung","is_transit":false,"i_long":106.832616,"i_lat":-6.330363,"time":2,"distance":1029,"line":2},{"station_name":"Tanjung Barat","transit":false,"station_id":"TNT","time":3,"is_transit":false,"distance":2671,"i_lat":-6.3080680000000005,"i_long":106.838896,"line":2},{"line":2,"is_transit":false,"i_lat":-6.2842400000000005,"distance":2820,"i_long":106.843999,"station_id":"PSM","time":4,"transit":false,"station_name":"Pasar Minggu"},{"distance":2380,"line":2,"i_lat":-6.263214,"i_long":106.851577,"is_transit":false,"transit":false,"station_id":"PSMB","time":2,"station_name":"Pasar Minggu Baru"},{"i_long":106.85449,"i_lat":-6.255332,"distance":824,"station_name":"Duren Kalibata","transit":false,"station_id":"DRN","line":2,"is_transit":false,"time":2},{"distance":1546,"time":3,"line":2,"is_transit":false,"i_long":106.856607,"station_name":"Cawang","station_id":"CW","transit":false,"i_lat":-6.242512},{"station_id":"TEB","time":2,"transit":false,"station_name":"Tebet","distance":1230,"is_transit":false,"i_lat":-6.226659,"line":2,"i_long":106.857948},{"i_long":106.84912,"time":4,"i_lat":-6.209883,"distance":2610,"station_name":"Manggarai","transit":true,"station_id":"MRI","is_transit":true,"line":2},{"time":4,"is_transit":false,"line":1,"distance":3186,"transit":false,"station_name":"Sudirman","station_id":"SUD","i_lat":-6.202263,"i_long":106.822649},{"station_name":"Sudirman Baru","is_transit":false,"i_lat":-6.201433,"time":1,"station_id":"SUDB","line":1,"distance":280,"i_long":106.819881,"transit":false},{"distance":471,"is_transit":false,"time":1,"i_long":106.816351,"station_id":"KAT","i_lat":-6.20132,"transit":false,"line":1,"station_name":"Karet"},{"station_id":"THB","station_name":"Tanah Abang","distance":2029,"is_transit":true,"i_lat":-6.185545,"line":1,"transit":true,"time":5,"i_long":106.811091},{"station_id":"PLM","distance":3191,"station_name":"Palmerah","i_lat":-6.207404,"line":6,"transit":false,"i_long":106.79689,"is_transit":false,"time":6},{"station_name":"Kebayoran","transit":false,"is_transit":false,"i_long":106.780334,"time":7,"i_lat":-6.237242,"distance":3737,"station_id":"KBY","line":6},{"is_transit":false,"i_long":106.74273,"transit":false,"station_name":"Pondokranji","time":8,"distance":6218,"i_lat":-6.276362,"line":6,"station_id":"PDJ"},{"distance":2179,"transit":false,"i_lat":-6.288927,"line":6,"is_transit":false,"time":3,"station_name":"Jurangmangu","station_id":"JMU","i_long":106.728916},{"time":4,"station_id":"SDM","i_lat":-6.296963,"i_long":106.712277,"is_transit":false,"station_name":"Sudimara","distance":1994,"line":6,"transit":false},{"station_id":"RU","i_lat":-6.314823,"time":6,"is_transit":false,"station_name":"Rawa Buntu","i_long":106.675475,"distance":4566,"line":6,"transit":false},{"distance":2413,"time":4,"station_id":"SRP","is_transit":false,"i_lat":-6.319871,"station_name":"Serpong","i_long":106.66566,"line":6,"transit":false},{"transit":false,"station_name":"Cisauk","i_long":106.640411,"is_transit":false,"distance":1784,"i_lat":-6.32484,"station_id":"CSK","time":4,"line":3},{"station_name":"Cicayur","i_lat":-6.329547,"transit":false,"is_transit":false,"station_id":"CC","i_long":106.617853,"time":4,"distance":2519,"line":3},{"time":8,"is_transit":false,"station_id":"PRP","station_name":"Parung Panjang","i_long":106.568863,"distance":5968,"line":6,"transit":false,"i_lat":-6.3441410000000005},{"transit":false,"is_transit":false,"i_lat":-6.354349,"station_name":"Cilejit","time":9,"line":3,"i_long":106.508482,"distance":7025,"station_id":"CJT"},{"i_lat":-6.338021,"i_long":106.491338,"distance":2675,"is_transit":false,"line":0,"time":6,"transit":false,"station_id":"DAR","station_name":"Daru"},{"transit":false,"station_id":"TEJ","distance":3902,"station_name":"Tenjo","is_transit":false,"line":6,"i_long":106.460812,"time":5,"i_lat":-6.327251}],[{"i_lat":-6.360749,"i_long":106.831474,"transit":false,"line":2,"station_name":"Univ. Indonesia","station_id":"UI","is_transit":false,"time":0,"distance":0},{"station_id":"UP","time":3,"transit":false,"station_name":"Univ. Pancasila","is_transit":false,"i_long":106.834175,"distance":2264,"i_lat":-6.339291,"line":2},{"station_id":"LNA","i_long":106.832616,"transit":false,"is_transit":false,"line":2,"station_name":"Lenteng Agung","distance":1029,"i_lat":-6.330363,"time":2},{"transit":false,"i_lat":-6.3080680000000005,"i_long":106.838896,"time":3,"station_id":"TNT","distance":2671,"is_transit":false,"line":2,"station_name":"Tanjung Barat"},{"is_transit":false,"distance":2820,"i_lat":-6.2842400000000005,"station_id":"PSM","transit":false,"station_name":"Pasar Minggu","i_long":106.843999,"line":2,"time":4},{"is_transit":false,"time":2,"distance":2380,"station_id":"PSMB","i_lat":-6.263214,"transit":false,"station_name":"Pasar Minggu Baru","line":2,"i_long":106.851577},{"is_transit":false,"time":2,"i_lat":-6.255332,"station_name":"Duren Kalibata","distance":824,"i_long":106.85449,"transit":false,"station_id":"DRN","line":2},{"station_id":"CW","distance":1546,"i_long":106.856607,"time":3,"transit":false,"is_transit":false,"line":2,"i_lat":-6.242512,"station_name":"Cawang"},{"time":2,"line":2,"station_id":"TEB","i_lat":-6.226659,"transit":false,"distance":1230,"i_long":106.857948,"station_name":"Tebet","is_transit":false},{"i_lat":-6.209883,"station_id":"MRI","line":2,"station_name":"Manggarai","transit":false,"time":4,"i_long":106.84912,"distance":2610,"is_transit":false},{"station_name":"Cikini","distance":1590,"i_lat":-6.198556,"i_long":106.840169,"line":2,"transit":false,"is_transit":false,"time":4,"station_id":"CKI"},{"time":3,"distance":1750,"station_name":"Gondangdia","is_transit":false,"i_long":106.832183,"transit":false,"station_id":"GDD","line":2,"i_lat":-6.186295},{"line":2,"distance":2015,"station_name":"Juanda","is_transit":false,"station_id":"JUA","time":4,"i_lat":-6.166716,"i_long":106.828284,"transit":false},{"station_name":"Sawah Besar","transit":false,"is_transit":false,"time":2,"i_lat":-6.160725,"i_long":106.827103,"line":2,"distance":1149,"station_id":"SW"},{"i_lat":-6.149769,"line":2,"transit":false,"station_name":"Manggabesar","station_id":"MGB","distance":906,"i_long":106.82482,"is_transit":false,"time":2},{"time":2,"i_lat":-6.141205,"is_transit":false,"transit":false,"station_name":"Jayakarta","distance":1080,"i_long":106.820901,"line":2,"station_id":"JAY"},{"time":4,"i_long":106.812439,"i_lat":-6.137569,"transit":true,"station_id":"JAKK","distance":1264,"station_name":"Jakarta Kota","line":2,"is_transit":true},{"i_lat":-6.132549,"station_id":"KPB","i_long":106.826365,"line":4,"station_name":"Kampung Bandan","distance":1364,"is_transit":true,"transit":true,"time":3},{"time":9,"i_long":106.79867,"is_transit":false,"station_id":"AK","distance":4102,"i_lat":-6.144674,"station_name":"Angke","transit":false,"line":1},{"station_id":"DU","distance":1230,"time":4,"is_transit":false,"i_lat":-6.155215,"i_long":106.800832,"transit":false,"station_name":"Duri","line":1},{"i_long":106.811091,"is_transit":true,"transit":true,"time":8,"distance":3632,"line":1,"station_name":"Tanah Abang","station_id":"THB","i_lat":-6.185545},{"distance":3191,"i_long":106.79689,"station_name":"Palmerah","i_lat":-6.207404,"transit":false,"line":6,"station_id":"PLM","is_transit":false,"time":6},{"time":7,"distance":3737,"line":6,"i_lat":-6.237242,"i_long":106.780334,"station_id":"KBY","station_name":"Kebayoran","transit":false,"is_transit":false},{"i_long":106.74273,"station_name":"Pondokranji","distance":6218,"transit":false,"station_id":"PDJ","is_transit":false,"line":6,"time":8,"i_lat":-6.276362},{"distance":2179,"is_transit":false,"time":3,"i_long":106.728916,"transit":false,"station_id":"JMU","station_name":"Jurangmangu","i_lat":-6.288927,"line":6},{"station_name":"Sudimara","line":6,"transit":false,"time":4,"i_long":106.712277,"is_transit":false,"distance":1994,"station_id":"SDM","i_lat":-6.296963},{"is_transit":false,"distance":4566,"transit":false,"station_id":"RU","line":6,"i_long":106.675475,"time":6,"station_name":"Rawa Buntu","i_lat":-6.314823},{"transit":false,"station_name":"Serpong","line":6,"distance":2413,"station_id":"SRP","i_long":106.66566,"time":4,"is_transit":false,"i_lat":-6.319871},{"i_lat":-6.32484,"transit":false,"time":4,"station_name":"Cisauk","line":3,"distance":1784,"i_long":106.640411,"station_id":"CSK","is_transit":false},{"station_id":"CC","is_transit":false,"distance":2519,"i_lat":-6.329547,"i_long":106.617853,"time":4,"transit":false,"line":3,"station_name":"Cicayur"},{"is_transit":false,"i_long":106.568863,"time":8,"distance":5968,"station_id":"PRP","transit":false,"i_lat":-6.3441410000000005,"station_name":"Parung Panjang","line":6},{"time":9,"distance":7025,"i_lat":-6.354349,"station_name":"Cilejit","station_id":"CJT","transit":false,"i_long":106.508482,"is_transit":false,"line":3},{"i_lat":-6.338021,"is_transit":false,"line":0,"time":6,"station_id":"DAR","i_long":106.491338,"distance":2675,"station_name":"Daru","transit":false},{"i_long":106.460812,"station_id":"TEJ","time":5,"is_transit":false,"distance":3902,"transit":false,"line":6,"station_name":"Tenjo","i_lat":-6.327251}],[{"station_id":"UI","i_lat":-6.360749,"line":2,"time":0,"is_transit":false,"distance":0,"i_long":106.831474,"station_name":"Univ. Indonesia","transit":false},{"station_name":"Univ. Pancasila","station_id":"UP","i_lat":-6.339291,"line":2,"distance":2264,"i_long":106.834175,"transit":false,"time":3,"is_transit":false},{"line":2,"i_lat":-6.330363,"station_id":"LNA","station_name":"Lenteng Agung","time":2,"transit":false,"is_transit":false,"distance":1029,"i_long":106.832616},{"time":3,"line":2,"transit":false,"is_transit":false,"station_name":"Tanjung Barat","distance":2671,"i_lat":-6.3080680000000005,"i_long":106.838896,"station_id":"TNT"},{"transit":false,"i_lat":-6.2842400000000005,"distance":2820,"is_transit":false,"line":2,"station_id":"PSM","station_name":"Pasar Minggu","i_long":106.843999,"time":4},{"time":2,"is_transit":false,"line":2,"distance":2380,"i_long":106.851577,"transit":false,"i_lat":-6.263214,"station_name":"Pasar Minggu Baru","station_id":"PSMB"},{"distance":824,"i_long":106.85449,"i_lat":-6.255332,"line":2,"transit":false,"station_id":"DRN","time":2,"is_transit":false,"station_name":"Duren Kalibata"},{"station_name":"Cawang","time":3,"transit":false,"station_id":"CW","is_transit":false,"i_long":106.856607,"line":2,"i_lat":-6.242512,"distance":1546},{"line":2,"transit":false,"station_name":"Tebet","time":2,"distance":1230,"i_lat":-6.226659,"is_transit":false,"i_long":106.857948,"station_id":"TEB"},{"is_transit":true,"time":4,"i_lat":-6.209883,"distance":2610,"i_long":106.84912,"station_name":"Manggarai","station_id":"MRI","transit":true,"line":2},{"distance":1275,"time":2,"transit":false,"is_transit":false,"i_lat":-6.212485,"line":1,"station_name":"Matraman","station_id":"MTR","i_long":106.858896},{"line":1,"i_long":106.86807400000001,"transit":true,"i_lat":-6.215091,"distance":1377,"station_id":"JNG","station_name":"Jatinegara","is_transit":true,"time":8},{"i_long":106.861737,"station_name":"Pondok Jati","distance":1236,"is_transit":false,"time":2,"line":11,"station_id":"POK","transit":false,"i_lat":-6.209188},{"i_lat":-6.193792,"line":11,"station_name":"Kramat","station_id":"KMT","time":2,"is_transit":false,"distance":1829,"i_long":106.855437,"transit":false},{"station_id":"GST","distance":973,"i_lat":-6.185975,"station_name":"Gang Sentiong","i_long":106.850107,"time":1,"is_transit":false,"transit":false,"line":11},{"time":8,"is_transit":false,"i_lat":-6.174784,"line":11,"distance":1567,"station_name":"Pasar Senen","i_long":106.84368,"station_id":"PSE","transit":false},{"station_name":"Kemayoran","time":4,"station_id":"KMO","distance":1436,"i_long":106.839204,"line":11,"i_lat":-6.161728,"is_transit":false,"transit":false},{"i_long":106.836569,"station_name":"Rajawali","time":5,"is_transit":false,"line":11,"i_lat":-6.14505,"transit":false,"station_id":"RJW","distance":1901},{"time":3,"line":4,"station_id":"KPB","i_lat":-6.132549,"transit":true,"station_name":"Kampung Bandan","is_transit":true,"distance":1444,"i_long":106.826365},{"is_transit":false,"station_id":"AK","station_name":"Angke","time":9,"i_lat":-6.144674,"line":1,"transit":false,"i_long":106.79867,"distance":4102},{"station_id":"DU","i_lat":-6.155215,"i_long":106.800832,"time":4,"line":1,"distance":1230,"station_name":"Duri","transit":false,"is_transit":false},{"i_long":106.811091,"distance":3632,"station_id":"THB","line":1,"is_transit":true,"i_lat":-6.185545,"time":8,"station_name":"Tanah Abang","transit":true},{"time":6,"distance":3191,"i_long":106.79689,"transit":false,"line":6,"is_transit":false,"station_name":"Palmerah","i_lat":-6.207404,"station_id":"PLM"},{"distance":3737,"i_long":106.780334,"transit":false,"station_id":"KBY","is_transit":false,"i_lat":-6.237242,"station_name":"Kebayoran","line":6,"time":7},{"line":6,"time":8,"station_name":"Pondokranji","i_lat":-6.276362,"transit":false,"i_long":106.74273,"is_transit":false,"distance":6218,"station_id":"PDJ"},{"station_name":"Jurangmangu","i_lat":-6.288927,"distance":2179,"time":3,"station_id":"JMU","transit":false,"i_long":106.728916,"line":6,"is_transit":false},{"is_transit":false,"time":4,"transit":false,"i_lat":-6.296963,"station_id":"SDM","i_long":106.712277,"station_name":"Sudimara","line":6,"distance":1994},{"transit":false,"line":6,"station_name":"Rawa Buntu","station_id":"RU","is_transit":false,"i_lat":-6.314823,"time":6,"distance":4566,"i_long":106.675475},{"is_transit":false,"station_id":"SRP","i_lat":-6.319871,"time":4,"line":6,"transit":false,"station_name":"Serpong","distance":2413,"i_long":106.66566},{"line":3,"station_name":"Cisauk","distance":1784,"transit":false,"station_id":"CSK","is_transit":false,"time":4,"i_lat":-6.32484,"i_long":106.640411},{"i_lat":-6.329547,"distance":2519,"transit":false,"station_name":"Cicayur","time":4,"station_id":"CC","line":3,"i_long":106.617853,"is_transit":false},{"station_name":"Parung Panjang","time":8,"station_id":"PRP","is_transit":false,"line":6,"distance":5968,"i_lat":-6.3441410000000005,"i_long":106.568863,"transit":false},{"i_long":106.508482,"i_lat":-6.354349,"station_name":"Cilejit","time":9,"is_transit":false,"line":3,"station_id":"CJT","transit":false,"distance":7025},{"time":6,"line":0,"transit":false,"station_id":"DAR","distance":2675,"i_lat":-6.338021,"i_long":106.491338,"is_transit":false,"station_name":"Daru"},{"i_long":106.460812,"is_transit":false,"line":6,"station_name":"Tenjo","transit":false,"station_id":"TEJ","time":5,"distance":3902,"i_lat":-6.327251}]]}