{"data":[[{"station_name":"Univ. Indonesia","i_long":106.831474,"time":0,"is_transit":false,"line":2,"i_lat":-6.360749,"station_id":"UI","distance":0,"transit":false},{"i_long":106.834175,"distance":2264,"line":2,"is_transit":false,"transit":false,"i_lat":-6.339291,"time":3,"station_id":"UP","station_name":"Univ. Pancasila"},{"transit":false,"i_long":106.832616,"i_lat":-6.330363,"distance":1029,"time":2,"station_id":"LNA","station_name":"Lenteng Agung","line":2,"is_transit":false},{"distance":2671,"time":3,"station_id":"TNT","station_name":"Tanjung Barat","is_transit":false,"i_long":106.838896,"line":2,"transit":false,"i_lat":-6.3080680000000005},{"distance":2820,"station_name":"Pasar Minggu","station_id":"PSM","is_transit":false,"transit":false,"time":4,"i_lat":-6.2842400000000005,"i_long":106.843999,"line":2},{"i_long":106.851577,"distance":2380,"is_transit":false,"transit":false,"station_id":"PSMB","station_name":"Pasar Minggu Baru","time":2,"line":2,"i_lat":-6.263214},{"station_id":"DRN","time":2,"transit":false,"line":2,"i_long":106.85449,"distance":824,"station_name":"Duren Kalibata","is_transit":false,"i_lat":-6.255332},{"i_lat":-6.242512,"station_id":"CW","is_transit":false,"i_long":106.856607,"time":3,"line":2,"station_name":"Cawang","distance":1546,"transit":false},{"is_transit":false,"line":2,"time":2,"i_lat":-6.226659,"station_id":"TEB","transit":false,"i_long":106.857948,"distance":1230,"station_name":"Tebet"},{"transit":true,"i_lat":-6.209883,"is_transit":true,"time":4,"i_long":106.84912,"station_id":"MRI","station_name":"Manggarai","line":2,"distance":2610},{"is_transit":false,"time":2,"transit":false,"i_long":106.858896,"line":1,"station_name":"Matraman","i_lat":-6.212485,"distance":1275,"station_id":"MTR"},{"line":1,"time":8,"is_transit":false,"station_id":"JNG","i_long":106.86807400000001,"station_name":"Jatinegara","distance":1377,"i_lat":-6.215091,"transit":false},{"is_transit":false,"station_id":"KLD","station_name":"Klender","i_lat":-6.2135,"line":1,"transit":false,"i_long":106.899548,"time":3,"distance":3395},{"line":1,"distance":3100,"is_transit":false,"i_lat":-6.215568,"i_long":106.922662,"transit":false,"time":2,"station_name":"Buaran","station_id":"BUA"},{"station_id":"KLDB","is_transit":false,"i_lat":-6.217455,"time":1,"i_long":106.939679,"transit":false,"distance":1305,"station_name":"Klenderbaru","line":1},{"time":8,"station_id":"CUK","station_name":"Cakung","is_transit":false,"i_long":106.951283,"line":1,"distance":1385,"transit":false,"i_lat":-6.219053},{"distance":3097,"station_id":"KRI","station_name":"Kranji","i_lat":-6.224515,"transit":false,"is_transit":false,"i_long":106.977657,"line":1,"time":3},{"line":1,"distance":2520,"station_name":"Bekasi","station_id":"BKS","i_lat":-6.236616,"is_transit":false,"time":4,"transit":false,"i_long":106.997013},{"i_long":107.016735,"is_transit":false,"distance":2368,"line":1,"transit":false,"station_id":"BKST","time":2,"i_lat":-6.248029,"station_name":"Bekasi Timur"},{"i_long":107.055722,"distance":4460,"i_lat":-6.258864,"is_transit":false,"transit":false,"time":7,"line":1,"station_id":"TB","station_name":"Tambun"},{"station_id":"CIT","i_lat":-6.261877,"i_long":107.083084,"distance":3420,"is_transit":false,"transit":false,"line":1,"time":3,"station_name":"Cibitung"},{"station_name":"Metland Telaga Murni","transit":false,"i_long":107.093313,"is_transit":false,"time":2,"station_id":"TLM","i_lat":-6.262938,"distance":2800,"line":1}],[{"transit":false,"distance":0,"line":2,"is_transit":false,"station_name":"Univ. Indonesia","i_lat":-6.360749,"station_id":"UI","i_long":106.831474,"time":0},{"station_id":"UP","station_name":"Univ. Pancasila","is_transit":false,"i_long":106.834175,"time":3,"line":2,"distance":2264,"i_lat":-6.339291,"transit":false},{"transit":false,"station_id":"LNA","time":2,"distance":1029,"i_lat":-6.330363,"line":2,"is_transit":false,"i_long":106.832616,"station_name":"Lenteng Agung"},{"transit":false,"time":3,"distance":2671,"i_lat":-6.3080680000000005,"line":2,"station_name":"Tanjung Barat","is_transit":false,"station_id":"TNT","i_long":106.838896},{"station_id":"PSM","i_long":106.843999,"transit":false,"station_name":"Pasar Minggu","is_transit":false,"i_lat":-6.2842400000000005,"time":4,"line":2,"distance":2820},{"is_transit":false,"line":2,"station_id":"PSMB","distance":2380,"station_name":"Pasar Minggu Baru","transit":false,"i_long":106.851577,"time":2,"i_lat":-6.263214},{"station_id":"DRN","i_long":106.85449,"distance":824,"is_transit":false,"time":2,"transit":false,"station_name":"Duren Kalibata","i_lat":-6.255332,"line":2},{"time":3,"distance":1546,"station_id":"CW","is_transit":false,"transit":false,"i_lat":-6.242512,"i_long":106.856607,"station_name":"Cawang","line":2},{"i_lat":-6.226659,"distance":1230,"line":2,"station_id":"TEB","i_long":106.857948,"is_transit":false,"time":2,"transit":false,"station_name":"Tebet"},{"station_name":"Manggarai","distance":2610,"line":2,"transit":true,"i_long":106.84912,"is_transit":true,"i_lat":-6.209883,"time":4,"station_id":"MRI"},{"station_name":"Sudirman","i_lat":-6.202263,"line":1,"transit":false,"station_id":"SUD","distance":3186,"i_long":106.822649,"time":4,"is_transit":false},{"i_long":106.819881,"station_name":"Sudirman Baru","i_lat":-6.201433,"station_id":"SUDB","distance":280,"time":1,"transit":false,"line":1,"is_transit":false},{"i_long":106.816351,"station_id":"KAT","i_lat":-6.20132,"transit":false,"line":1,"time":1,"distance":471,"station_name":"Karet","is_transit":false},{"transit":false,"station_id":"THB","i_long":106.811091,"i_lat":-6.185545,"time":5,"line":1,"distance":2029,"station_name":"Tanah Abang","is_transit":false},{"station_name":"Duri","transit":false,"line":1,"i_lat":-6.155215,"station_id":"DU","is_transit":false,"i_long":106.800832,"time":8,"distance":3632},{"time":4,"transit":false,"station_id":"AK","i_long":106.79867,"line":1,"is_transit":false,"station_name":"Angke","distance":1230,"i_lat":-6.144674},{"i_long":106.826365,"station_name":"Kampung Bandan","time":9,"i_lat":-6.132549,"is_transit":true,"station_id":"KPB","distance":4102,"line":4,"transit":true},{"is_transit":false,"i_long":106.836569,"time":3,"line":11,"transit":false,"distance":1444,"station_id":"RJW","i_lat":-6.14505,"station_name":"Rajawali"},{"transit":false,"time":5,"station_name":"Kemayoran","is_transit":false,"station_id":"KMO","distance":1901,"line":11,"i_long":106.839204,"i_lat":-6.161728},{"distance":1436,"station_name":"Pasar Senen","station_id":"PSE","i_lat":-6.174784,"i_long":106.84368,"transit":false,"time":4,"line":11,"is_transit":false},{"station_name":"Gang Sentiong","i_lat":-6.185975,"station_id":"GST","i_long":106.850107,"is_transit":false,"line":11,"transit":false,"distance":1567,"time":8},{"station_id":"KMT","transit":false,"line":11,"is_transit":false,"i_lat":-6.193792,"i_long":106.855437,"station_name":"Kramat","distance":973,"time":1},{"i_lat":-6.209188,"is_transit":false,"time":2,"i_long":106.861737,"transit":false,"station_id":"POK","distance":1829,"line":11,"station_name":"Pondok Jati"},{"station_id":"JNG","is_transit":true,"line":1,"i_lat":-6.215091,"transit":true,"station_name":"Jatinegara","time":9,"distance":1236,"i_long":106.86807400000001},{"line":1,"station_name":"Klender","distance":3395,"transit":false,"station_id":"KLD","is_transit":false,"i_long":106.899548,"i_lat":-6.2135,"time":3},{"distance":3100,"i_long":106.922662,"line":1,"time":2,"transit":false,"i_lat":-6.215568,"station_id":"BUA","station_name":"Buaran","is_transit":false},{"time":1,"distance":1305,"is_transit":false,"i_long":106.939679,"transit":false,"station_id":"KLDB","line":1,"station_name":"Klenderbaru","i_lat":-6.217455},{"is_transit":false,"i_lat":-6.219053,"time":8,"i_long":106.951283,"transit":false,"line":1,"station_name":"Cakung","station_id":"CUK","distance":1385},{"transit":false,"is_transit":false,"time":3,"distance":3097,"i_long":106.977657,"line":1,"i_lat":-6.224515,"station_id":"KRI","station_name":"Kranji"},{"time":4,"is_transit":false,"station_name":"Bekasi","station_id":"BKS","transit":false,"i_lat":-6.236616,"i_long":106.997013,"line":1,"distance":2520},{"station_name":"Bekasi Timur","i_long":107.016735,"distance":2368,"station_id":"BKST","transit":false,"line":1,"is_transit":false,"i_lat":-6.248029,"time":2},{"station_name":"Tambun","transit":false,"time":7,"i_long":107.055722,"line":1,"i_lat":-6.258864,"station_id":"TB","is_transit":false,"distance":4460},{"time":3,"distance":3420,"station_name":"Cibitung","is_transit":false,"i_lat":-6.261877,"line":1,"station_id":"CIT","transit":false,"i_long":107.083084},{"i_long":107.093313,"time":2,"i_lat":-6.262938,"distance":2800,"line":1,"transit":false,"station_id":"TLM","station_name":"Metland Telaga Murni","is_transit":false}],[{"i_long":106.831474,"time":0,"line":2,"station_id":"UI","station_name":"Univ. Indonesia","distance":0,"is_transit":false,"transit":false,"i_lat":-6.360749},{"station_id":"UP","time":3,"distance":2264,"i_long":106.834175,"line":2,"i_lat":-6.339291,"transit":false,"is_transit":false,"station_name":"Univ. Pancasila"},{"station_name":"Lenteng Agung","transit":false,"i_lat":-6.330363,"station_id":"LNA","i_long":106.832616,"line":2,"is_transit":false,"time":2,"distance":1029},{"station_name":"Tanjung Barat","time":3,"transit":false,"distance":2671,"i_lat":-6.3080680000000005,"i_long":106.838896,"station_id":"TNT","line":2,"is_transit":false},{"i_long":106.843999,"line":2,"station_id":"PSM","time":4,"station_name":"Pasar Minggu","is_transit":false,"transit":false,"i_lat":-6.2842400000000005,"distance":2820},{"station_id":"PSMB","is_transit":false,"station_name":"Pasar Minggu Baru","i_long":106.851577,"line":2,"time":2,"distance":2380,"transit":false,"i_lat":-6.263214},{"transit":false,"is_transit":false,"i_lat":-6.255332,"i_long":106.85449,"distance":824,"station_name":"Duren Kalibata","station_id":"DRN","line":2,"time":2},{"time":3,"transit":false,"station_id":"CW","station_name":"Cawang","i_lat":-6.242512,"is_transit":false,"line":2,"i_long":106.856607,"distance":1546},{"i_long":106.857948,"transit":false,"station_id":"TEB","is_transit":false,"i_lat":-6.226659,"time":2,"distance":1230,"line":2,"station_name":"Tebet"},{"distance":2610,"transit":false,"time":4,"i_lat":-6.209883,"line":2,"station_id":"MRI","i_long":106.84912,"station_name":"Manggarai","is_transit":false},{"station_id":"CKI","is_transit":false,"station_name":"Cikini","distance":1590,"i_lat":-6.198556,"transit":false,"time":4,"i_long":106.840169,"line":2},{"station_name":"Gondangdia","is_transit":false,"i_long":106.832183,"time":3,"transit":false,"i_lat":-6.186295,"distance":1750,"station_id":"GDD","line":2},{"i_long":106.828284,"transit":false,"station_id":"JUA","is_transit":false,"station_name":"Juanda","i_lat":-6.166716,"distance":2015,"time":4,"line":2},{"distance":1149,"line":2,"i_long":106.827103,"time":2,"is_transit":false,"transit":false,"station_name":"Sawah Besar","station_id":"SW","i_lat":-6.160725},{"line":2,"time":2,"transit":false,"distance":906,"station_id":"MGB","i_lat":-6.149769,"i_long":106.82482,"is_transit":false,"station_name":"Manggabesar"},{"line":2,"station_name":"Jayakarta","transit":false,"i_long":106.820901,"is_transit":false,"station_id":"JAY","i_lat":-6.141205,"distance":1080,"time":2},{"time":4,"distance":1264,"i_long":106.812439,"line":2,"transit":true,"is_transit":true,"i_lat":-6.137569,"station_id":"JAKK","station_name":"Jakarta Kota"},{"i_long":106.826365,"station_id":"KPB","is_transit":true,"distance":1364,"i_lat":-6.132549,"time":3,"line":4,"transit":true,"station_name":"Kampung Bandan"},{"i_lat":-6.14505,"line":11,"distance":1444,"transit":false,"station_name":"Rajawali","station_id":"RJW","time":3,"i_long":106.836569,"is_transit":false},{"transit":false,"line":11,"i_lat":-6.161728,"station_name":"Kemayoran","time":5,"station_id":"KMO","distance":1901,"i_long":106.839204,"is_transit":false},{"distance":1436,"time":4,"station_id":"PSE","i_lat":-6.174784,"transit":false,"i_long":106.84368,"line":11,"is_transit":false,"station_name":"Pasar Senen"},{"time":8,"station_id":"GST","i_lat":-6.185975,"distance":1567,"i_long":106.850107,"line":11,"is_transit":false,"transit":false,"station_name":"Gang Sentiong"},{"distance":973,"i_long":106.855437,"i_lat":-6.193792,"transit":false,"station_id":"KMT","station_name":"Kramat","is_transit":false,"time":1,"line":11},{"station_name":"Pondok Jati","is_transit":false,"time":2,"i_long":106.861737,"station_id":"POK","line":11,"transit":false,"i_lat":-6.209188,"distance":1829},{"station_id":"JNG","i_long":106.86807400000001,"line":1,"time":9,"distance":1236,"station_name":"Jatinegara","is_transit":true,"transit":true,"i_lat":-6.215091},{"time":3,"i_long":106.899548,"i_lat":-6.2135,"is_transit":false,"station_name":"Klender","distance":3395,"line":1,"transit":false,"station_id":"KLD"},{"i_lat":-6.215568,"station_name":"Buaran","distance":3100,"time":2,"i_long":106.922662,"is_transit":false,"line":1,"transit":false,"station_id":"BUA"},{"station_name":"Klenderbaru","station_id":"KLDB","transit":false,"i_long":106.939679,"time":1,"distance":1305,"i_lat":-6.217455,"is_transit":false,"line":1},{"station_id":"CUK","is_transit":false,"i_long":106.951283,"station_name":"Cakung","transit":false,"line":1,"i_lat":-6.219053,"time":8,"distance":1385},{"i_long":106.977657,"station_name":"Kranji","time":3,"line":1,"distance":3097,"i_lat":-6.224515,"is_transit":false,"transit":false,"station_id":"KRI"},{"transit":false,"is_transit":false,"station_name":"Bekasi","i_long":106.997013,"station_id":"BKS","distance":2520,"i_lat":-6.236616,"line":1,"time":4},{"station_name":"Bekasi Timur","i_lat":-6.248029,"line":1,"i_long":107.016735,"station_id":"BKST","time":2,"is_transit":false,"distance":2368,"transit":false},{"distance":4460,"time":7,"station_name":"Tambun","i_lat":-6.258864,"is_transit":false,"station_id":"TB","transit":false,"i_long":107.055722,"line":1},{"station_id":"CIT","time":3,"distance":3420,"line":1,"transit":false,"is_transit":false,"i_lat":-6.261877,"station_name":"Cibitung","i_long":107.083084},{"is_transit":false,"station_id":"TLM","i_lat":-6.262938,"i_long":107.093313,"transit":false,"station_name":"Metland Telaga Murni","time":2,"line":1,"distance":2800}]]}