{"data":[[{"is_transit":false,"i_long":106.831474,"time":0,"distance":0,"transit":false,"station_name":"Univ. Indonesia","station_id":"UI","i_lat":-6.360749,"line":2},{"is_transit":false,"time":3,"i_lat":-6.339291,"distance":2264,"station_id":"UP","station_name":"Univ. Pancasila","i_long":106.834175,"transit":false,"line":2},{"is_transit":false,"distance":1029,"station_id":"LNA","time":2,"i_long":106.832616,"i_lat":-6.330363,"station_name":"Lenteng Agung","line":2,"transit":false},{"line":2,"is_transit":false,"i_lat":-6.3080680000000005,"station_id":"TNT","transit":false,"station_name":"Tanjung Barat","i_long":106.838896,"distance":2671,"time":3},{"station_name":"Pasar Minggu","i_long":106.843999,"transit":false,"is_transit":false,"station_id":"PSM","line":2,"distance":2820,"time":4,"i_lat":-6.2842400000000005},{"time":2,"station_name":"Pasar Minggu Baru","line":2,"transit":false,"distance":2380,"i_lat":-6.263214,"i_long":106.851577,"station_id":"PSMB","is_transit":false},{"time":2,"is_transit":false,"i_long":106.85449,"i_lat":-6.255332,"line":2,"transit":false,"station_name":"Duren Kalibata","station_id":"DRN","distance":824},{"i_long":106.856607,"line":2,"is_transit":false,"time":3,"distance":1546,"station_id":"CW","station_name":"Cawang","i_lat":-6.242512,"transit":false},{"transit":false,"distance":1230,"i_long":106.857948,"time":2,"i_lat":-6.226659,"station_name":"Tebet","is_transit":false,"station_id":"TEB","line":2},{"station_name":"Manggarai","i_lat":-6.209883,"is_transit":true,"transit":true,"station_id":"MRI","time":4,"distance":2610,"i_long":106.84912,"line":2},{"time":4,"line":1,"station_name":"Sudirman","station_id":"SUD","distance":3186,"is_transit":false,"transit":false,"i_long":106.822649,"i_lat":-6.202263},{"line":1,"station_id":"SUDB","distance":280,"time":1,"is_transit":false,"station_name":"Sudirman Baru","i_lat":-6.201433,"transit":false,"i_long":106.819881},{"line":1,"distance":471,"time":1,"station_name":"Karet","is_transit":false,"i_lat":-6.20132,"transit":false,"i_long":106.816351,"station_id":"KAT"},{"transit":true,"station_name":"Tanah Abang","line":1,"is_transit":true,"station_id":"THB","i_lat":-6.185545,"distance":2029,"time":5,"i_long":106.811091},{"transit":false,"line":6,"station_id":"PLM","distance":3191,"time":6,"station_name":"Palmerah","i_lat":-6.207404,"i_long":106.79689,"is_transit":false},{"i_lat":-6.237242,"is_transit":false,"station_id":"KBY","station_name":"Kebayoran","time":7,"line":6,"i_long":106.780334,"transit":false,"distance":3737},{"i_lat":-6.276362,"station_name":"Pondokranji","transit":false,"station_id":"PDJ","time":8,"distance":6218,"i_long":106.74273,"line":6,"is_transit":false},{"is_transit":false,"distance":2179,"line":6,"time":3,"station_name":"Jurangmangu","i_lat":-6.288927,"i_long":106.728916,"station_id":"JMU","transit":false},{"i_lat":-6.296963,"line":6,"is_transit":false,"station_name":"Sudimara","i_long":106.712277,"time":4,"transit":false,"station_id":"SDM","distance":1994},{"is_transit":false,"transit":false,"line":6,"station_name":"Rawa Buntu","distance":4566,"time":6,"station_id":"RU","i_long":106.675475,"i_lat":-6.314823},{"station_name":"Serpong","station_id":"SRP","distance":2413,"line":6,"i_long":106.66566,"is_transit":false,"time":4,"transit":false,"i_lat":-6.319871},{"is_transit":false,"station_id":"CSK","i_long":106.640411,"station_name":"Cisauk","line":3,"transit":false,"i_lat":-6.32484,"distance":1784,"time":4},{"i_lat":-6.329547,"line":3,"is_transit":false,"station_name":"Cicayur","time":4,"transit":false,"i_long":106.617853,"station_id":"CC","distance":2519},{"transit":false,"station_id":"PRP","i_long":106.568863,"time":8,"i_lat":-6.3441410000000005,"is_transit":false,"distance":5968,"station_name":"Parung Panjang","line":6},{"is_transit":false,"station_name":"Cilejit","station_id":"CJT","distance":7025,"line":3,"i_lat":-6.354349,"i_long":106.508482,"transit":false,"time":9},{"is_transit":false,"transit":false,"i_lat":-6.338021,"line":0,"station_id":"DAR","time":6,"station_name":"Daru","distance":2675,"i_long":106.491338},{"is_transit":false,"station_name":"Tenjo","transit":false,"station_id":"TEJ","distance":3902,"i_long":106.460812,"i_lat":-6.327251,"time":5,"line":6}],[{"transit":false,"is_transit":false,"i_long":106.831474,"distance":0,"i_lat":-6.360749,"station_id":"UI","time":0,"station_name":"Univ. Indonesia","line":2},{"station_id":"UP","i_lat":-6.339291,"distance":2264,"time":3,"station_name":"Univ. Pancasila","line":2,"transit":false,"is_transit":false,"i_long":106.834175},{"time":2,"line":2,"i_long":106.832616,"transit":false,"station_name":"Lenteng Agung","distance":1029,"is_transit":false,"station_id":"LNA","i_lat":-6.330363},{"is_transit":false,"i_long":106.838896,"line":2,"transit":false,"time":3,"distance":2671,"station_id":"TNT","i_lat":-6.3080680000000005,"station_name":"Tanjung Barat"},{"time":4,"i_long":106.843999,"is_transit":false,"station_id":"PSM","transit":false,"distance":2820,"line":2,"i_lat":-6.2842400000000005,"station_name":"Pasar Minggu"},{"station_id":"PSMB","i_long":106.851577,"line":2,"distance":2380,"time":2,"is_transit":false,"i_lat":-6.263214,"station_name":"Pasar Minggu Baru","transit":false},{"station_id":"DRN","i_lat":-6.255332,"is_transit":false,"time":2,"station_name":"Duren Kalibata","i_long":106.85449,"line":2,"transit":false,"distance":824},{"time":3,"line":2,"transit":false,"distance":1546,"i_lat":-6.242512,"station_id":"CW","i_long":106.856607,"station_name":"Cawang","is_transit":false},{"line":2,"station_name":"Tebet","distance":1230,"station_id":"TEB","is_transit":false,"transit":false,"i_long":106.857948,"i_lat":-6.226659,"time":2},{"station_id":"MRI","station_name":"Manggarai","line":2,"i_lat":-6.209883,"i_long":106.84912,"transit":false,"time":4,"distance":2610,"is_transit":false},{"station_id":"CKI","transit":false,"distance":1590,"i_long":106.840169,"time":4,"station_name":"Cikini","i_lat":-6.198556,"line":2,"is_transit":false},{"transit":false,"is_transit":false,"line":2,"time":3,"station_id":"GDD","distance":1750,"i_lat":-6.186295,"station_name":"Gondangdia","i_long":106.832183},{"transit":false,"i_long":106.828284,"station_id":"JUA","distance":2015,"is_transit":false,"time":4,"station_name":"Juanda","i_lat":-6.166716,"line":2},{"station_name":"Sawah Besar","transit":false,"i_long":106.827103,"is_transit":false,"distance":1149,"line":2,"i_lat":-6.160725,"station_id":"SW","time":2},{"line":2,"station_id":"MGB","distance":906,"is_transit":false,"i_lat":-6.149769,"i_long":106.82482,"time":2,"transit":false,"station_name":"Manggabesar"},{"i_lat":-6.141205,"line":2,"transit":false,"station_name":"Jayakarta","i_long":106.820901,"distance":1080,"time":2,"is_transit":false,"station_id":"JAY"},{"station_id":"JAKK","is_transit":true,"line":2,"i_long":106.812439,"distance":1264,"time":4,"transit":true,"i_lat":-6.137569,"station_name":"Jakarta Kota"},{"i_lat":-6.132549,"time":3,"i_long":106.826365,"station_name":"Kampung Bandan","transit":true,"station_id":"KPB","distance":1364,"line":4,"is_transit":true},{"station_id":"AK","is_transit":false,"transit":false,"line":1,"i_lat":-6.144674,"station_name":"Angke","distance":4102,"i_long":106.79867,"time":9},{"i_lat":-6.155215,"line":1,"station_id":"DU","is_transit":false,"station_name":"Duri","i_long":106.800832,"time":4,"transit":false,"distance":1230},{"station_name":"Tanah Abang","transit":true,"i_lat":-6.185545,"line":1,"time":8,"station_id":"THB","i_long":106.811091,"is_transit":true,"distance":3632},{"time":6,"line":6,"i_lat":-6.207404,"station_id":"PLM","transit":false,"is_transit":false,"station_name":"Palmerah","distance":3191,"i_long":106.79689},{"distance":3737,"time":7,"i_long":106.780334,"i_lat":-6.237242,"transit":false,"is_transit":false,"station_id":"KBY","station_name":"Kebayoran","line":6},{"station_name":"Pondokranji","station_id":"PDJ","i_lat":-6.276362,"i_long":106.74273,"line":6,"distance":6218,"transit":false,"time":8,"is_transit":false},{"station_id":"JMU","transit":false,"i_long":106.728916,"time":3,"station_name":"Jurangmangu","distance":2179,"is_transit":false,"i_lat":-6.288927,"line":6},{"i_long":106.712277,"time":4,"transit":false,"station_id":"SDM","distance":1994,"line":6,"is_transit":false,"station_name":"Sudimara","i_lat":-6.296963},{"i_long":106.675475,"transit":false,"is_transit":false,"time":6,"station_id":"RU","line":6,"i_lat":-6.314823,"station_name":"Rawa Buntu","distance":4566},{"time":4,"station_id":"SRP","distance":2413,"i_long":106.66566,"line":6,"i_lat":-6.319871,"transit":false,"station_name":"Serpong","is_transit":false},{"line":3,"transit":false,"i_lat":-6.32484,"time":4,"i_long":106.640411,"station_name":"Cisauk","is_transit":false,"station_id":"CSK","distance":1784},{"line":3,"is_transit":false,"time":4,"transit":false,"distance":2519,"station_name":"Cicayur","station_id":"CC","i_lat":-6.329547,"i_long":106.617853},{"line":6,"transit":false,"is_transit":false,"time":8,"station_name":"Parung Panjang","station_id":"PRP","distance":5968,"i_lat":-6.3441410000000005,"i_long":106.568863},{"distance":7025,"time":9,"i_long":106.508482,"station_name":"Cilejit","i_lat":-6.354349,"is_transit":false,"station_id":"CJT","line":3,"transit":false},{"transit":false,"line":0,"time":6,"station_name":"Daru","distance":2675,"i_long":106.491338,"i_lat":-6.338021,"is_transit":false,"station_id":"DAR"},{"is_transit":false,"transit":false,"time":5,"i_long":106.460812,"station_name":"Tenjo","line":6,"station_id":"TEJ","distance":3902,"i_lat":-6.327251}],[{"is_transit":false,"station_name":"Univ. Indonesia","transit":false,"station_id":"UI","i_lat":-6.360749,"i_long":106.831474,"time":0,"line":2,"distance":0},{"distance":2264,"station_id":"UP","i_long":106.834175,"line":2,"transit":false,"time":3,"station_name":"Univ. Pancasila","is_transit":false,"i_lat":-6.339291},{"is_transit":false,"transit":false,"i_lat":-6.330363,"station_name":"Lenteng Agung","time":2,"i_long":106.832616,"line":2,"station_id":"LNA","distance":1029},{"time":3,"station_name":"Tanjung Barat","i_long":106.838896,"line":2,"is_transit":false,"station_id":"TNT","distance":2671,"transit":false,"i_lat":-6.3080680000000005},{"is_transit":false,"time":4,"transit":false,"station_id":"PSM","station_name":"Pasar Minggu","distance":2820,"i_lat":-6.2842400000000005,"i_long":106.843999,"line":2},{"i_long":106.851577,"transit":false,"distance":2380,"is_transit":false,"time":2,"station_id":"PSMB","i_lat":-6.263214,"station_name":"Pasar Minggu Baru","line":2},{"i_long":106.85449,"time":2,"transit":false,"station_name":"Duren Kalibata","station_id":"DRN","line":2,"distance":824,"is_transit":false,"i_lat":-6.255332},{"line":2,"station_id":"CW","distance":1546,"time":3,"i_long":106.856607,"i_lat":-6.242512,"transit":false,"is_transit":false,"station_name":"Cawang"},{"station_name":"Tebet","station_id":"TEB","distance":1230,"i_lat":-6.226659,"transit":false,"time":2,"i_long":106.857948,"line":2,"is_transit":false},{"transit":true,"time":4,"station_id":"MRI","is_transit":true,"i_long":106.84912,"distance":2610,"line":2,"station_name":"Manggarai","i_lat":-6.209883},{"transit":false,"is_transit":false,"time":2,"distance":1275,"line":1,"i_lat":-6.212485,"i_long":106.858896,"station_id":"MTR","station_name":"Matraman"},{"line":1,"is_transit":true,"station_id":"JNG","distance":1377,"i_long":106.86807400000001,"i_lat":-6.215091,"station_name":"Jatinegara","transit":true,"time":8},{"station_name":"Pondok Jati","distance":1236,"line":11,"i_lat":-6.209188,"i_long":106.861737,"transit":false,"is_transit":false,"station_id":"POK","time":2},{"transit":false,"i_lat":-6.193792,"time":2,"station_id":"KMT","i_long":106.855437,"station_name":"Kramat","distance":1829,"line":11,"is_transit":false},{"line":11,"is_transit":false,"transit":false,"i_long":106.850107,"station_name":"Gang Sentiong","distance":973,"i_lat":-6.185975,"station_id":"GST","time":1},{"time":8,"line":11,"is_transit":false,"station_id":"PSE","transit":false,"distance":1567,"i_lat":-6.174784,"station_name":"Pasar Senen","i_long":106.84368},{"distance":1436,"i_long":106.839204,"is_transit":false,"transit":false,"line":11,"station_name":"Kemayoran","station_id":"KMO","i_lat":-6.161728,"time":4},{"station_name":"Rajawali","transit":false,"station_id":"RJW","i_lat":-6.14505,"line":11,"time":5,"is_transit":false,"distance":1901,"i_long":106.836569},{"distance":1444,"i_lat":-6.132549,"transit":true,"i_long":106.826365,"station_name":"Kampung Bandan","station_id":"KPB","is_transit":true,"time":3,"line":4},{"i_lat":-6.144674,"station_id":"AK","transit":false,"station_name":"Angke","i_long":106.79867,"distance":4102,"time":9,"line":1,"is_transit":false},{"line":1,"time":4,"station_name":"Duri","station_id":"DU","distance":1230,"i_lat":-6.155215,"i_long":106.800832,"transit":false,"is_transit":false},{"i_long":106.811091,"time":8,"station_name":"Tanah Abang","i_lat":-6.185545,"line":1,"is_transit":true,"transit":true,"distance":3632,"station_id":"THB"},{"station_id":"PLM","is_transit":false,"distance":3191,"i_lat":-6.207404,"time":6,"transit":false,"station_name":"Palmerah","line":6,"i_long":106.79689},{"station_name":"Kebayoran","station_id":"KBY","i_lat":-6.237242,"transit":false,"i_long":106.780334,"line":6,"distance":3737,"is_transit":false,"time":7},{"line":6,"i_long":106.74273,"distance":6218,"i_lat":-6.276362,"is_transit":false,"station_name":"Pondokranji","time":8,"transit":false,"station_id":"PDJ"},{"transit":false,"i_long":106.728916,"station_id":"JMU","station_name":"Jurangmangu","is_transit":false,"line":6,"time":3,"i_lat":-6.288927,"distance":2179},{"i_long":106.712277,"transit":false,"distance":1994,"line":6,"station_name":"Sudimara","station_id":"SDM","is_transit":false,"i_lat":-6.296963,"time":4},{"line":6,"transit":false,"i_long":106.675475,"station_name":"Rawa Buntu","station_id":"RU","time":6,"is_transit":false,"distance":4566,"i_lat":-6.314823},{"station_id":"SRP","station_name":"Serpong","i_long":106.66566,"is_transit":false,"time":4,"line":6,"i_lat":-6.319871,"distance":2413,"transit":false},{"station_id":"CSK","distance":1784,"is_transit":false,"i_lat":-6.32484,"i_long":106.640411,"time":4,"station_name":"Cisauk","line":3,"transit":false},{"is_transit":false,"i_lat":-6.329547,"i_long":106.617853,"transit":false,"station_id":"CC","line":3,"time":4,"distance":2519,"station_name":"Cicayur"},{"line":6,"station_id":"PRP","station_name":"Parung Panjang","is_transit":false,"time":8,"transit":false,"i_lat":-6.3441410000000005,"distance":5968,"i_long":106.568863},{"is_transit":false,"station_name":"Cilejit","time":9,"i_lat":-6.354349,"transit":false,"station_id":"CJT","distance":7025,"i_long":106.508482,"line":3},{"station_id":"DAR","is_transit":false,"station_name":"Daru","i_lat":-6.338021,"time":6,"transit":false,"distance":2675,"line":0,"i_long":106.491338},{"station_name":"Tenjo","station_id":"TEJ","i_lat":-6.327251,"is_transit":false,"line":6,"distance":3902,"i_long":106.460812,"transit":false,"time":5}]]}