{"data":[[{"time":0,"line":2,"is_transit":false,"station_id":"UI","i_long":106.831474,"station_name":"Univ. Indonesia","distance":0,"transit":false,"i_lat":-6.360749},{"i_long":106.834175,"transit":false,"station_id":"UP","distance":2264,"time":3,"is_transit":false,"station_name":"Univ. Pancasila","i_lat":-6.339291,"line":2},{"distance":1029,"station_id":"LNA","time":2,"i_long":106.832616,"i_lat":-6.330363,"line":2,"is_transit":false,"transit":false,"station_name":"Lenteng Agung"},{"transit":false,"is_transit":false,"distance":2671,"line":2,"time":3,"station_name":"Tanjung Barat","i_lat":-6.3080680000000005,"i_long":106.838896,"station_id":"TNT"},{"station_id":"PSM","is_transit":false,"i_lat":-6.2842400000000005,"i_long":106.843999,"line":2,"distance":2820,"transit":false,"time":4,"station_name":"Pasar Minggu"},{"is_transit":false,"station_name":"Pasar Minggu Baru","time":2,"transit":false,"station_id":"PSMB","i_lat":-6.263214,"i_long":106.851577,"line":2,"distance":2380},{"i_long":106.85449,"station_name":"Duren Kalibata","station_id":"DRN","time":2,"i_lat":-6.255332,"is_transit":false,"line":2,"transit":false,"distance":824},{"transit":false,"is_transit":false,"time":3,"i_lat":-6.242512,"i_long":106.856607,"line":2,"station_id":"CW","station_name":"Cawang","distance":1546},{"is_transit":false,"distance":1230,"i_long":106.857948,"station_name":"Tebet","station_id":"TEB","transit":false,"time":2,"i_lat":-6.226659,"line":2},{"i_long":106.84912,"transit":true,"is_transit":true,"i_lat":-6.209883,"station_name":"Manggarai","line":2,"station_id":"MRI","time":4,"distance":2610},{"station_id":"MTR","i_lat":-6.212485,"i_long":106.858896,"station_name":"Matraman","transit":false,"is_transit":false,"time":2,"line":1,"distance":1275},{"station_name":"Jatinegara","station_id":"JNG","i_lat":-6.215091,"line":1,"transit":false,"is_transit":false,"i_long":106.86807400000001,"distance":1377,"time":8},{"line":1,"time":3,"is_transit":false,"station_name":"Klender","i_lat":-6.2135,"station_id":"KLD","distance":3395,"i_long":106.899548,"transit":false},{"time":2,"i_lat":-6.215568,"i_long":106.922662,"station_name":"Buaran","is_transit":false,"distance":3100,"station_id":"BUA","line":1,"transit":false},{"station_id":"KLDB","time":1,"transit":false,"i_long":106.939679,"is_transit":false,"distance":1305,"i_lat":-6.217455,"line":1,"station_name":"Klenderbaru"},{"line":1,"distance":1385,"is_transit":false,"i_long":106.951283,"i_lat":-6.219053,"station_name":"Cakung","transit":false,"station_id":"CUK","time":8},{"i_long":106.977657,"line":1,"transit":false,"time":3,"station_id":"KRI","distance":3097,"station_name":"Kranji","i_lat":-6.224515,"is_transit":false},{"i_lat":-6.236616,"i_long":106.997013,"station_name":"Bekasi","transit":false,"station_id":"BKS","distance":2520,"line":1,"is_transit":false,"time":4},{"station_name":"Bekasi Timur","i_lat":-6.248029,"i_long":107.016735,"line":1,"station_id":"BKST","is_transit":false,"distance":2368,"time":2,"transit":false},{"is_transit":false,"transit":false,"station_id":"TB","distance":4460,"time":7,"i_lat":-6.258864,"station_name":"Tambun","i_long":107.055722,"line":1},{"i_lat":-6.261877,"station_id":"CIT","i_long":107.083084,"station_name":"Cibitung","is_transit":false,"distance":3420,"line":1,"transit":false,"time":3},{"station_name":"Metland Telaga Murni","station_id":"TLM","i_long":107.093313,"transit":false,"i_lat":-6.262938,"time":2,"is_transit":false,"distance":2800,"line":1}],[{"time":0,"station_id":"UI","is_transit":false,"distance":0,"transit":false,"station_name":"Univ. Indonesia","i_lat":-6.360749,"i_long":106.831474,"line":2},{"station_id":"UP","distance":2264,"transit":false,"is_transit":false,"i_long":106.834175,"line":2,"i_lat":-6.339291,"time":3,"station_name":"Univ. Pancasila"},{"i_lat":-6.330363,"transit":false,"line":2,"station_name":"Lenteng Agung","distance":1029,"i_long":106.832616,"station_id":"LNA","is_transit":false,"time":2},{"is_transit":false,"distance":2671,"station_name":"Tanjung Barat","station_id":"TNT","transit":false,"i_lat":-6.3080680000000005,"line":2,"time":3,"i_long":106.838896},{"distance":2820,"i_lat":-6.2842400000000005,"is_transit":false,"transit":false,"station_name":"Pasar Minggu","station_id":"PSM","i_long":106.843999,"time":4,"line":2},{"time":2,"i_long":106.851577,"transit":false,"distance":2380,"station_name":"Pasar Minggu Baru","i_lat":-6.263214,"station_id":"PSMB","line":2,"is_transit":false},{"time":2,"is_transit":false,"i_lat":-6.255332,"distance":824,"line":2,"transit":false,"station_id":"DRN","station_name":"Duren Kalibata","i_long":106.85449},{"station_id":"CW","station_name":"Cawang","is_transit":false,"time":3,"i_long":106.856607,"line":2,"distance":1546,"transit":false,"i_lat":-6.242512},{"is_transit":false,"time":2,"i_lat":-6.226659,"station_id":"TEB","distance":1230,"line":2,"transit":false,"i_long":106.857948,"station_name":"Tebet"},{"station_id":"MRI","transit":true,"time":4,"i_long":106.84912,"line":2,"is_transit":true,"i_lat":-6.209883,"station_name":"Manggarai","distance":2610},{"line":1,"time":4,"is_transit":false,"station_id":"SUD","distance":3186,"i_lat":-6.202263,"i_long":106.822649,"transit":false,"station_name":"Sudirman"},{"station_id":"SUDB","transit":false,"line":1,"i_long":106.819881,"distance":280,"is_transit":false,"time":1,"station_name":"Sudirman Baru","i_lat":-6.201433},{"is_transit":false,"i_long":106.816351,"distance":471,"transit":false,"station_id":"KAT","i_lat":-6.20132,"line":1,"station_name":"Karet","time":1},{"station_id":"THB","station_name":"Tanah Abang","time":5,"distance":2029,"line":1,"transit":false,"i_long":106.811091,"is_transit":false,"i_lat":-6.185545},{"transit":false,"distance":3632,"i_lat":-6.155215,"time":8,"station_name":"Duri","is_transit":false,"station_id":"DU","line":1,"i_long":106.800832},{"transit":false,"i_long":106.79867,"is_transit":false,"distance":1230,"station_name":"Angke","station_id":"AK","line":1,"time":4,"i_lat":-6.144674},{"station_id":"KPB","distance":4102,"i_lat":-6.132549,"line":4,"station_name":"Kampung Bandan","is_transit":true,"transit":true,"time":9,"i_long":106.826365},{"i_lat":-6.14505,"distance":1444,"is_transit":false,"i_long":106.836569,"station_name":"Rajawali","transit":false,"line":11,"time":3,"station_id":"RJW"},{"transit":false,"i_long":106.839204,"station_id":"KMO","distance":1901,"is_transit":false,"station_name":"Kemayoran","i_lat":-6.161728,"line":11,"time":5},{"transit":false,"distance":1436,"line":11,"i_long":106.84368,"station_id":"PSE","is_transit":false,"time":4,"i_lat":-6.174784,"station_name":"Pasar Senen"},{"time":8,"station_id":"GST","station_name":"Gang Sentiong","is_transit":false,"distance":1567,"i_lat":-6.185975,"line":11,"i_long":106.850107,"transit":false},{"distance":973,"station_id":"KMT","line":11,"station_name":"Kramat","i_long":106.855437,"time":1,"i_lat":-6.193792,"transit":false,"is_transit":false},{"station_id":"POK","time":2,"line":11,"distance":1829,"is_transit":false,"i_lat":-6.209188,"i_long":106.861737,"station_name":"Pondok Jati","transit":false},{"is_transit":true,"distance":1236,"i_lat":-6.215091,"time":9,"i_long":106.86807400000001,"line":1,"transit":true,"station_name":"Jatinegara","station_id":"JNG"},{"i_lat":-6.2135,"transit":false,"station_id":"KLD","time":3,"i_long":106.899548,"station_name":"Klender","is_transit":false,"distance":3395,"line":1},{"distance":3100,"station_id":"BUA","i_lat":-6.215568,"station_name":"Buaran","i_long":106.922662,"line":1,"transit":false,"is_transit":false,"time":2},{"transit":false,"i_lat":-6.217455,"line":1,"time":1,"distance":1305,"station_id":"KLDB","is_transit":false,"i_long":106.939679,"station_name":"Klenderbaru"},{"i_long":106.951283,"distance":1385,"is_transit":false,"station_name":"Cakung","transit":false,"i_lat":-6.219053,"time":8,"station_id":"CUK","line":1},{"i_lat":-6.224515,"time":3,"i_long":106.977657,"station_id":"KRI","transit":false,"station_name":"Kranji","is_transit":false,"distance":3097,"line":1},{"i_lat":-6.236616,"transit":false,"i_long":106.997013,"station_name":"Bekasi","time":4,"station_id":"BKS","is_transit":false,"distance":2520,"line":1},{"i_long":107.016735,"distance":2368,"line":1,"station_name":"Bekasi Timur","transit":false,"station_id":"BKST","is_transit":false,"time":2,"i_lat":-6.248029},{"i_lat":-6.258864,"is_transit":false,"transit":false,"station_id":"TB","distance":4460,"i_long":107.055722,"station_name":"Tambun","time":7,"line":1},{"station_id":"CIT","station_name":"Cibitung","time":3,"distance":3420,"line":1,"i_long":107.083084,"i_lat":-6.261877,"transit":false,"is_transit":false},{"line":1,"station_id":"TLM","i_lat":-6.262938,"station_name":"Metland Telaga Murni","transit":false,"is_transit":false,"time":2,"distance":2800,"i_long":107.093313}],[{"is_transit":false,"station_id":"UI","i_long":106.831474,"station_name":"Univ. Indonesia","i_lat":-6.360749,"line":2,"time":0,"transit":false,"distance":0},{"transit":false,"station_name":"Univ. Pancasila","time":3,"is_transit":false,"i_lat":-6.339291,"i_long":106.834175,"station_id":"UP","distance":2264,"line":2},{"time":2,"transit":false,"station_id":"LNA","i_lat":-6.330363,"distance":1029,"i_long":106.832616,"line":2,"station_name":"Lenteng Agung","is_transit":false},{"i_long":106.838896,"transit":false,"station_name":"Tanjung Barat","distance":2671,"is_transit":false,"line":2,"time":3,"i_lat":-6.3080680000000005,"station_id":"TNT"},{"distance":2820,"transit":false,"time":4,"i_long":106.843999,"station_name":"Pasar Minggu","station_id":"PSM","i_lat":-6.2842400000000005,"line":2,"is_transit":false},{"distance":2380,"i_long":106.851577,"line":2,"i_lat":-6.263214,"station_name":"Pasar Minggu Baru","station_id":"PSMB","transit":false,"is_transit":false,"time":2},{"station_name":"Duren Kalibata","is_transit":false,"distance":824,"transit":false,"i_long":106.85449,"time":2,"station_id":"DRN","i_lat":-6.255332,"line":2},{"i_lat":-6.242512,"station_name":"Cawang","station_id":"CW","time":3,"line":2,"is_transit":false,"i_long":106.856607,"distance":1546,"transit":false},{"distance":1230,"station_name":"Tebet","station_id":"TEB","line":2,"transit":false,"time":2,"i_lat":-6.226659,"i_long":106.857948,"is_transit":false},{"distance":2610,"is_transit":false,"station_name":"Manggarai","station_id":"MRI","line":2,"transit":false,"i_lat":-6.209883,"i_long":106.84912,"time":4},{"transit":false,"time":4,"distance":1590,"station_name":"Cikini","is_transit":false,"i_long":106.840169,"i_lat":-6.198556,"line":2,"station_id":"CKI"},{"i_long":106.832183,"is_transit":false,"station_id":"GDD","line":2,"distance":1750,"time":3,"i_lat":-6.186295,"station_name":"Gondangdia","transit":false},{"distance":2015,"transit":false,"is_transit":false,"line":2,"i_lat":-6.166716,"station_id":"JUA","time":4,"i_long":106.828284,"station_name":"Juanda"},{"i_long":106.827103,"line":2,"station_id":"SW","station_name":"Sawah Besar","i_lat":-6.160725,"transit":false,"distance":1149,"time":2,"is_transit":false},{"distance":906,"transit":false,"station_id":"MGB","station_name":"Manggabesar","time":2,"i_lat":-6.149769,"is_transit":false,"i_long":106.82482,"line":2},{"line":2,"i_long":106.820901,"is_transit":false,"transit":false,"i_lat":-6.141205,"time":2,"distance":1080,"station_name":"Jayakarta","station_id":"JAY"},{"transit":true,"time":4,"line":2,"is_transit":true,"station_id":"JAKK","i_lat":-6.137569,"station_name":"Jakarta Kota","distance":1264,"i_long":106.812439},{"time":3,"station_id":"KPB","line":4,"transit":true,"station_name":"Kampung Bandan","is_transit":true,"distance":1364,"i_lat":-6.132549,"i_long":106.826365},{"transit":false,"station_name":"Rajawali","i_long":106.836569,"line":11,"time":3,"station_id":"RJW","is_transit":false,"distance":1444,"i_lat":-6.14505},{"station_name":"Kemayoran","transit":false,"station_id":"KMO","line":11,"distance":1901,"is_transit":false,"i_long":106.839204,"i_lat":-6.161728,"time":5},{"station_id":"PSE","is_transit":false,"time":4,"i_long":106.84368,"distance":1436,"station_name":"Pasar Senen","i_lat":-6.174784,"line":11,"transit":false},{"i_long":106.850107,"i_lat":-6.185975,"transit":false,"station_name":"Gang Sentiong","is_transit":false,"time":8,"line":11,"distance":1567,"station_id":"GST"},{"station_name":"Kramat","station_id":"KMT","is_transit":false,"time":1,"i_lat":-6.193792,"transit":false,"distance":973,"i_long":106.855437,"line":11},{"is_transit":false,"time":2,"i_lat":-6.209188,"station_name":"Pondok Jati","i_long":106.861737,"station_id":"POK","line":11,"transit":false,"distance":1829},{"i_lat":-6.215091,"station_id":"JNG","line":1,"is_transit":true,"i_long":106.86807400000001,"station_name":"Jatinegara","transit":true,"time":9,"distance":1236},{"i_lat":-6.2135,"time":3,"station_id":"KLD","transit":false,"is_transit":false,"station_name":"Klender","distance":3395,"i_long":106.899548,"line":1},{"is_transit":false,"distance":3100,"transit":false,"station_id":"BUA","i_lat":-6.215568,"line":1,"i_long":106.922662,"station_name":"Buaran","time":2},{"line":1,"i_lat":-6.217455,"distance":1305,"i_long":106.939679,"time":1,"is_transit":false,"transit":false,"station_name":"Klenderbaru","station_id":"KLDB"},{"i_lat":-6.219053,"station_id":"CUK","station_name":"Cakung","is_transit":false,"line":1,"transit":false,"time":8,"i_long":106.951283,"distance":1385},{"i_lat":-6.224515,"is_transit":false,"line":1,"distance":3097,"station_id":"KRI","transit":false,"station_name":"Kranji","time":3,"i_long":106.977657},{"transit":false,"station_name":"Bekasi","i_long":106.997013,"time":4,"line":1,"i_lat":-6.236616,"distance":2520,"station_id":"BKS","is_transit":false},{"i_long":107.016735,"line":1,"distance":2368,"i_lat":-6.248029,"time":2,"station_name":"Bekasi Timur","station_id":"BKST","is_transit":false,"transit":false},{"i_lat":-6.258864,"station_id":"TB","distance":4460,"station_name":"Tambun","line":1,"i_long":107.055722,"is_transit":false,"transit":false,"time":7},{"i_lat":-6.261877,"i_long":107.083084,"transit":false,"distance":3420,"station_name":"Cibitung","station_id":"CIT","time":3,"is_transit":false,"line":1},{"time":2,"station_id":"TLM","i_long":107.093313,"distance":2800,"transit":false,"station_name":"Metland Telaga Murni","i_lat":-6.262938,"line":1,"is_transit":false}]]}