{"data":[[{"i_lat":-6.339291,"time":0,"station_id":"UP","station_name":"Univ. Pancasila","line":2,"distance":0,"transit":false,"is_transit":false,"i_long":106.834175},{"station_name":"Lenteng Agung","transit":false,"line":2,"time":2,"station_id":"LNA","distance":1029,"is_transit":false,"i_lat":-6.330363,"i_long":106.832616},{"is_transit":false,"transit":false,"i_long":106.838896,"distance":2671,"time":3,"station_name":"Tanjung Barat","i_lat":-6.3080680000000005,"line":2,"station_id":"TNT"},{"transit":false,"i_long":106.843999,"station_name":"Pasar Minggu","is_transit":false,"distance":2820,"time":4,"line":2,"i_lat":-6.2842400000000005,"station_id":"PSM"},{"is_transit":false,"line":2,"i_long":106.851577,"i_lat":-6.263214,"time":2,"distance":2380,"station_id":"PSMB","transit":false,"station_name":"Pasar Minggu Baru"},{"station_name":"Duren Kalibata","line":2,"is_transit":false,"station_id":"DRN","i_long":106.85449,"distance":824,"time":2,"transit":false,"i_lat":-6.255332},{"is_transit":false,"i_lat":-6.242512,"station_id":"CW","line":2,"time":3,"station_name":"Cawang","transit":false,"i_long":106.856607,"distance":1546},{"time":2,"is_transit":false,"distance":1230,"transit":false,"i_lat":-6.226659,"i_long":106.857948,"station_id":"TEB","line":2,"station_name":"Tebet"},{"station_name":"Manggarai","distance":2610,"time":4,"is_transit":true,"i_lat":-6.209883,"line":2,"transit":true,"i_long":106.84912,"station_id":"MRI"},{"station_id":"MTR","station_name":"Matraman","i_lat":-6.212485,"line":1,"time":2,"distance":1275,"i_long":106.858896,"transit":false,"is_transit":false},{"time":8,"is_transit":false,"i_lat":-6.215091,"transit":false,"station_id":"JNG","station_name":"Jatinegara","i_long":106.86807400000001,"distance":1377,"line":1},{"station_id":"KLD","i_long":106.899548,"i_lat":-6.2135,"distance":3395,"station_name":"Klender","line":1,"time":3,"transit":false,"is_transit":false},{"line":1,"time":2,"i_lat":-6.215568,"station_id":"BUA","transit":false,"i_long":106.922662,"station_name":"Buaran","distance":3100,"is_transit":false},{"line":1,"i_lat":-6.217455,"transit":false,"station_name":"Klenderbaru","is_transit":false,"distance":1305,"i_long":106.939679,"time":1,"station_id":"KLDB"},{"is_transit":false,"i_lat":-6.219053,"distance":1385,"station_name":"Cakung","i_long":106.951283,"line":1,"transit":false,"station_id":"CUK","time":8},{"line":1,"distance":3097,"is_transit":false,"i_long":106.977657,"station_id":"KRI","station_name":"Kranji","transit":false,"i_lat":-6.224515,"time":3},{"i_lat":-6.236616,"distance":2520,"is_transit":false,"station_name":"Bekasi","station_id":"BKS","time":4,"i_long":106.997013,"line":1,"transit":false},{"time":2,"station_id":"BKST","transit":false,"distance":2368,"is_transit":false,"line":1,"station_name":"Bekasi Timur","i_lat":-6.248029,"i_long":107.016735},{"i_lat":-6.258864,"time":7,"station_name":"Tambun","is_transit":false,"transit":false,"station_id":"TB","distance":4460,"i_long":107.055722,"line":1},{"transit":false,"station_name":"Cibitung","time":3,"distance":3420,"station_id":"CIT","i_long":107.083084,"line":1,"i_lat":-6.261877,"is_transit":false},{"station_id":"TLM","i_long":107.093313,"time":2,"line":1,"i_lat":-6.262938,"is_transit":false,"distance":2800,"transit":false,"station_name":"Metland Telaga Murni"},{"station_id":"CKR","is_transit":false,"i_long":107.144613,"distance":3689,"transit":false,"line":1,"time":4,"i_lat":-6.2553149999999995,"station_name":"Cikarang"}],[{"line":2,"time":0,"transit":false,"i_long":106.834175,"station_name":"Univ. Pancasila","is_transit":false,"station_id":"UP","distance":0,"i_lat":-6.339291},{"distance":1029,"station_name":"Lenteng Agung","i_long":106.832616,"is_transit":false,"time":2,"transit":false,"i_lat":-6.330363,"station_id":"LNA","line":2},{"i_long":106.838896,"time":3,"distance":2671,"transit":false,"station_name":"Tanjung Barat","is_transit":false,"line":2,"i_lat":-6.3080680000000005,"station_id":"TNT"},{"time":4,"i_lat":-6.2842400000000005,"transit":false,"i_long":106.843999,"distance":2820,"station_id":"PSM","line":2,"station_name":"Pasar Minggu","is_transit":false},{"i_long":106.851577,"line":2,"i_lat":-6.263214,"is_transit":false,"transit":false,"station_id":"PSMB","distance":2380,"station_name":"Pasar Minggu Baru","time":2},{"station_id":"DRN","station_name":"Duren Kalibata","time":2,"is_transit":false,"i_long":106.85449,"transit":false,"i_lat":-6.255332,"line":2,"distance":824},{"line":2,"time":3,"is_transit":false,"i_long":106.856607,"transit":false,"distance":1546,"station_name":"Cawang","station_id":"CW","i_lat":-6.242512},{"station_name":"Tebet","transit":false,"is_transit":false,"line":2,"i_long":106.857948,"station_id":"TEB","i_lat":-6.226659,"time":2,"distance":1230},{"transit":true,"station_id":"MRI","distance":2610,"is_transit":true,"line":2,"station_name":"Manggarai","time":4,"i_lat":-6.209883,"i_long":106.84912},{"transit":false,"distance":3186,"station_name":"Sudirman","line":1,"i_long":106.822649,"i_lat":-6.202263,"station_id":"SUD","is_transit":false,"time":4},{"station_id":"SUDB","time":1,"i_long":106.819881,"line":1,"distance":280,"is_transit":false,"transit":false,"i_lat":-6.201433,"station_name":"Sudirman Baru"},{"i_lat":-6.20132,"line":1,"is_transit":false,"time":1,"i_long":106.816351,"station_id":"KAT","transit":false,"station_name":"Karet","distance":471},{"station_name":"Tanah Abang","i_long":106.811091,"i_lat":-6.185545,"time":5,"station_id":"THB","is_transit":false,"transit":false,"distance":2029,"line":1},{"distance":3632,"station_id":"DU","i_lat":-6.155215,"i_long":106.800832,"line":1,"time":8,"station_name":"Duri","transit":false,"is_transit":false},{"station_id":"AK","transit":false,"i_lat":-6.144674,"i_long":106.79867,"line":1,"station_name":"Angke","time":4,"is_transit":false,"distance":1230},{"is_transit":true,"time":9,"transit":true,"line":4,"i_lat":-6.132549,"distance":4102,"station_id":"KPB","station_name":"Kampung Bandan","i_long":106.826365},{"distance":1444,"is_transit":false,"station_name":"Rajawali","time":3,"line":11,"i_long":106.836569,"i_lat":-6.14505,"transit":false,"station_id":"RJW"},{"is_transit":false,"station_id":"KMO","line":11,"i_long":106.839204,"time":5,"station_name":"Kemayoran","distance":1901,"transit":false,"i_lat":-6.161728},{"line":11,"i_lat":-6.174784,"transit":false,"i_long":106.84368,"time":4,"distance":1436,"station_name":"Pasar Senen","is_transit":false,"station_id":"PSE"},{"i_long":106.850107,"station_id":"GST","time":8,"distance":1567,"i_lat":-6.185975,"line":11,"is_transit":false,"station_name":"Gang Sentiong","transit":false},{"is_transit":false,"station_name":"Kramat","station_id":"KMT","i_long":106.855437,"time":1,"i_lat":-6.193792,"distance":973,"transit":false,"line":11},{"station_id":"POK","transit":false,"distance":1829,"i_long":106.861737,"line":11,"i_lat":-6.209188,"is_transit":false,"station_name":"Pondok Jati","time":2},{"transit":true,"station_name":"Jatinegara","i_long":106.86807400000001,"line":1,"station_id":"JNG","time":9,"distance":1236,"i_lat":-6.215091,"is_transit":true},{"time":3,"i_lat":-6.2135,"station_name":"Klender","distance":3395,"transit":false,"i_long":106.899548,"is_transit":false,"station_id":"KLD","line":1},{"time":2,"station_id":"BUA","i_long":106.922662,"transit":false,"is_transit":false,"i_lat":-6.215568,"distance":3100,"line":1,"station_name":"Buaran"},{"i_long":106.939679,"station_name":"Klenderbaru","station_id":"KLDB","i_lat":-6.217455,"distance":1305,"is_transit":false,"line":1,"time":1,"transit":false},{"is_transit":false,"station_name":"Cakung","station_id":"CUK","distance":1385,"transit":false,"i_long":106.951283,"line":1,"i_lat":-6.219053,"time":8},{"transit":false,"is_transit":false,"distance":3097,"station_name":"Kranji","line":1,"station_id":"KRI","i_lat":-6.224515,"time":3,"i_long":106.977657},{"is_transit":false,"i_long":106.997013,"station_name":"Bekasi","time":4,"transit":false,"distance":2520,"i_lat":-6.236616,"station_id":"BKS","line":1},{"station_name":"Bekasi Timur","line":1,"time":2,"i_lat":-6.248029,"station_id":"BKST","distance":2368,"transit":false,"i_long":107.016735,"is_transit":false},{"time":7,"station_id":"TB","i_lat":-6.258864,"line":1,"i_long":107.055722,"station_name":"Tambun","is_transit":false,"transit":false,"distance":4460},{"station_name":"Cibitung","distance":3420,"time":3,"station_id":"CIT","i_long":107.083084,"transit":false,"i_lat":-6.261877,"is_transit":false,"line":1},{"transit":false,"distance":2800,"time":2,"line":1,"station_id":"TLM","i_long":107.093313,"is_transit":false,"station_name":"Metland Telaga Murni","i_lat":-6.262938},{"i_long":107.144613,"station_name":"Cikarang","time":4,"transit":false,"i_lat":-6.2553149999999995,"line":1,"is_transit":false,"distance":3689,"station_id":"CKR"}],[{"i_long":106.834175,"line":2,"station_id":"UP","is_transit":false,"time":0,"station_name":"Univ. Pancasila","transit":false,"distance":0,"i_lat":-6.339291},{"distance":1029,"line":2,"transit":false,"i_lat":-6.330363,"time":2,"i_long":106.832616,"station_id":"LNA","is_transit":false,"station_name":"Lenteng Agung"},{"transit":false,"station_id":"TNT","distance":2671,"i_lat":-6.3080680000000005,"i_long":106.838896,"is_transit":false,"line":2,"time":3,"station_name":"Tanjung Barat"},{"distance":2820,"transit":false,"time":4,"i_long":106.843999,"i_lat":-6.2842400000000005,"station_id":"PSM","line":2,"is_transit":false,"station_name":"Pasar Minggu"},{"i_long":106.851577,"is_transit":false,"distance":2380,"i_lat":-6.263214,"transit":false,"line":2,"station_name":"Pasar Minggu Baru","time":2,"station_id":"PSMB"},{"time":2,"i_lat":-6.255332,"station_id":"DRN","station_name":"Duren Kalibata","distance":824,"transit":false,"line":2,"is_transit":false,"i_long":106.85449},{"is_transit":false,"transit":false,"i_lat":-6.242512,"line":2,"station_id":"CW","station_name":"Cawang","i_long":106.856607,"time":3,"distance":1546},{"transit":false,"i_long":106.857948,"line":2,"i_lat":-6.226659,"station_name":"Tebet","station_id":"TEB","distance":1230,"is_transit":false,"time":2},{"i_lat":-6.209883,"distance":2610,"i_long":106.84912,"transit":false,"line":2,"station_name":"Manggarai","is_transit":false,"station_id":"MRI","time":4},{"is_transit":false,"time":4,"distance":1590,"line":2,"i_lat":-6.198556,"i_long":106.840169,"transit":false,"station_name":"Cikini","station_id":"CKI"},{"i_lat":-6.186295,"line":2,"i_long":106.832183,"time":3,"distance":1750,"is_transit":false,"station_id":"GDD","transit":false,"station_name":"Gondangdia"},{"is_transit":false,"station_name":"Juanda","line":2,"transit":false,"i_long":106.828284,"distance":2015,"station_id":"JUA","i_lat":-6.166716,"time":4},{"distance":1149,"time":2,"station_name":"Sawah Besar","transit":false,"is_transit":false,"i_lat":-6.160725,"station_id":"SW","i_long":106.827103,"line":2},{"i_lat":-6.149769,"station_id":"MGB","line":2,"time":2,"transit":false,"i_long":106.82482,"station_name":"Manggabesar","is_transit":false,"distance":906},{"time":2,"station_name":"Jayakarta","distance":1080,"is_transit":false,"i_lat":-6.141205,"station_id":"JAY","i_long":106.820901,"line":2,"transit":false},{"distance":1264,"i_lat":-6.137569,"transit":true,"line":2,"is_transit":true,"time":4,"station_id":"JAKK","i_long":106.812439,"station_name":"Jakarta Kota"},{"i_long":106.826365,"is_transit":true,"distance":1364,"transit":true,"i_lat":-6.132549,"station_id":"KPB","time":3,"line":4,"station_name":"Kampung Bandan"},{"transit":false,"station_name":"Rajawali","i_lat":-6.14505,"station_id":"RJW","distance":1444,"i_long":106.836569,"time":3,"is_transit":false,"line":11},{"time":5,"i_lat":-6.161728,"distance":1901,"i_long":106.839204,"station_name":"Kemayoran","transit":false,"station_id":"KMO","is_transit":false,"line":11},{"distance":1436,"transit":false,"station_id":"PSE","time":4,"i_lat":-6.174784,"is_transit":false,"station_name":"Pasar Senen","i_long":106.84368,"line":11},{"is_transit":false,"time":8,"station_id":"GST","distance":1567,"i_long":106.850107,"transit":false,"line":11,"i_lat":-6.185975,"station_name":"Gang Sentiong"},{"station_id":"KMT","is_transit":false,"station_name":"Kramat","i_long":106.855437,"transit":false,"i_lat":-6.193792,"distance":973,"line":11,"time":1},{"station_id":"POK","line":11,"station_name":"Pondok Jati","time":2,"i_lat":-6.209188,"is_transit":false,"distance":1829,"transit":false,"i_long":106.861737},{"i_lat":-6.215091,"transit":true,"is_transit":true,"station_id":"JNG","i_long":106.86807400000001,"time":9,"station_name":"Jatinegara","line":1,"distance":1236},{"station_id":"KLD","transit":false,"line":1,"i_lat":-6.2135,"is_transit":false,"distance":3395,"i_long":106.899548,"station_name":"Klender","time":3},{"distance":3100,"station_name":"Buaran","station_id":"BUA","time":2,"line":1,"i_lat":-6.215568,"is_transit":false,"i_long":106.922662,"transit":false},{"i_long":106.939679,"is_transit":false,"transit":false,"i_lat":-6.217455,"station_name":"Klenderbaru","line":1,"time":1,"station_id":"KLDB","distance":1305},{"station_id":"CUK","distance":1385,"transit":false,"is_transit":false,"i_long":106.951283,"i_lat":-6.219053,"station_name":"Cakung","line":1,"time":8},{"transit":false,"station_name":"Kranji","station_id":"KRI","distance":3097,"i_long":106.977657,"line":1,"time":3,"is_transit":false,"i_lat":-6.224515},{"transit":false,"station_id":"BKS","station_name":"Bekasi","i_long":106.997013,"line":1,"time":4,"distance":2520,"i_lat":-6.236616,"is_transit":false},{"transit":false,"line":1,"i_lat":-6.248029,"station_name":"Bekasi Timur","station_id":"BKST","is_transit":false,"time":2,"i_long":107.016735,"distance":2368},{"i_lat":-6.258864,"line":1,"distance":4460,"station_id":"TB","i_long":107.055722,"is_transit":false,"station_name":"Tambun","time":7,"transit":false},{"transit":false,"is_transit":false,"station_name":"Cibitung","time":3,"station_id":"CIT","i_long":107.083084,"distance":3420,"line":1,"i_lat":-6.261877},{"i_lat":-6.262938,"station_name":"Metland Telaga Murni","is_transit":false,"time":2,"line":1,"station_id":"TLM","transit":false,"distance":2800,"i_long":107.093313},{"i_long":107.144613,"station_name":"Cikarang","distance":3689,"is_transit":false,"station_id":"CKR","transit":false,"i_lat":-6.2553149999999995,"line":1,"time":4}]]}