{"data":[[{"transit":false,"line":2,"is_transit":false,"i_long":106.834175,"distance":0,"i_lat":-6.339291,"station_name":"Univ. Pancasila","time":0,"station_id":"UP"},{"i_lat":-6.330363,"station_name":"Lenteng Agung","transit":false,"line":2,"time":2,"station_id":"LNA","i_long":106.832616,"is_transit":false,"distance":1029},{"station_name":"Tanjung Barat","i_lat":-6.3080680000000005,"i_long":106.838896,"distance":2671,"time":3,"is_transit":false,"transit":false,"station_id":"TNT","line":2},{"station_name":"Pasar Minggu","is_transit":false,"time":4,"distance":2820,"i_lat":-6.2842400000000005,"station_id":"PSM","transit":false,"i_long":106.843999,"line":2},{"line":2,"station_id":"PSMB","is_transit":false,"i_long":106.851577,"distance":2380,"i_lat":-6.263214,"time":2,"transit":false,"station_name":"Pasar Minggu Baru"},{"line":0,"station_id":"DRN","time":2,"i_lat":-6.255332,"i_long":106.85449,"is_transit":false,"distance":824,"transit":false,"station_name":"Duren Kalibata"},{"distance":1546,"line":0,"i_long":106.856607,"is_transit":false,"transit":false,"station_name":"Cawang","i_lat":-6.242512,"station_id":"CW","time":3},{"transit":false,"time":2,"station_id":"TEB","is_transit":false,"i_long":106.857948,"station_name":"Tebet","i_lat":-6.226659,"distance":1230,"line":2},{"line":0,"station_id":"MRI","distance":2610,"time":4,"is_transit":true,"i_lat":-6.209883,"i_long":106.84912,"station_name":"Manggarai","transit":true},{"i_long":106.822649,"time":4,"line":1,"station_name":"Sudirman","transit":false,"station_id":"SUD","is_transit":false,"distance":3186,"i_lat":-6.202263},{"time":1,"station_id":"SUDB","i_lat":-6.201433,"line":1,"transit":false,"distance":280,"station_name":"Sudirman Baru","is_transit":false,"i_long":106.819881},{"i_long":106.816351,"line":1,"transit":false,"distance":471,"station_id":"KAT","time":1,"i_lat":-6.20132,"station_name":"Karet","is_transit":false},{"line":1,"station_id":"THB","i_long":106.811091,"i_lat":-6.185545,"time":5,"station_name":"Tanah Abang","distance":2029,"transit":true,"is_transit":true},{"station_id":"PLM","time":6,"line":6,"transit":false,"i_long":106.79689,"station_name":"Palmerah","distance":3191,"i_lat":-6.207404,"is_transit":false},{"is_transit":false,"time":7,"station_id":"KBY","transit":false,"i_lat":-6.237242,"i_long":106.780334,"line":6,"station_name":"Kebayoran","distance":3737},{"station_id":"PDJ","i_long":106.74273,"distance":6218,"is_transit":false,"station_name":"Pondokranji","i_lat":-6.276362,"time":8,"line":6,"transit":false},{"transit":false,"station_name":"Jurangmangu","line":6,"time":3,"distance":2179,"is_transit":false,"i_long":106.728916,"i_lat":-6.288927,"station_id":"JMU"},{"is_transit":false,"time":4,"distance":1994,"i_long":106.712277,"i_lat":-6.296963,"line":6,"station_id":"SDM","station_name":"Sudimara","transit":false},{"station_id":"RU","time":6,"station_name":"Rawa Buntu","is_transit":false,"distance":4566,"i_lat":-6.314823,"transit":false,"i_long":106.675475,"line":6},{"time":4,"station_id":"SRP","transit":false,"i_lat":-6.319871,"i_long":106.66566,"is_transit":false,"line":6,"station_name":"Serpong","distance":2413},{"time":4,"i_lat":-6.32484,"distance":1784,"transit":false,"is_transit":false,"line":0,"station_id":"CSK","station_name":"Cisauk","i_long":106.640411},{"station_name":"Cicayur","line":0,"time":4,"is_transit":false,"station_id":"CC","distance":2519,"transit":false,"i_long":106.617853,"i_lat":-6.329547},{"station_name":"Parung Panjang","is_transit":false,"transit":false,"i_lat":-6.3441410000000005,"station_id":"PRP","i_long":106.568863,"line":6,"distance":5968,"time":8},{"is_transit":false,"station_name":"Cilejit","station_id":"CJT","i_lat":-6.354349,"transit":false,"distance":7025,"i_long":106.508482,"time":9,"line":0}],[{"i_lat":-6.339291,"is_transit":false,"line":2,"station_name":"Univ. Pancasila","station_id":"UP","distance":0,"i_long":106.834175,"transit":false,"time":0},{"time":2,"i_lat":-6.330363,"station_id":"LNA","distance":1029,"line":2,"transit":false,"i_long":106.832616,"is_transit":false,"station_name":"Lenteng Agung"},{"station_id":"TNT","distance":2671,"station_name":"Tanjung Barat","i_long":106.838896,"line":2,"is_transit":false,"time":3,"i_lat":-6.3080680000000005,"transit":false},{"is_transit":false,"time":4,"distance":2820,"i_lat":-6.2842400000000005,"line":2,"station_name":"Pasar Minggu","transit":false,"station_id":"PSM","i_long":106.843999},{"line":2,"transit":false,"is_transit":false,"distance":2380,"station_name":"Pasar Minggu Baru","i_lat":-6.263214,"station_id":"PSMB","time":2,"i_long":106.851577},{"transit":false,"is_transit":false,"i_long":106.85449,"time":2,"station_id":"DRN","i_lat":-6.255332,"station_name":"Duren Kalibata","line":0,"distance":824},{"i_lat":-6.242512,"line":0,"station_name":"Cawang","distance":1546,"i_long":106.856607,"station_id":"CW","is_transit":false,"time":3,"transit":false},{"station_name":"Tebet","time":2,"is_transit":false,"station_id":"TEB","distance":1230,"transit":false,"i_lat":-6.226659,"i_long":106.857948,"line":2},{"time":4,"transit":true,"station_name":"Manggarai","i_long":106.84912,"i_lat":-6.209883,"distance":2610,"line":0,"is_transit":true,"station_id":"MRI"},{"station_id":"CKI","station_name":"Cikini","is_transit":false,"transit":false,"i_long":106.840169,"distance":1590,"i_lat":-6.198556,"line":0,"time":4},{"i_long":106.832183,"i_lat":-6.186295,"line":2,"time":3,"station_name":"Gondangdia","is_transit":false,"distance":1750,"transit":false,"station_id":"GDD"},{"i_long":106.828284,"distance":2015,"time":4,"station_id":"JUA","line":2,"i_lat":-6.166716,"station_name":"Juanda","is_transit":false,"transit":false},{"is_transit":false,"time":2,"i_long":106.827103,"distance":1149,"station_id":"SW","i_lat":-6.160725,"line":2,"station_name":"Sawah Besar","transit":false},{"i_long":106.82482,"distance":906,"i_lat":-6.149769,"time":2,"transit":false,"is_transit":false,"line":2,"station_name":"Manggabesar","station_id":"MGB"},{"i_long":106.820901,"is_transit":false,"transit":false,"i_lat":-6.141205,"time":2,"distance":1080,"station_id":"JAY","station_name":"Jayakarta","line":7},{"i_lat":-6.137569,"station_name":"Jakarta Kota","is_transit":true,"distance":1264,"transit":true,"time":4,"i_long":106.812439,"line":0,"station_id":"JAKK"},{"i_long":106.826365,"line":0,"distance":1364,"station_name":"Kampung Bandan","transit":false,"i_lat":-6.132549,"station_id":"KPB","time":3,"is_transit":true},{"station_id":"AK","i_lat":-6.144674,"station_name":"Angke","is_transit":false,"transit":false,"line":0,"distance":4102,"i_long":106.79867,"time":9},{"distance":1230,"i_lat":-6.155215,"i_long":106.800832,"station_id":"DU","station_name":"Duri","time":4,"transit":true,"is_transit":true,"line":1},{"station_id":"THB","distance":3632,"line":1,"is_transit":true,"transit":true,"i_long":106.811091,"i_lat":-6.185545,"station_name":"Tanah Abang","time":8},{"distance":3191,"i_long":106.79689,"i_lat":-6.207404,"is_transit":false,"transit":false,"line":6,"time":6,"station_id":"PLM","station_name":"Palmerah"},{"station_name":"Kebayoran","is_transit":false,"transit":false,"i_lat":-6.237242,"line":6,"time":7,"distance":3737,"i_long":106.780334,"station_id":"KBY"},{"time":8,"i_long":106.74273,"transit":false,"station_id":"PDJ","station_name":"Pondokranji","distance":6218,"is_transit":false,"i_lat":-6.276362,"line":6},{"time":3,"i_lat":-6.288927,"i_long":106.728916,"line":6,"distance":2179,"transit":false,"station_name":"Jurangmangu","is_transit":false,"station_id":"JMU"},{"i_long":106.712277,"station_id":"SDM","distance":1994,"is_transit":false,"station_name":"Sudimara","time":4,"transit":false,"i_lat":-6.296963,"line":6},{"i_lat":-6.314823,"line":6,"i_long":106.675475,"station_name":"Rawa Buntu","time":6,"station_id":"RU","transit":false,"is_transit":false,"distance":4566},{"distance":2413,"station_name":"Serpong","transit":false,"i_long":106.66566,"i_lat":-6.319871,"line":6,"station_id":"SRP","is_transit":false,"time":4},{"is_transit":false,"transit":false,"line":0,"i_long":106.640411,"station_id":"CSK","i_lat":-6.32484,"station_name":"Cisauk","distance":1784,"time":4},{"distance":2519,"line":0,"i_long":106.617853,"transit":false,"is_transit":false,"time":4,"station_name":"Cicayur","station_id":"CC","i_lat":-6.329547},{"line":6,"i_lat":-6.3441410000000005,"distance":5968,"transit":false,"time":8,"is_transit":false,"station_name":"Parung Panjang","station_id":"PRP","i_long":106.568863},{"station_name":"Cilejit","line":0,"time":9,"station_id":"CJT","is_transit":false,"i_lat":-6.354349,"transit":false,"distance":7025,"i_long":106.508482}],[{"i_lat":-6.339291,"line":2,"distance":0,"i_long":106.834175,"station_name":"Univ. Pancasila","is_transit":false,"station_id":"UP","transit":false,"time":0},{"distance":1029,"i_long":106.832616,"time":2,"transit":false,"station_id":"LNA","i_lat":-6.330363,"is_transit":false,"line":2,"station_name":"Lenteng Agung"},{"station_name":"Tanjung Barat","station_id":"TNT","i_lat":-6.3080680000000005,"time":3,"transit":false,"distance":2671,"i_long":106.838896,"line":2,"is_transit":false},{"time":4,"distance":2820,"transit":false,"i_lat":-6.2842400000000005,"station_name":"Pasar Minggu","i_long":106.843999,"line":2,"station_id":"PSM","is_transit":false},{"station_id":"PSMB","i_lat":-6.263214,"distance":2380,"time":2,"is_transit":false,"station_name":"Pasar Minggu Baru","i_long":106.851577,"line":2,"transit":false},{"transit":false,"line":0,"station_name":"Duren Kalibata","station_id":"DRN","is_transit":false,"time":2,"distance":824,"i_lat":-6.255332,"i_long":106.85449},{"station_id":"CW","is_transit":false,"distance":1546,"station_name":"Cawang","time":3,"transit":false,"i_lat":-6.242512,"i_long":106.856607,"line":0},{"station_name":"Tebet","distance":1230,"station_id":"TEB","transit":false,"time":2,"line":2,"is_transit":false,"i_long":106.857948,"i_lat":-6.226659},{"distance":2610,"is_transit":true,"i_lat":-6.209883,"transit":true,"time":4,"station_name":"Manggarai","i_long":106.84912,"line":0,"station_id":"MRI"},{"station_id":"MTR","is_transit":false,"i_long":106.858896,"distance":1275,"station_name":"Matraman","time":2,"i_lat":-6.212485,"line":1,"transit":false},{"distance":1377,"is_transit":true,"transit":true,"station_name":"Jatinegara","time":8,"i_lat":-6.215091,"station_id":"JNG","i_long":106.86807400000001,"line":0},{"i_long":106.861737,"distance":1236,"line":11,"station_name":"Pondok Jati","station_id":"POK","i_lat":-6.209188,"time":2,"transit":false,"is_transit":false},{"distance":1829,"i_lat":-6.193792,"transit":false,"i_long":106.855437,"time":2,"is_transit":false,"line":11,"station_name":"Kramat","station_id":"KMT"},{"time":1,"station_id":"GST","distance":973,"transit":false,"is_transit":false,"i_long":106.850107,"line":11,"i_lat":-6.185975,"station_name":"Gang Sentiong"},{"transit":false,"time":8,"distance":1567,"line":11,"station_id":"PSE","i_long":106.84368,"i_lat":-6.174784,"station_name":"Pasar Senen","is_transit":false},{"time":4,"station_id":"KMO","station_name":"Kemayoran","transit":false,"line":11,"i_lat":-6.161728,"is_transit":false,"distance":1436,"i_long":106.839204},{"is_transit":false,"time":5,"distance":1901,"station_name":"Rajawali","i_lat":-6.14505,"i_long":106.836569,"line":11,"station_id":"RJW","transit":false},{"i_lat":-6.132549,"is_transit":true,"station_name":"Kampung Bandan","station_id":"KPB","distance":1444,"transit":true,"time":3,"i_long":106.826365,"line":0},{"is_transit":false,"station_name":"Angke","time":9,"distance":4102,"line":0,"transit":false,"i_lat":-6.144674,"station_id":"AK","i_long":106.79867},{"distance":1230,"is_transit":true,"time":4,"station_name":"Duri","i_lat":-6.155215,"i_long":106.800832,"transit":true,"line":1,"station_id":"DU"},{"transit":true,"time":8,"station_id":"THB","is_transit":true,"i_long":106.811091,"distance":3632,"i_lat":-6.185545,"line":1,"station_name":"Tanah Abang"},{"is_transit":false,"line":6,"station_id":"PLM","i_long":106.79689,"station_name":"Palmerah","time":6,"distance":3191,"transit":false,"i_lat":-6.207404},{"distance":3737,"station_id":"KBY","is_transit":false,"time":7,"transit":false,"i_lat":-6.237242,"station_name":"Kebayoran","i_long":106.780334,"line":6},{"station_name":"Pondokranji","transit":false,"line":6,"is_transit":false,"time":8,"distance":6218,"i_lat":-6.276362,"i_long":106.74273,"station_id":"PDJ"},{"transit":false,"i_long":106.728916,"distance":2179,"time":3,"i_lat":-6.288927,"is_transit":false,"line":6,"station_name":"Jurangmangu","station_id":"JMU"},{"station_name":"Sudimara","i_lat":-6.296963,"i_long":106.712277,"is_transit":false,"transit":false,"line":6,"time":4,"station_id":"SDM","distance":1994},{"time":6,"i_lat":-6.314823,"line":6,"transit":false,"i_long":106.675475,"is_transit":false,"distance":4566,"station_id":"RU","station_name":"Rawa Buntu"},{"line":6,"station_name":"Serpong","transit":false,"i_long":106.66566,"station_id":"SRP","is_transit":false,"time":4,"distance":2413,"i_lat":-6.319871},{"time":4,"is_transit":false,"station_name":"Cisauk","transit":false,"i_lat":-6.32484,"station_id":"CSK","distance":1784,"i_long":106.640411,"line":0},{"station_name":"Cicayur","is_transit":false,"i_lat":-6.329547,"i_long":106.617853,"time":4,"transit":false,"distance":2519,"line":0,"station_id":"CC"},{"distance":5968,"i_lat":-6.3441410000000005,"station_id":"PRP","time":8,"station_name":"Parung Panjang","is_transit":false,"i_long":106.568863,"line":6,"transit":false},{"station_id":"CJT","line":0,"i_long":106.508482,"time":9,"station_name":"Cilejit","is_transit":false,"distance":7025,"i_lat":-6.354349,"transit":false}]]}