{"data":[[{"is_transit":false,"station_id":"UP","distance":0,"line":2,"station_name":"Univ. Pancasila","time":0,"transit":false,"i_lat":-6.339291,"i_long":106.834175},{"is_transit":false,"station_id":"LNA","station_name":"Lenteng Agung","time":2,"distance":1029,"i_lat":-6.330363,"i_long":106.832616,"line":2,"transit":false},{"i_lat":-6.3080680000000005,"i_long":106.838896,"distance":2671,"station_name":"Tanjung Barat","station_id":"TNT","transit":false,"time":3,"is_transit":false,"line":2},{"i_long":106.843999,"distance":2820,"station_id":"PSM","line":2,"time":4,"station_name":"Pasar Minggu","transit":false,"i_lat":-6.2842400000000005,"is_transit":false},{"i_lat":-6.263214,"time":2,"transit":false,"i_long":106.851577,"is_transit":false,"line":2,"station_id":"PSMB","station_name":"Pasar Minggu Baru","distance":2380},{"station_name":"Duren Kalibata","time":2,"is_transit":false,"i_lat":-6.255332,"station_id":"DRN","distance":824,"i_long":106.85449,"line":2,"transit":false},{"i_lat":-6.242512,"transit":false,"distance":1546,"station_name":"Cawang","is_transit":false,"i_long":106.856607,"time":3,"station_id":"CW","line":2},{"i_lat":-6.226659,"line":2,"station_id":"TEB","i_long":106.857948,"time":2,"station_name":"Tebet","transit":false,"is_transit":false,"distance":1230},{"distance":2610,"is_transit":true,"time":4,"transit":true,"i_lat":-6.209883,"line":2,"station_id":"MRI","station_name":"Manggarai","i_long":106.84912},{"transit":false,"is_transit":false,"time":4,"station_name":"Sudirman","i_long":106.822649,"i_lat":-6.202263,"line":1,"distance":3186,"station_id":"SUD"},{"time":1,"i_lat":-6.201433,"station_name":"Sudirman Baru","i_long":106.819881,"station_id":"SUDB","transit":false,"line":1,"is_transit":false,"distance":280},{"i_long":106.816351,"station_id":"KAT","line":1,"transit":false,"i_lat":-6.20132,"station_name":"Karet","is_transit":false,"time":1,"distance":471},{"i_lat":-6.185545,"time":5,"distance":2029,"station_name":"Tanah Abang","line":1,"i_long":106.811091,"station_id":"THB","transit":true,"is_transit":true},{"station_name":"Palmerah","line":6,"time":6,"distance":3191,"station_id":"PLM","transit":false,"is_transit":false,"i_lat":-6.207404,"i_long":106.79689},{"i_long":106.780334,"distance":3737,"station_id":"KBY","transit":false,"line":6,"time":7,"i_lat":-6.237242,"station_name":"Kebayoran","is_transit":false},{"i_lat":-6.276362,"i_long":106.74273,"line":6,"distance":6218,"transit":false,"time":8,"station_name":"Pondokranji","station_id":"PDJ","is_transit":false},{"transit":false,"time":3,"distance":2179,"station_id":"JMU","station_name":"Jurangmangu","line":6,"is_transit":false,"i_long":106.728916,"i_lat":-6.288927},{"is_transit":false,"transit":false,"station_name":"Sudimara","i_lat":-6.296963,"i_long":106.712277,"line":6,"station_id":"SDM","distance":1994,"time":4},{"time":6,"is_transit":false,"station_id":"RU","distance":4566,"i_long":106.675475,"i_lat":-6.314823,"transit":false,"line":6,"station_name":"Rawa Buntu"},{"station_id":"SRP","time":4,"distance":2413,"line":6,"is_transit":false,"transit":false,"i_lat":-6.319871,"station_name":"Serpong","i_long":106.66566},{"is_transit":false,"station_id":"CSK","i_lat":-6.32484,"i_long":106.640411,"transit":false,"time":4,"station_name":"Cisauk","line":3,"distance":1784},{"i_long":106.617853,"station_id":"CC","line":3,"time":4,"distance":2519,"is_transit":false,"transit":false,"i_lat":-6.329547,"station_name":"Cicayur"},{"i_long":106.568863,"time":8,"line":6,"distance":5968,"station_name":"Parung Panjang","is_transit":false,"station_id":"PRP","i_lat":-6.3441410000000005,"transit":false},{"time":9,"is_transit":false,"transit":false,"station_id":"CJT","i_long":106.508482,"distance":7025,"line":3,"station_name":"Cilejit","i_lat":-6.354349}],[{"station_id":"UP","i_lat":-6.339291,"i_long":106.834175,"is_transit":false,"distance":0,"station_name":"Univ. Pancasila","line":2,"time":0,"transit":false},{"is_transit":false,"time":2,"station_name":"Lenteng Agung","transit":false,"i_long":106.832616,"line":2,"i_lat":-6.330363,"distance":1029,"station_id":"LNA"},{"line":2,"time":3,"distance":2671,"station_id":"TNT","is_transit":false,"transit":false,"station_name":"Tanjung Barat","i_long":106.838896,"i_lat":-6.3080680000000005},{"is_transit":false,"station_name":"Pasar Minggu","station_id":"PSM","i_lat":-6.2842400000000005,"transit":false,"i_long":106.843999,"time":4,"distance":2820,"line":2},{"transit":false,"i_lat":-6.263214,"time":2,"station_id":"PSMB","is_transit":false,"station_name":"Pasar Minggu Baru","i_long":106.851577,"line":2,"distance":2380},{"transit":false,"station_name":"Duren Kalibata","i_long":106.85449,"is_transit":false,"station_id":"DRN","time":2,"line":2,"distance":824,"i_lat":-6.255332},{"i_long":106.856607,"is_transit":false,"station_name":"Cawang","station_id":"CW","line":2,"i_lat":-6.242512,"distance":1546,"time":3,"transit":false},{"distance":1230,"i_lat":-6.226659,"line":2,"station_name":"Tebet","station_id":"TEB","is_transit":false,"time":2,"i_long":106.857948,"transit":false},{"distance":2610,"station_name":"Manggarai","line":2,"time":4,"i_long":106.84912,"transit":false,"station_id":"MRI","i_lat":-6.209883,"is_transit":false},{"i_long":106.840169,"line":2,"distance":1590,"is_transit":false,"transit":false,"time":4,"station_name":"Cikini","station_id":"CKI","i_lat":-6.198556},{"line":2,"distance":1750,"is_transit":false,"station_name":"Gondangdia","station_id":"GDD","time":3,"transit":false,"i_lat":-6.186295,"i_long":106.832183},{"i_lat":-6.166716,"transit":false,"station_name":"Juanda","is_transit":false,"i_long":106.828284,"distance":2015,"time":4,"station_id":"JUA","line":2},{"distance":1149,"transit":false,"is_transit":false,"i_long":106.827103,"station_id":"SW","i_lat":-6.160725,"line":2,"station_name":"Sawah Besar","time":2},{"line":2,"station_id":"MGB","time":2,"distance":906,"is_transit":false,"transit":false,"station_name":"Manggabesar","i_lat":-6.149769,"i_long":106.82482},{"station_id":"JAY","i_long":106.820901,"distance":1080,"line":2,"is_transit":false,"station_name":"Jayakarta","time":2,"transit":false,"i_lat":-6.141205},{"line":2,"time":4,"distance":1264,"station_id":"JAKK","station_name":"Jakarta Kota","is_transit":true,"transit":true,"i_long":106.812439,"i_lat":-6.137569},{"time":3,"is_transit":true,"transit":true,"station_id":"KPB","distance":1364,"i_lat":-6.132549,"i_long":106.826365,"line":4,"station_name":"Kampung Bandan"},{"i_lat":-6.144674,"i_long":106.79867,"station_name":"Angke","line":1,"is_transit":false,"transit":false,"distance":4102,"time":9,"station_id":"AK"},{"time":4,"i_long":106.800832,"line":1,"is_transit":false,"i_lat":-6.155215,"station_id":"DU","station_name":"Duri","distance":1230,"transit":false},{"station_name":"Tanah Abang","i_lat":-6.185545,"time":8,"station_id":"THB","i_long":106.811091,"transit":true,"is_transit":true,"distance":3632,"line":1},{"i_lat":-6.207404,"is_transit":false,"distance":3191,"time":6,"i_long":106.79689,"station_name":"Palmerah","station_id":"PLM","line":6,"transit":false},{"station_id":"KBY","station_name":"Kebayoran","time":7,"line":6,"distance":3737,"i_lat":-6.237242,"transit":false,"i_long":106.780334,"is_transit":false},{"station_id":"PDJ","station_name":"Pondokranji","i_lat":-6.276362,"i_long":106.74273,"line":6,"transit":false,"distance":6218,"time":8,"is_transit":false},{"time":3,"station_name":"Jurangmangu","line":6,"is_transit":false,"i_lat":-6.288927,"distance":2179,"station_id":"JMU","transit":false,"i_long":106.728916},{"i_lat":-6.296963,"station_id":"SDM","transit":false,"is_transit":false,"station_name":"Sudimara","distance":1994,"time":4,"i_long":106.712277,"line":6},{"is_transit":false,"i_lat":-6.314823,"station_id":"RU","distance":4566,"transit":false,"station_name":"Rawa Buntu","line":6,"time":6,"i_long":106.675475},{"station_name":"Serpong","i_lat":-6.319871,"is_transit":false,"line":6,"i_long":106.66566,"distance":2413,"station_id":"SRP","transit":false,"time":4},{"time":4,"i_long":106.640411,"line":3,"station_id":"CSK","transit":false,"is_transit":false,"distance":1784,"station_name":"Cisauk","i_lat":-6.32484},{"i_long":106.617853,"transit":false,"is_transit":false,"time":4,"distance":2519,"line":3,"station_name":"Cicayur","i_lat":-6.329547,"station_id":"CC"},{"station_name":"Parung Panjang","distance":5968,"i_long":106.568863,"transit":false,"station_id":"PRP","is_transit":false,"line":6,"time":8,"i_lat":-6.3441410000000005},{"is_transit":false,"distance":7025,"i_lat":-6.354349,"time":9,"station_id":"CJT","i_long":106.508482,"line":3,"transit":false,"station_name":"Cilejit"}],[{"i_long":106.834175,"time":0,"station_id":"UP","transit":false,"line":2,"is_transit":false,"distance":0,"station_name":"Univ. Pancasila","i_lat":-6.339291},{"i_long":106.832616,"transit":false,"time":2,"i_lat":-6.330363,"line":2,"station_id":"LNA","is_transit":false,"station_name":"Lenteng Agung","distance":1029},{"time":3,"line":2,"station_id":"TNT","station_name":"Tanjung Barat","i_lat":-6.3080680000000005,"i_long":106.838896,"distance":2671,"transit":false,"is_transit":false},{"station_name":"Pasar Minggu","time":4,"distance":2820,"i_lat":-6.2842400000000005,"i_long":106.843999,"line":2,"station_id":"PSM","transit":false,"is_transit":false},{"time":2,"is_transit":false,"distance":2380,"station_id":"PSMB","transit":false,"station_name":"Pasar Minggu Baru","i_lat":-6.263214,"i_long":106.851577,"line":2},{"time":2,"i_lat":-6.255332,"line":2,"distance":824,"i_long":106.85449,"station_name":"Duren Kalibata","station_id":"DRN","transit":false,"is_transit":false},{"is_transit":false,"time":3,"i_long":106.856607,"station_id":"CW","station_name":"Cawang","line":2,"transit":false,"distance":1546,"i_lat":-6.242512},{"station_id":"TEB","station_name":"Tebet","i_long":106.857948,"line":2,"is_transit":false,"transit":false,"i_lat":-6.226659,"distance":1230,"time":2},{"i_lat":-6.209883,"i_long":106.84912,"transit":true,"station_id":"MRI","is_transit":true,"time":4,"station_name":"Manggarai","line":2,"distance":2610},{"i_long":106.858896,"station_name":"Matraman","is_transit":false,"distance":1275,"i_lat":-6.212485,"time":2,"line":1,"transit":false,"station_id":"MTR"},{"i_long":106.86807400000001,"time":8,"i_lat":-6.215091,"transit":true,"station_name":"Jatinegara","line":1,"is_transit":true,"station_id":"JNG","distance":1377},{"distance":1236,"transit":false,"is_transit":false,"i_long":106.861737,"i_lat":-6.209188,"line":11,"station_id":"POK","time":2,"station_name":"Pondok Jati"},{"transit":false,"time":2,"i_lat":-6.193792,"station_id":"KMT","line":11,"station_name":"Kramat","distance":1829,"i_long":106.855437,"is_transit":false},{"station_name":"Gang Sentiong","distance":973,"i_lat":-6.185975,"is_transit":false,"time":1,"i_long":106.850107,"line":11,"station_id":"GST","transit":false},{"i_lat":-6.174784,"time":8,"transit":false,"line":11,"is_transit":false,"station_id":"PSE","distance":1567,"i_long":106.84368,"station_name":"Pasar Senen"},{"station_name":"Kemayoran","transit":false,"i_long":106.839204,"line":11,"station_id":"KMO","distance":1436,"time":4,"i_lat":-6.161728,"is_transit":false},{"i_lat":-6.14505,"station_name":"Rajawali","i_long":106.836569,"transit":false,"distance":1901,"line":11,"station_id":"RJW","is_transit":false,"time":5},{"time":3,"station_id":"KPB","is_transit":true,"i_lat":-6.132549,"transit":true,"station_name":"Kampung Bandan","distance":1444,"line":4,"i_long":106.826365},{"station_id":"AK","distance":4102,"transit":false,"is_transit":false,"i_lat":-6.144674,"i_long":106.79867,"line":1,"station_name":"Angke","time":9},{"time":4,"station_id":"DU","station_name":"Duri","is_transit":false,"i_lat":-6.155215,"distance":1230,"line":1,"i_long":106.800832,"transit":false},{"transit":true,"i_lat":-6.185545,"i_long":106.811091,"station_id":"THB","distance":3632,"is_transit":true,"station_name":"Tanah Abang","time":8,"line":1},{"i_lat":-6.207404,"station_name":"Palmerah","station_id":"PLM","distance":3191,"i_long":106.79689,"is_transit":false,"line":6,"transit":false,"time":6},{"i_lat":-6.237242,"i_long":106.780334,"transit":false,"distance":3737,"line":6,"is_transit":false,"time":7,"station_id":"KBY","station_name":"Kebayoran"},{"i_long":106.74273,"line":6,"station_id":"PDJ","i_lat":-6.276362,"is_transit":false,"transit":false,"distance":6218,"station_name":"Pondokranji","time":8},{"i_long":106.728916,"is_transit":false,"station_id":"JMU","line":6,"transit":false,"distance":2179,"i_lat":-6.288927,"station_name":"Jurangmangu","time":3},{"is_transit":false,"transit":false,"time":4,"station_id":"SDM","line":6,"i_lat":-6.296963,"station_name":"Sudimara","distance":1994,"i_long":106.712277},{"i_long":106.675475,"line":6,"transit":false,"distance":4566,"is_transit":false,"time":6,"station_id":"RU","station_name":"Rawa Buntu","i_lat":-6.314823},{"distance":2413,"station_name":"Serpong","transit":false,"is_transit":false,"i_lat":-6.319871,"station_id":"SRP","i_long":106.66566,"time":4,"line":6},{"station_id":"CSK","i_long":106.640411,"is_transit":false,"time":4,"station_name":"Cisauk","transit":false,"distance":1784,"line":3,"i_lat":-6.32484},{"i_long":106.617853,"distance":2519,"time":4,"line":3,"transit":false,"i_lat":-6.329547,"is_transit":false,"station_id":"CC","station_name":"Cicayur"},{"i_lat":-6.3441410000000005,"station_name":"Parung Panjang","time":8,"line":6,"distance":5968,"transit":false,"is_transit":false,"station_id":"PRP","i_long":106.568863},{"distance":7025,"line":3,"time":9,"station_id":"CJT","i_lat":-6.354349,"is_transit":false,"i_long":106.508482,"transit":false,"station_name":"Cilejit"}]]}