{"data":[[{"transit":false,"distance":0,"time":0,"station_id":"UP","station_name":"Univ. Pancasila","i_long":106.834175,"line":2,"is_transit":false,"i_lat":-6.339291},{"i_lat":-6.330363,"line":2,"distance":1029,"station_id":"LNA","i_long":106.832616,"transit":false,"station_name":"Lenteng Agung","is_transit":false,"time":2},{"time":3,"transit":false,"station_id":"TNT","distance":2671,"i_long":106.838896,"is_transit":false,"station_name":"Tanjung Barat","i_lat":-6.3080680000000005,"line":2},{"transit":false,"time":4,"i_lat":-6.2842400000000005,"i_long":106.843999,"distance":2820,"line":2,"is_transit":false,"station_name":"Pasar Minggu","station_id":"PSM"},{"station_name":"Pasar Minggu Baru","station_id":"PSMB","transit":false,"time":2,"line":2,"distance":2380,"i_lat":-6.263214,"is_transit":false,"i_long":106.851577},{"i_long":106.85449,"distance":824,"station_name":"Duren Kalibata","station_id":"DRN","line":2,"is_transit":false,"time":2,"transit":false,"i_lat":-6.255332},{"line":2,"time":3,"station_id":"CW","station_name":"Cawang","i_lat":-6.242512,"is_transit":false,"i_long":106.856607,"transit":false,"distance":1546},{"station_id":"TEB","i_lat":-6.226659,"is_transit":false,"transit":false,"station_name":"Tebet","line":2,"time":2,"distance":1230,"i_long":106.857948},{"station_id":"MRI","time":4,"line":2,"i_lat":-6.209883,"is_transit":true,"station_name":"Manggarai","distance":2610,"i_long":106.84912,"transit":true},{"distance":3186,"i_lat":-6.202263,"transit":false,"i_long":106.822649,"station_name":"Sudirman","station_id":"SUD","line":1,"is_transit":false,"time":4},{"transit":false,"station_name":"Sudirman Baru","is_transit":false,"i_lat":-6.201433,"line":1,"i_long":106.819881,"station_id":"SUDB","time":1,"distance":280},{"time":1,"is_transit":false,"i_long":106.816351,"line":1,"station_name":"Karet","i_lat":-6.20132,"station_id":"KAT","distance":471,"transit":false},{"line":1,"station_name":"Tanah Abang","i_lat":-6.185545,"is_transit":true,"i_long":106.811091,"time":5,"transit":true,"distance":2029,"station_id":"THB"},{"line":6,"i_lat":-6.207404,"i_long":106.79689,"distance":3191,"is_transit":false,"station_id":"PLM","time":6,"station_name":"Palmerah","transit":false},{"station_name":"Kebayoran","transit":false,"i_lat":-6.237242,"distance":3737,"time":7,"station_id":"KBY","i_long":106.780334,"is_transit":false,"line":6},{"is_transit":false,"line":6,"station_id":"PDJ","transit":false,"station_name":"Pondokranji","time":8,"i_long":106.74273,"distance":6218,"i_lat":-6.276362},{"station_name":"Jurangmangu","is_transit":false,"i_long":106.728916,"time":3,"i_lat":-6.288927,"distance":2179,"transit":false,"station_id":"JMU","line":6},{"transit":false,"time":4,"station_id":"SDM","distance":1994,"station_name":"Sudimara","i_lat":-6.296963,"line":6,"is_transit":false,"i_long":106.712277},{"line":6,"i_long":106.675475,"station_id":"RU","i_lat":-6.314823,"is_transit":false,"transit":false,"time":6,"station_name":"Rawa Buntu","distance":4566},{"is_transit":false,"distance":2413,"time":4,"i_lat":-6.319871,"station_name":"Serpong","transit":false,"station_id":"SRP","i_long":106.66566,"line":6},{"station_id":"CSK","line":3,"time":4,"station_name":"Cisauk","i_lat":-6.32484,"is_transit":false,"transit":false,"i_long":106.640411,"distance":1784},{"distance":2519,"station_id":"CC","transit":false,"is_transit":false,"i_long":106.617853,"station_name":"Cicayur","time":4,"i_lat":-6.329547,"line":3},{"line":6,"station_name":"Parung Panjang","station_id":"PRP","is_transit":false,"distance":5968,"time":8,"transit":false,"i_lat":-6.3441410000000005,"i_long":106.568863},{"station_name":"Cilejit","transit":false,"is_transit":false,"i_lat":-6.354349,"time":9,"line":3,"distance":7025,"station_id":"CJT","i_long":106.508482}],[{"transit":false,"i_lat":-6.339291,"line":2,"i_long":106.834175,"time":0,"is_transit":false,"station_name":"Univ. Pancasila","station_id":"UP","distance":0},{"time":2,"i_lat":-6.330363,"i_long":106.832616,"station_id":"LNA","distance":1029,"line":2,"station_name":"Lenteng Agung","is_transit":false,"transit":false},{"transit":false,"station_name":"Tanjung Barat","station_id":"TNT","distance":2671,"i_lat":-6.3080680000000005,"is_transit":false,"time":3,"line":2,"i_long":106.838896},{"station_name":"Pasar Minggu","time":4,"i_long":106.843999,"station_id":"PSM","is_transit":false,"distance":2820,"i_lat":-6.2842400000000005,"transit":false,"line":2},{"time":2,"i_long":106.851577,"station_id":"PSMB","i_lat":-6.263214,"is_transit":false,"station_name":"Pasar Minggu Baru","transit":false,"distance":2380,"line":2},{"station_name":"Duren Kalibata","is_transit":false,"line":2,"transit":false,"i_lat":-6.255332,"distance":824,"station_id":"DRN","time":2,"i_long":106.85449},{"i_lat":-6.242512,"transit":false,"is_transit":false,"i_long":106.856607,"time":3,"distance":1546,"station_name":"Cawang","line":2,"station_id":"CW"},{"time":2,"station_id":"TEB","i_lat":-6.226659,"transit":false,"i_long":106.857948,"station_name":"Tebet","distance":1230,"is_transit":false,"line":2},{"transit":false,"station_id":"MRI","is_transit":false,"i_lat":-6.209883,"i_long":106.84912,"station_name":"Manggarai","time":4,"distance":2610,"line":2},{"time":4,"distance":1590,"i_long":106.840169,"transit":false,"is_transit":false,"line":2,"i_lat":-6.198556,"station_name":"Cikini","station_id":"CKI"},{"i_lat":-6.186295,"i_long":106.832183,"distance":1750,"station_id":"GDD","time":3,"transit":false,"is_transit":false,"station_name":"Gondangdia","line":2},{"is_transit":false,"i_lat":-6.166716,"station_name":"Juanda","i_long":106.828284,"line":2,"station_id":"JUA","time":4,"transit":false,"distance":2015},{"transit":false,"i_lat":-6.160725,"is_transit":false,"distance":1149,"station_id":"SW","time":2,"line":2,"station_name":"Sawah Besar","i_long":106.827103},{"time":2,"distance":906,"station_name":"Manggabesar","i_lat":-6.149769,"i_long":106.82482,"transit":false,"line":2,"station_id":"MGB","is_transit":false},{"line":2,"is_transit":false,"transit":false,"distance":1080,"time":2,"i_long":106.820901,"i_lat":-6.141205,"station_name":"Jayakarta","station_id":"JAY"},{"time":4,"station_id":"JAKK","distance":1264,"transit":true,"station_name":"Jakarta Kota","is_transit":true,"i_lat":-6.137569,"i_long":106.812439,"line":2},{"distance":1364,"i_long":106.826365,"line":4,"transit":true,"time":3,"station_name":"Kampung Bandan","i_lat":-6.132549,"station_id":"KPB","is_transit":true},{"distance":4102,"station_name":"Angke","transit":false,"time":9,"station_id":"AK","i_lat":-6.144674,"line":1,"is_transit":false,"i_long":106.79867},{"is_transit":false,"distance":1230,"i_lat":-6.155215,"i_long":106.800832,"transit":false,"station_id":"DU","time":4,"line":1,"station_name":"Duri"},{"distance":3632,"i_lat":-6.185545,"i_long":106.811091,"transit":true,"station_id":"THB","line":1,"station_name":"Tanah Abang","time":8,"is_transit":true},{"station_id":"PLM","line":6,"transit":false,"is_transit":false,"distance":3191,"i_lat":-6.207404,"station_name":"Palmerah","i_long":106.79689,"time":6},{"distance":3737,"line":6,"transit":false,"station_name":"Kebayoran","station_id":"KBY","i_long":106.780334,"i_lat":-6.237242,"time":7,"is_transit":false},{"transit":false,"i_lat":-6.276362,"station_name":"Pondokranji","distance":6218,"station_id":"PDJ","is_transit":false,"line":6,"i_long":106.74273,"time":8},{"transit":false,"distance":2179,"i_lat":-6.288927,"station_id":"JMU","i_long":106.728916,"station_name":"Jurangmangu","line":6,"time":3,"is_transit":false},{"i_long":106.712277,"station_name":"Sudimara","i_lat":-6.296963,"station_id":"SDM","line":6,"distance":1994,"is_transit":false,"transit":false,"time":4},{"station_id":"RU","station_name":"Rawa Buntu","i_lat":-6.314823,"time":6,"distance":4566,"is_transit":false,"transit":false,"line":6,"i_long":106.675475},{"distance":2413,"station_id":"SRP","is_transit":false,"i_lat":-6.319871,"station_name":"Serpong","i_long":106.66566,"time":4,"transit":false,"line":6},{"transit":false,"distance":1784,"i_lat":-6.32484,"station_id":"CSK","station_name":"Cisauk","time":4,"i_long":106.640411,"line":3,"is_transit":false},{"distance":2519,"station_id":"CC","i_long":106.617853,"line":3,"station_name":"Cicayur","is_transit":false,"time":4,"transit":false,"i_lat":-6.329547},{"station_name":"Parung Panjang","time":8,"station_id":"PRP","i_lat":-6.3441410000000005,"i_long":106.568863,"distance":5968,"is_transit":false,"transit":false,"line":6},{"line":3,"station_id":"CJT","i_lat":-6.354349,"time":9,"i_long":106.508482,"distance":7025,"transit":false,"is_transit":false,"station_name":"Cilejit"}],[{"station_name":"Univ. Pancasila","transit":false,"distance":0,"time":0,"i_lat":-6.339291,"is_transit":false,"line":2,"station_id":"UP","i_long":106.834175},{"station_name":"Lenteng Agung","time":2,"i_long":106.832616,"is_transit":false,"line":2,"i_lat":-6.330363,"transit":false,"station_id":"LNA","distance":1029},{"line":2,"i_lat":-6.3080680000000005,"is_transit":false,"transit":false,"station_id":"TNT","station_name":"Tanjung Barat","time":3,"i_long":106.838896,"distance":2671},{"transit":false,"station_name":"Pasar Minggu","distance":2820,"i_lat":-6.2842400000000005,"line":2,"i_long":106.843999,"station_id":"PSM","time":4,"is_transit":false},{"time":2,"is_transit":false,"station_name":"Pasar Minggu Baru","station_id":"PSMB","i_lat":-6.263214,"i_long":106.851577,"transit":false,"distance":2380,"line":2},{"station_id":"DRN","line":2,"station_name":"Duren Kalibata","i_lat":-6.255332,"is_transit":false,"distance":824,"i_long":106.85449,"time":2,"transit":false},{"station_name":"Cawang","station_id":"CW","distance":1546,"i_long":106.856607,"is_transit":false,"i_lat":-6.242512,"transit":false,"time":3,"line":2},{"time":2,"station_name":"Tebet","station_id":"TEB","i_long":106.857948,"is_transit":false,"transit":false,"distance":1230,"i_lat":-6.226659,"line":2},{"station_id":"MRI","distance":2610,"i_long":106.84912,"time":4,"line":2,"is_transit":true,"station_name":"Manggarai","i_lat":-6.209883,"transit":true},{"station_name":"Matraman","line":1,"transit":false,"station_id":"MTR","i_lat":-6.212485,"time":2,"distance":1275,"i_long":106.858896,"is_transit":false},{"distance":1377,"i_lat":-6.215091,"is_transit":true,"i_long":106.86807400000001,"line":1,"transit":true,"station_id":"JNG","station_name":"Jatinegara","time":8},{"is_transit":false,"station_name":"Pondok Jati","i_long":106.861737,"line":11,"station_id":"POK","transit":false,"time":2,"distance":1236,"i_lat":-6.209188},{"station_name":"Kramat","is_transit":false,"transit":false,"station_id":"KMT","time":2,"i_long":106.855437,"line":11,"i_lat":-6.193792,"distance":1829},{"station_name":"Gang Sentiong","time":1,"station_id":"GST","i_long":106.850107,"line":11,"transit":false,"is_transit":false,"i_lat":-6.185975,"distance":973},{"is_transit":false,"time":8,"i_long":106.84368,"transit":false,"station_name":"Pasar Senen","distance":1567,"i_lat":-6.174784,"line":11,"station_id":"PSE"},{"transit":false,"station_id":"KMO","is_transit":false,"distance":1436,"station_name":"Kemayoran","time":4,"line":11,"i_lat":-6.161728,"i_long":106.839204},{"i_long":106.836569,"is_transit":false,"transit":false,"station_name":"Rajawali","station_id":"RJW","time":5,"i_lat":-6.14505,"distance":1901,"line":11},{"distance":1444,"line":4,"transit":true,"station_name":"Kampung Bandan","station_id":"KPB","time":3,"i_lat":-6.132549,"i_long":106.826365,"is_transit":true},{"station_name":"Angke","is_transit":false,"i_lat":-6.144674,"station_id":"AK","time":9,"distance":4102,"i_long":106.79867,"line":1,"transit":false},{"station_name":"Duri","line":1,"i_lat":-6.155215,"transit":false,"distance":1230,"station_id":"DU","is_transit":false,"time":4,"i_long":106.800832},{"station_name":"Tanah Abang","is_transit":true,"i_lat":-6.185545,"distance":3632,"time":8,"station_id":"THB","line":1,"transit":true,"i_long":106.811091},{"i_lat":-6.207404,"transit":false,"i_long":106.79689,"distance":3191,"line":6,"station_name":"Palmerah","time":6,"is_transit":false,"station_id":"PLM"},{"distance":3737,"is_transit":false,"transit":false,"station_name":"Kebayoran","i_lat":-6.237242,"line":6,"i_long":106.780334,"station_id":"KBY","time":7},{"station_name":"Pondokranji","transit":false,"line":6,"station_id":"PDJ","distance":6218,"i_long":106.74273,"time":8,"i_lat":-6.276362,"is_transit":false},{"line":6,"i_lat":-6.288927,"station_id":"JMU","station_name":"Jurangmangu","distance":2179,"is_transit":false,"time":3,"transit":false,"i_long":106.728916},{"is_transit":false,"distance":1994,"i_lat":-6.296963,"line":6,"transit":false,"station_name":"Sudimara","time":4,"i_long":106.712277,"station_id":"SDM"},{"time":6,"station_name":"Rawa Buntu","line":6,"transit":false,"station_id":"RU","distance":4566,"i_lat":-6.314823,"i_long":106.675475,"is_transit":false},{"transit":false,"i_lat":-6.319871,"i_long":106.66566,"station_id":"SRP","is_transit":false,"time":4,"station_name":"Serpong","distance":2413,"line":6},{"time":4,"line":3,"station_id":"CSK","i_lat":-6.32484,"i_long":106.640411,"distance":1784,"station_name":"Cisauk","transit":false,"is_transit":false},{"is_transit":false,"time":4,"distance":2519,"i_lat":-6.329547,"i_long":106.617853,"line":3,"transit":false,"station_id":"CC","station_name":"Cicayur"},{"station_name":"Parung Panjang","transit":false,"station_id":"PRP","is_transit":false,"distance":5968,"i_long":106.568863,"time":8,"line":6,"i_lat":-6.3441410000000005},{"transit":false,"line":3,"time":9,"station_id":"CJT","station_name":"Cilejit","is_transit":false,"distance":7025,"i_lat":-6.354349,"i_long":106.508482}]]}