{"data":[[{"time":0,"station_id":"UP","i_long":106.834175,"distance":0,"line":2,"transit":false,"i_lat":-6.339291,"is_transit":false,"station_name":"Univ. Pancasila"},{"time":2,"line":2,"distance":1029,"is_transit":false,"i_lat":-6.330363,"station_name":"Lenteng Agung","station_id":"LNA","transit":false,"i_long":106.832616},{"transit":false,"i_long":106.838896,"is_transit":false,"station_name":"Tanjung Barat","station_id":"TNT","i_lat":-6.3080680000000005,"time":3,"distance":2671,"line":2},{"distance":2820,"time":4,"is_transit":false,"i_lat":-6.2842400000000005,"i_long":106.843999,"line":2,"transit":false,"station_id":"PSM","station_name":"Pasar Minggu"},{"is_transit":false,"station_name":"Pasar Minggu Baru","i_lat":-6.263214,"line":2,"station_id":"PSMB","time":2,"i_long":106.851577,"distance":2380,"transit":false},{"i_long":106.85449,"station_name":"Duren Kalibata","time":2,"distance":824,"transit":false,"i_lat":-6.255332,"is_transit":false,"station_id":"DRN","line":2},{"i_lat":-6.242512,"time":3,"station_id":"CW","station_name":"Cawang","distance":1546,"i_long":106.856607,"line":2,"transit":false,"is_transit":false},{"time":2,"line":2,"station_id":"TEB","is_transit":false,"i_long":106.857948,"distance":1230,"transit":false,"station_name":"Tebet","i_lat":-6.226659},{"station_id":"MRI","is_transit":true,"transit":true,"distance":2610,"station_name":"Manggarai","i_lat":-6.209883,"i_long":106.84912,"time":4,"line":2},{"transit":false,"station_name":"Matraman","station_id":"MTR","time":2,"i_lat":-6.212485,"i_long":106.858896,"line":1,"distance":1275,"is_transit":false},{"i_lat":-6.215091,"line":1,"is_transit":false,"i_long":106.86807400000001,"station_name":"Jatinegara","transit":false,"distance":1377,"time":8,"station_id":"JNG"},{"is_transit":false,"station_name":"Klender","i_lat":-6.2135,"time":3,"station_id":"KLD","i_long":106.899548,"transit":false,"distance":3395,"line":1},{"time":2,"is_transit":false,"line":1,"station_name":"Buaran","distance":3100,"i_lat":-6.215568,"transit":false,"station_id":"BUA","i_long":106.922662},{"transit":false,"distance":1305,"time":1,"station_name":"Klenderbaru","station_id":"KLDB","line":1,"is_transit":false,"i_long":106.939679,"i_lat":-6.217455},{"distance":1385,"time":8,"station_id":"CUK","station_name":"Cakung","i_lat":-6.219053,"i_long":106.951283,"is_transit":false,"transit":false,"line":1},{"i_lat":-6.224515,"i_long":106.977657,"transit":false,"line":1,"time":3,"station_id":"KRI","is_transit":false,"station_name":"Kranji","distance":3097},{"transit":false,"i_lat":-6.236616,"distance":2520,"line":1,"station_id":"BKS","i_long":106.997013,"time":4,"is_transit":false,"station_name":"Bekasi"},{"distance":2368,"line":1,"transit":false,"i_lat":-6.248029,"i_long":107.016735,"station_name":"Bekasi Timur","station_id":"BKST","time":2,"is_transit":false},{"is_transit":false,"time":7,"line":1,"transit":false,"station_id":"TB","distance":4460,"i_lat":-6.258864,"i_long":107.055722,"station_name":"Tambun"},{"station_name":"Cibitung","is_transit":false,"i_lat":-6.261877,"line":1,"station_id":"CIT","transit":false,"distance":3420,"i_long":107.083084,"time":3},{"i_long":107.093313,"i_lat":-6.262938,"station_id":"TLM","time":2,"is_transit":false,"line":1,"transit":false,"distance":2800,"station_name":"Metland Telaga Murni"},{"distance":3689,"i_lat":-6.2553149999999995,"line":1,"station_id":"CKR","station_name":"Cikarang","is_transit":false,"i_long":107.144613,"time":4,"transit":false}],[{"time":0,"i_lat":-6.339291,"line":2,"i_long":106.834175,"is_transit":false,"station_id":"UP","transit":false,"station_name":"Univ. Pancasila","distance":0},{"i_long":106.832616,"is_transit":false,"distance":1029,"transit":false,"station_name":"Lenteng Agung","time":2,"line":2,"station_id":"LNA","i_lat":-6.330363},{"transit":false,"station_name":"Tanjung Barat","line":2,"is_transit":false,"distance":2671,"i_long":106.838896,"station_id":"TNT","time":3,"i_lat":-6.3080680000000005},{"i_long":106.843999,"is_transit":false,"station_name":"Pasar Minggu","time":4,"transit":false,"i_lat":-6.2842400000000005,"distance":2820,"station_id":"PSM","line":2},{"time":2,"station_id":"PSMB","station_name":"Pasar Minggu Baru","is_transit":false,"i_long":106.851577,"transit":false,"i_lat":-6.263214,"line":2,"distance":2380},{"station_id":"DRN","line":2,"time":2,"station_name":"Duren Kalibata","i_lat":-6.255332,"i_long":106.85449,"is_transit":false,"transit":false,"distance":824},{"station_name":"Cawang","is_transit":false,"transit":false,"i_long":106.856607,"i_lat":-6.242512,"station_id":"CW","distance":1546,"time":3,"line":2},{"i_long":106.857948,"distance":1230,"station_id":"TEB","line":2,"station_name":"Tebet","is_transit":false,"time":2,"transit":false,"i_lat":-6.226659},{"line":2,"station_id":"MRI","i_lat":-6.209883,"transit":true,"is_transit":true,"i_long":106.84912,"distance":2610,"station_name":"Manggarai","time":4},{"station_id":"SUD","time":4,"i_long":106.822649,"is_transit":false,"distance":3186,"i_lat":-6.202263,"line":1,"transit":false,"station_name":"Sudirman"},{"i_long":106.819881,"is_transit":false,"station_name":"Sudirman Baru","distance":280,"i_lat":-6.201433,"time":1,"transit":false,"line":1,"station_id":"SUDB"},{"is_transit":false,"station_name":"Karet","transit":false,"i_lat":-6.20132,"i_long":106.816351,"line":1,"time":1,"station_id":"KAT","distance":471},{"station_id":"THB","distance":2029,"line":1,"i_long":106.811091,"time":5,"is_transit":false,"i_lat":-6.185545,"transit":false,"station_name":"Tanah Abang"},{"station_name":"Duri","is_transit":false,"line":1,"station_id":"DU","transit":false,"distance":3632,"i_lat":-6.155215,"i_long":106.800832,"time":8},{"transit":false,"time":4,"is_transit":false,"distance":1230,"i_lat":-6.144674,"i_long":106.79867,"line":1,"station_id":"AK","station_name":"Angke"},{"is_transit":true,"station_id":"KPB","i_lat":-6.132549,"transit":true,"station_name":"Kampung Bandan","distance":4102,"time":9,"i_long":106.826365,"line":4},{"distance":1444,"i_long":106.836569,"line":11,"station_id":"RJW","is_transit":false,"transit":false,"i_lat":-6.14505,"station_name":"Rajawali","time":3},{"station_name":"Kemayoran","i_long":106.839204,"time":5,"transit":false,"station_id":"KMO","i_lat":-6.161728,"line":11,"is_transit":false,"distance":1901},{"i_lat":-6.174784,"station_name":"Pasar Senen","time":4,"line":11,"station_id":"PSE","is_transit":false,"distance":1436,"transit":false,"i_long":106.84368},{"transit":false,"time":8,"station_name":"Gang Sentiong","i_lat":-6.185975,"i_long":106.850107,"line":11,"station_id":"GST","is_transit":false,"distance":1567},{"station_name":"Kramat","time":1,"is_transit":false,"i_lat":-6.193792,"station_id":"KMT","i_long":106.855437,"line":11,"distance":973,"transit":false},{"i_lat":-6.209188,"i_long":106.861737,"station_name":"Pondok Jati","station_id":"POK","is_transit":false,"distance":1829,"time":2,"transit":false,"line":11},{"i_lat":-6.215091,"station_id":"JNG","transit":true,"distance":1236,"i_long":106.86807400000001,"time":9,"is_transit":true,"line":1,"station_name":"Jatinegara"},{"is_transit":false,"time":3,"i_long":106.899548,"station_id":"KLD","line":1,"i_lat":-6.2135,"transit":false,"distance":3395,"station_name":"Klender"},{"station_name":"Buaran","i_long":106.922662,"line":1,"distance":3100,"transit":false,"time":2,"is_transit":false,"i_lat":-6.215568,"station_id":"BUA"},{"time":1,"is_transit":false,"station_id":"KLDB","station_name":"Klenderbaru","distance":1305,"i_lat":-6.217455,"line":1,"transit":false,"i_long":106.939679},{"distance":1385,"station_id":"CUK","transit":false,"line":1,"time":8,"i_long":106.951283,"station_name":"Cakung","i_lat":-6.219053,"is_transit":false},{"station_id":"KRI","i_lat":-6.224515,"time":3,"transit":false,"station_name":"Kranji","i_long":106.977657,"distance":3097,"line":1,"is_transit":false},{"i_lat":-6.236616,"distance":2520,"line":1,"station_id":"BKS","is_transit":false,"transit":false,"i_long":106.997013,"station_name":"Bekasi","time":4},{"i_lat":-6.248029,"is_transit":false,"station_id":"BKST","transit":false,"station_name":"Bekasi Timur","line":1,"i_long":107.016735,"time":2,"distance":2368},{"is_transit":false,"station_name":"Tambun","transit":false,"station_id":"TB","time":7,"i_long":107.055722,"line":1,"distance":4460,"i_lat":-6.258864},{"station_id":"CIT","distance":3420,"i_lat":-6.261877,"i_long":107.083084,"station_name":"Cibitung","is_transit":false,"line":1,"transit":false,"time":3},{"transit":false,"i_long":107.093313,"is_transit":false,"station_name":"Metland Telaga Murni","i_lat":-6.262938,"distance":2800,"line":1,"time":2,"station_id":"TLM"},{"station_name":"Cikarang","i_lat":-6.2553149999999995,"station_id":"CKR","transit":false,"time":4,"distance":3689,"is_transit":false,"i_long":107.144613,"line":1}],[{"distance":0,"station_id":"UP","is_transit":false,"line":2,"station_name":"Univ. Pancasila","i_long":106.834175,"transit":false,"time":0,"i_lat":-6.339291},{"i_lat":-6.330363,"station_name":"Lenteng Agung","time":2,"i_long":106.832616,"is_transit":false,"transit":false,"station_id":"LNA","distance":1029,"line":2},{"transit":false,"station_id":"TNT","i_long":106.838896,"is_transit":false,"distance":2671,"i_lat":-6.3080680000000005,"line":2,"station_name":"Tanjung Barat","time":3},{"station_name":"Pasar Minggu","distance":2820,"i_long":106.843999,"time":4,"line":2,"transit":false,"i_lat":-6.2842400000000005,"station_id":"PSM","is_transit":false},{"station_name":"Pasar Minggu Baru","time":2,"transit":false,"is_transit":false,"distance":2380,"line":2,"i_lat":-6.263214,"station_id":"PSMB","i_long":106.851577},{"is_transit":false,"station_id":"DRN","station_name":"Duren Kalibata","line":2,"i_lat":-6.255332,"distance":824,"transit":false,"i_long":106.85449,"time":2},{"is_transit":false,"station_name":"Cawang","line":2,"i_lat":-6.242512,"i_long":106.856607,"transit":false,"time":3,"distance":1546,"station_id":"CW"},{"i_lat":-6.226659,"is_transit":false,"transit":false,"station_name":"Tebet","station_id":"TEB","time":2,"distance":1230,"i_long":106.857948,"line":2},{"station_id":"MRI","station_name":"Manggarai","distance":2610,"line":2,"time":4,"transit":false,"is_transit":false,"i_long":106.84912,"i_lat":-6.209883},{"is_transit":false,"station_name":"Cikini","transit":false,"distance":1590,"time":4,"line":2,"i_lat":-6.198556,"i_long":106.840169,"station_id":"CKI"},{"station_name":"Gondangdia","i_long":106.832183,"station_id":"GDD","is_transit":false,"line":2,"transit":false,"time":3,"distance":1750,"i_lat":-6.186295},{"is_transit":false,"station_id":"JUA","time":4,"transit":false,"distance":2015,"line":2,"station_name":"Juanda","i_long":106.828284,"i_lat":-6.166716},{"transit":false,"time":2,"station_name":"Sawah Besar","is_transit":false,"distance":1149,"station_id":"SW","i_lat":-6.160725,"line":2,"i_long":106.827103},{"station_id":"MGB","i_lat":-6.149769,"i_long":106.82482,"distance":906,"station_name":"Manggabesar","time":2,"transit":false,"line":2,"is_transit":false},{"line":2,"station_name":"Jayakarta","station_id":"JAY","is_transit":false,"i_long":106.820901,"i_lat":-6.141205,"time":2,"distance":1080,"transit":false},{"station_id":"JAKK","distance":1264,"i_long":106.812439,"transit":true,"line":2,"station_name":"Jakarta Kota","i_lat":-6.137569,"time":4,"is_transit":true},{"time":3,"is_transit":true,"i_lat":-6.132549,"transit":true,"i_long":106.826365,"station_name":"Kampung Bandan","station_id":"KPB","line":4,"distance":1364},{"line":11,"transit":false,"station_id":"RJW","distance":1444,"i_lat":-6.14505,"is_transit":false,"i_long":106.836569,"station_name":"Rajawali","time":3},{"station_id":"KMO","time":5,"station_name":"Kemayoran","transit":false,"line":11,"i_long":106.839204,"distance":1901,"i_lat":-6.161728,"is_transit":false},{"i_lat":-6.174784,"i_long":106.84368,"transit":false,"time":4,"distance":1436,"line":11,"is_transit":false,"station_name":"Pasar Senen","station_id":"PSE"},{"station_name":"Gang Sentiong","line":11,"time":8,"transit":false,"station_id":"GST","i_lat":-6.185975,"is_transit":false,"distance":1567,"i_long":106.850107},{"distance":973,"i_lat":-6.193792,"i_long":106.855437,"is_transit":false,"transit":false,"station_name":"Kramat","time":1,"line":11,"station_id":"KMT"},{"i_long":106.861737,"line":11,"station_id":"POK","station_name":"Pondok Jati","transit":false,"is_transit":false,"i_lat":-6.209188,"distance":1829,"time":2},{"line":1,"distance":1236,"i_long":106.86807400000001,"i_lat":-6.215091,"time":9,"station_id":"JNG","is_transit":true,"station_name":"Jatinegara","transit":true},{"transit":false,"distance":3395,"i_lat":-6.2135,"station_name":"Klender","time":3,"is_transit":false,"station_id":"KLD","line":1,"i_long":106.899548},{"distance":3100,"line":1,"station_name":"Buaran","time":2,"transit":false,"i_lat":-6.215568,"station_id":"BUA","i_long":106.922662,"is_transit":false},{"station_id":"KLDB","transit":false,"time":1,"i_long":106.939679,"station_name":"Klenderbaru","is_transit":false,"distance":1305,"i_lat":-6.217455,"line":1},{"transit":false,"i_long":106.951283,"time":8,"distance":1385,"station_name":"Cakung","station_id":"CUK","i_lat":-6.219053,"is_transit":false,"line":1},{"is_transit":false,"i_lat":-6.224515,"i_long":106.977657,"station_name":"Kranji","station_id":"KRI","transit":false,"time":3,"line":1,"distance":3097},{"transit":false,"i_lat":-6.236616,"i_long":106.997013,"line":1,"station_id":"BKS","station_name":"Bekasi","distance":2520,"is_transit":false,"time":4},{"station_id":"BKST","transit":false,"distance":2368,"i_long":107.016735,"line":1,"station_name":"Bekasi Timur","time":2,"is_transit":false,"i_lat":-6.248029},{"i_lat":-6.258864,"line":1,"transit":false,"station_id":"TB","distance":4460,"i_long":107.055722,"station_name":"Tambun","time":7,"is_transit":false},{"i_long":107.083084,"distance":3420,"is_transit":false,"time":3,"transit":false,"station_name":"Cibitung","i_lat":-6.261877,"station_id":"CIT","line":1},{"i_lat":-6.262938,"i_long":107.093313,"distance":2800,"line":1,"transit":false,"station_name":"Metland Telaga Murni","is_transit":false,"time":2,"station_id":"TLM"},{"time":4,"station_name":"Cikarang","is_transit":false,"transit":false,"distance":3689,"station_id":"CKR","i_lat":-6.2553149999999995,"i_long":107.144613,"line":1}]]}