{"data":[[{"i_lat":-6.339291,"transit":false,"distance":0,"station_id":"UP","line":2,"station_name":"Univ. Pancasila","time":0,"i_long":106.834175,"is_transit":false},{"time":2,"i_lat":-6.330363,"transit":false,"station_id":"LNA","distance":1029,"i_long":106.832616,"station_name":"Lenteng Agung","line":2,"is_transit":false},{"station_id":"TNT","station_name":"Tanjung Barat","time":3,"distance":2671,"i_lat":-6.3080680000000005,"is_transit":false,"transit":false,"i_long":106.838896,"line":2},{"i_lat":-6.2842400000000005,"time":4,"is_transit":false,"line":2,"i_long":106.843999,"station_id":"PSM","transit":false,"station_name":"Pasar Minggu","distance":2820},{"distance":2380,"transit":false,"is_transit":false,"i_lat":-6.263214,"time":2,"i_long":106.851577,"line":2,"station_name":"Pasar Minggu Baru","station_id":"PSMB"},{"transit":false,"line":0,"i_lat":-6.255332,"time":2,"station_id":"DRN","distance":824,"i_long":106.85449,"station_name":"Duren Kalibata","is_transit":false},{"transit":false,"station_name":"Cawang","station_id":"CW","is_transit":false,"i_lat":-6.242512,"distance":1546,"i_long":106.856607,"time":3,"line":0},{"i_long":106.857948,"distance":1230,"transit":false,"station_id":"TEB","is_transit":false,"i_lat":-6.226659,"line":2,"time":2,"station_name":"Tebet"},{"time":4,"transit":true,"station_name":"Manggarai","station_id":"MRI","distance":2610,"is_transit":true,"i_long":106.84912,"i_lat":-6.209883,"line":0},{"station_name":"Matraman","transit":false,"i_lat":-6.212485,"station_id":"MTR","i_long":106.858896,"line":1,"time":2,"distance":1275,"is_transit":false},{"station_name":"Jatinegara","distance":1377,"time":8,"is_transit":true,"i_lat":-6.215091,"line":0,"transit":false,"station_id":"JNG","i_long":106.86807400000001},{"line":1,"transit":false,"i_lat":-6.2135,"distance":3395,"station_id":"KLD","station_name":"Klender","is_transit":false,"time":3,"i_long":106.899548},{"time":2,"i_lat":-6.215568,"i_long":106.922662,"is_transit":false,"line":0,"station_id":"BUA","transit":false,"distance":3100,"station_name":"Buaran"},{"is_transit":false,"i_long":106.939679,"station_id":"KLDB","transit":false,"station_name":"Klenderbaru","distance":1305,"line":1,"i_lat":-6.217455,"time":1},{"station_id":"CUK","distance":1385,"i_lat":-6.219053,"i_long":106.951283,"line":0,"transit":false,"is_transit":false,"time":8,"station_name":"Cakung"},{"distance":3097,"is_transit":false,"time":3,"station_name":"Kranji","i_lat":-6.224515,"i_long":106.977657,"station_id":"KRI","line":1,"transit":false},{"transit":false,"station_id":"BKS","time":4,"is_transit":false,"i_lat":-6.236616,"station_name":"Bekasi","i_long":106.997013,"distance":2520,"line":0},{"time":2,"line":0,"station_id":"BKST","is_transit":false,"transit":false,"i_lat":-6.248029,"distance":2368,"station_name":"Bekasi Timur","i_long":107.016735},{"is_transit":false,"line":1,"distance":4460,"transit":false,"station_id":"TB","time":7,"i_long":107.055722,"station_name":"Tambun","i_lat":-6.258864},{"i_long":107.083084,"distance":3420,"i_lat":-6.261877,"line":0,"time":3,"is_transit":false,"station_name":"Cibitung","transit":false,"station_id":"CIT"},{"station_id":"TLM","i_long":107.093313,"is_transit":false,"i_lat":-6.262938,"time":2,"distance":2800,"line":1,"station_name":"Metland Telaga Murni","transit":false},{"time":4,"station_name":"Cikarang","distance":3689,"i_lat":-6.2553149999999995,"is_transit":false,"station_id":"CKR","line":0,"transit":false,"i_long":107.144613}],[{"i_lat":-6.339291,"line":2,"time":0,"station_id":"UP","transit":false,"is_transit":false,"i_long":106.834175,"distance":0,"station_name":"Univ. Pancasila"},{"station_name":"Lenteng Agung","time":2,"i_lat":-6.330363,"station_id":"LNA","distance":1029,"is_transit":false,"line":2,"i_long":106.832616,"transit":false},{"time":3,"station_id":"TNT","i_long":106.838896,"is_transit":false,"transit":false,"i_lat":-6.3080680000000005,"distance":2671,"line":2,"station_name":"Tanjung Barat"},{"station_id":"PSM","i_long":106.843999,"line":2,"is_transit":false,"distance":2820,"time":4,"station_name":"Pasar Minggu","transit":false,"i_lat":-6.2842400000000005},{"is_transit":false,"distance":2380,"station_name":"Pasar Minggu Baru","transit":false,"station_id":"PSMB","line":2,"time":2,"i_lat":-6.263214,"i_long":106.851577},{"i_lat":-6.255332,"station_name":"Duren Kalibata","station_id":"DRN","time":2,"i_long":106.85449,"is_transit":false,"distance":824,"line":0,"transit":false},{"line":0,"station_id":"CW","station_name":"Cawang","time":3,"is_transit":false,"transit":false,"i_long":106.856607,"i_lat":-6.242512,"distance":1546},{"line":2,"time":2,"station_id":"TEB","station_name":"Tebet","distance":1230,"i_long":106.857948,"is_transit":false,"transit":false,"i_lat":-6.226659},{"distance":2610,"transit":true,"i_lat":-6.209883,"i_long":106.84912,"station_id":"MRI","is_transit":true,"time":4,"station_name":"Manggarai","line":0},{"distance":3186,"station_name":"Sudirman","station_id":"SUD","time":4,"is_transit":false,"line":1,"i_lat":-6.202263,"transit":false,"i_long":106.822649},{"i_lat":-6.201433,"line":1,"i_long":106.819881,"station_name":"Sudirman Baru","is_transit":false,"time":1,"distance":280,"station_id":"SUDB","transit":false},{"i_long":106.816351,"is_transit":false,"station_id":"KAT","distance":471,"i_lat":-6.20132,"time":1,"station_name":"Karet","line":1,"transit":false},{"line":1,"time":5,"i_long":106.811091,"i_lat":-6.185545,"is_transit":true,"station_id":"THB","transit":false,"distance":2029,"station_name":"Tanah Abang"},{"station_name":"Duri","is_transit":true,"transit":true,"i_lat":-6.155215,"i_long":106.800832,"distance":3632,"station_id":"DU","time":8,"line":1},{"distance":1230,"transit":false,"station_name":"Angke","line":0,"time":4,"is_transit":false,"i_lat":-6.144674,"i_long":106.79867,"station_id":"AK"},{"station_name":"Kampung Bandan","transit":true,"i_long":106.826365,"time":9,"i_lat":-6.132549,"line":0,"is_transit":true,"distance":4102,"station_id":"KPB"},{"i_lat":-6.14505,"i_long":106.836569,"line":11,"is_transit":false,"time":3,"distance":1444,"transit":false,"station_id":"RJW","station_name":"Rajawali"},{"i_long":106.839204,"is_transit":false,"station_id":"KMO","station_name":"Kemayoran","transit":false,"i_lat":-6.161728,"time":5,"distance":1901,"line":11},{"station_id":"PSE","time":4,"transit":false,"distance":1436,"line":11,"station_name":"Pasar Senen","i_long":106.84368,"i_lat":-6.174784,"is_transit":false},{"station_id":"GST","transit":false,"line":11,"distance":1567,"station_name":"Gang Sentiong","is_transit":false,"i_lat":-6.185975,"i_long":106.850107,"time":8},{"transit":false,"i_lat":-6.193792,"i_long":106.855437,"is_transit":false,"station_name":"Kramat","line":11,"station_id":"KMT","time":1,"distance":973},{"transit":false,"i_lat":-6.209188,"line":11,"i_long":106.861737,"distance":1829,"station_id":"POK","time":2,"station_name":"Pondok Jati","is_transit":false},{"i_lat":-6.215091,"line":0,"i_long":106.86807400000001,"station_id":"JNG","station_name":"Jatinegara","is_transit":true,"time":9,"distance":1236,"transit":true},{"time":3,"i_long":106.899548,"station_id":"KLD","station_name":"Klender","is_transit":false,"transit":false,"line":1,"i_lat":-6.2135,"distance":3395},{"station_id":"BUA","line":0,"i_lat":-6.215568,"time":2,"distance":3100,"transit":false,"i_long":106.922662,"is_transit":false,"station_name":"Buaran"},{"i_lat":-6.217455,"station_id":"KLDB","line":1,"distance":1305,"i_long":106.939679,"time":1,"transit":false,"station_name":"Klenderbaru","is_transit":false},{"station_id":"CUK","transit":false,"i_long":106.951283,"is_transit":false,"distance":1385,"station_name":"Cakung","time":8,"i_lat":-6.219053,"line":0},{"time":3,"is_transit":false,"station_name":"Kranji","i_lat":-6.224515,"station_id":"KRI","distance":3097,"i_long":106.977657,"line":1,"transit":false},{"time":4,"transit":false,"station_name":"Bekasi","station_id":"BKS","line":0,"i_lat":-6.236616,"is_transit":false,"i_long":106.997013,"distance":2520},{"i_long":107.016735,"transit":false,"distance":2368,"station_name":"Bekasi Timur","station_id":"BKST","is_transit":false,"i_lat":-6.248029,"time":2,"line":0},{"distance":4460,"transit":false,"station_name":"Tambun","time":7,"station_id":"TB","is_transit":false,"i_long":107.055722,"i_lat":-6.258864,"line":1},{"station_id":"CIT","is_transit":false,"i_lat":-6.261877,"line":0,"transit":false,"station_name":"Cibitung","i_long":107.083084,"distance":3420,"time":3},{"transit":false,"i_long":107.093313,"is_transit":false,"time":2,"line":1,"i_lat":-6.262938,"station_id":"TLM","distance":2800,"station_name":"Metland Telaga Murni"},{"station_id":"CKR","i_lat":-6.2553149999999995,"line":0,"distance":3689,"i_long":107.144613,"station_name":"Cikarang","time":4,"transit":false,"is_transit":false}],[{"transit":false,"i_long":106.834175,"station_id":"UP","line":2,"i_lat":-6.339291,"distance":0,"station_name":"Univ. Pancasila","is_transit":false,"time":0},{"is_transit":false,"station_id":"LNA","station_name":"Lenteng Agung","time":2,"distance":1029,"i_lat":-6.330363,"i_long":106.832616,"line":2,"transit":false},{"line":2,"time":3,"station_name":"Tanjung Barat","station_id":"TNT","transit":false,"is_transit":false,"i_lat":-6.3080680000000005,"distance":2671,"i_long":106.838896},{"station_id":"PSM","i_lat":-6.2842400000000005,"is_transit":false,"i_long":106.843999,"line":2,"time":4,"transit":false,"station_name":"Pasar Minggu","distance":2820},{"is_transit":false,"i_lat":-6.263214,"transit":false,"station_name":"Pasar Minggu Baru","station_id":"PSMB","time":2,"line":2,"distance":2380,"i_long":106.851577},{"distance":824,"i_long":106.85449,"line":0,"station_name":"Duren Kalibata","is_transit":false,"transit":false,"time":2,"station_id":"DRN","i_lat":-6.255332},{"distance":1546,"is_transit":false,"transit":false,"station_name":"Cawang","time":3,"i_lat":-6.242512,"station_id":"CW","i_long":106.856607,"line":0},{"i_long":106.857948,"distance":1230,"line":2,"station_name":"Tebet","station_id":"TEB","i_lat":-6.226659,"time":2,"transit":false,"is_transit":false},{"distance":2610,"i_lat":-6.209883,"transit":true,"i_long":106.84912,"time":4,"is_transit":true,"line":0,"station_name":"Manggarai","station_id":"MRI"},{"time":4,"station_id":"CKI","distance":1590,"transit":false,"is_transit":false,"i_long":106.840169,"line":0,"i_lat":-6.198556,"station_name":"Cikini"},{"transit":false,"time":3,"distance":1750,"line":2,"station_id":"GDD","i_long":106.832183,"i_lat":-6.186295,"station_name":"Gondangdia","is_transit":false},{"time":4,"station_id":"JUA","station_name":"Juanda","transit":false,"line":2,"i_lat":-6.166716,"is_transit":false,"distance":2015,"i_long":106.828284},{"is_transit":false,"time":2,"distance":1149,"station_name":"Sawah Besar","i_lat":-6.160725,"i_long":106.827103,"line":2,"station_id":"SW","transit":false},{"i_lat":-6.149769,"is_transit":false,"station_name":"Manggabesar","station_id":"MGB","distance":906,"transit":false,"time":2,"i_long":106.82482,"line":2},{"is_transit":false,"station_name":"Jayakarta","time":2,"distance":1080,"line":7,"transit":false,"i_lat":-6.141205,"station_id":"JAY","i_long":106.820901},{"distance":1264,"is_transit":true,"time":4,"station_name":"Jakarta Kota","i_lat":-6.137569,"i_long":106.812439,"transit":true,"line":0,"station_id":"JAKK"},{"transit":true,"time":3,"station_id":"KPB","is_transit":true,"i_long":106.826365,"distance":1364,"i_lat":-6.132549,"line":0,"station_name":"Kampung Bandan"},{"is_transit":false,"line":11,"station_id":"RJW","i_long":106.836569,"station_name":"Rajawali","time":3,"distance":1444,"transit":false,"i_lat":-6.14505},{"distance":1901,"station_id":"KMO","is_transit":false,"time":5,"transit":false,"i_lat":-6.161728,"station_name":"Kemayoran","i_long":106.839204,"line":11},{"station_name":"Pasar Senen","transit":false,"line":11,"is_transit":false,"time":4,"distance":1436,"i_lat":-6.174784,"i_long":106.84368,"station_id":"PSE"},{"transit":false,"i_long":106.850107,"distance":1567,"time":8,"i_lat":-6.185975,"is_transit":false,"line":11,"station_name":"Gang Sentiong","station_id":"GST"},{"station_name":"Kramat","i_lat":-6.193792,"i_long":106.855437,"is_transit":false,"transit":false,"line":11,"time":1,"station_id":"KMT","distance":973},{"time":2,"i_lat":-6.209188,"line":11,"transit":false,"i_long":106.861737,"is_transit":false,"distance":1829,"station_id":"POK","station_name":"Pondok Jati"},{"line":0,"station_name":"Jatinegara","transit":true,"i_long":106.86807400000001,"station_id":"JNG","is_transit":true,"time":9,"distance":1236,"i_lat":-6.215091},{"time":3,"is_transit":false,"station_name":"Klender","transit":false,"i_lat":-6.2135,"station_id":"KLD","distance":3395,"i_long":106.899548,"line":1},{"station_name":"Buaran","is_transit":false,"i_lat":-6.215568,"i_long":106.922662,"time":2,"transit":false,"distance":3100,"line":0,"station_id":"BUA"},{"distance":1305,"i_lat":-6.217455,"station_id":"KLDB","time":1,"station_name":"Klenderbaru","is_transit":false,"i_long":106.939679,"line":1,"transit":false},{"station_id":"CUK","line":0,"i_long":106.951283,"time":8,"station_name":"Cakung","is_transit":false,"distance":1385,"i_lat":-6.219053,"transit":false},{"transit":false,"station_name":"Kranji","station_id":"KRI","i_lat":-6.224515,"i_long":106.977657,"is_transit":false,"line":1,"time":3,"distance":3097},{"distance":2520,"time":4,"is_transit":false,"i_long":106.997013,"transit":false,"line":0,"i_lat":-6.236616,"station_id":"BKS","station_name":"Bekasi"},{"station_name":"Bekasi Timur","time":2,"transit":false,"line":0,"station_id":"BKST","i_lat":-6.248029,"is_transit":false,"distance":2368,"i_long":107.016735},{"station_id":"TB","i_lat":-6.258864,"station_name":"Tambun","distance":4460,"transit":false,"time":7,"is_transit":false,"i_long":107.055722,"line":1},{"transit":false,"distance":3420,"i_lat":-6.261877,"i_long":107.083084,"station_id":"CIT","station_name":"Cibitung","is_transit":false,"time":3,"line":0},{"time":2,"station_name":"Metland Telaga Murni","transit":false,"i_long":107.093313,"line":1,"i_lat":-6.262938,"is_transit":false,"station_id":"TLM","distance":2800},{"time":4,"distance":3689,"i_lat":-6.2553149999999995,"i_long":107.144613,"station_name":"Cikarang","station_id":"CKR","line":0,"transit":false,"is_transit":false}]]}