{"data":[[{"time":0,"is_transit":false,"transit":false,"station_id":"UP","line":2,"station_name":"Univ. Pancasila","i_long":106.834175,"i_lat":-6.339291,"distance":0},{"time":2,"station_name":"Lenteng Agung","i_long":106.832616,"line":2,"transit":false,"i_lat":-6.330363,"distance":1029,"station_id":"LNA","is_transit":false},{"transit":false,"station_name":"Tanjung Barat","time":3,"line":2,"is_transit":false,"station_id":"TNT","distance":2671,"i_lat":-6.3080680000000005,"i_long":106.838896},{"station_id":"PSM","i_long":106.843999,"line":2,"is_transit":false,"distance":2820,"transit":false,"time":4,"i_lat":-6.2842400000000005,"station_name":"Pasar Minggu"},{"transit":false,"station_name":"Pasar Minggu Baru","i_long":106.851577,"line":2,"is_transit":false,"time":2,"i_lat":-6.263214,"station_id":"PSMB","distance":2380},{"transit":false,"time":2,"distance":824,"i_lat":-6.255332,"is_transit":false,"i_long":106.85449,"station_id":"DRN","station_name":"Duren Kalibata","line":2},{"distance":1546,"is_transit":false,"time":3,"line":2,"i_lat":-6.242512,"i_long":106.856607,"transit":false,"station_id":"CW","station_name":"Cawang"},{"distance":1230,"time":2,"i_lat":-6.226659,"transit":false,"i_long":106.857948,"line":2,"station_name":"Tebet","station_id":"TEB","is_transit":false},{"station_name":"Manggarai","is_transit":true,"i_lat":-6.209883,"line":2,"i_long":106.84912,"transit":true,"distance":2610,"station_id":"MRI","time":4},{"i_lat":-6.212485,"station_id":"MTR","transit":false,"station_name":"Matraman","time":2,"is_transit":false,"distance":1275,"i_long":106.858896,"line":1},{"is_transit":false,"time":8,"distance":1377,"i_long":106.86807400000001,"line":1,"station_name":"Jatinegara","transit":false,"station_id":"JNG","i_lat":-6.215091},{"transit":false,"i_long":106.899548,"distance":3395,"station_name":"Klender","i_lat":-6.2135,"time":3,"is_transit":false,"station_id":"KLD","line":1},{"is_transit":false,"i_lat":-6.215568,"station_id":"BUA","station_name":"Buaran","transit":false,"distance":3100,"i_long":106.922662,"line":1,"time":2},{"i_lat":-6.217455,"transit":false,"is_transit":false,"distance":1305,"station_name":"Klenderbaru","station_id":"KLDB","time":1,"i_long":106.939679,"line":1},{"i_long":106.951283,"line":1,"station_id":"CUK","transit":false,"time":8,"i_lat":-6.219053,"distance":1385,"station_name":"Cakung","is_transit":false},{"transit":false,"distance":3097,"station_name":"Kranji","time":3,"station_id":"KRI","is_transit":false,"i_lat":-6.224515,"line":1,"i_long":106.977657},{"distance":2520,"time":4,"i_lat":-6.236616,"station_id":"BKS","i_long":106.997013,"station_name":"Bekasi","is_transit":false,"line":1,"transit":false},{"is_transit":false,"transit":false,"distance":2368,"line":1,"station_name":"Bekasi Timur","i_lat":-6.248029,"i_long":107.016735,"time":2,"station_id":"BKST"},{"line":1,"time":7,"i_lat":-6.258864,"transit":false,"i_long":107.055722,"station_name":"Tambun","is_transit":false,"distance":4460,"station_id":"TB"},{"time":3,"i_long":107.083084,"i_lat":-6.261877,"distance":3420,"station_name":"Cibitung","station_id":"CIT","is_transit":false,"transit":false,"line":1},{"line":1,"is_transit":false,"distance":2800,"time":2,"station_name":"Metland Telaga Murni","transit":false,"i_long":107.093313,"i_lat":-6.262938,"station_id":"TLM"},{"i_long":107.144613,"line":1,"station_name":"Cikarang","time":4,"distance":3689,"transit":false,"i_lat":-6.2553149999999995,"station_id":"CKR","is_transit":false}],[{"distance":0,"transit":false,"station_id":"UP","station_name":"Univ. Pancasila","line":2,"i_long":106.834175,"is_transit":false,"time":0,"i_lat":-6.339291},{"is_transit":false,"transit":false,"distance":1029,"station_id":"LNA","time":2,"i_lat":-6.330363,"i_long":106.832616,"station_name":"Lenteng Agung","line":2},{"station_name":"Tanjung Barat","time":3,"station_id":"TNT","transit":false,"is_transit":false,"distance":2671,"i_lat":-6.3080680000000005,"i_long":106.838896,"line":2},{"station_name":"Pasar Minggu","i_lat":-6.2842400000000005,"transit":false,"distance":2820,"station_id":"PSM","is_transit":false,"i_long":106.843999,"line":2,"time":4},{"transit":false,"station_name":"Pasar Minggu Baru","i_lat":-6.263214,"i_long":106.851577,"distance":2380,"station_id":"PSMB","is_transit":false,"time":2,"line":2},{"i_long":106.85449,"transit":false,"is_transit":false,"station_id":"DRN","line":2,"distance":824,"station_name":"Duren Kalibata","time":2,"i_lat":-6.255332},{"station_id":"CW","i_long":106.856607,"time":3,"transit":false,"line":2,"i_lat":-6.242512,"is_transit":false,"station_name":"Cawang","distance":1546},{"i_lat":-6.226659,"transit":false,"is_transit":false,"distance":1230,"i_long":106.857948,"station_id":"TEB","time":2,"station_name":"Tebet","line":2},{"station_id":"MRI","transit":true,"i_lat":-6.209883,"time":4,"distance":2610,"i_long":106.84912,"line":2,"station_name":"Manggarai","is_transit":true},{"i_lat":-6.202263,"i_long":106.822649,"line":1,"time":4,"distance":3186,"station_name":"Sudirman","transit":false,"is_transit":false,"station_id":"SUD"},{"station_id":"SUDB","transit":false,"i_lat":-6.201433,"distance":280,"station_name":"Sudirman Baru","is_transit":false,"time":1,"i_long":106.819881,"line":1},{"transit":false,"i_lat":-6.20132,"i_long":106.816351,"is_transit":false,"time":1,"station_name":"Karet","line":1,"distance":471,"station_id":"KAT"},{"distance":2029,"line":1,"i_lat":-6.185545,"i_long":106.811091,"transit":false,"station_id":"THB","station_name":"Tanah Abang","is_transit":false,"time":5},{"line":1,"station_name":"Duri","station_id":"DU","is_transit":false,"i_lat":-6.155215,"transit":false,"time":8,"i_long":106.800832,"distance":3632},{"is_transit":false,"line":1,"time":4,"i_lat":-6.144674,"transit":false,"i_long":106.79867,"station_name":"Angke","station_id":"AK","distance":1230},{"transit":true,"station_id":"KPB","i_long":106.826365,"i_lat":-6.132549,"distance":4102,"is_transit":true,"time":9,"station_name":"Kampung Bandan","line":4},{"is_transit":false,"distance":1444,"transit":false,"i_lat":-6.14505,"line":11,"station_id":"RJW","time":3,"i_long":106.836569,"station_name":"Rajawali"},{"is_transit":false,"distance":1901,"station_name":"Kemayoran","i_long":106.839204,"station_id":"KMO","i_lat":-6.161728,"transit":false,"time":5,"line":11},{"i_long":106.84368,"line":11,"i_lat":-6.174784,"is_transit":false,"transit":false,"station_name":"Pasar Senen","distance":1436,"time":4,"station_id":"PSE"},{"station_id":"GST","time":8,"transit":false,"is_transit":false,"distance":1567,"i_lat":-6.185975,"i_long":106.850107,"line":11,"station_name":"Gang Sentiong"},{"transit":false,"distance":973,"i_lat":-6.193792,"i_long":106.855437,"line":11,"station_name":"Kramat","is_transit":false,"station_id":"KMT","time":1},{"time":2,"station_name":"Pondok Jati","transit":false,"distance":1829,"i_long":106.861737,"line":11,"is_transit":false,"station_id":"POK","i_lat":-6.209188},{"distance":1236,"station_name":"Jatinegara","i_lat":-6.215091,"is_transit":true,"i_long":106.86807400000001,"station_id":"JNG","transit":true,"time":9,"line":1},{"transit":false,"station_name":"Klender","is_transit":false,"line":1,"time":3,"i_lat":-6.2135,"distance":3395,"i_long":106.899548,"station_id":"KLD"},{"time":2,"i_long":106.922662,"transit":false,"distance":3100,"i_lat":-6.215568,"station_name":"Buaran","station_id":"BUA","line":1,"is_transit":false},{"i_lat":-6.217455,"time":1,"transit":false,"distance":1305,"is_transit":false,"line":1,"station_name":"Klenderbaru","i_long":106.939679,"station_id":"KLDB"},{"line":1,"station_id":"CUK","station_name":"Cakung","time":8,"transit":false,"distance":1385,"is_transit":false,"i_lat":-6.219053,"i_long":106.951283},{"line":1,"station_id":"KRI","i_lat":-6.224515,"i_long":106.977657,"time":3,"transit":false,"station_name":"Kranji","distance":3097,"is_transit":false},{"i_lat":-6.236616,"line":1,"station_name":"Bekasi","station_id":"BKS","is_transit":false,"transit":false,"time":4,"distance":2520,"i_long":106.997013},{"is_transit":false,"station_id":"BKST","i_lat":-6.248029,"time":2,"transit":false,"station_name":"Bekasi Timur","i_long":107.016735,"distance":2368,"line":1},{"i_long":107.055722,"transit":false,"i_lat":-6.258864,"time":7,"distance":4460,"line":1,"is_transit":false,"station_name":"Tambun","station_id":"TB"},{"distance":3420,"i_lat":-6.261877,"i_long":107.083084,"station_name":"Cibitung","time":3,"is_transit":false,"line":1,"transit":false,"station_id":"CIT"},{"station_id":"TLM","time":2,"i_long":107.093313,"is_transit":false,"transit":false,"i_lat":-6.262938,"line":1,"distance":2800,"station_name":"Metland Telaga Murni"},{"station_id":"CKR","time":4,"transit":false,"distance":3689,"station_name":"Cikarang","is_transit":false,"i_long":107.144613,"i_lat":-6.2553149999999995,"line":1}],[{"station_name":"Univ. Pancasila","transit":false,"distance":0,"time":0,"i_long":106.834175,"is_transit":false,"i_lat":-6.339291,"station_id":"UP","line":2},{"distance":1029,"line":2,"transit":false,"i_lat":-6.330363,"station_id":"LNA","time":2,"i_long":106.832616,"is_transit":false,"station_name":"Lenteng Agung"},{"transit":false,"station_name":"Tanjung Barat","station_id":"TNT","time":3,"distance":2671,"i_lat":-6.3080680000000005,"i_long":106.838896,"is_transit":false,"line":2},{"station_id":"PSM","transit":false,"station_name":"Pasar Minggu","i_lat":-6.2842400000000005,"is_transit":false,"distance":2820,"i_long":106.843999,"line":2,"time":4},{"i_long":106.851577,"distance":2380,"line":2,"transit":false,"station_name":"Pasar Minggu Baru","i_lat":-6.263214,"time":2,"station_id":"PSMB","is_transit":false},{"station_id":"DRN","time":2,"i_lat":-6.255332,"distance":824,"is_transit":false,"i_long":106.85449,"station_name":"Duren Kalibata","line":2,"transit":false},{"line":2,"time":3,"transit":false,"distance":1546,"station_name":"Cawang","i_long":106.856607,"i_lat":-6.242512,"station_id":"CW","is_transit":false},{"i_lat":-6.226659,"time":2,"is_transit":false,"distance":1230,"i_long":106.857948,"transit":false,"station_id":"TEB","station_name":"Tebet","line":2},{"i_long":106.84912,"line":2,"station_name":"Manggarai","distance":2610,"station_id":"MRI","time":4,"i_lat":-6.209883,"transit":false,"is_transit":false},{"transit":false,"is_transit":false,"time":4,"distance":1590,"station_id":"CKI","i_lat":-6.198556,"line":2,"station_name":"Cikini","i_long":106.840169},{"i_lat":-6.186295,"time":3,"is_transit":false,"station_id":"GDD","transit":false,"station_name":"Gondangdia","line":2,"i_long":106.832183,"distance":1750},{"is_transit":false,"i_long":106.828284,"time":4,"station_name":"Juanda","distance":2015,"transit":false,"station_id":"JUA","line":2,"i_lat":-6.166716},{"station_id":"SW","i_long":106.827103,"line":2,"time":2,"transit":false,"i_lat":-6.160725,"station_name":"Sawah Besar","is_transit":false,"distance":1149},{"distance":906,"time":2,"station_id":"MGB","station_name":"Manggabesar","i_lat":-6.149769,"line":2,"is_transit":false,"i_long":106.82482,"transit":false},{"transit":false,"station_id":"JAY","time":2,"i_lat":-6.141205,"i_long":106.820901,"station_name":"Jayakarta","is_transit":false,"distance":1080,"line":2},{"time":4,"line":2,"transit":true,"station_name":"Jakarta Kota","is_transit":true,"station_id":"JAKK","distance":1264,"i_lat":-6.137569,"i_long":106.812439},{"transit":true,"i_lat":-6.132549,"distance":1364,"line":4,"station_id":"KPB","is_transit":true,"station_name":"Kampung Bandan","i_long":106.826365,"time":3},{"time":3,"line":11,"station_name":"Rajawali","transit":false,"i_long":106.836569,"is_transit":false,"station_id":"RJW","distance":1444,"i_lat":-6.14505},{"transit":false,"station_name":"Kemayoran","is_transit":false,"i_lat":-6.161728,"i_long":106.839204,"distance":1901,"line":11,"station_id":"KMO","time":5},{"line":11,"time":4,"station_name":"Pasar Senen","distance":1436,"is_transit":false,"transit":false,"station_id":"PSE","i_lat":-6.174784,"i_long":106.84368},{"distance":1567,"i_long":106.850107,"line":11,"station_id":"GST","transit":false,"i_lat":-6.185975,"station_name":"Gang Sentiong","is_transit":false,"time":8},{"transit":false,"station_name":"Kramat","distance":973,"i_long":106.855437,"line":11,"time":1,"station_id":"KMT","is_transit":false,"i_lat":-6.193792},{"line":11,"transit":false,"station_name":"Pondok Jati","distance":1829,"i_long":106.861737,"time":2,"is_transit":false,"station_id":"POK","i_lat":-6.209188},{"i_lat":-6.215091,"line":1,"station_name":"Jatinegara","transit":true,"distance":1236,"i_long":106.86807400000001,"station_id":"JNG","is_transit":true,"time":9},{"distance":3395,"station_id":"KLD","is_transit":false,"station_name":"Klender","line":1,"transit":false,"time":3,"i_lat":-6.2135,"i_long":106.899548},{"transit":false,"station_id":"BUA","time":2,"distance":3100,"i_lat":-6.215568,"line":1,"station_name":"Buaran","is_transit":false,"i_long":106.922662},{"transit":false,"distance":1305,"i_long":106.939679,"time":1,"line":1,"i_lat":-6.217455,"is_transit":false,"station_name":"Klenderbaru","station_id":"KLDB"},{"station_name":"Cakung","line":1,"distance":1385,"is_transit":false,"i_lat":-6.219053,"time":8,"i_long":106.951283,"transit":false,"station_id":"CUK"},{"is_transit":false,"i_lat":-6.224515,"transit":false,"station_id":"KRI","i_long":106.977657,"station_name":"Kranji","time":3,"distance":3097,"line":1},{"station_id":"BKS","time":4,"line":1,"transit":false,"is_transit":false,"station_name":"Bekasi","distance":2520,"i_lat":-6.236616,"i_long":106.997013},{"is_transit":false,"i_long":107.016735,"station_id":"BKST","i_lat":-6.248029,"distance":2368,"station_name":"Bekasi Timur","transit":false,"time":2,"line":1},{"line":1,"i_lat":-6.258864,"station_id":"TB","distance":4460,"i_long":107.055722,"is_transit":false,"station_name":"Tambun","transit":false,"time":7},{"transit":false,"time":3,"distance":3420,"is_transit":false,"station_name":"Cibitung","i_long":107.083084,"station_id":"CIT","line":1,"i_lat":-6.261877},{"i_lat":-6.262938,"station_id":"TLM","is_transit":false,"transit":false,"time":2,"distance":2800,"i_long":107.093313,"station_name":"Metland Telaga Murni","line":1},{"is_transit":false,"i_lat":-6.2553149999999995,"time":4,"station_id":"CKR","distance":3689,"i_long":107.144613,"transit":false,"station_name":"Cikarang","line":1}]]}