{"data":[[{"transit":false,"station_name":"Univ. Pancasila","time":0,"distance":0,"is_transit":false,"station_id":"UP","i_lat":-6.339291,"i_long":106.834175,"line":2},{"station_id":"LNA","station_name":"Lenteng Agung","time":2,"i_long":106.832616,"distance":1029,"is_transit":false,"i_lat":-6.330363,"line":2,"transit":false},{"station_name":"Tanjung Barat","distance":2671,"time":3,"station_id":"TNT","line":2,"transit":false,"i_lat":-6.3080680000000005,"is_transit":false,"i_long":106.838896},{"station_id":"PSM","transit":false,"i_long":106.843999,"distance":2820,"i_lat":-6.2842400000000005,"is_transit":false,"station_name":"Pasar Minggu","line":2,"time":4},{"transit":false,"station_id":"PSMB","i_lat":-6.263214,"time":2,"line":2,"distance":2380,"is_transit":false,"station_name":"Pasar Minggu Baru","i_long":106.851577},{"station_id":"DRN","i_lat":-6.255332,"line":2,"station_name":"Duren Kalibata","time":2,"i_long":106.85449,"is_transit":false,"transit":false,"distance":824},{"i_lat":-6.242512,"i_long":106.856607,"is_transit":false,"distance":1546,"station_name":"Cawang","line":2,"station_id":"CW","transit":false,"time":3},{"transit":false,"time":2,"station_id":"TEB","distance":1230,"i_lat":-6.226659,"i_long":106.857948,"line":2,"is_transit":false,"station_name":"Tebet"},{"station_name":"Manggarai","i_long":106.84912,"transit":true,"line":2,"is_transit":true,"i_lat":-6.209883,"distance":2610,"time":4,"station_id":"MRI"},{"station_id":"SUD","line":1,"transit":false,"station_name":"Sudirman","time":4,"i_long":106.822649,"distance":3186,"i_lat":-6.202263,"is_transit":false},{"time":1,"is_transit":false,"station_name":"Sudirman Baru","transit":false,"line":1,"distance":280,"station_id":"SUDB","i_lat":-6.201433,"i_long":106.819881},{"transit":false,"station_name":"Karet","i_long":106.816351,"line":1,"distance":471,"time":1,"is_transit":false,"station_id":"KAT","i_lat":-6.20132},{"i_lat":-6.185545,"distance":2029,"time":5,"station_id":"THB","is_transit":true,"i_long":106.811091,"station_name":"Tanah Abang","line":1,"transit":true},{"line":6,"transit":false,"i_long":106.79689,"time":6,"distance":3191,"is_transit":false,"station_id":"PLM","station_name":"Palmerah","i_lat":-6.207404},{"is_transit":false,"station_name":"Kebayoran","i_long":106.780334,"station_id":"KBY","transit":false,"line":6,"i_lat":-6.237242,"distance":3737,"time":7},{"distance":6218,"station_id":"PDJ","i_lat":-6.276362,"transit":false,"i_long":106.74273,"time":8,"line":6,"is_transit":false,"station_name":"Pondokranji"},{"time":3,"is_transit":false,"station_id":"JMU","station_name":"Jurangmangu","transit":false,"line":6,"i_lat":-6.288927,"distance":2179,"i_long":106.728916},{"is_transit":false,"station_id":"SDM","transit":false,"i_long":106.712277,"i_lat":-6.296963,"distance":1994,"station_name":"Sudimara","time":4,"line":6},{"station_id":"RU","distance":4566,"station_name":"Rawa Buntu","is_transit":false,"line":6,"i_lat":-6.314823,"transit":false,"i_long":106.675475,"time":6},{"distance":2413,"transit":false,"station_id":"SRP","i_lat":-6.319871,"station_name":"Serpong","is_transit":false,"time":4,"line":6,"i_long":106.66566},{"station_name":"Cisauk","transit":false,"i_lat":-6.32484,"station_id":"CSK","is_transit":false,"line":3,"i_long":106.640411,"time":4,"distance":1784},{"station_id":"CC","i_lat":-6.329547,"is_transit":false,"transit":false,"distance":2519,"station_name":"Cicayur","time":4,"i_long":106.617853,"line":3},{"time":8,"i_lat":-6.3441410000000005,"distance":5968,"transit":false,"i_long":106.568863,"station_name":"Parung Panjang","is_transit":false,"station_id":"PRP","line":6},{"station_name":"Cilejit","distance":7025,"station_id":"CJT","transit":false,"i_lat":-6.354349,"line":3,"time":9,"i_long":106.508482,"is_transit":false},{"distance":2675,"i_long":106.491338,"is_transit":false,"station_id":"DAR","transit":false,"i_lat":-6.338021,"time":6,"line":0,"station_name":"Daru"}],[{"distance":0,"line":2,"time":0,"i_lat":-6.339291,"station_id":"UP","is_transit":false,"station_name":"Univ. Pancasila","i_long":106.834175,"transit":false},{"is_transit":false,"transit":false,"distance":1029,"station_id":"LNA","i_long":106.832616,"i_lat":-6.330363,"time":2,"station_name":"Lenteng Agung","line":2},{"station_id":"TNT","station_name":"Tanjung Barat","is_transit":false,"time":3,"i_long":106.838896,"transit":false,"distance":2671,"line":2,"i_lat":-6.3080680000000005},{"station_name":"Pasar Minggu","is_transit":false,"distance":2820,"i_lat":-6.2842400000000005,"transit":false,"line":2,"i_long":106.843999,"time":4,"station_id":"PSM"},{"station_name":"Pasar Minggu Baru","distance":2380,"i_long":106.851577,"station_id":"PSMB","is_transit":false,"i_lat":-6.263214,"transit":false,"time":2,"line":2},{"distance":824,"time":2,"i_long":106.85449,"transit":false,"i_lat":-6.255332,"line":2,"station_name":"Duren Kalibata","is_transit":false,"station_id":"DRN"},{"time":3,"distance":1546,"station_id":"CW","is_transit":false,"transit":false,"i_long":106.856607,"station_name":"Cawang","line":2,"i_lat":-6.242512},{"transit":false,"station_name":"Tebet","station_id":"TEB","distance":1230,"i_lat":-6.226659,"i_long":106.857948,"line":2,"is_transit":false,"time":2},{"time":4,"station_name":"Manggarai","station_id":"MRI","distance":2610,"i_lat":-6.209883,"line":2,"transit":false,"i_long":106.84912,"is_transit":false},{"station_id":"CKI","line":2,"i_lat":-6.198556,"is_transit":false,"distance":1590,"i_long":106.840169,"transit":false,"station_name":"Cikini","time":4},{"time":3,"is_transit":false,"station_id":"GDD","transit":false,"line":2,"distance":1750,"i_lat":-6.186295,"i_long":106.832183,"station_name":"Gondangdia"},{"station_name":"Juanda","i_lat":-6.166716,"i_long":106.828284,"is_transit":false,"distance":2015,"time":4,"station_id":"JUA","transit":false,"line":2},{"transit":false,"i_lat":-6.160725,"line":2,"station_name":"Sawah Besar","station_id":"SW","time":2,"i_long":106.827103,"distance":1149,"is_transit":false},{"time":2,"distance":906,"transit":false,"i_lat":-6.149769,"is_transit":false,"i_long":106.82482,"station_name":"Manggabesar","station_id":"MGB","line":2},{"distance":1080,"is_transit":false,"time":2,"i_long":106.820901,"line":2,"transit":false,"i_lat":-6.141205,"station_name":"Jayakarta","station_id":"JAY"},{"i_long":106.812439,"line":2,"i_lat":-6.137569,"time":4,"is_transit":true,"station_id":"JAKK","distance":1264,"station_name":"Jakarta Kota","transit":true},{"station_id":"KPB","line":4,"i_lat":-6.132549,"distance":1364,"transit":true,"i_long":106.826365,"is_transit":true,"station_name":"Kampung Bandan","time":3},{"station_id":"AK","transit":false,"time":9,"station_name":"Angke","line":1,"i_lat":-6.144674,"i_long":106.79867,"is_transit":false,"distance":4102},{"station_id":"DU","time":4,"is_transit":false,"transit":false,"station_name":"Duri","distance":1230,"line":1,"i_lat":-6.155215,"i_long":106.800832},{"station_name":"Tanah Abang","is_transit":true,"line":1,"distance":3632,"i_lat":-6.185545,"i_long":106.811091,"transit":true,"station_id":"THB","time":8},{"transit":false,"i_lat":-6.207404,"is_transit":false,"i_long":106.79689,"line":6,"time":6,"distance":3191,"station_name":"Palmerah","station_id":"PLM"},{"transit":false,"is_transit":false,"line":6,"station_id":"KBY","station_name":"Kebayoran","distance":3737,"i_lat":-6.237242,"time":7,"i_long":106.780334},{"time":8,"station_name":"Pondokranji","station_id":"PDJ","is_transit":false,"transit":false,"i_lat":-6.276362,"line":6,"distance":6218,"i_long":106.74273},{"time":3,"distance":2179,"transit":false,"i_lat":-6.288927,"station_name":"Jurangmangu","i_long":106.728916,"station_id":"JMU","is_transit":false,"line":6},{"i_long":106.712277,"i_lat":-6.296963,"is_transit":false,"distance":1994,"station_name":"Sudimara","station_id":"SDM","transit":false,"time":4,"line":6},{"time":6,"i_long":106.675475,"station_name":"Rawa Buntu","i_lat":-6.314823,"line":6,"station_id":"RU","is_transit":false,"distance":4566,"transit":false},{"distance":2413,"is_transit":false,"station_id":"SRP","station_name":"Serpong","transit":false,"i_long":106.66566,"time":4,"i_lat":-6.319871,"line":6},{"station_name":"Cisauk","is_transit":false,"distance":1784,"i_long":106.640411,"station_id":"CSK","time":4,"transit":false,"i_lat":-6.32484,"line":3},{"distance":2519,"transit":false,"i_long":106.617853,"is_transit":false,"station_name":"Cicayur","line":3,"station_id":"CC","time":4,"i_lat":-6.329547},{"distance":5968,"is_transit":false,"transit":false,"i_lat":-6.3441410000000005,"station_id":"PRP","i_long":106.568863,"station_name":"Parung Panjang","line":6,"time":8},{"time":9,"station_name":"Cilejit","line":3,"station_id":"CJT","is_transit":false,"distance":7025,"transit":false,"i_lat":-6.354349,"i_long":106.508482},{"transit":false,"station_name":"Daru","i_long":106.491338,"line":0,"time":6,"station_id":"DAR","i_lat":-6.338021,"distance":2675,"is_transit":false}],[{"station_name":"Univ. Pancasila","i_long":106.834175,"i_lat":-6.339291,"line":2,"time":0,"transit":false,"station_id":"UP","is_transit":false,"distance":0},{"is_transit":false,"i_lat":-6.330363,"time":2,"station_name":"Lenteng Agung","station_id":"LNA","i_long":106.832616,"line":2,"transit":false,"distance":1029},{"time":3,"i_lat":-6.3080680000000005,"i_long":106.838896,"station_name":"Tanjung Barat","is_transit":false,"line":2,"distance":2671,"transit":false,"station_id":"TNT"},{"line":2,"station_name":"Pasar Minggu","transit":false,"distance":2820,"i_lat":-6.2842400000000005,"i_long":106.843999,"time":4,"is_transit":false,"station_id":"PSM"},{"i_long":106.851577,"is_transit":false,"distance":2380,"transit":false,"line":2,"station_name":"Pasar Minggu Baru","i_lat":-6.263214,"station_id":"PSMB","time":2},{"time":2,"station_name":"Duren Kalibata","i_long":106.85449,"transit":false,"distance":824,"i_lat":-6.255332,"line":2,"station_id":"DRN","is_transit":false},{"i_lat":-6.242512,"transit":false,"i_long":106.856607,"time":3,"station_id":"CW","is_transit":false,"distance":1546,"line":2,"station_name":"Cawang"},{"transit":false,"time":2,"station_name":"Tebet","line":2,"distance":1230,"i_lat":-6.226659,"station_id":"TEB","is_transit":false,"i_long":106.857948},{"station_id":"MRI","time":4,"is_transit":true,"distance":2610,"transit":true,"line":2,"i_lat":-6.209883,"i_long":106.84912,"station_name":"Manggarai"},{"transit":false,"station_name":"Matraman","time":2,"i_lat":-6.212485,"station_id":"MTR","i_long":106.858896,"line":1,"is_transit":false,"distance":1275},{"is_transit":true,"station_id":"JNG","i_lat":-6.215091,"transit":true,"distance":1377,"line":1,"i_long":106.86807400000001,"time":8,"station_name":"Jatinegara"},{"i_lat":-6.209188,"time":2,"station_name":"Pondok Jati","is_transit":false,"station_id":"POK","transit":false,"i_long":106.861737,"line":11,"distance":1236},{"distance":1829,"time":2,"station_name":"Kramat","i_lat":-6.193792,"transit":false,"line":11,"i_long":106.855437,"station_id":"KMT","is_transit":false},{"i_long":106.850107,"station_id":"GST","station_name":"Gang Sentiong","is_transit":false,"distance":973,"transit":false,"i_lat":-6.185975,"line":11,"time":1},{"time":8,"distance":1567,"station_name":"Pasar Senen","is_transit":false,"i_long":106.84368,"line":11,"transit":false,"station_id":"PSE","i_lat":-6.174784},{"time":4,"i_lat":-6.161728,"is_transit":false,"transit":false,"station_id":"KMO","station_name":"Kemayoran","distance":1436,"i_long":106.839204,"line":11},{"line":11,"station_name":"Rajawali","is_transit":false,"transit":false,"distance":1901,"i_long":106.836569,"station_id":"RJW","time":5,"i_lat":-6.14505},{"is_transit":true,"transit":true,"time":3,"i_lat":-6.132549,"line":4,"station_name":"Kampung Bandan","distance":1444,"i_long":106.826365,"station_id":"KPB"},{"distance":4102,"i_long":106.79867,"is_transit":false,"station_id":"AK","line":1,"time":9,"i_lat":-6.144674,"transit":false,"station_name":"Angke"},{"is_transit":false,"transit":false,"distance":1230,"time":4,"i_lat":-6.155215,"station_name":"Duri","i_long":106.800832,"line":1,"station_id":"DU"},{"is_transit":true,"i_long":106.811091,"distance":3632,"transit":true,"time":8,"station_name":"Tanah Abang","i_lat":-6.185545,"station_id":"THB","line":1},{"station_id":"PLM","distance":3191,"i_long":106.79689,"transit":false,"line":6,"is_transit":false,"i_lat":-6.207404,"time":6,"station_name":"Palmerah"},{"station_name":"Kebayoran","i_lat":-6.237242,"i_long":106.780334,"is_transit":false,"distance":3737,"time":7,"transit":false,"station_id":"KBY","line":6},{"station_id":"PDJ","distance":6218,"time":8,"is_transit":false,"i_lat":-6.276362,"station_name":"Pondokranji","line":6,"i_long":106.74273,"transit":false},{"i_lat":-6.288927,"line":6,"station_id":"JMU","distance":2179,"time":3,"station_name":"Jurangmangu","transit":false,"is_transit":false,"i_long":106.728916},{"station_id":"SDM","line":6,"transit":false,"i_lat":-6.296963,"i_long":106.712277,"is_transit":false,"distance":1994,"time":4,"station_name":"Sudimara"},{"distance":4566,"line":6,"transit":false,"i_long":106.675475,"i_lat":-6.314823,"is_transit":false,"station_name":"Rawa Buntu","station_id":"RU","time":6},{"is_transit":false,"i_long":106.66566,"time":4,"distance":2413,"station_id":"SRP","transit":false,"line":6,"i_lat":-6.319871,"station_name":"Serpong"},{"line":3,"i_long":106.640411,"i_lat":-6.32484,"transit":false,"time":4,"distance":1784,"station_name":"Cisauk","is_transit":false,"station_id":"CSK"},{"distance":2519,"i_long":106.617853,"time":4,"station_id":"CC","line":3,"station_name":"Cicayur","is_transit":false,"transit":false,"i_lat":-6.329547},{"line":6,"distance":5968,"i_long":106.568863,"is_transit":false,"i_lat":-6.3441410000000005,"station_id":"PRP","station_name":"Parung Panjang","transit":false,"time":8},{"station_id":"CJT","station_name":"Cilejit","line":3,"transit":false,"i_lat":-6.354349,"time":9,"i_long":106.508482,"is_transit":false,"distance":7025},{"distance":2675,"line":0,"station_id":"DAR","time":6,"i_lat":-6.338021,"i_long":106.491338,"station_name":"Daru","transit":false,"is_transit":false}]]}