{"data":[[{"station_name":"Univ. Pancasila","i_lat":-6.339291,"distance":0,"transit":false,"line":2,"i_long":106.834175,"station_id":"UP","time":0,"is_transit":false},{"i_long":106.832616,"line":2,"time":2,"station_id":"LNA","station_name":"Lenteng Agung","distance":1029,"i_lat":-6.330363,"transit":false,"is_transit":false},{"time":3,"station_name":"Tanjung Barat","transit":false,"i_long":106.838896,"station_id":"TNT","line":2,"is_transit":false,"distance":2671,"i_lat":-6.3080680000000005},{"i_lat":-6.2842400000000005,"station_id":"PSM","distance":2820,"station_name":"Pasar Minggu","i_long":106.843999,"transit":false,"line":2,"time":4,"is_transit":false},{"i_lat":-6.263214,"time":2,"station_id":"PSMB","line":2,"is_transit":false,"i_long":106.851577,"station_name":"Pasar Minggu Baru","transit":false,"distance":2380},{"i_long":106.85449,"line":2,"station_id":"DRN","time":2,"transit":false,"distance":824,"station_name":"Duren Kalibata","is_transit":false,"i_lat":-6.255332},{"i_long":106.856607,"time":3,"transit":false,"station_id":"CW","is_transit":false,"line":2,"distance":1546,"i_lat":-6.242512,"station_name":"Cawang"},{"line":2,"station_id":"TEB","station_name":"Tebet","transit":false,"time":2,"distance":1230,"is_transit":false,"i_long":106.857948,"i_lat":-6.226659},{"time":4,"i_lat":-6.209883,"distance":2610,"station_id":"MRI","station_name":"Manggarai","transit":true,"is_transit":true,"line":2,"i_long":106.84912},{"time":4,"i_lat":-6.202263,"line":1,"transit":false,"i_long":106.822649,"distance":3186,"station_name":"Sudirman","station_id":"SUD","is_transit":false},{"is_transit":false,"station_name":"Sudirman Baru","time":1,"transit":false,"station_id":"SUDB","i_lat":-6.201433,"distance":280,"line":1,"i_long":106.819881},{"station_id":"KAT","time":1,"station_name":"Karet","i_lat":-6.20132,"transit":false,"distance":471,"i_long":106.816351,"is_transit":false,"line":1},{"i_long":106.811091,"station_name":"Tanah Abang","is_transit":true,"distance":2029,"time":5,"transit":true,"station_id":"THB","i_lat":-6.185545,"line":1},{"i_long":106.79689,"transit":false,"time":6,"line":6,"i_lat":-6.207404,"station_name":"Palmerah","station_id":"PLM","is_transit":false,"distance":3191},{"i_long":106.780334,"station_id":"KBY","is_transit":false,"line":6,"distance":3737,"time":7,"i_lat":-6.237242,"transit":false,"station_name":"Kebayoran"},{"i_lat":-6.276362,"station_name":"Pondokranji","distance":6218,"station_id":"PDJ","is_transit":false,"transit":false,"time":8,"i_long":106.74273,"line":6},{"is_transit":false,"time":3,"i_lat":-6.288927,"line":6,"i_long":106.728916,"station_id":"JMU","transit":false,"distance":2179,"station_name":"Jurangmangu"},{"is_transit":false,"station_id":"SDM","transit":false,"i_lat":-6.296963,"time":4,"line":6,"i_long":106.712277,"station_name":"Sudimara","distance":1994},{"i_long":106.675475,"station_name":"Rawa Buntu","line":6,"station_id":"RU","transit":false,"time":6,"distance":4566,"is_transit":false,"i_lat":-6.314823},{"i_long":106.66566,"is_transit":false,"i_lat":-6.319871,"line":6,"station_name":"Serpong","time":4,"distance":2413,"transit":false,"station_id":"SRP"},{"line":3,"is_transit":false,"time":4,"distance":1784,"transit":false,"station_name":"Cisauk","i_lat":-6.32484,"station_id":"CSK","i_long":106.640411},{"is_transit":false,"station_name":"Cicayur","distance":2519,"i_lat":-6.329547,"i_long":106.617853,"time":4,"line":3,"station_id":"CC","transit":false},{"i_long":106.568863,"station_name":"Parung Panjang","line":6,"i_lat":-6.3441410000000005,"is_transit":false,"station_id":"PRP","time":8,"transit":false,"distance":5968},{"i_long":106.508482,"transit":false,"station_name":"Cilejit","is_transit":false,"line":3,"distance":7025,"i_lat":-6.354349,"station_id":"CJT","time":9},{"i_long":106.491338,"distance":2675,"time":6,"station_name":"Daru","station_id":"DAR","i_lat":-6.338021,"transit":false,"line":0,"is_transit":false}],[{"station_name":"Univ. Pancasila","i_long":106.834175,"transit":false,"distance":0,"i_lat":-6.339291,"is_transit":false,"time":0,"line":2,"station_id":"UP"},{"line":2,"distance":1029,"station_id":"LNA","is_transit":false,"i_lat":-6.330363,"station_name":"Lenteng Agung","transit":false,"time":2,"i_long":106.832616},{"station_name":"Tanjung Barat","is_transit":false,"i_lat":-6.3080680000000005,"i_long":106.838896,"time":3,"distance":2671,"transit":false,"line":2,"station_id":"TNT"},{"distance":2820,"time":4,"is_transit":false,"station_id":"PSM","station_name":"Pasar Minggu","i_long":106.843999,"transit":false,"line":2,"i_lat":-6.2842400000000005},{"line":2,"station_id":"PSMB","is_transit":false,"i_lat":-6.263214,"i_long":106.851577,"time":2,"transit":false,"station_name":"Pasar Minggu Baru","distance":2380},{"line":2,"time":2,"i_long":106.85449,"distance":824,"is_transit":false,"i_lat":-6.255332,"station_name":"Duren Kalibata","station_id":"DRN","transit":false},{"station_id":"CW","time":3,"i_lat":-6.242512,"line":2,"transit":false,"i_long":106.856607,"distance":1546,"station_name":"Cawang","is_transit":false},{"distance":1230,"time":2,"station_id":"TEB","transit":false,"station_name":"Tebet","i_lat":-6.226659,"i_long":106.857948,"line":2,"is_transit":false},{"time":4,"transit":false,"is_transit":false,"station_name":"Manggarai","station_id":"MRI","i_lat":-6.209883,"distance":2610,"i_long":106.84912,"line":2},{"station_name":"Cikini","station_id":"CKI","i_long":106.840169,"distance":1590,"i_lat":-6.198556,"time":4,"line":2,"is_transit":false,"transit":false},{"line":2,"i_long":106.832183,"i_lat":-6.186295,"station_name":"Gondangdia","distance":1750,"is_transit":false,"time":3,"transit":false,"station_id":"GDD"},{"i_long":106.828284,"i_lat":-6.166716,"is_transit":false,"line":2,"time":4,"distance":2015,"station_id":"JUA","transit":false,"station_name":"Juanda"},{"station_name":"Sawah Besar","distance":1149,"station_id":"SW","is_transit":false,"line":2,"time":2,"i_long":106.827103,"i_lat":-6.160725,"transit":false},{"transit":false,"station_id":"MGB","i_long":106.82482,"distance":906,"time":2,"is_transit":false,"i_lat":-6.149769,"station_name":"Manggabesar","line":2},{"is_transit":false,"station_id":"JAY","i_long":106.820901,"time":2,"distance":1080,"transit":false,"i_lat":-6.141205,"station_name":"Jayakarta","line":2},{"time":4,"i_long":106.812439,"station_name":"Jakarta Kota","i_lat":-6.137569,"transit":true,"distance":1264,"station_id":"JAKK","line":2,"is_transit":true},{"i_lat":-6.132549,"transit":true,"i_long":106.826365,"station_name":"Kampung Bandan","distance":1364,"is_transit":true,"line":4,"time":3,"station_id":"KPB"},{"transit":false,"station_name":"Angke","i_lat":-6.144674,"is_transit":false,"distance":4102,"line":1,"station_id":"AK","i_long":106.79867,"time":9},{"line":1,"transit":false,"time":4,"i_long":106.800832,"i_lat":-6.155215,"is_transit":false,"station_name":"Duri","distance":1230,"station_id":"DU"},{"station_id":"THB","transit":true,"time":8,"i_lat":-6.185545,"i_long":106.811091,"is_transit":true,"distance":3632,"station_name":"Tanah Abang","line":1},{"time":6,"is_transit":false,"i_lat":-6.207404,"i_long":106.79689,"line":6,"transit":false,"station_name":"Palmerah","distance":3191,"station_id":"PLM"},{"distance":3737,"station_id":"KBY","i_long":106.780334,"station_name":"Kebayoran","is_transit":false,"line":6,"transit":false,"time":7,"i_lat":-6.237242},{"is_transit":false,"transit":false,"distance":6218,"time":8,"station_name":"Pondokranji","i_long":106.74273,"i_lat":-6.276362,"line":6,"station_id":"PDJ"},{"transit":false,"time":3,"distance":2179,"station_id":"JMU","station_name":"Jurangmangu","i_lat":-6.288927,"is_transit":false,"i_long":106.728916,"line":6},{"i_lat":-6.296963,"i_long":106.712277,"transit":false,"station_name":"Sudimara","time":4,"is_transit":false,"distance":1994,"line":6,"station_id":"SDM"},{"i_long":106.675475,"line":6,"transit":false,"station_id":"RU","time":6,"is_transit":false,"i_lat":-6.314823,"distance":4566,"station_name":"Rawa Buntu"},{"station_name":"Serpong","is_transit":false,"i_lat":-6.319871,"distance":2413,"time":4,"transit":false,"station_id":"SRP","line":6,"i_long":106.66566},{"station_id":"CSK","transit":false,"distance":1784,"i_long":106.640411,"station_name":"Cisauk","line":3,"i_lat":-6.32484,"time":4,"is_transit":false},{"transit":false,"line":3,"station_id":"CC","station_name":"Cicayur","i_long":106.617853,"time":4,"distance":2519,"is_transit":false,"i_lat":-6.329547},{"i_lat":-6.3441410000000005,"distance":5968,"station_id":"PRP","i_long":106.568863,"time":8,"is_transit":false,"line":6,"transit":false,"station_name":"Parung Panjang"},{"time":9,"transit":false,"line":3,"is_transit":false,"station_name":"Cilejit","distance":7025,"station_id":"CJT","i_lat":-6.354349,"i_long":106.508482},{"station_id":"DAR","time":6,"is_transit":false,"transit":false,"station_name":"Daru","distance":2675,"i_lat":-6.338021,"i_long":106.491338,"line":0}],[{"time":0,"i_lat":-6.339291,"transit":false,"station_name":"Univ. Pancasila","distance":0,"i_long":106.834175,"is_transit":false,"line":2,"station_id":"UP"},{"station_name":"Lenteng Agung","i_long":106.832616,"time":2,"distance":1029,"i_lat":-6.330363,"line":2,"transit":false,"is_transit":false,"station_id":"LNA"},{"station_name":"Tanjung Barat","i_lat":-6.3080680000000005,"i_long":106.838896,"line":2,"is_transit":false,"transit":false,"distance":2671,"time":3,"station_id":"TNT"},{"transit":false,"i_lat":-6.2842400000000005,"is_transit":false,"station_id":"PSM","line":2,"station_name":"Pasar Minggu","time":4,"distance":2820,"i_long":106.843999},{"time":2,"is_transit":false,"i_long":106.851577,"distance":2380,"station_id":"PSMB","transit":false,"i_lat":-6.263214,"line":2,"station_name":"Pasar Minggu Baru"},{"line":2,"time":2,"station_name":"Duren Kalibata","transit":false,"i_lat":-6.255332,"distance":824,"i_long":106.85449,"station_id":"DRN","is_transit":false},{"time":3,"i_long":106.856607,"station_name":"Cawang","is_transit":false,"i_lat":-6.242512,"distance":1546,"station_id":"CW","line":2,"transit":false},{"i_long":106.857948,"time":2,"transit":false,"station_name":"Tebet","line":2,"station_id":"TEB","distance":1230,"is_transit":false,"i_lat":-6.226659},{"i_long":106.84912,"time":4,"i_lat":-6.209883,"station_id":"MRI","transit":true,"is_transit":true,"station_name":"Manggarai","line":2,"distance":2610},{"i_lat":-6.212485,"is_transit":false,"transit":false,"distance":1275,"line":1,"time":2,"i_long":106.858896,"station_name":"Matraman","station_id":"MTR"},{"is_transit":true,"i_long":106.86807400000001,"line":1,"station_name":"Jatinegara","time":8,"station_id":"JNG","i_lat":-6.215091,"transit":true,"distance":1377},{"station_name":"Pondok Jati","transit":false,"is_transit":false,"distance":1236,"station_id":"POK","i_lat":-6.209188,"line":11,"i_long":106.861737,"time":2},{"transit":false,"line":11,"station_name":"Kramat","is_transit":false,"i_lat":-6.193792,"station_id":"KMT","time":2,"distance":1829,"i_long":106.855437},{"transit":false,"i_long":106.850107,"time":1,"is_transit":false,"distance":973,"line":11,"station_id":"GST","station_name":"Gang Sentiong","i_lat":-6.185975},{"transit":false,"distance":1567,"i_long":106.84368,"line":11,"station_name":"Pasar Senen","station_id":"PSE","i_lat":-6.174784,"time":8,"is_transit":false},{"distance":1436,"i_lat":-6.161728,"is_transit":false,"station_id":"KMO","i_long":106.839204,"line":11,"time":4,"transit":false,"station_name":"Kemayoran"},{"i_lat":-6.14505,"line":11,"station_id":"RJW","time":5,"is_transit":false,"distance":1901,"i_long":106.836569,"station_name":"Rajawali","transit":false},{"time":3,"station_name":"Kampung Bandan","transit":true,"distance":1444,"i_long":106.826365,"i_lat":-6.132549,"line":4,"station_id":"KPB","is_transit":true},{"time":9,"i_lat":-6.144674,"i_long":106.79867,"transit":false,"is_transit":false,"station_id":"AK","distance":4102,"station_name":"Angke","line":1},{"distance":1230,"i_long":106.800832,"time":4,"is_transit":false,"line":1,"station_id":"DU","transit":false,"station_name":"Duri","i_lat":-6.155215},{"station_name":"Tanah Abang","station_id":"THB","transit":true,"i_lat":-6.185545,"time":8,"line":1,"distance":3632,"is_transit":true,"i_long":106.811091},{"transit":false,"distance":3191,"time":6,"station_name":"Palmerah","station_id":"PLM","i_lat":-6.207404,"i_long":106.79689,"is_transit":false,"line":6},{"transit":false,"i_long":106.780334,"is_transit":false,"line":6,"i_lat":-6.237242,"station_id":"KBY","time":7,"station_name":"Kebayoran","distance":3737},{"line":6,"station_id":"PDJ","distance":6218,"transit":false,"station_name":"Pondokranji","i_lat":-6.276362,"is_transit":false,"i_long":106.74273,"time":8},{"time":3,"line":6,"station_name":"Jurangmangu","distance":2179,"i_long":106.728916,"station_id":"JMU","transit":false,"is_transit":false,"i_lat":-6.288927},{"station_id":"SDM","i_long":106.712277,"line":6,"time":4,"station_name":"Sudimara","distance":1994,"i_lat":-6.296963,"transit":false,"is_transit":false},{"time":6,"station_id":"RU","is_transit":false,"station_name":"Rawa Buntu","i_long":106.675475,"i_lat":-6.314823,"line":6,"transit":false,"distance":4566},{"i_lat":-6.319871,"distance":2413,"time":4,"line":6,"station_name":"Serpong","i_long":106.66566,"transit":false,"station_id":"SRP","is_transit":false},{"station_name":"Cisauk","i_lat":-6.32484,"time":4,"i_long":106.640411,"transit":false,"distance":1784,"line":3,"station_id":"CSK","is_transit":false},{"is_transit":false,"time":4,"transit":false,"distance":2519,"line":3,"i_lat":-6.329547,"station_id":"CC","station_name":"Cicayur","i_long":106.617853},{"station_id":"PRP","station_name":"Parung Panjang","line":6,"is_transit":false,"distance":5968,"transit":false,"i_lat":-6.3441410000000005,"time":8,"i_long":106.568863},{"time":9,"i_lat":-6.354349,"station_name":"Cilejit","is_transit":false,"i_long":106.508482,"transit":false,"station_id":"CJT","distance":7025,"line":3},{"time":6,"is_transit":false,"station_name":"Daru","station_id":"DAR","distance":2675,"i_lat":-6.338021,"i_long":106.491338,"line":0,"transit":false}]]}