{"data":[[{"station_name":"Univ. Pancasila","distance":0,"station_id":"UP","time":0,"transit":false,"line":2,"i_lat":-6.339291,"i_long":106.834175,"is_transit":false},{"station_name":"Lenteng Agung","time":2,"distance":1029,"is_transit":false,"transit":false,"i_lat":-6.330363,"station_id":"LNA","i_long":106.832616,"line":2},{"is_transit":false,"transit":false,"i_lat":-6.3080680000000005,"station_id":"TNT","time":3,"distance":2671,"i_long":106.838896,"line":2,"station_name":"Tanjung Barat"},{"i_long":106.843999,"line":2,"station_id":"PSM","distance":2820,"time":4,"i_lat":-6.2842400000000005,"transit":false,"station_name":"Pasar Minggu","is_transit":false},{"station_name":"Pasar Minggu Baru","transit":false,"i_lat":-6.263214,"is_transit":false,"line":2,"distance":2380,"i_long":106.851577,"time":2,"station_id":"PSMB"},{"distance":824,"i_lat":-6.255332,"is_transit":false,"time":2,"i_long":106.85449,"transit":false,"station_id":"DRN","station_name":"Duren Kalibata","line":0},{"line":0,"distance":1546,"station_name":"Cawang","station_id":"CW","i_long":106.856607,"i_lat":-6.242512,"transit":false,"is_transit":false,"time":3},{"i_long":106.857948,"i_lat":-6.226659,"distance":1230,"transit":false,"station_id":"TEB","is_transit":false,"time":2,"line":2,"station_name":"Tebet"},{"i_long":106.84912,"distance":2610,"time":4,"line":0,"station_name":"Manggarai","i_lat":-6.209883,"is_transit":true,"transit":true,"station_id":"MRI"},{"i_long":106.822649,"time":4,"line":1,"distance":3186,"station_name":"Sudirman","is_transit":false,"transit":false,"i_lat":-6.202263,"station_id":"SUD"},{"distance":280,"time":1,"station_name":"Sudirman Baru","i_long":106.819881,"line":1,"i_lat":-6.201433,"station_id":"SUDB","is_transit":false,"transit":false},{"i_lat":-6.20132,"is_transit":false,"distance":471,"i_long":106.816351,"station_id":"KAT","transit":false,"station_name":"Karet","line":1,"time":1},{"i_long":106.811091,"station_id":"THB","is_transit":true,"time":5,"distance":2029,"transit":true,"station_name":"Tanah Abang","line":1,"i_lat":-6.185545},{"station_id":"PLM","transit":false,"line":6,"distance":3191,"i_lat":-6.207404,"is_transit":false,"time":6,"i_long":106.79689,"station_name":"Palmerah"},{"is_transit":false,"time":7,"i_lat":-6.237242,"station_id":"KBY","station_name":"Kebayoran","transit":false,"distance":3737,"i_long":106.780334,"line":6},{"i_long":106.74273,"distance":6218,"station_name":"Pondokranji","time":8,"station_id":"PDJ","transit":false,"is_transit":false,"line":6,"i_lat":-6.276362},{"i_long":106.728916,"line":6,"is_transit":false,"station_id":"JMU","time":3,"station_name":"Jurangmangu","i_lat":-6.288927,"transit":false,"distance":2179},{"station_id":"SDM","distance":1994,"station_name":"Sudimara","is_transit":false,"transit":false,"time":4,"i_lat":-6.296963,"i_long":106.712277,"line":6},{"time":6,"line":6,"transit":false,"station_name":"Rawa Buntu","is_transit":false,"i_lat":-6.314823,"station_id":"RU","i_long":106.675475,"distance":4566},{"distance":2413,"i_lat":-6.319871,"time":4,"line":6,"station_id":"SRP","i_long":106.66566,"transit":false,"is_transit":false,"station_name":"Serpong"},{"line":0,"station_id":"CSK","i_lat":-6.32484,"time":4,"is_transit":false,"station_name":"Cisauk","transit":false,"i_long":106.640411,"distance":1784},{"time":4,"is_transit":false,"transit":false,"distance":2519,"i_long":106.617853,"line":0,"i_lat":-6.329547,"station_name":"Cicayur","station_id":"CC"},{"station_name":"Parung Panjang","station_id":"PRP","transit":false,"i_long":106.568863,"line":6,"is_transit":false,"time":8,"distance":5968,"i_lat":-6.3441410000000005},{"station_id":"CJT","transit":false,"time":9,"is_transit":false,"distance":7025,"i_lat":-6.354349,"station_name":"Cilejit","i_long":106.508482,"line":0},{"time":6,"distance":2675,"station_id":"DAR","transit":false,"line":0,"i_long":106.491338,"is_transit":false,"station_name":"Daru","i_lat":-6.338021}],[{"station_id":"UP","station_name":"Univ. Pancasila","distance":0,"line":2,"transit":false,"time":0,"i_long":106.834175,"is_transit":false,"i_lat":-6.339291},{"distance":1029,"time":2,"station_id":"LNA","station_name":"Lenteng Agung","transit":false,"i_lat":-6.330363,"line":2,"i_long":106.832616,"is_transit":false},{"i_lat":-6.3080680000000005,"station_id":"TNT","i_long":106.838896,"transit":false,"station_name":"Tanjung Barat","is_transit":false,"line":2,"time":3,"distance":2671},{"transit":false,"i_long":106.843999,"line":2,"station_id":"PSM","is_transit":false,"time":4,"i_lat":-6.2842400000000005,"station_name":"Pasar Minggu","distance":2820},{"i_long":106.851577,"station_id":"PSMB","distance":2380,"transit":false,"time":2,"line":2,"i_lat":-6.263214,"station_name":"Pasar Minggu Baru","is_transit":false},{"station_name":"Duren Kalibata","station_id":"DRN","is_transit":false,"time":2,"distance":824,"i_lat":-6.255332,"line":0,"transit":false,"i_long":106.85449},{"transit":false,"i_long":106.856607,"line":0,"is_transit":false,"i_lat":-6.242512,"station_id":"CW","time":3,"station_name":"Cawang","distance":1546},{"time":2,"i_long":106.857948,"station_id":"TEB","is_transit":false,"i_lat":-6.226659,"line":2,"transit":false,"distance":1230,"station_name":"Tebet"},{"i_lat":-6.209883,"line":0,"station_name":"Manggarai","distance":2610,"transit":true,"is_transit":true,"i_long":106.84912,"station_id":"MRI","time":4},{"station_id":"CKI","is_transit":false,"distance":1590,"time":4,"i_lat":-6.198556,"line":0,"i_long":106.840169,"station_name":"Cikini","transit":false},{"i_long":106.832183,"station_id":"GDD","transit":false,"line":2,"i_lat":-6.186295,"distance":1750,"station_name":"Gondangdia","time":3,"is_transit":false},{"station_name":"Juanda","is_transit":false,"i_long":106.828284,"time":4,"station_id":"JUA","distance":2015,"line":2,"transit":false,"i_lat":-6.166716},{"distance":1149,"station_id":"SW","time":2,"i_long":106.827103,"transit":false,"station_name":"Sawah Besar","is_transit":false,"line":2,"i_lat":-6.160725},{"transit":false,"i_lat":-6.149769,"line":2,"station_name":"Manggabesar","is_transit":false,"distance":906,"i_long":106.82482,"station_id":"MGB","time":2},{"is_transit":false,"distance":1080,"i_lat":-6.141205,"line":7,"time":2,"transit":false,"i_long":106.820901,"station_id":"JAY","station_name":"Jayakarta"},{"station_id":"JAKK","transit":true,"line":0,"distance":1264,"i_long":106.812439,"is_transit":true,"time":4,"i_lat":-6.137569,"station_name":"Jakarta Kota"},{"transit":false,"i_long":106.826365,"line":0,"station_id":"KPB","is_transit":true,"time":3,"i_lat":-6.132549,"distance":1364,"station_name":"Kampung Bandan"},{"transit":false,"station_name":"Angke","time":9,"distance":4102,"line":0,"i_long":106.79867,"i_lat":-6.144674,"station_id":"AK","is_transit":false},{"distance":1230,"transit":true,"time":4,"station_name":"Duri","i_lat":-6.155215,"station_id":"DU","i_long":106.800832,"is_transit":true,"line":1},{"time":8,"line":1,"i_lat":-6.185545,"distance":3632,"i_long":106.811091,"is_transit":true,"station_name":"Tanah Abang","station_id":"THB","transit":true},{"i_long":106.79689,"is_transit":false,"distance":3191,"station_id":"PLM","line":6,"time":6,"station_name":"Palmerah","i_lat":-6.207404,"transit":false},{"is_transit":false,"distance":3737,"i_lat":-6.237242,"i_long":106.780334,"line":6,"transit":false,"station_id":"KBY","time":7,"station_name":"Kebayoran"},{"i_long":106.74273,"station_name":"Pondokranji","is_transit":false,"i_lat":-6.276362,"distance":6218,"station_id":"PDJ","transit":false,"line":6,"time":8},{"i_long":106.728916,"line":6,"distance":2179,"station_name":"Jurangmangu","is_transit":false,"transit":false,"i_lat":-6.288927,"time":3,"station_id":"JMU"},{"transit":false,"station_name":"Sudimara","line":6,"i_long":106.712277,"time":4,"is_transit":false,"i_lat":-6.296963,"station_id":"SDM","distance":1994},{"station_name":"Rawa Buntu","time":6,"distance":4566,"i_lat":-6.314823,"transit":false,"line":6,"i_long":106.675475,"station_id":"RU","is_transit":false},{"distance":2413,"i_lat":-6.319871,"i_long":106.66566,"station_id":"SRP","line":6,"transit":false,"station_name":"Serpong","is_transit":false,"time":4},{"distance":1784,"is_transit":false,"transit":false,"station_name":"Cisauk","time":4,"i_lat":-6.32484,"station_id":"CSK","i_long":106.640411,"line":0},{"i_long":106.617853,"distance":2519,"line":0,"station_name":"Cicayur","station_id":"CC","i_lat":-6.329547,"time":4,"transit":false,"is_transit":false},{"distance":5968,"i_lat":-6.3441410000000005,"transit":false,"i_long":106.568863,"time":8,"is_transit":false,"line":6,"station_name":"Parung Panjang","station_id":"PRP"},{"time":9,"station_id":"CJT","distance":7025,"transit":false,"is_transit":false,"i_long":106.508482,"line":0,"i_lat":-6.354349,"station_name":"Cilejit"},{"transit":false,"time":6,"distance":2675,"line":0,"station_id":"DAR","i_long":106.491338,"i_lat":-6.338021,"station_name":"Daru","is_transit":false}],[{"time":0,"station_id":"UP","station_name":"Univ. Pancasila","transit":false,"line":2,"i_lat":-6.339291,"is_transit":false,"distance":0,"i_long":106.834175},{"is_transit":false,"time":2,"distance":1029,"station_name":"Lenteng Agung","i_lat":-6.330363,"i_long":106.832616,"line":2,"station_id":"LNA","transit":false},{"i_lat":-6.3080680000000005,"is_transit":false,"station_name":"Tanjung Barat","station_id":"TNT","distance":2671,"transit":false,"time":3,"i_long":106.838896,"line":2},{"is_transit":false,"station_name":"Pasar Minggu","time":4,"distance":2820,"line":2,"transit":false,"i_lat":-6.2842400000000005,"station_id":"PSM","i_long":106.843999},{"distance":2380,"is_transit":false,"time":2,"station_name":"Pasar Minggu Baru","i_lat":-6.263214,"i_long":106.851577,"transit":false,"line":2,"station_id":"PSMB"},{"transit":false,"time":2,"station_id":"DRN","is_transit":false,"i_long":106.85449,"distance":824,"i_lat":-6.255332,"line":0,"station_name":"Duren Kalibata"},{"is_transit":false,"line":0,"station_id":"CW","i_long":106.856607,"station_name":"Cawang","time":3,"distance":1546,"transit":false,"i_lat":-6.242512},{"distance":1230,"station_id":"TEB","is_transit":false,"time":2,"transit":false,"i_lat":-6.226659,"station_name":"Tebet","i_long":106.857948,"line":2},{"station_name":"Manggarai","transit":true,"line":0,"is_transit":true,"time":4,"distance":2610,"i_lat":-6.209883,"i_long":106.84912,"station_id":"MRI"},{"transit":false,"i_long":106.858896,"distance":1275,"time":2,"i_lat":-6.212485,"is_transit":false,"line":1,"station_name":"Matraman","station_id":"MTR"},{"station_name":"Jatinegara","i_lat":-6.215091,"i_long":106.86807400000001,"is_transit":true,"transit":true,"line":0,"time":8,"station_id":"JNG","distance":1377},{"time":2,"i_lat":-6.209188,"line":11,"transit":false,"i_long":106.861737,"is_transit":false,"distance":1236,"station_id":"POK","station_name":"Pondok Jati"},{"line":11,"station_name":"Kramat","transit":false,"i_long":106.855437,"station_id":"KMT","is_transit":false,"time":2,"distance":1829,"i_lat":-6.193792},{"time":1,"is_transit":false,"station_name":"Gang Sentiong","transit":false,"i_lat":-6.185975,"station_id":"GST","distance":973,"i_long":106.850107,"line":11},{"station_name":"Pasar Senen","is_transit":false,"i_lat":-6.174784,"i_long":106.84368,"time":8,"transit":false,"distance":1567,"line":11,"station_id":"PSE"},{"distance":1436,"i_lat":-6.161728,"station_id":"KMO","time":4,"station_name":"Kemayoran","is_transit":false,"i_long":106.839204,"line":11,"transit":false},{"station_id":"RJW","line":11,"i_long":106.836569,"time":5,"station_name":"Rajawali","is_transit":false,"distance":1901,"i_lat":-6.14505,"transit":false},{"is_transit":true,"i_lat":-6.132549,"i_long":106.826365,"time":3,"transit":true,"distance":1444,"station_id":"KPB","station_name":"Kampung Bandan","line":0},{"distance":4102,"station_name":"Angke","line":0,"transit":false,"i_lat":-6.144674,"station_id":"AK","time":9,"i_long":106.79867,"is_transit":false},{"line":1,"transit":true,"i_lat":-6.155215,"distance":1230,"station_name":"Duri","station_id":"DU","is_transit":true,"time":4,"i_long":106.800832},{"station_name":"Tanah Abang","i_long":106.811091,"station_id":"THB","transit":true,"is_transit":true,"i_lat":-6.185545,"line":1,"time":8,"distance":3632},{"time":6,"is_transit":false,"station_id":"PLM","transit":false,"i_long":106.79689,"station_name":"Palmerah","distance":3191,"line":6,"i_lat":-6.207404},{"i_long":106.780334,"station_id":"KBY","line":6,"time":7,"transit":false,"i_lat":-6.237242,"distance":3737,"station_name":"Kebayoran","is_transit":false},{"i_lat":-6.276362,"i_long":106.74273,"transit":false,"is_transit":false,"time":8,"station_id":"PDJ","distance":6218,"station_name":"Pondokranji","line":6},{"line":6,"station_name":"Jurangmangu","distance":2179,"i_long":106.728916,"i_lat":-6.288927,"is_transit":false,"station_id":"JMU","time":3,"transit":false},{"station_id":"SDM","station_name":"Sudimara","distance":1994,"is_transit":false,"i_lat":-6.296963,"line":6,"time":4,"i_long":106.712277,"transit":false},{"transit":false,"i_long":106.675475,"time":6,"i_lat":-6.314823,"station_name":"Rawa Buntu","station_id":"RU","line":6,"is_transit":false,"distance":4566},{"time":4,"line":6,"transit":false,"station_name":"Serpong","distance":2413,"station_id":"SRP","is_transit":false,"i_lat":-6.319871,"i_long":106.66566},{"distance":1784,"station_id":"CSK","i_lat":-6.32484,"station_name":"Cisauk","time":4,"i_long":106.640411,"line":0,"is_transit":false,"transit":false},{"time":4,"line":0,"i_long":106.617853,"station_id":"CC","station_name":"Cicayur","is_transit":false,"transit":false,"i_lat":-6.329547,"distance":2519},{"line":6,"distance":5968,"station_name":"Parung Panjang","is_transit":false,"time":8,"i_lat":-6.3441410000000005,"transit":false,"i_long":106.568863,"station_id":"PRP"},{"distance":7025,"i_long":106.508482,"line":0,"station_id":"CJT","is_transit":false,"i_lat":-6.354349,"time":9,"transit":false,"station_name":"Cilejit"},{"time":6,"station_name":"Daru","is_transit":false,"distance":2675,"i_lat":-6.338021,"line":0,"station_id":"DAR","transit":false,"i_long":106.491338}]]}