{"data":[[{"station_name":"Univ. Pancasila","i_lat":-6.339291,"is_transit":false,"line":2,"transit":false,"station_id":"UP","time":0,"i_long":106.834175,"distance":0},{"is_transit":false,"station_id":"LNA","line":2,"distance":1029,"i_lat":-6.330363,"i_long":106.832616,"transit":false,"time":2,"station_name":"Lenteng Agung"},{"station_id":"TNT","distance":2671,"i_long":106.838896,"transit":false,"is_transit":false,"time":3,"i_lat":-6.3080680000000005,"line":2,"station_name":"Tanjung Barat"},{"i_long":106.843999,"transit":false,"distance":2820,"station_id":"PSM","station_name":"Pasar Minggu","time":4,"line":2,"i_lat":-6.2842400000000005,"is_transit":false},{"station_id":"PSMB","i_long":106.851577,"station_name":"Pasar Minggu Baru","is_transit":false,"transit":false,"time":2,"line":2,"distance":2380,"i_lat":-6.263214},{"distance":824,"station_id":"DRN","transit":false,"station_name":"Duren Kalibata","i_lat":-6.255332,"is_transit":false,"line":2,"time":2,"i_long":106.85449},{"line":2,"time":3,"transit":false,"station_name":"Cawang","i_lat":-6.242512,"distance":1546,"station_id":"CW","i_long":106.856607,"is_transit":false},{"i_long":106.857948,"station_name":"Tebet","distance":1230,"transit":false,"is_transit":false,"time":2,"i_lat":-6.226659,"line":2,"station_id":"TEB"},{"station_name":"Manggarai","i_long":106.84912,"transit":true,"is_transit":true,"station_id":"MRI","distance":2610,"i_lat":-6.209883,"line":2,"time":4},{"transit":false,"time":4,"station_id":"SUD","station_name":"Sudirman","is_transit":false,"i_long":106.822649,"i_lat":-6.202263,"distance":3186,"line":1},{"is_transit":false,"station_name":"Sudirman Baru","time":1,"transit":false,"station_id":"SUDB","i_lat":-6.201433,"i_long":106.819881,"line":1,"distance":280},{"i_lat":-6.20132,"time":1,"distance":471,"station_name":"Karet","i_long":106.816351,"transit":false,"is_transit":false,"station_id":"KAT","line":1},{"is_transit":true,"transit":true,"time":5,"line":1,"station_id":"THB","distance":2029,"station_name":"Tanah Abang","i_lat":-6.185545,"i_long":106.811091},{"is_transit":false,"distance":3191,"transit":false,"i_lat":-6.207404,"time":6,"station_name":"Palmerah","i_long":106.79689,"station_id":"PLM","line":6},{"transit":false,"station_id":"KBY","is_transit":false,"station_name":"Kebayoran","time":7,"i_lat":-6.237242,"distance":3737,"i_long":106.780334,"line":6},{"i_lat":-6.276362,"i_long":106.74273,"transit":false,"distance":6218,"station_name":"Pondokranji","station_id":"PDJ","time":8,"is_transit":false,"line":6},{"time":3,"station_id":"JMU","i_long":106.728916,"distance":2179,"transit":false,"station_name":"Jurangmangu","i_lat":-6.288927,"line":6,"is_transit":false},{"station_name":"Sudimara","i_long":106.712277,"distance":1994,"is_transit":false,"station_id":"SDM","line":6,"transit":false,"time":4,"i_lat":-6.296963},{"i_lat":-6.314823,"is_transit":false,"i_long":106.675475,"station_id":"RU","time":6,"distance":4566,"line":6,"station_name":"Rawa Buntu","transit":false},{"station_name":"Serpong","i_long":106.66566,"time":4,"station_id":"SRP","line":6,"distance":2413,"is_transit":false,"transit":false,"i_lat":-6.319871},{"i_long":106.640411,"transit":false,"distance":1784,"station_name":"Cisauk","is_transit":false,"i_lat":-6.32484,"time":4,"station_id":"CSK","line":3},{"i_lat":-6.329547,"station_id":"CC","is_transit":false,"time":4,"transit":false,"station_name":"Cicayur","i_long":106.617853,"line":3,"distance":2519},{"line":6,"time":8,"i_lat":-6.3441410000000005,"transit":false,"is_transit":false,"distance":5968,"station_id":"PRP","station_name":"Parung Panjang","i_long":106.568863},{"is_transit":false,"distance":7025,"i_lat":-6.354349,"transit":false,"time":9,"line":3,"station_name":"Cilejit","i_long":106.508482,"station_id":"CJT"},{"station_name":"Daru","i_long":106.491338,"i_lat":-6.338021,"station_id":"DAR","is_transit":false,"distance":2675,"line":0,"transit":false,"time":6}],[{"i_lat":-6.339291,"station_name":"Univ. Pancasila","i_long":106.834175,"time":0,"station_id":"UP","transit":false,"line":2,"is_transit":false,"distance":0},{"time":2,"distance":1029,"station_name":"Lenteng Agung","is_transit":false,"i_lat":-6.330363,"transit":false,"line":2,"i_long":106.832616,"station_id":"LNA"},{"i_lat":-6.3080680000000005,"distance":2671,"i_long":106.838896,"line":2,"transit":false,"time":3,"station_name":"Tanjung Barat","station_id":"TNT","is_transit":false},{"transit":false,"is_transit":false,"distance":2820,"line":2,"station_name":"Pasar Minggu","time":4,"i_lat":-6.2842400000000005,"i_long":106.843999,"station_id":"PSM"},{"line":2,"station_id":"PSMB","is_transit":false,"station_name":"Pasar Minggu Baru","transit":false,"distance":2380,"time":2,"i_lat":-6.263214,"i_long":106.851577},{"i_lat":-6.255332,"line":2,"distance":824,"i_long":106.85449,"station_name":"Duren Kalibata","transit":false,"is_transit":false,"time":2,"station_id":"DRN"},{"station_id":"CW","transit":false,"i_lat":-6.242512,"distance":1546,"time":3,"is_transit":false,"line":2,"station_name":"Cawang","i_long":106.856607},{"is_transit":false,"time":2,"transit":false,"line":2,"station_id":"TEB","i_lat":-6.226659,"distance":1230,"station_name":"Tebet","i_long":106.857948},{"line":2,"transit":false,"i_long":106.84912,"time":4,"is_transit":false,"distance":2610,"station_name":"Manggarai","station_id":"MRI","i_lat":-6.209883},{"station_id":"CKI","station_name":"Cikini","i_lat":-6.198556,"is_transit":false,"time":4,"i_long":106.840169,"distance":1590,"line":2,"transit":false},{"i_lat":-6.186295,"line":2,"transit":false,"station_name":"Gondangdia","distance":1750,"station_id":"GDD","is_transit":false,"i_long":106.832183,"time":3},{"i_long":106.828284,"station_id":"JUA","transit":false,"is_transit":false,"line":2,"station_name":"Juanda","time":4,"i_lat":-6.166716,"distance":2015},{"i_long":106.827103,"is_transit":false,"distance":1149,"station_name":"Sawah Besar","i_lat":-6.160725,"transit":false,"line":2,"time":2,"station_id":"SW"},{"line":2,"transit":false,"time":2,"i_long":106.82482,"station_name":"Manggabesar","distance":906,"i_lat":-6.149769,"station_id":"MGB","is_transit":false},{"transit":false,"is_transit":false,"i_long":106.820901,"i_lat":-6.141205,"time":2,"distance":1080,"line":2,"station_id":"JAY","station_name":"Jayakarta"},{"time":4,"is_transit":true,"station_name":"Jakarta Kota","transit":true,"line":2,"distance":1264,"i_long":106.812439,"i_lat":-6.137569,"station_id":"JAKK"},{"i_lat":-6.132549,"station_name":"Kampung Bandan","transit":true,"distance":1364,"line":4,"i_long":106.826365,"time":3,"is_transit":true,"station_id":"KPB"},{"distance":4102,"line":1,"transit":false,"is_transit":false,"i_lat":-6.144674,"i_long":106.79867,"station_name":"Angke","time":9,"station_id":"AK"},{"distance":1230,"station_id":"DU","is_transit":false,"station_name":"Duri","time":4,"i_long":106.800832,"line":1,"i_lat":-6.155215,"transit":false},{"station_name":"Tanah Abang","i_long":106.811091,"station_id":"THB","distance":3632,"i_lat":-6.185545,"line":1,"transit":true,"time":8,"is_transit":true},{"station_name":"Palmerah","is_transit":false,"time":6,"line":6,"i_long":106.79689,"i_lat":-6.207404,"station_id":"PLM","distance":3191,"transit":false},{"is_transit":false,"station_id":"KBY","transit":false,"line":6,"station_name":"Kebayoran","i_long":106.780334,"i_lat":-6.237242,"time":7,"distance":3737},{"station_id":"PDJ","time":8,"i_lat":-6.276362,"transit":false,"is_transit":false,"line":6,"distance":6218,"station_name":"Pondokranji","i_long":106.74273},{"transit":false,"distance":2179,"station_name":"Jurangmangu","is_transit":false,"station_id":"JMU","time":3,"line":6,"i_long":106.728916,"i_lat":-6.288927},{"transit":false,"line":6,"i_long":106.712277,"distance":1994,"station_id":"SDM","i_lat":-6.296963,"is_transit":false,"time":4,"station_name":"Sudimara"},{"transit":false,"distance":4566,"time":6,"station_name":"Rawa Buntu","station_id":"RU","is_transit":false,"i_long":106.675475,"i_lat":-6.314823,"line":6},{"line":6,"station_name":"Serpong","transit":false,"i_lat":-6.319871,"i_long":106.66566,"is_transit":false,"time":4,"distance":2413,"station_id":"SRP"},{"station_name":"Cisauk","time":4,"station_id":"CSK","line":3,"transit":false,"is_transit":false,"i_lat":-6.32484,"distance":1784,"i_long":106.640411},{"time":4,"is_transit":false,"distance":2519,"transit":false,"station_id":"CC","i_lat":-6.329547,"line":3,"station_name":"Cicayur","i_long":106.617853},{"line":6,"transit":false,"station_id":"PRP","time":8,"is_transit":false,"distance":5968,"i_lat":-6.3441410000000005,"i_long":106.568863,"station_name":"Parung Panjang"},{"line":3,"is_transit":false,"i_lat":-6.354349,"time":9,"distance":7025,"i_long":106.508482,"station_name":"Cilejit","transit":false,"station_id":"CJT"},{"time":6,"i_lat":-6.338021,"distance":2675,"station_id":"DAR","transit":false,"is_transit":false,"i_long":106.491338,"line":0,"station_name":"Daru"}],[{"transit":false,"line":2,"station_name":"Univ. Pancasila","station_id":"UP","distance":0,"i_long":106.834175,"is_transit":false,"i_lat":-6.339291,"time":0},{"i_long":106.832616,"station_name":"Lenteng Agung","transit":false,"time":2,"line":2,"distance":1029,"i_lat":-6.330363,"station_id":"LNA","is_transit":false},{"transit":false,"station_name":"Tanjung Barat","is_transit":false,"time":3,"station_id":"TNT","i_lat":-6.3080680000000005,"i_long":106.838896,"distance":2671,"line":2},{"transit":false,"is_transit":false,"i_lat":-6.2842400000000005,"station_id":"PSM","station_name":"Pasar Minggu","time":4,"i_long":106.843999,"line":2,"distance":2820},{"station_name":"Pasar Minggu Baru","station_id":"PSMB","i_long":106.851577,"is_transit":false,"time":2,"i_lat":-6.263214,"line":2,"transit":false,"distance":2380},{"is_transit":false,"line":2,"station_name":"Duren Kalibata","time":2,"i_long":106.85449,"distance":824,"transit":false,"i_lat":-6.255332,"station_id":"DRN"},{"distance":1546,"i_lat":-6.242512,"transit":false,"is_transit":false,"time":3,"i_long":106.856607,"line":2,"station_name":"Cawang","station_id":"CW"},{"station_name":"Tebet","is_transit":false,"i_long":106.857948,"station_id":"TEB","i_lat":-6.226659,"time":2,"distance":1230,"transit":false,"line":2},{"station_name":"Manggarai","i_long":106.84912,"i_lat":-6.209883,"distance":2610,"line":2,"transit":true,"time":4,"station_id":"MRI","is_transit":true},{"i_lat":-6.212485,"time":2,"transit":false,"station_id":"MTR","line":1,"is_transit":false,"distance":1275,"i_long":106.858896,"station_name":"Matraman"},{"line":1,"transit":true,"is_transit":true,"distance":1377,"i_lat":-6.215091,"station_name":"Jatinegara","station_id":"JNG","time":8,"i_long":106.86807400000001},{"station_id":"POK","distance":1236,"i_lat":-6.209188,"transit":false,"line":11,"i_long":106.861737,"is_transit":false,"station_name":"Pondok Jati","time":2},{"i_long":106.855437,"line":11,"station_name":"Kramat","distance":1829,"is_transit":false,"i_lat":-6.193792,"time":2,"transit":false,"station_id":"KMT"},{"distance":973,"station_name":"Gang Sentiong","is_transit":false,"i_long":106.850107,"transit":false,"station_id":"GST","time":1,"i_lat":-6.185975,"line":11},{"transit":false,"is_transit":false,"line":11,"time":8,"i_lat":-6.174784,"distance":1567,"i_long":106.84368,"station_id":"PSE","station_name":"Pasar Senen"},{"station_name":"Kemayoran","time":4,"i_lat":-6.161728,"i_long":106.839204,"distance":1436,"transit":false,"is_transit":false,"line":11,"station_id":"KMO"},{"is_transit":false,"station_id":"RJW","distance":1901,"i_long":106.836569,"i_lat":-6.14505,"transit":false,"station_name":"Rajawali","line":11,"time":5},{"line":4,"time":3,"distance":1444,"station_name":"Kampung Bandan","station_id":"KPB","i_long":106.826365,"i_lat":-6.132549,"transit":true,"is_transit":true},{"i_long":106.79867,"transit":false,"station_name":"Angke","is_transit":false,"i_lat":-6.144674,"time":9,"line":1,"station_id":"AK","distance":4102},{"time":4,"is_transit":false,"i_long":106.800832,"transit":false,"station_id":"DU","distance":1230,"station_name":"Duri","i_lat":-6.155215,"line":1},{"line":1,"is_transit":true,"station_id":"THB","i_lat":-6.185545,"transit":true,"station_name":"Tanah Abang","time":8,"distance":3632,"i_long":106.811091},{"distance":3191,"i_lat":-6.207404,"line":6,"transit":false,"i_long":106.79689,"station_name":"Palmerah","station_id":"PLM","is_transit":false,"time":6},{"station_id":"KBY","is_transit":false,"i_lat":-6.237242,"transit":false,"station_name":"Kebayoran","distance":3737,"line":6,"i_long":106.780334,"time":7},{"station_id":"PDJ","transit":false,"is_transit":false,"distance":6218,"i_lat":-6.276362,"i_long":106.74273,"station_name":"Pondokranji","time":8,"line":6},{"is_transit":false,"time":3,"distance":2179,"transit":false,"i_long":106.728916,"i_lat":-6.288927,"line":6,"station_id":"JMU","station_name":"Jurangmangu"},{"time":4,"i_lat":-6.296963,"line":6,"station_id":"SDM","station_name":"Sudimara","is_transit":false,"i_long":106.712277,"distance":1994,"transit":false},{"transit":false,"i_lat":-6.314823,"distance":4566,"is_transit":false,"i_long":106.675475,"station_name":"Rawa Buntu","station_id":"RU","time":6,"line":6},{"station_id":"SRP","distance":2413,"is_transit":false,"i_long":106.66566,"station_name":"Serpong","time":4,"i_lat":-6.319871,"line":6,"transit":false},{"i_long":106.640411,"transit":false,"i_lat":-6.32484,"distance":1784,"station_name":"Cisauk","is_transit":false,"station_id":"CSK","time":4,"line":3},{"i_lat":-6.329547,"line":3,"station_name":"Cicayur","transit":false,"station_id":"CC","distance":2519,"time":4,"i_long":106.617853,"is_transit":false},{"line":6,"station_name":"Parung Panjang","transit":false,"distance":5968,"i_long":106.568863,"is_transit":false,"station_id":"PRP","time":8,"i_lat":-6.3441410000000005},{"station_name":"Cilejit","i_lat":-6.354349,"is_transit":false,"time":9,"transit":false,"distance":7025,"station_id":"CJT","i_long":106.508482,"line":3},{"i_long":106.491338,"line":0,"transit":false,"is_transit":false,"time":6,"i_lat":-6.338021,"station_name":"Daru","station_id":"DAR","distance":2675}]]}