{"data":[[{"transit":false,"distance":0,"station_name":"Univ. Pancasila","i_lat":-6.339291,"time":0,"station_id":"UP","i_long":106.834175,"line":2,"is_transit":false},{"line":2,"i_lat":-6.330363,"time":2,"distance":1029,"is_transit":false,"i_long":106.832616,"station_id":"LNA","transit":false,"station_name":"Lenteng Agung"},{"transit":false,"i_lat":-6.3080680000000005,"i_long":106.838896,"distance":2671,"line":2,"station_name":"Tanjung Barat","time":3,"station_id":"TNT","is_transit":false},{"station_id":"PSM","station_name":"Pasar Minggu","is_transit":false,"line":2,"i_long":106.843999,"distance":2820,"transit":false,"i_lat":-6.2842400000000005,"time":4},{"is_transit":false,"time":2,"station_name":"Pasar Minggu Baru","station_id":"PSMB","transit":false,"i_lat":-6.263214,"line":2,"distance":2380,"i_long":106.851577},{"i_lat":-6.255332,"station_id":"DRN","distance":824,"time":2,"is_transit":false,"transit":false,"i_long":106.85449,"line":2,"station_name":"Duren Kalibata"},{"transit":false,"station_id":"CW","time":3,"distance":1546,"station_name":"Cawang","is_transit":false,"i_lat":-6.242512,"line":2,"i_long":106.856607},{"i_long":106.857948,"time":2,"is_transit":false,"transit":false,"line":2,"i_lat":-6.226659,"distance":1230,"station_id":"TEB","station_name":"Tebet"},{"distance":2610,"station_id":"MRI","i_lat":-6.209883,"is_transit":false,"station_name":"Manggarai","transit":false,"i_long":106.84912,"time":4,"line":2},{"transit":false,"time":4,"station_name":"Cikini","is_transit":false,"i_lat":-6.198556,"line":2,"station_id":"CKI","distance":1590,"i_long":106.840169},{"i_lat":-6.186295,"distance":1750,"is_transit":false,"i_long":106.832183,"time":3,"transit":false,"station_id":"GDD","station_name":"Gondangdia","line":2}],[{"station_id":"UP","i_long":106.834175,"distance":0,"line":2,"time":0,"is_transit":false,"transit":false,"i_lat":-6.339291,"station_name":"Univ. Pancasila"},{"distance":1029,"station_id":"LNA","transit":false,"station_name":"Lenteng Agung","is_transit":false,"i_lat":-6.330363,"line":2,"i_long":106.832616,"time":2},{"station_name":"Tanjung Barat","line":2,"time":3,"station_id":"TNT","is_transit":false,"transit":false,"i_lat":-6.3080680000000005,"distance":2671,"i_long":106.838896},{"i_long":106.843999,"transit":false,"is_transit":false,"time":4,"line":2,"i_lat":-6.2842400000000005,"station_id":"PSM","distance":2820,"station_name":"Pasar Minggu"},{"station_id":"PSMB","is_transit":false,"i_lat":-6.263214,"transit":false,"i_long":106.851577,"line":2,"station_name":"Pasar Minggu Baru","distance":2380,"time":2},{"distance":824,"time":2,"station_id":"DRN","i_lat":-6.255332,"is_transit":false,"transit":false,"station_name":"Duren Kalibata","line":2,"i_long":106.85449},{"station_name":"Cawang","i_lat":-6.242512,"i_long":106.856607,"time":3,"is_transit":false,"transit":false,"line":2,"distance":1546,"station_id":"CW"},{"i_long":106.857948,"i_lat":-6.226659,"station_id":"TEB","is_transit":false,"time":2,"transit":false,"station_name":"Tebet","line":2,"distance":1230},{"time":4,"is_transit":true,"distance":2610,"station_name":"Manggarai","transit":true,"i_lat":-6.209883,"i_long":106.84912,"line":2,"station_id":"MRI"},{"line":1,"is_transit":false,"i_lat":-6.202263,"station_name":"Sudirman","station_id":"SUD","distance":3186,"i_long":106.822649,"transit":false,"time":4},{"i_long":106.819881,"time":1,"is_transit":false,"i_lat":-6.201433,"station_id":"SUDB","distance":280,"line":1,"station_name":"Sudirman Baru","transit":false},{"transit":false,"line":1,"station_id":"KAT","station_name":"Karet","i_long":106.816351,"distance":471,"is_transit":false,"i_lat":-6.20132,"time":1},{"station_name":"Tanah Abang","transit":false,"distance":2029,"i_long":106.811091,"station_id":"THB","is_transit":false,"line":1,"i_lat":-6.185545,"time":5},{"distance":3632,"is_transit":false,"i_lat":-6.155215,"i_long":106.800832,"transit":false,"station_name":"Duri","station_id":"DU","line":1,"time":8},{"station_id":"AK","distance":1230,"station_name":"Angke","is_transit":false,"transit":false,"i_lat":-6.144674,"time":4,"line":1,"i_long":106.79867},{"distance":4102,"time":9,"station_id":"KPB","station_name":"Kampung Bandan","is_transit":true,"i_lat":-6.132549,"transit":true,"i_long":106.826365,"line":4},{"time":3,"is_transit":true,"i_long":106.812439,"distance":1364,"i_lat":-6.137569,"line":2,"station_id":"JAKK","transit":true,"station_name":"Jakarta Kota"},{"station_id":"JAY","i_long":106.820901,"line":2,"time":4,"station_name":"Jayakarta","i_lat":-6.141205,"transit":false,"distance":1264,"is_transit":false},{"station_id":"MGB","i_lat":-6.149769,"transit":false,"line":2,"is_transit":false,"station_name":"Manggabesar","distance":1080,"time":2,"i_long":106.82482},{"is_transit":false,"i_lat":-6.160725,"i_long":106.827103,"station_name":"Sawah Besar","time":2,"distance":906,"line":2,"station_id":"SW","transit":false},{"transit":false,"station_id":"JUA","time":2,"i_long":106.828284,"line":2,"distance":1149,"is_transit":false,"station_name":"Juanda","i_lat":-6.166716},{"distance":2015,"line":2,"time":4,"is_transit":false,"transit":false,"station_id":"GDD","i_lat":-6.186295,"station_name":"Gondangdia","i_long":106.832183}],[{"time":0,"is_transit":false,"i_lat":-6.339291,"station_id":"UP","station_name":"Univ. Pancasila","i_long":106.834175,"transit":false,"distance":0,"line":2},{"line":2,"transit":false,"i_long":106.832616,"i_lat":-6.330363,"station_name":"Lenteng Agung","station_id":"LNA","is_transit":false,"time":2,"distance":1029},{"line":2,"station_id":"TNT","time":3,"station_name":"Tanjung Barat","is_transit":false,"i_lat":-6.3080680000000005,"transit":false,"i_long":106.838896,"distance":2671},{"i_long":106.843999,"line":2,"transit":false,"distance":2820,"station_name":"Pasar Minggu","station_id":"PSM","is_transit":false,"i_lat":-6.2842400000000005,"time":4},{"time":2,"is_transit":false,"transit":false,"station_name":"Pasar Minggu Baru","station_id":"PSMB","i_lat":-6.263214,"distance":2380,"i_long":106.851577,"line":2},{"is_transit":false,"transit":false,"station_id":"DRN","distance":824,"i_lat":-6.255332,"time":2,"station_name":"Duren Kalibata","line":2,"i_long":106.85449},{"i_lat":-6.242512,"time":3,"distance":1546,"transit":false,"i_long":106.856607,"is_transit":false,"station_id":"CW","line":2,"station_name":"Cawang"},{"is_transit":false,"line":2,"station_name":"Tebet","transit":false,"i_lat":-6.226659,"time":2,"i_long":106.857948,"station_id":"TEB","distance":1230},{"station_id":"MRI","transit":true,"distance":2610,"is_transit":true,"time":4,"i_lat":-6.209883,"station_name":"Manggarai","i_long":106.84912,"line":2},{"station_id":"MTR","time":2,"i_long":106.858896,"station_name":"Matraman","is_transit":false,"transit":false,"distance":1275,"i_lat":-6.212485,"line":1},{"distance":1377,"transit":true,"station_name":"Jatinegara","line":1,"time":8,"station_id":"JNG","i_lat":-6.215091,"is_transit":true,"i_long":106.86807400000001},{"transit":false,"time":2,"station_name":"Pondok Jati","i_long":106.861737,"line":11,"i_lat":-6.209188,"distance":1236,"is_transit":false,"station_id":"POK"},{"is_transit":false,"line":11,"time":2,"station_name":"Kramat","i_long":106.855437,"distance":1829,"station_id":"KMT","i_lat":-6.193792,"transit":false},{"time":1,"transit":false,"line":11,"station_name":"Gang Sentiong","distance":973,"i_long":106.850107,"i_lat":-6.185975,"is_transit":false,"station_id":"GST"},{"distance":1567,"is_transit":false,"transit":false,"station_name":"Pasar Senen","time":8,"i_lat":-6.174784,"i_long":106.84368,"line":11,"station_id":"PSE"},{"station_id":"KMO","i_long":106.839204,"line":11,"distance":1436,"time":4,"i_lat":-6.161728,"is_transit":false,"transit":false,"station_name":"Kemayoran"},{"is_transit":false,"distance":1901,"i_lat":-6.14505,"i_long":106.836569,"transit":false,"station_id":"RJW","time":5,"station_name":"Rajawali","line":11},{"i_lat":-6.132549,"station_id":"KPB","line":4,"time":3,"transit":true,"i_long":106.826365,"station_name":"Kampung Bandan","is_transit":true,"distance":1444},{"time":3,"station_name":"Jakarta Kota","distance":1364,"is_transit":true,"i_lat":-6.137569,"station_id":"JAKK","i_long":106.812439,"line":2,"transit":true},{"distance":1264,"i_lat":-6.141205,"transit":false,"line":2,"is_transit":false,"time":4,"station_id":"JAY","i_long":106.820901,"station_name":"Jayakarta"},{"i_long":106.82482,"is_transit":false,"distance":1080,"transit":false,"i_lat":-6.149769,"station_id":"MGB","time":2,"line":2,"station_name":"Manggabesar"},{"transit":false,"station_name":"Sawah Besar","i_lat":-6.160725,"station_id":"SW","distance":906,"i_long":106.827103,"time":2,"is_transit":false,"line":2},{"time":2,"i_lat":-6.166716,"distance":1149,"i_long":106.828284,"transit":false,"station_name":"Juanda","station_id":"JUA","is_transit":false,"line":2},{"distance":2015,"transit":false,"station_id":"GDD","time":4,"i_lat":-6.186295,"is_transit":false,"station_name":"Gondangdia","i_long":106.832183,"line":2}]]}