{"data":[[{"i_lat":-6.339291,"i_long":106.834175,"station_id":"UP","transit":false,"station_name":"Univ. Pancasila","is_transit":false,"time":0,"line":2,"distance":0},{"transit":false,"station_id":"LNA","i_lat":-6.330363,"distance":1029,"is_transit":false,"station_name":"Lenteng Agung","i_long":106.832616,"time":2,"line":2},{"station_name":"Tanjung Barat","time":3,"i_long":106.838896,"distance":2671,"line":2,"is_transit":false,"i_lat":-6.3080680000000005,"station_id":"TNT","transit":false},{"is_transit":false,"transit":false,"station_id":"PSM","i_lat":-6.2842400000000005,"distance":2820,"time":4,"line":2,"station_name":"Pasar Minggu","i_long":106.843999},{"i_long":106.851577,"time":2,"is_transit":false,"transit":false,"station_name":"Pasar Minggu Baru","distance":2380,"station_id":"PSMB","i_lat":-6.263214,"line":2},{"i_long":106.85449,"transit":false,"distance":824,"time":2,"i_lat":-6.255332,"line":2,"station_id":"DRN","station_name":"Duren Kalibata","is_transit":false},{"station_name":"Cawang","line":2,"time":3,"distance":1546,"transit":false,"i_lat":-6.242512,"i_long":106.856607,"station_id":"CW","is_transit":false},{"is_transit":false,"i_long":106.857948,"i_lat":-6.226659,"station_name":"Tebet","line":2,"time":2,"distance":1230,"transit":false,"station_id":"TEB"},{"distance":2610,"station_name":"Manggarai","line":2,"transit":false,"is_transit":false,"time":4,"i_long":106.84912,"station_id":"MRI","i_lat":-6.209883},{"distance":1590,"line":2,"transit":false,"i_lat":-6.198556,"i_long":106.840169,"is_transit":false,"station_name":"Cikini","time":4,"station_id":"CKI"},{"station_id":"GDD","i_long":106.832183,"line":2,"i_lat":-6.186295,"time":3,"is_transit":false,"transit":false,"station_name":"Gondangdia","distance":1750}],[{"i_long":106.834175,"i_lat":-6.339291,"time":0,"station_name":"Univ. Pancasila","transit":false,"is_transit":false,"line":2,"station_id":"UP","distance":0},{"transit":false,"station_id":"LNA","i_long":106.832616,"line":2,"station_name":"Lenteng Agung","is_transit":false,"i_lat":-6.330363,"distance":1029,"time":2},{"line":2,"is_transit":false,"i_long":106.838896,"time":3,"i_lat":-6.3080680000000005,"transit":false,"distance":2671,"station_name":"Tanjung Barat","station_id":"TNT"},{"i_lat":-6.2842400000000005,"transit":false,"station_name":"Pasar Minggu","is_transit":false,"line":2,"time":4,"distance":2820,"i_long":106.843999,"station_id":"PSM"},{"is_transit":false,"station_id":"PSMB","distance":2380,"i_lat":-6.263214,"station_name":"Pasar Minggu Baru","line":2,"i_long":106.851577,"transit":false,"time":2},{"station_id":"DRN","station_name":"Duren Kalibata","time":2,"transit":false,"is_transit":false,"i_lat":-6.255332,"i_long":106.85449,"line":2,"distance":824},{"station_id":"CW","station_name":"Cawang","time":3,"i_lat":-6.242512,"is_transit":false,"distance":1546,"line":2,"transit":false,"i_long":106.856607},{"i_long":106.857948,"time":2,"line":2,"station_name":"Tebet","is_transit":false,"distance":1230,"i_lat":-6.226659,"station_id":"TEB","transit":false},{"is_transit":true,"transit":true,"distance":2610,"i_lat":-6.209883,"station_name":"Manggarai","i_long":106.84912,"line":2,"station_id":"MRI","time":4},{"distance":3186,"time":4,"station_name":"Sudirman","transit":false,"station_id":"SUD","is_transit":false,"i_lat":-6.202263,"i_long":106.822649,"line":1},{"i_long":106.819881,"station_name":"Sudirman Baru","station_id":"SUDB","line":1,"is_transit":false,"transit":false,"time":1,"distance":280,"i_lat":-6.201433},{"transit":false,"distance":471,"station_name":"Karet","i_long":106.816351,"line":1,"is_transit":false,"time":1,"i_lat":-6.20132,"station_id":"KAT"},{"transit":false,"is_transit":false,"line":1,"time":5,"i_lat":-6.185545,"i_long":106.811091,"station_name":"Tanah Abang","station_id":"THB","distance":2029},{"time":8,"line":1,"is_transit":false,"distance":3632,"transit":false,"station_name":"Duri","station_id":"DU","i_lat":-6.155215,"i_long":106.800832},{"station_id":"AK","is_transit":false,"line":1,"time":4,"i_lat":-6.144674,"i_long":106.79867,"station_name":"Angke","distance":1230,"transit":false},{"station_name":"Kampung Bandan","station_id":"KPB","is_transit":true,"time":9,"i_lat":-6.132549,"distance":4102,"i_long":106.826365,"line":4,"transit":true},{"line":2,"station_name":"Jakarta Kota","i_lat":-6.137569,"distance":1364,"transit":true,"time":3,"is_transit":true,"station_id":"JAKK","i_long":106.812439},{"station_name":"Jayakarta","transit":false,"is_transit":false,"distance":1264,"station_id":"JAY","time":4,"i_long":106.820901,"i_lat":-6.141205,"line":2},{"transit":false,"time":2,"station_id":"MGB","i_lat":-6.149769,"line":2,"distance":1080,"is_transit":false,"i_long":106.82482,"station_name":"Manggabesar"},{"distance":906,"station_id":"SW","station_name":"Sawah Besar","time":2,"i_long":106.827103,"i_lat":-6.160725,"line":2,"is_transit":false,"transit":false},{"transit":false,"is_transit":false,"time":2,"station_name":"Juanda","line":2,"station_id":"JUA","distance":1149,"i_lat":-6.166716,"i_long":106.828284},{"distance":2015,"time":4,"transit":false,"station_name":"Gondangdia","is_transit":false,"station_id":"GDD","i_lat":-6.186295,"i_long":106.832183,"line":2}],[{"i_long":106.834175,"station_name":"Univ. Pancasila","distance":0,"line":2,"is_transit":false,"station_id":"UP","transit":false,"time":0,"i_lat":-6.339291},{"distance":1029,"station_name":"Lenteng Agung","line":2,"time":2,"i_lat":-6.330363,"i_long":106.832616,"is_transit":false,"station_id":"LNA","transit":false},{"station_id":"TNT","distance":2671,"i_lat":-6.3080680000000005,"station_name":"Tanjung Barat","line":2,"time":3,"is_transit":false,"i_long":106.838896,"transit":false},{"station_name":"Pasar Minggu","station_id":"PSM","transit":false,"time":4,"distance":2820,"i_lat":-6.2842400000000005,"line":2,"i_long":106.843999,"is_transit":false},{"i_lat":-6.263214,"is_transit":false,"distance":2380,"time":2,"station_name":"Pasar Minggu Baru","i_long":106.851577,"transit":false,"station_id":"PSMB","line":2},{"line":2,"station_id":"DRN","is_transit":false,"time":2,"i_lat":-6.255332,"station_name":"Duren Kalibata","distance":824,"i_long":106.85449,"transit":false},{"time":3,"i_lat":-6.242512,"line":2,"station_name":"Cawang","is_transit":false,"i_long":106.856607,"distance":1546,"transit":false,"station_id":"CW"},{"is_transit":false,"time":2,"station_name":"Tebet","line":2,"distance":1230,"transit":false,"station_id":"TEB","i_long":106.857948,"i_lat":-6.226659},{"i_lat":-6.209883,"line":2,"transit":true,"station_name":"Manggarai","distance":2610,"i_long":106.84912,"station_id":"MRI","is_transit":true,"time":4},{"is_transit":false,"time":2,"line":1,"station_name":"Matraman","distance":1275,"station_id":"MTR","i_long":106.858896,"transit":false,"i_lat":-6.212485},{"station_id":"JNG","line":1,"is_transit":true,"station_name":"Jatinegara","time":8,"transit":true,"i_lat":-6.215091,"distance":1377,"i_long":106.86807400000001},{"station_id":"POK","i_long":106.861737,"transit":false,"line":11,"is_transit":false,"time":2,"station_name":"Pondok Jati","distance":1236,"i_lat":-6.209188},{"station_name":"Kramat","time":2,"i_lat":-6.193792,"is_transit":false,"station_id":"KMT","distance":1829,"transit":false,"line":11,"i_long":106.855437},{"line":11,"i_lat":-6.185975,"station_id":"GST","station_name":"Gang Sentiong","time":1,"distance":973,"transit":false,"i_long":106.850107,"is_transit":false},{"transit":false,"station_id":"PSE","is_transit":false,"line":11,"i_lat":-6.174784,"time":8,"station_name":"Pasar Senen","distance":1567,"i_long":106.84368},{"i_lat":-6.161728,"is_transit":false,"i_long":106.839204,"station_name":"Kemayoran","distance":1436,"line":11,"transit":false,"station_id":"KMO","time":4},{"time":5,"i_long":106.836569,"station_name":"Rajawali","is_transit":false,"transit":false,"station_id":"RJW","distance":1901,"i_lat":-6.14505,"line":11},{"distance":1444,"time":3,"station_id":"KPB","station_name":"Kampung Bandan","i_lat":-6.132549,"line":4,"is_transit":true,"i_long":106.826365,"transit":true},{"transit":true,"station_id":"JAKK","time":3,"i_lat":-6.137569,"i_long":106.812439,"station_name":"Jakarta Kota","is_transit":true,"distance":1364,"line":2},{"time":4,"line":2,"transit":false,"station_name":"Jayakarta","is_transit":false,"station_id":"JAY","distance":1264,"i_lat":-6.141205,"i_long":106.820901},{"transit":false,"i_lat":-6.149769,"distance":1080,"line":2,"station_id":"MGB","is_transit":false,"station_name":"Manggabesar","i_long":106.82482,"time":2},{"time":2,"line":2,"station_name":"Sawah Besar","transit":false,"i_long":106.827103,"is_transit":false,"station_id":"SW","distance":906,"i_lat":-6.160725},{"transit":false,"station_name":"Juanda","is_transit":false,"i_lat":-6.166716,"i_long":106.828284,"distance":1149,"line":2,"station_id":"JUA","time":2},{"line":2,"time":4,"station_name":"Gondangdia","distance":2015,"is_transit":false,"transit":false,"station_id":"GDD","i_lat":-6.186295,"i_long":106.832183}]]}