{"data":[[{"station_name":"Univ. Pancasila","is_transit":false,"line":2,"time":0,"distance":0,"i_long":106.834175,"station_id":"UP","transit":false,"i_lat":-6.339291},{"i_lat":-6.330363,"station_id":"LNA","i_long":106.832616,"line":2,"station_name":"Lenteng Agung","time":2,"transit":false,"is_transit":false,"distance":1029},{"time":3,"line":2,"i_lat":-6.3080680000000005,"distance":2671,"transit":false,"station_id":"TNT","is_transit":false,"station_name":"Tanjung Barat","i_long":106.838896},{"time":4,"i_lat":-6.2842400000000005,"transit":false,"station_name":"Pasar Minggu","i_long":106.843999,"is_transit":false,"station_id":"PSM","distance":2820,"line":2},{"station_id":"PSMB","time":2,"distance":2380,"station_name":"Pasar Minggu Baru","is_transit":false,"transit":false,"i_lat":-6.263214,"line":2,"i_long":106.851577},{"station_name":"Duren Kalibata","transit":false,"line":0,"i_lat":-6.255332,"i_long":106.85449,"time":2,"station_id":"DRN","is_transit":false,"distance":824},{"distance":1546,"station_name":"Cawang","is_transit":false,"transit":false,"time":3,"station_id":"CW","i_long":106.856607,"line":0,"i_lat":-6.242512},{"line":2,"station_id":"TEB","distance":1230,"transit":false,"station_name":"Tebet","time":2,"is_transit":false,"i_long":106.857948,"i_lat":-6.226659},{"time":4,"distance":2610,"i_lat":-6.209883,"is_transit":true,"line":0,"station_id":"MRI","station_name":"Manggarai","transit":true,"i_long":106.84912},{"station_name":"Cikini","transit":false,"i_lat":-6.198556,"i_long":106.840169,"distance":1590,"station_id":"CKI","is_transit":false,"time":4,"line":0},{"is_transit":false,"line":2,"transit":false,"i_long":106.832183,"time":3,"station_id":"GDD","station_name":"Gondangdia","distance":1750,"i_lat":-6.186295}],[{"i_long":106.834175,"line":2,"is_transit":false,"i_lat":-6.339291,"station_name":"Univ. Pancasila","time":0,"station_id":"UP","distance":0,"transit":false},{"transit":false,"line":2,"distance":1029,"i_long":106.832616,"i_lat":-6.330363,"is_transit":false,"station_name":"Lenteng Agung","time":2,"station_id":"LNA"},{"station_id":"TNT","is_transit":false,"transit":false,"i_long":106.838896,"station_name":"Tanjung Barat","i_lat":-6.3080680000000005,"time":3,"distance":2671,"line":2},{"transit":false,"i_lat":-6.2842400000000005,"line":2,"time":4,"station_id":"PSM","i_long":106.843999,"station_name":"Pasar Minggu","distance":2820,"is_transit":false},{"i_long":106.851577,"distance":2380,"station_name":"Pasar Minggu Baru","line":2,"time":2,"transit":false,"is_transit":false,"station_id":"PSMB","i_lat":-6.263214},{"is_transit":false,"transit":false,"time":2,"station_name":"Duren Kalibata","line":0,"station_id":"DRN","distance":824,"i_long":106.85449,"i_lat":-6.255332},{"i_long":106.856607,"station_id":"CW","i_lat":-6.242512,"distance":1546,"station_name":"Cawang","line":0,"is_transit":false,"time":3,"transit":false},{"i_long":106.857948,"distance":1230,"line":2,"time":2,"transit":false,"is_transit":false,"i_lat":-6.226659,"station_id":"TEB","station_name":"Tebet"},{"time":4,"is_transit":true,"station_name":"Manggarai","i_lat":-6.209883,"station_id":"MRI","i_long":106.84912,"line":0,"transit":true,"distance":2610},{"distance":3186,"station_id":"SUD","time":4,"station_name":"Sudirman","i_long":106.822649,"transit":false,"line":1,"i_lat":-6.202263,"is_transit":false},{"line":1,"i_long":106.819881,"station_name":"Sudirman Baru","time":1,"i_lat":-6.201433,"station_id":"SUDB","is_transit":false,"transit":false,"distance":280},{"station_name":"Karet","i_lat":-6.20132,"station_id":"KAT","i_long":106.816351,"line":1,"transit":false,"time":1,"distance":471,"is_transit":false},{"transit":false,"station_name":"Tanah Abang","i_lat":-6.185545,"i_long":106.811091,"is_transit":true,"distance":2029,"station_id":"THB","time":5,"line":1},{"station_name":"Duri","time":8,"station_id":"DU","i_long":106.800832,"is_transit":true,"transit":true,"distance":3632,"i_lat":-6.155215,"line":1},{"i_lat":-6.144674,"station_name":"Angke","distance":1230,"line":0,"is_transit":false,"time":4,"transit":false,"station_id":"AK","i_long":106.79867},{"is_transit":true,"station_id":"KPB","time":9,"distance":4102,"i_long":106.826365,"i_lat":-6.132549,"line":0,"transit":false,"station_name":"Kampung Bandan"},{"line":0,"transit":true,"i_lat":-6.137569,"station_id":"JAKK","distance":1364,"is_transit":true,"time":3,"i_long":106.812439,"station_name":"Jakarta Kota"},{"distance":1264,"station_id":"JAY","station_name":"Jayakarta","i_lat":-6.141205,"time":4,"is_transit":false,"i_long":106.820901,"transit":false,"line":7},{"distance":1080,"time":2,"i_lat":-6.149769,"station_id":"MGB","transit":false,"station_name":"Manggabesar","is_transit":false,"i_long":106.82482,"line":2},{"station_name":"Sawah Besar","line":2,"distance":906,"i_long":106.827103,"time":2,"transit":false,"i_lat":-6.160725,"is_transit":false,"station_id":"SW"},{"i_lat":-6.166716,"is_transit":false,"station_name":"Juanda","time":2,"i_long":106.828284,"station_id":"JUA","distance":1149,"line":2,"transit":false},{"line":2,"station_name":"Gondangdia","i_long":106.832183,"transit":false,"distance":2015,"i_lat":-6.186295,"is_transit":false,"station_id":"GDD","time":4}],[{"i_long":106.834175,"station_id":"UP","time":0,"line":2,"distance":0,"i_lat":-6.339291,"is_transit":false,"transit":false,"station_name":"Univ. Pancasila"},{"distance":1029,"time":2,"is_transit":false,"line":2,"station_name":"Lenteng Agung","i_lat":-6.330363,"transit":false,"station_id":"LNA","i_long":106.832616},{"station_id":"TNT","i_long":106.838896,"station_name":"Tanjung Barat","transit":false,"line":2,"time":3,"is_transit":false,"distance":2671,"i_lat":-6.3080680000000005},{"station_name":"Pasar Minggu","is_transit":false,"line":2,"time":4,"distance":2820,"station_id":"PSM","i_lat":-6.2842400000000005,"i_long":106.843999,"transit":false},{"i_long":106.851577,"is_transit":false,"distance":2380,"time":2,"transit":false,"i_lat":-6.263214,"line":2,"station_id":"PSMB","station_name":"Pasar Minggu Baru"},{"time":2,"i_lat":-6.255332,"station_id":"DRN","distance":824,"transit":false,"station_name":"Duren Kalibata","is_transit":false,"line":0,"i_long":106.85449},{"station_id":"CW","is_transit":false,"i_long":106.856607,"time":3,"distance":1546,"transit":false,"line":0,"i_lat":-6.242512,"station_name":"Cawang"},{"transit":false,"i_lat":-6.226659,"station_name":"Tebet","is_transit":false,"station_id":"TEB","time":2,"distance":1230,"i_long":106.857948,"line":2},{"i_long":106.84912,"station_name":"Manggarai","time":4,"station_id":"MRI","distance":2610,"line":0,"transit":true,"is_transit":true,"i_lat":-6.209883},{"time":2,"distance":1275,"station_id":"MTR","station_name":"Matraman","i_long":106.858896,"line":1,"transit":false,"i_lat":-6.212485,"is_transit":false},{"i_long":106.86807400000001,"station_id":"JNG","time":8,"distance":1377,"i_lat":-6.215091,"line":0,"transit":true,"station_name":"Jatinegara","is_transit":true},{"distance":1236,"is_transit":false,"transit":false,"time":2,"line":11,"i_lat":-6.209188,"station_id":"POK","station_name":"Pondok Jati","i_long":106.861737},{"time":2,"is_transit":false,"distance":1829,"i_long":106.855437,"line":11,"i_lat":-6.193792,"station_name":"Kramat","station_id":"KMT","transit":false},{"distance":973,"is_transit":false,"transit":false,"station_name":"Gang Sentiong","time":1,"i_lat":-6.185975,"station_id":"GST","i_long":106.850107,"line":11},{"i_long":106.84368,"distance":1567,"line":11,"station_name":"Pasar Senen","station_id":"PSE","i_lat":-6.174784,"time":8,"transit":false,"is_transit":false},{"distance":1436,"i_lat":-6.161728,"transit":false,"i_long":106.839204,"time":4,"is_transit":false,"line":11,"station_name":"Kemayoran","station_id":"KMO"},{"time":5,"station_id":"RJW","distance":1901,"transit":false,"is_transit":false,"i_long":106.836569,"line":11,"i_lat":-6.14505,"station_name":"Rajawali"},{"transit":true,"i_lat":-6.132549,"i_long":106.826365,"station_id":"KPB","distance":1444,"line":0,"station_name":"Kampung Bandan","is_transit":true,"time":3},{"is_transit":true,"station_id":"JAKK","time":3,"i_lat":-6.137569,"line":0,"transit":true,"station_name":"Jakarta Kota","distance":1364,"i_long":106.812439},{"i_long":106.820901,"transit":false,"is_transit":false,"time":4,"station_name":"Jayakarta","i_lat":-6.141205,"station_id":"JAY","distance":1264,"line":7},{"station_id":"MGB","distance":1080,"line":2,"i_lat":-6.149769,"transit":false,"i_long":106.82482,"is_transit":false,"station_name":"Manggabesar","time":2},{"is_transit":false,"transit":false,"station_name":"Sawah Besar","i_lat":-6.160725,"line":2,"distance":906,"i_long":106.827103,"time":2,"station_id":"SW"},{"i_lat":-6.166716,"station_id":"JUA","station_name":"Juanda","is_transit":false,"time":2,"transit":false,"i_long":106.828284,"distance":1149,"line":2},{"is_transit":false,"station_id":"GDD","i_long":106.832183,"transit":false,"line":2,"time":4,"station_name":"Gondangdia","distance":2015,"i_lat":-6.186295}]]}