{"data":[[{"station_name":"Univ. Pancasila","station_id":"UP","i_lat":-6.339291,"line":2,"distance":0,"is_transit":false,"time":0,"transit":false,"i_long":106.834175},{"transit":false,"is_transit":false,"distance":1029,"line":2,"i_lat":-6.330363,"station_name":"Lenteng Agung","i_long":106.832616,"station_id":"LNA","time":2},{"transit":false,"is_transit":false,"time":3,"line":2,"i_long":106.838896,"distance":2671,"station_name":"Tanjung Barat","station_id":"TNT","i_lat":-6.3080680000000005},{"transit":false,"station_id":"PSM","i_lat":-6.2842400000000005,"is_transit":false,"station_name":"Pasar Minggu","i_long":106.843999,"distance":2820,"line":2,"time":4},{"is_transit":false,"transit":false,"i_lat":-6.263214,"i_long":106.851577,"time":2,"distance":2380,"station_id":"PSMB","line":2,"station_name":"Pasar Minggu Baru"},{"line":2,"distance":824,"station_id":"DRN","is_transit":false,"time":2,"station_name":"Duren Kalibata","i_lat":-6.255332,"i_long":106.85449,"transit":false},{"station_name":"Cawang","is_transit":false,"line":2,"i_lat":-6.242512,"i_long":106.856607,"station_id":"CW","distance":1546,"time":3,"transit":false},{"i_long":106.857948,"i_lat":-6.226659,"station_id":"TEB","time":2,"line":2,"distance":1230,"station_name":"Tebet","is_transit":false,"transit":false},{"is_transit":false,"transit":false,"line":2,"station_name":"Manggarai","i_lat":-6.209883,"distance":2610,"station_id":"MRI","time":4,"i_long":106.84912},{"transit":false,"i_long":106.840169,"time":4,"is_transit":false,"station_id":"CKI","station_name":"Cikini","distance":1590,"line":2,"i_lat":-6.198556},{"distance":1750,"i_long":106.832183,"station_id":"GDD","transit":false,"time":3,"line":2,"station_name":"Gondangdia","i_lat":-6.186295,"is_transit":false}],[{"is_transit":false,"station_id":"UP","station_name":"Univ. Pancasila","i_lat":-6.339291,"i_long":106.834175,"distance":0,"line":2,"time":0,"transit":false},{"is_transit":false,"i_long":106.832616,"time":2,"transit":false,"line":2,"distance":1029,"station_id":"LNA","station_name":"Lenteng Agung","i_lat":-6.330363},{"i_long":106.838896,"distance":2671,"is_transit":false,"time":3,"station_name":"Tanjung Barat","transit":false,"i_lat":-6.3080680000000005,"line":2,"station_id":"TNT"},{"i_lat":-6.2842400000000005,"is_transit":false,"time":4,"line":2,"station_id":"PSM","station_name":"Pasar Minggu","distance":2820,"transit":false,"i_long":106.843999},{"distance":2380,"i_lat":-6.263214,"time":2,"transit":false,"station_name":"Pasar Minggu Baru","line":2,"station_id":"PSMB","is_transit":false,"i_long":106.851577},{"is_transit":false,"line":2,"time":2,"station_name":"Duren Kalibata","i_lat":-6.255332,"station_id":"DRN","i_long":106.85449,"transit":false,"distance":824},{"station_id":"CW","time":3,"transit":false,"line":2,"is_transit":false,"station_name":"Cawang","i_long":106.856607,"distance":1546,"i_lat":-6.242512},{"distance":1230,"station_name":"Tebet","line":2,"is_transit":false,"time":2,"station_id":"TEB","transit":false,"i_long":106.857948,"i_lat":-6.226659},{"transit":true,"is_transit":true,"i_lat":-6.209883,"line":2,"i_long":106.84912,"station_name":"Manggarai","distance":2610,"time":4,"station_id":"MRI"},{"station_id":"SUD","transit":false,"line":1,"is_transit":false,"i_lat":-6.202263,"distance":3186,"time":4,"station_name":"Sudirman","i_long":106.822649},{"station_id":"SUDB","is_transit":false,"transit":false,"distance":280,"i_lat":-6.201433,"station_name":"Sudirman Baru","line":1,"i_long":106.819881,"time":1},{"station_id":"KAT","transit":false,"time":1,"station_name":"Karet","is_transit":false,"distance":471,"line":1,"i_long":106.816351,"i_lat":-6.20132},{"transit":false,"distance":2029,"time":5,"is_transit":false,"i_lat":-6.185545,"i_long":106.811091,"station_name":"Tanah Abang","station_id":"THB","line":1},{"time":8,"i_long":106.800832,"is_transit":false,"transit":false,"station_name":"Duri","i_lat":-6.155215,"line":1,"station_id":"DU","distance":3632},{"line":1,"station_name":"Angke","transit":false,"distance":1230,"time":4,"i_lat":-6.144674,"is_transit":false,"i_long":106.79867,"station_id":"AK"},{"distance":4102,"transit":true,"i_lat":-6.132549,"station_id":"KPB","time":9,"station_name":"Kampung Bandan","line":4,"is_transit":true,"i_long":106.826365},{"is_transit":true,"transit":true,"station_name":"Jakarta Kota","i_lat":-6.137569,"i_long":106.812439,"time":3,"station_id":"JAKK","distance":1364,"line":2},{"transit":false,"i_lat":-6.141205,"is_transit":false,"i_long":106.820901,"distance":1264,"line":2,"station_id":"JAY","station_name":"Jayakarta","time":4},{"transit":false,"station_name":"Manggabesar","i_lat":-6.149769,"i_long":106.82482,"station_id":"MGB","line":2,"time":2,"distance":1080,"is_transit":false},{"is_transit":false,"transit":false,"station_name":"Sawah Besar","time":2,"distance":906,"station_id":"SW","i_lat":-6.160725,"line":2,"i_long":106.827103},{"line":2,"transit":false,"i_lat":-6.166716,"time":2,"station_id":"JUA","i_long":106.828284,"is_transit":false,"distance":1149,"station_name":"Juanda"},{"i_long":106.832183,"i_lat":-6.186295,"transit":false,"is_transit":false,"station_name":"Gondangdia","station_id":"GDD","distance":2015,"time":4,"line":2}],[{"transit":false,"time":0,"line":2,"is_transit":false,"station_name":"Univ. Pancasila","i_lat":-6.339291,"station_id":"UP","distance":0,"i_long":106.834175},{"is_transit":false,"i_long":106.832616,"line":2,"time":2,"station_id":"LNA","distance":1029,"transit":false,"station_name":"Lenteng Agung","i_lat":-6.330363},{"i_lat":-6.3080680000000005,"is_transit":false,"transit":false,"station_id":"TNT","time":3,"line":2,"distance":2671,"station_name":"Tanjung Barat","i_long":106.838896},{"line":2,"station_name":"Pasar Minggu","time":4,"is_transit":false,"station_id":"PSM","distance":2820,"transit":false,"i_lat":-6.2842400000000005,"i_long":106.843999},{"i_lat":-6.263214,"i_long":106.851577,"station_name":"Pasar Minggu Baru","line":2,"transit":false,"station_id":"PSMB","distance":2380,"is_transit":false,"time":2},{"is_transit":false,"i_long":106.85449,"station_name":"Duren Kalibata","line":2,"transit":false,"station_id":"DRN","i_lat":-6.255332,"time":2,"distance":824},{"line":2,"station_name":"Cawang","station_id":"CW","time":3,"i_lat":-6.242512,"is_transit":false,"i_long":106.856607,"transit":false,"distance":1546},{"distance":1230,"time":2,"station_id":"TEB","i_long":106.857948,"is_transit":false,"transit":false,"i_lat":-6.226659,"line":2,"station_name":"Tebet"},{"is_transit":true,"time":4,"distance":2610,"station_id":"MRI","station_name":"Manggarai","i_lat":-6.209883,"i_long":106.84912,"line":2,"transit":true},{"is_transit":false,"line":1,"i_long":106.858896,"i_lat":-6.212485,"distance":1275,"time":2,"station_name":"Matraman","transit":false,"station_id":"MTR"},{"i_lat":-6.215091,"line":1,"i_long":106.86807400000001,"transit":true,"is_transit":true,"distance":1377,"station_id":"JNG","station_name":"Jatinegara","time":8},{"station_id":"POK","is_transit":false,"i_long":106.861737,"transit":false,"distance":1236,"i_lat":-6.209188,"line":11,"time":2,"station_name":"Pondok Jati"},{"time":2,"station_name":"Kramat","transit":false,"station_id":"KMT","i_long":106.855437,"line":11,"distance":1829,"i_lat":-6.193792,"is_transit":false},{"time":1,"i_lat":-6.185975,"is_transit":false,"i_long":106.850107,"distance":973,"station_id":"GST","line":11,"transit":false,"station_name":"Gang Sentiong"},{"time":8,"transit":false,"is_transit":false,"distance":1567,"station_id":"PSE","i_long":106.84368,"i_lat":-6.174784,"station_name":"Pasar Senen","line":11},{"time":4,"i_lat":-6.161728,"distance":1436,"line":11,"is_transit":false,"station_name":"Kemayoran","transit":false,"station_id":"KMO","i_long":106.839204},{"is_transit":false,"time":5,"line":11,"transit":false,"i_lat":-6.14505,"station_name":"Rajawali","station_id":"RJW","i_long":106.836569,"distance":1901},{"is_transit":true,"station_id":"KPB","time":3,"distance":1444,"i_lat":-6.132549,"line":4,"transit":true,"i_long":106.826365,"station_name":"Kampung Bandan"},{"line":2,"distance":1364,"station_id":"JAKK","is_transit":true,"time":3,"transit":true,"station_name":"Jakarta Kota","i_lat":-6.137569,"i_long":106.812439},{"distance":1264,"is_transit":false,"transit":false,"line":2,"station_name":"Jayakarta","time":4,"station_id":"JAY","i_long":106.820901,"i_lat":-6.141205},{"i_lat":-6.149769,"transit":false,"is_transit":false,"station_name":"Manggabesar","station_id":"MGB","line":2,"i_long":106.82482,"distance":1080,"time":2},{"distance":906,"is_transit":false,"time":2,"transit":false,"station_id":"SW","i_lat":-6.160725,"line":2,"station_name":"Sawah Besar","i_long":106.827103},{"station_id":"JUA","time":2,"i_lat":-6.166716,"i_long":106.828284,"is_transit":false,"line":2,"distance":1149,"station_name":"Juanda","transit":false},{"i_lat":-6.186295,"is_transit":false,"station_name":"Gondangdia","line":2,"time":4,"i_long":106.832183,"station_id":"GDD","transit":false,"distance":2015}]]}