{"data":[[{"line":2,"transit":false,"is_transit":false,"i_long":106.834175,"station_name":"Univ. Pancasila","station_id":"UP","i_lat":-6.339291,"distance":0,"time":0},{"i_long":106.832616,"line":2,"distance":1029,"transit":false,"time":2,"i_lat":-6.330363,"station_id":"LNA","is_transit":false,"station_name":"Lenteng Agung"},{"station_name":"Tanjung Barat","distance":2671,"time":3,"i_long":106.838896,"transit":false,"line":2,"station_id":"TNT","is_transit":false,"i_lat":-6.3080680000000005},{"distance":2820,"is_transit":false,"transit":false,"station_id":"PSM","i_long":106.843999,"i_lat":-6.2842400000000005,"station_name":"Pasar Minggu","line":2,"time":4},{"i_long":106.851577,"i_lat":-6.263214,"station_name":"Pasar Minggu Baru","transit":false,"station_id":"PSMB","distance":2380,"is_transit":false,"line":2,"time":2},{"line":2,"station_id":"DRN","station_name":"Duren Kalibata","transit":false,"distance":824,"is_transit":false,"i_long":106.85449,"time":2,"i_lat":-6.255332},{"time":3,"transit":false,"is_transit":false,"station_name":"Cawang","station_id":"CW","distance":1546,"line":2,"i_lat":-6.242512,"i_long":106.856607},{"distance":1230,"station_id":"TEB","line":2,"i_lat":-6.226659,"is_transit":false,"time":2,"transit":false,"station_name":"Tebet","i_long":106.857948},{"distance":2610,"transit":false,"time":4,"station_id":"MRI","is_transit":false,"i_lat":-6.209883,"i_long":106.84912,"station_name":"Manggarai","line":2},{"transit":false,"i_long":106.840169,"distance":1590,"i_lat":-6.198556,"station_id":"CKI","station_name":"Cikini","is_transit":false,"time":4,"line":2},{"line":2,"station_id":"GDD","is_transit":false,"i_long":106.832183,"distance":1750,"transit":false,"i_lat":-6.186295,"station_name":"Gondangdia","time":3},{"station_id":"JUA","time":4,"distance":2015,"line":2,"i_lat":-6.166716,"transit":false,"station_name":"Juanda","is_transit":false,"i_long":106.828284},{"line":2,"time":2,"station_id":"SW","station_name":"Sawah Besar","transit":false,"i_lat":-6.160725,"distance":1149,"i_long":106.827103,"is_transit":false},{"time":2,"is_transit":false,"i_lat":-6.149769,"transit":false,"station_id":"MGB","distance":906,"station_name":"Manggabesar","line":2,"i_long":106.82482},{"transit":false,"distance":1080,"is_transit":false,"line":2,"station_name":"Jayakarta","i_long":106.820901,"station_id":"JAY","i_lat":-6.141205,"time":2}],[{"distance":0,"is_transit":false,"i_lat":-6.339291,"i_long":106.834175,"line":2,"transit":false,"time":0,"station_name":"Univ. Pancasila","station_id":"UP"},{"is_transit":false,"i_lat":-6.330363,"distance":1029,"line":2,"i_long":106.832616,"station_id":"LNA","transit":false,"station_name":"Lenteng Agung","time":2},{"distance":2671,"station_id":"TNT","line":2,"transit":false,"i_lat":-6.3080680000000005,"time":3,"is_transit":false,"i_long":106.838896,"station_name":"Tanjung Barat"},{"i_long":106.843999,"station_name":"Pasar Minggu","time":4,"line":2,"is_transit":false,"station_id":"PSM","transit":false,"distance":2820,"i_lat":-6.2842400000000005},{"station_name":"Pasar Minggu Baru","is_transit":false,"station_id":"PSMB","transit":false,"i_lat":-6.263214,"i_long":106.851577,"time":2,"distance":2380,"line":2},{"station_id":"DRN","transit":false,"distance":824,"time":2,"i_long":106.85449,"station_name":"Duren Kalibata","is_transit":false,"i_lat":-6.255332,"line":2},{"time":3,"station_name":"Cawang","is_transit":false,"transit":false,"distance":1546,"i_lat":-6.242512,"i_long":106.856607,"station_id":"CW","line":2},{"transit":false,"time":2,"station_name":"Tebet","i_lat":-6.226659,"line":2,"station_id":"TEB","distance":1230,"is_transit":false,"i_long":106.857948},{"line":2,"is_transit":true,"distance":2610,"station_name":"Manggarai","transit":true,"time":4,"station_id":"MRI","i_long":106.84912,"i_lat":-6.209883},{"station_id":"SUD","is_transit":false,"transit":false,"i_long":106.822649,"time":4,"station_name":"Sudirman","line":1,"distance":3186,"i_lat":-6.202263},{"station_name":"Sudirman Baru","i_lat":-6.201433,"distance":280,"is_transit":false,"time":1,"transit":false,"station_id":"SUDB","line":1,"i_long":106.819881},{"i_lat":-6.20132,"time":1,"station_id":"KAT","line":1,"station_name":"Karet","distance":471,"is_transit":false,"i_long":106.816351,"transit":false},{"i_lat":-6.185545,"time":5,"is_transit":false,"transit":false,"station_id":"THB","station_name":"Tanah Abang","distance":2029,"i_long":106.811091,"line":1},{"station_name":"Duri","is_transit":false,"i_long":106.800832,"line":1,"i_lat":-6.155215,"station_id":"DU","time":8,"transit":false,"distance":3632},{"transit":false,"distance":1230,"station_id":"AK","station_name":"Angke","line":1,"is_transit":false,"i_lat":-6.144674,"time":4,"i_long":106.79867},{"is_transit":true,"line":4,"station_id":"KPB","i_long":106.826365,"distance":4102,"time":9,"station_name":"Kampung Bandan","transit":true,"i_lat":-6.132549},{"i_lat":-6.137569,"time":3,"station_id":"JAKK","is_transit":true,"station_name":"Jakarta Kota","distance":1364,"i_long":106.812439,"line":2,"transit":true},{"station_id":"JAY","is_transit":false,"station_name":"Jayakarta","i_lat":-6.141205,"line":2,"transit":false,"time":4,"distance":1264,"i_long":106.820901}],[{"time":0,"station_id":"UP","is_transit":false,"i_long":106.834175,"i_lat":-6.339291,"line":2,"distance":0,"station_name":"Univ. Pancasila","transit":false},{"line":2,"transit":false,"time":2,"station_id":"LNA","station_name":"Lenteng Agung","i_long":106.832616,"i_lat":-6.330363,"distance":1029,"is_transit":false},{"line":2,"station_id":"TNT","distance":2671,"time":3,"is_transit":false,"transit":false,"station_name":"Tanjung Barat","i_lat":-6.3080680000000005,"i_long":106.838896},{"line":2,"station_name":"Pasar Minggu","is_transit":false,"station_id":"PSM","transit":false,"time":4,"i_lat":-6.2842400000000005,"distance":2820,"i_long":106.843999},{"station_name":"Pasar Minggu Baru","i_long":106.851577,"transit":false,"i_lat":-6.263214,"time":2,"distance":2380,"station_id":"PSMB","is_transit":false,"line":2},{"distance":824,"transit":false,"station_name":"Duren Kalibata","line":2,"station_id":"DRN","is_transit":false,"time":2,"i_lat":-6.255332,"i_long":106.85449},{"distance":1546,"i_lat":-6.242512,"time":3,"station_name":"Cawang","i_long":106.856607,"station_id":"CW","line":2,"transit":false,"is_transit":false},{"i_long":106.857948,"distance":1230,"time":2,"station_name":"Tebet","transit":false,"is_transit":false,"station_id":"TEB","i_lat":-6.226659,"line":2},{"line":2,"distance":2610,"station_id":"MRI","transit":true,"time":4,"is_transit":true,"i_lat":-6.209883,"station_name":"Manggarai","i_long":106.84912},{"transit":false,"line":1,"station_name":"Matraman","is_transit":false,"station_id":"MTR","i_lat":-6.212485,"i_long":106.858896,"distance":1275,"time":2},{"station_id":"JNG","is_transit":true,"i_long":106.86807400000001,"time":8,"station_name":"Jatinegara","transit":true,"line":1,"distance":1377,"i_lat":-6.215091},{"i_long":106.861737,"station_id":"POK","time":2,"distance":1236,"station_name":"Pondok Jati","transit":false,"is_transit":false,"i_lat":-6.209188,"line":11},{"line":11,"station_id":"KMT","transit":false,"distance":1829,"station_name":"Kramat","i_lat":-6.193792,"time":2,"is_transit":false,"i_long":106.855437},{"station_id":"GST","is_transit":false,"i_lat":-6.185975,"transit":false,"i_long":106.850107,"distance":973,"line":11,"station_name":"Gang Sentiong","time":1},{"is_transit":false,"line":11,"distance":1567,"time":8,"i_lat":-6.174784,"station_name":"Pasar Senen","i_long":106.84368,"transit":false,"station_id":"PSE"},{"station_name":"Kemayoran","i_lat":-6.161728,"line":11,"station_id":"KMO","transit":false,"time":4,"is_transit":false,"distance":1436,"i_long":106.839204},{"station_id":"RJW","station_name":"Rajawali","time":5,"transit":false,"i_long":106.836569,"distance":1901,"is_transit":false,"i_lat":-6.14505,"line":11},{"time":3,"transit":true,"line":4,"station_name":"Kampung Bandan","station_id":"KPB","i_lat":-6.132549,"i_long":106.826365,"is_transit":true,"distance":1444},{"station_id":"JAKK","distance":1364,"i_lat":-6.137569,"i_long":106.812439,"line":2,"time":3,"station_name":"Jakarta Kota","is_transit":true,"transit":true},{"station_name":"Jayakarta","transit":false,"time":4,"i_lat":-6.141205,"is_transit":false,"i_long":106.820901,"line":2,"distance":1264,"station_id":"JAY"}]]}