{"data":[[{"line":2,"transit":false,"time":0,"station_name":"Univ. Pancasila","is_transit":false,"distance":0,"i_lat":-6.339291,"i_long":106.834175,"station_id":"UP"},{"is_transit":false,"station_name":"Lenteng Agung","distance":1029,"i_long":106.832616,"i_lat":-6.330363,"line":2,"transit":false,"station_id":"LNA","time":2},{"station_id":"TNT","station_name":"Tanjung Barat","i_long":106.838896,"time":3,"transit":false,"distance":2671,"i_lat":-6.3080680000000005,"line":2,"is_transit":false},{"time":4,"is_transit":false,"transit":false,"i_long":106.843999,"station_name":"Pasar Minggu","station_id":"PSM","line":2,"i_lat":-6.2842400000000005,"distance":2820},{"is_transit":false,"i_lat":-6.263214,"distance":2380,"line":2,"time":2,"transit":false,"station_id":"PSMB","station_name":"Pasar Minggu Baru","i_long":106.851577},{"station_name":"Duren Kalibata","distance":824,"i_lat":-6.255332,"i_long":106.85449,"line":2,"time":2,"is_transit":false,"station_id":"DRN","transit":false},{"is_transit":false,"line":2,"transit":false,"i_long":106.856607,"time":3,"distance":1546,"station_name":"Cawang","station_id":"CW","i_lat":-6.242512},{"i_long":106.857948,"station_name":"Tebet","station_id":"TEB","is_transit":false,"distance":1230,"time":2,"transit":false,"i_lat":-6.226659,"line":2},{"time":4,"i_lat":-6.209883,"i_long":106.84912,"station_id":"MRI","line":2,"station_name":"Manggarai","transit":true,"is_transit":true,"distance":2610},{"distance":1275,"station_name":"Matraman","i_long":106.858896,"line":1,"transit":false,"i_lat":-6.212485,"station_id":"MTR","is_transit":false,"time":2},{"station_name":"Jatinegara","i_long":106.86807400000001,"line":1,"is_transit":false,"time":8,"station_id":"JNG","transit":false,"i_lat":-6.215091,"distance":1377}],[{"time":0,"i_long":106.834175,"station_name":"Univ. Pancasila","station_id":"UP","i_lat":-6.339291,"transit":false,"line":2,"distance":0,"is_transit":false},{"station_id":"LNA","is_transit":false,"distance":1029,"time":2,"i_lat":-6.330363,"station_name":"Lenteng Agung","i_long":106.832616,"transit":false,"line":2},{"time":3,"station_name":"Tanjung Barat","i_lat":-6.3080680000000005,"station_id":"TNT","i_long":106.838896,"transit":false,"is_transit":false,"distance":2671,"line":2},{"station_name":"Pasar Minggu","is_transit":false,"station_id":"PSM","i_lat":-6.2842400000000005,"transit":false,"i_long":106.843999,"time":4,"distance":2820,"line":2},{"is_transit":false,"line":2,"i_long":106.851577,"station_id":"PSMB","i_lat":-6.263214,"time":2,"distance":2380,"transit":false,"station_name":"Pasar Minggu Baru"},{"distance":824,"is_transit":false,"station_name":"Duren Kalibata","i_lat":-6.255332,"station_id":"DRN","line":2,"transit":false,"time":2,"i_long":106.85449},{"transit":false,"i_lat":-6.242512,"i_long":106.856607,"station_name":"Cawang","distance":1546,"time":3,"line":2,"station_id":"CW","is_transit":false},{"is_transit":false,"transit":false,"distance":1230,"i_lat":-6.226659,"line":2,"i_long":106.857948,"time":2,"station_id":"TEB","station_name":"Tebet"},{"is_transit":true,"transit":true,"station_name":"Manggarai","station_id":"MRI","time":4,"i_lat":-6.209883,"distance":2610,"line":2,"i_long":106.84912},{"station_name":"Sudirman","station_id":"SUD","distance":3186,"transit":false,"time":4,"line":1,"i_long":106.822649,"i_lat":-6.202263,"is_transit":false},{"station_id":"SUDB","station_name":"Sudirman Baru","line":1,"transit":false,"distance":280,"time":1,"i_long":106.819881,"is_transit":false,"i_lat":-6.201433},{"transit":false,"is_transit":false,"distance":471,"time":1,"station_name":"Karet","i_lat":-6.20132,"station_id":"KAT","i_long":106.816351,"line":1},{"i_lat":-6.185545,"station_name":"Tanah Abang","line":1,"i_long":106.811091,"is_transit":false,"time":5,"transit":false,"station_id":"THB","distance":2029},{"line":1,"distance":3632,"i_long":106.800832,"station_id":"DU","time":8,"station_name":"Duri","i_lat":-6.155215,"is_transit":false,"transit":false},{"transit":false,"i_lat":-6.144674,"time":4,"station_id":"AK","station_name":"Angke","is_transit":false,"line":1,"i_long":106.79867,"distance":1230},{"is_transit":true,"i_long":106.826365,"line":4,"distance":4102,"time":9,"transit":true,"station_id":"KPB","i_lat":-6.132549,"station_name":"Kampung Bandan"},{"i_long":106.836569,"transit":false,"i_lat":-6.14505,"station_id":"RJW","is_transit":false,"time":3,"line":11,"station_name":"Rajawali","distance":1444},{"line":11,"station_id":"KMO","station_name":"Kemayoran","i_long":106.839204,"transit":false,"distance":1901,"time":5,"i_lat":-6.161728,"is_transit":false},{"station_id":"PSE","transit":false,"time":4,"station_name":"Pasar Senen","i_lat":-6.174784,"distance":1436,"line":11,"is_transit":false,"i_long":106.84368},{"i_lat":-6.185975,"station_id":"GST","distance":1567,"station_name":"Gang Sentiong","transit":false,"is_transit":false,"i_long":106.850107,"line":11,"time":8},{"time":1,"station_name":"Kramat","transit":false,"distance":973,"station_id":"KMT","i_lat":-6.193792,"i_long":106.855437,"is_transit":false,"line":11},{"time":2,"is_transit":false,"station_name":"Pondok Jati","i_lat":-6.209188,"line":11,"station_id":"POK","transit":false,"distance":1829,"i_long":106.861737},{"distance":1236,"transit":false,"is_transit":false,"i_long":106.86807400000001,"line":1,"station_id":"JNG","time":9,"i_lat":-6.215091,"station_name":"Jatinegara"}],[{"transit":false,"station_name":"Univ. Pancasila","i_long":106.834175,"is_transit":false,"distance":0,"line":2,"i_lat":-6.339291,"time":0,"station_id":"UP"},{"i_long":106.832616,"line":2,"distance":1029,"station_name":"Lenteng Agung","i_lat":-6.330363,"is_transit":false,"time":2,"station_id":"LNA","transit":false},{"i_long":106.838896,"distance":2671,"is_transit":false,"i_lat":-6.3080680000000005,"line":2,"time":3,"station_name":"Tanjung Barat","station_id":"TNT","transit":false},{"time":4,"i_lat":-6.2842400000000005,"distance":2820,"transit":false,"station_id":"PSM","i_long":106.843999,"station_name":"Pasar Minggu","line":2,"is_transit":false},{"i_lat":-6.263214,"station_id":"PSMB","distance":2380,"i_long":106.851577,"is_transit":false,"transit":false,"station_name":"Pasar Minggu Baru","line":2,"time":2},{"station_id":"DRN","i_long":106.85449,"transit":false,"distance":824,"station_name":"Duren Kalibata","i_lat":-6.255332,"time":2,"line":2,"is_transit":false},{"time":3,"line":2,"station_id":"CW","station_name":"Cawang","i_long":106.856607,"transit":false,"is_transit":false,"distance":1546,"i_lat":-6.242512},{"station_name":"Tebet","is_transit":false,"line":2,"distance":1230,"transit":false,"time":2,"i_lat":-6.226659,"i_long":106.857948,"station_id":"TEB"},{"is_transit":false,"time":4,"transit":false,"i_long":106.84912,"i_lat":-6.209883,"line":2,"distance":2610,"station_name":"Manggarai","station_id":"MRI"},{"station_id":"CKI","transit":false,"station_name":"Cikini","is_transit":false,"time":4,"line":2,"distance":1590,"i_long":106.840169,"i_lat":-6.198556},{"i_lat":-6.186295,"station_id":"GDD","station_name":"Gondangdia","is_transit":false,"transit":false,"i_long":106.832183,"line":2,"distance":1750,"time":3},{"transit":false,"station_name":"Juanda","i_lat":-6.166716,"distance":2015,"i_long":106.828284,"line":2,"is_transit":false,"station_id":"JUA","time":4},{"line":2,"time":2,"transit":false,"is_transit":false,"station_name":"Sawah Besar","i_lat":-6.160725,"i_long":106.827103,"distance":1149,"station_id":"SW"},{"distance":906,"transit":false,"time":2,"i_lat":-6.149769,"i_long":106.82482,"is_transit":false,"line":2,"station_id":"MGB","station_name":"Manggabesar"},{"transit":false,"line":2,"i_long":106.820901,"time":2,"i_lat":-6.141205,"station_name":"Jayakarta","station_id":"JAY","distance":1080,"is_transit":false},{"i_lat":-6.137569,"time":4,"distance":1264,"line":2,"station_id":"JAKK","station_name":"Jakarta Kota","is_transit":true,"transit":true,"i_long":106.812439},{"i_lat":-6.132549,"time":3,"is_transit":true,"station_name":"Kampung Bandan","station_id":"KPB","i_long":106.826365,"line":4,"transit":true,"distance":1364},{"station_name":"Rajawali","station_id":"RJW","time":3,"is_transit":false,"i_long":106.836569,"line":11,"transit":false,"distance":1444,"i_lat":-6.14505},{"distance":1901,"i_long":106.839204,"time":5,"line":11,"i_lat":-6.161728,"station_id":"KMO","station_name":"Kemayoran","transit":false,"is_transit":false},{"line":11,"is_transit":false,"time":4,"distance":1436,"i_long":106.84368,"station_id":"PSE","transit":false,"station_name":"Pasar Senen","i_lat":-6.174784},{"transit":false,"i_long":106.850107,"station_name":"Gang Sentiong","is_transit":false,"line":11,"station_id":"GST","distance":1567,"i_lat":-6.185975,"time":8},{"i_long":106.855437,"station_id":"KMT","i_lat":-6.193792,"distance":973,"line":11,"time":1,"station_name":"Kramat","is_transit":false,"transit":false},{"is_transit":false,"station_id":"POK","i_lat":-6.209188,"time":2,"i_long":106.861737,"line":11,"distance":1829,"station_name":"Pondok Jati","transit":false},{"i_lat":-6.215091,"i_long":106.86807400000001,"station_id":"JNG","is_transit":false,"station_name":"Jatinegara","line":1,"transit":false,"distance":1236,"time":9}]]}