{"data":[[{"station_name":"Univ. Pancasila","distance":0,"i_lat":-6.339291,"time":0,"is_transit":false,"i_long":106.834175,"station_id":"UP","transit":false,"line":2},{"line":2,"station_id":"LNA","station_name":"Lenteng Agung","time":2,"is_transit":false,"distance":1029,"i_long":106.832616,"i_lat":-6.330363,"transit":false},{"station_name":"Tanjung Barat","is_transit":false,"i_lat":-6.3080680000000005,"i_long":106.838896,"transit":false,"station_id":"TNT","time":3,"distance":2671,"line":2},{"line":2,"i_long":106.843999,"transit":false,"is_transit":false,"distance":2820,"station_name":"Pasar Minggu","time":4,"i_lat":-6.2842400000000005,"station_id":"PSM"},{"transit":false,"station_id":"PSMB","is_transit":false,"distance":2380,"time":2,"line":2,"station_name":"Pasar Minggu Baru","i_long":106.851577,"i_lat":-6.263214},{"i_long":106.85449,"distance":824,"transit":false,"station_name":"Duren Kalibata","line":0,"i_lat":-6.255332,"time":2,"is_transit":false,"station_id":"DRN"},{"line":0,"i_long":106.856607,"transit":false,"distance":1546,"station_id":"CW","station_name":"Cawang","is_transit":false,"i_lat":-6.242512,"time":3},{"distance":1230,"is_transit":false,"station_id":"TEB","station_name":"Tebet","time":2,"transit":false,"i_lat":-6.226659,"i_long":106.857948,"line":2},{"distance":2610,"station_id":"MRI","is_transit":true,"i_lat":-6.209883,"time":4,"station_name":"Manggarai","transit":true,"line":0,"i_long":106.84912},{"distance":1275,"station_name":"Matraman","time":2,"transit":false,"line":1,"is_transit":false,"i_long":106.858896,"station_id":"MTR","i_lat":-6.212485},{"station_id":"JNG","time":8,"station_name":"Jatinegara","i_long":106.86807400000001,"is_transit":true,"distance":1377,"transit":false,"line":0,"i_lat":-6.215091}],[{"time":0,"distance":0,"i_long":106.834175,"station_id":"UP","line":2,"station_name":"Univ. Pancasila","transit":false,"i_lat":-6.339291,"is_transit":false},{"time":2,"is_transit":false,"station_name":"Lenteng Agung","i_lat":-6.330363,"line":2,"station_id":"LNA","i_long":106.832616,"transit":false,"distance":1029},{"line":2,"is_transit":false,"transit":false,"station_id":"TNT","station_name":"Tanjung Barat","i_lat":-6.3080680000000005,"i_long":106.838896,"distance":2671,"time":3},{"i_long":106.843999,"i_lat":-6.2842400000000005,"station_id":"PSM","station_name":"Pasar Minggu","is_transit":false,"time":4,"line":2,"distance":2820,"transit":false},{"i_lat":-6.263214,"station_name":"Pasar Minggu Baru","station_id":"PSMB","is_transit":false,"time":2,"transit":false,"line":2,"distance":2380,"i_long":106.851577},{"i_long":106.85449,"line":0,"time":2,"distance":824,"is_transit":false,"station_id":"DRN","station_name":"Duren Kalibata","transit":false,"i_lat":-6.255332},{"time":3,"i_long":106.856607,"station_name":"Cawang","is_transit":false,"transit":false,"distance":1546,"line":0,"i_lat":-6.242512,"station_id":"CW"},{"i_long":106.857948,"station_name":"Tebet","distance":1230,"i_lat":-6.226659,"station_id":"TEB","line":2,"is_transit":false,"time":2,"transit":false},{"i_lat":-6.209883,"transit":true,"line":0,"station_id":"MRI","time":4,"distance":2610,"is_transit":true,"i_long":106.84912,"station_name":"Manggarai"},{"i_lat":-6.202263,"station_name":"Sudirman","station_id":"SUD","is_transit":false,"distance":3186,"i_long":106.822649,"transit":false,"line":1,"time":4},{"transit":false,"station_name":"Sudirman Baru","i_long":106.819881,"time":1,"distance":280,"line":1,"station_id":"SUDB","is_transit":false,"i_lat":-6.201433},{"line":1,"station_id":"KAT","station_name":"Karet","is_transit":false,"i_long":106.816351,"distance":471,"time":1,"transit":false,"i_lat":-6.20132},{"station_id":"THB","time":5,"is_transit":true,"i_lat":-6.185545,"station_name":"Tanah Abang","i_long":106.811091,"transit":false,"line":1,"distance":2029},{"is_transit":true,"i_long":106.800832,"station_id":"DU","i_lat":-6.155215,"line":1,"distance":3632,"transit":true,"station_name":"Duri","time":8},{"station_name":"Angke","is_transit":false,"station_id":"AK","i_long":106.79867,"distance":1230,"time":4,"transit":false,"line":0,"i_lat":-6.144674},{"i_lat":-6.132549,"distance":4102,"line":0,"time":9,"is_transit":true,"transit":true,"station_name":"Kampung Bandan","i_long":106.826365,"station_id":"KPB"},{"i_lat":-6.14505,"i_long":106.836569,"is_transit":false,"time":3,"line":11,"station_id":"RJW","distance":1444,"transit":false,"station_name":"Rajawali"},{"i_long":106.839204,"line":11,"station_name":"Kemayoran","is_transit":false,"station_id":"KMO","time":5,"distance":1901,"i_lat":-6.161728,"transit":false},{"distance":1436,"is_transit":false,"transit":false,"i_long":106.84368,"i_lat":-6.174784,"station_id":"PSE","station_name":"Pasar Senen","time":4,"line":11},{"time":8,"distance":1567,"transit":false,"i_lat":-6.185975,"i_long":106.850107,"is_transit":false,"station_name":"Gang Sentiong","line":11,"station_id":"GST"},{"transit":false,"station_id":"KMT","i_lat":-6.193792,"i_long":106.855437,"station_name":"Kramat","line":11,"is_transit":false,"time":1,"distance":973},{"station_id":"POK","time":2,"i_long":106.861737,"i_lat":-6.209188,"is_transit":false,"station_name":"Pondok Jati","transit":false,"distance":1829,"line":11},{"transit":false,"i_lat":-6.215091,"i_long":106.86807400000001,"is_transit":true,"distance":1236,"station_id":"JNG","time":9,"station_name":"Jatinegara","line":0}],[{"transit":false,"i_long":106.834175,"i_lat":-6.339291,"station_id":"UP","distance":0,"time":0,"line":2,"station_name":"Univ. Pancasila","is_transit":false},{"i_long":106.832616,"station_id":"LNA","transit":false,"station_name":"Lenteng Agung","line":2,"time":2,"is_transit":false,"distance":1029,"i_lat":-6.330363},{"station_name":"Tanjung Barat","line":2,"i_long":106.838896,"distance":2671,"transit":false,"i_lat":-6.3080680000000005,"time":3,"station_id":"TNT","is_transit":false},{"station_name":"Pasar Minggu","distance":2820,"i_lat":-6.2842400000000005,"i_long":106.843999,"station_id":"PSM","is_transit":false,"time":4,"line":2,"transit":false},{"distance":2380,"is_transit":false,"transit":false,"station_name":"Pasar Minggu Baru","time":2,"i_lat":-6.263214,"station_id":"PSMB","i_long":106.851577,"line":2},{"i_long":106.85449,"distance":824,"line":0,"station_name":"Duren Kalibata","station_id":"DRN","i_lat":-6.255332,"time":2,"transit":false,"is_transit":false},{"distance":1546,"i_lat":-6.242512,"transit":false,"i_long":106.856607,"time":3,"is_transit":false,"line":0,"station_name":"Cawang","station_id":"CW"},{"time":2,"station_id":"TEB","distance":1230,"transit":false,"is_transit":false,"i_long":106.857948,"line":2,"i_lat":-6.226659,"station_name":"Tebet"},{"transit":true,"time":4,"distance":2610,"line":0,"station_id":"MRI","i_long":106.84912,"i_lat":-6.209883,"station_name":"Manggarai","is_transit":true},{"time":4,"station_id":"CKI","station_name":"Cikini","transit":false,"line":0,"i_lat":-6.198556,"is_transit":false,"distance":1590,"i_long":106.840169},{"is_transit":false,"time":3,"distance":1750,"station_name":"Gondangdia","i_lat":-6.186295,"i_long":106.832183,"line":2,"station_id":"GDD","transit":false},{"i_lat":-6.166716,"is_transit":false,"station_name":"Juanda","station_id":"JUA","distance":2015,"transit":false,"time":4,"i_long":106.828284,"line":2},{"is_transit":false,"station_name":"Sawah Besar","time":2,"distance":1149,"line":2,"transit":false,"i_lat":-6.160725,"station_id":"SW","i_long":106.827103},{"distance":906,"is_transit":false,"time":2,"station_name":"Manggabesar","i_lat":-6.149769,"i_long":106.82482,"transit":false,"line":2,"station_id":"MGB"},{"transit":false,"time":2,"station_id":"JAY","is_transit":false,"i_long":106.820901,"distance":1080,"i_lat":-6.141205,"line":7,"station_name":"Jayakarta"},{"is_transit":true,"line":0,"station_id":"JAKK","i_long":106.812439,"station_name":"Jakarta Kota","time":4,"distance":1264,"transit":true,"i_lat":-6.137569},{"distance":1364,"station_id":"KPB","is_transit":true,"time":3,"transit":true,"i_lat":-6.132549,"station_name":"Kampung Bandan","i_long":106.826365,"line":0},{"i_long":106.836569,"station_id":"RJW","time":3,"station_name":"Rajawali","distance":1444,"transit":false,"i_lat":-6.14505,"line":11,"is_transit":false},{"station_name":"Kemayoran","i_long":106.839204,"i_lat":-6.161728,"line":11,"distance":1901,"is_transit":false,"station_id":"KMO","time":5,"transit":false},{"is_transit":false,"station_name":"Pasar Senen","i_long":106.84368,"station_id":"PSE","time":4,"line":11,"transit":false,"distance":1436,"i_lat":-6.174784},{"station_id":"GST","is_transit":false,"time":8,"distance":1567,"station_name":"Gang Sentiong","i_lat":-6.185975,"i_long":106.850107,"line":11,"transit":false},{"transit":false,"i_lat":-6.193792,"time":1,"station_id":"KMT","distance":973,"line":11,"station_name":"Kramat","i_long":106.855437,"is_transit":false},{"station_id":"POK","is_transit":false,"station_name":"Pondok Jati","time":2,"distance":1829,"transit":false,"line":11,"i_long":106.861737,"i_lat":-6.209188},{"line":0,"station_name":"Jatinegara","i_long":106.86807400000001,"station_id":"JNG","time":9,"i_lat":-6.215091,"transit":false,"is_transit":true,"distance":1236}]]}