{"data":[[{"station_id":"UP","is_transit":false,"i_lat":-6.339291,"time":0,"line":2,"station_name":"Univ. Pancasila","transit":false,"distance":0,"i_long":106.834175},{"time":2,"i_lat":-6.330363,"station_id":"LNA","station_name":"Lenteng Agung","i_long":106.832616,"transit":false,"is_transit":false,"line":2,"distance":1029},{"i_lat":-6.3080680000000005,"station_name":"Tanjung Barat","line":2,"time":3,"station_id":"TNT","transit":false,"distance":2671,"i_long":106.838896,"is_transit":false},{"transit":false,"station_name":"Pasar Minggu","distance":2820,"is_transit":false,"line":2,"time":4,"station_id":"PSM","i_long":106.843999,"i_lat":-6.2842400000000005},{"station_id":"PSMB","is_transit":false,"i_lat":-6.263214,"line":2,"time":2,"i_long":106.851577,"station_name":"Pasar Minggu Baru","transit":false,"distance":2380},{"line":2,"transit":false,"i_lat":-6.255332,"station_name":"Duren Kalibata","station_id":"DRN","distance":824,"i_long":106.85449,"is_transit":false,"time":2},{"i_lat":-6.242512,"transit":false,"i_long":106.856607,"is_transit":false,"line":2,"distance":1546,"time":3,"station_id":"CW","station_name":"Cawang"},{"station_id":"TEB","is_transit":false,"line":2,"i_lat":-6.226659,"transit":false,"distance":1230,"time":2,"i_long":106.857948,"station_name":"Tebet"},{"transit":false,"i_lat":-6.209883,"line":2,"station_id":"MRI","distance":2610,"is_transit":false,"station_name":"Manggarai","time":4,"i_long":106.84912},{"i_lat":-6.198556,"time":4,"line":2,"station_name":"Cikini","distance":1590,"i_long":106.840169,"transit":false,"station_id":"CKI","is_transit":false},{"i_lat":-6.186295,"i_long":106.832183,"distance":1750,"line":2,"station_id":"GDD","time":3,"station_name":"Gondangdia","is_transit":false,"transit":false},{"is_transit":false,"transit":false,"distance":2015,"line":2,"time":4,"i_lat":-6.166716,"station_name":"Juanda","station_id":"JUA","i_long":106.828284},{"station_name":"Sawah Besar","is_transit":false,"time":2,"distance":1149,"station_id":"SW","line":2,"i_long":106.827103,"i_lat":-6.160725,"transit":false},{"transit":false,"i_long":106.82482,"station_name":"Manggabesar","is_transit":false,"distance":906,"i_lat":-6.149769,"station_id":"MGB","line":2,"time":2},{"station_id":"JAY","distance":1080,"is_transit":false,"time":2,"i_lat":-6.141205,"i_long":106.820901,"line":2,"station_name":"Jayakarta","transit":false}],[{"station_id":"UP","transit":false,"distance":0,"time":0,"i_long":106.834175,"i_lat":-6.339291,"line":2,"station_name":"Univ. Pancasila","is_transit":false},{"i_lat":-6.330363,"station_name":"Lenteng Agung","is_transit":false,"station_id":"LNA","transit":false,"i_long":106.832616,"time":2,"distance":1029,"line":2},{"time":3,"transit":false,"station_name":"Tanjung Barat","i_lat":-6.3080680000000005,"is_transit":false,"line":2,"i_long":106.838896,"station_id":"TNT","distance":2671},{"transit":false,"distance":2820,"station_id":"PSM","is_transit":false,"i_lat":-6.2842400000000005,"station_name":"Pasar Minggu","time":4,"i_long":106.843999,"line":2},{"i_lat":-6.263214,"transit":false,"distance":2380,"station_name":"Pasar Minggu Baru","station_id":"PSMB","i_long":106.851577,"line":2,"time":2,"is_transit":false},{"i_long":106.85449,"station_name":"Duren Kalibata","line":2,"is_transit":false,"transit":false,"time":2,"distance":824,"station_id":"DRN","i_lat":-6.255332},{"i_long":106.856607,"line":2,"is_transit":false,"distance":1546,"station_id":"CW","transit":false,"station_name":"Cawang","time":3,"i_lat":-6.242512},{"transit":false,"distance":1230,"line":2,"i_lat":-6.226659,"i_long":106.857948,"time":2,"station_name":"Tebet","station_id":"TEB","is_transit":false},{"distance":2610,"i_long":106.84912,"line":2,"transit":true,"time":4,"station_name":"Manggarai","station_id":"MRI","is_transit":true,"i_lat":-6.209883},{"line":1,"is_transit":false,"station_id":"SUD","time":4,"distance":3186,"transit":false,"station_name":"Sudirman","i_long":106.822649,"i_lat":-6.202263},{"distance":280,"line":1,"station_name":"Sudirman Baru","i_long":106.819881,"time":1,"station_id":"SUDB","transit":false,"i_lat":-6.201433,"is_transit":false},{"i_long":106.816351,"station_name":"Karet","i_lat":-6.20132,"is_transit":false,"time":1,"transit":false,"line":1,"station_id":"KAT","distance":471},{"i_lat":-6.185545,"station_name":"Tanah Abang","distance":2029,"line":1,"i_long":106.811091,"transit":false,"is_transit":false,"station_id":"THB","time":5},{"transit":false,"i_long":106.800832,"station_id":"DU","is_transit":false,"time":8,"i_lat":-6.155215,"distance":3632,"station_name":"Duri","line":1},{"i_long":106.79867,"station_id":"AK","is_transit":false,"time":4,"station_name":"Angke","distance":1230,"line":1,"transit":false,"i_lat":-6.144674},{"station_id":"KPB","time":9,"station_name":"Kampung Bandan","line":4,"distance":4102,"i_lat":-6.132549,"transit":true,"is_transit":true,"i_long":106.826365},{"station_name":"Jakarta Kota","time":3,"i_lat":-6.137569,"is_transit":true,"station_id":"JAKK","distance":1364,"transit":true,"i_long":106.812439,"line":2},{"i_lat":-6.141205,"line":2,"station_id":"JAY","time":4,"station_name":"Jayakarta","is_transit":false,"transit":false,"distance":1264,"i_long":106.820901}],[{"is_transit":false,"transit":false,"line":2,"i_lat":-6.339291,"station_id":"UP","i_long":106.834175,"time":0,"distance":0,"station_name":"Univ. Pancasila"},{"time":2,"is_transit":false,"station_id":"LNA","transit":false,"distance":1029,"line":2,"i_long":106.832616,"station_name":"Lenteng Agung","i_lat":-6.330363},{"transit":false,"station_id":"TNT","is_transit":false,"distance":2671,"line":2,"i_long":106.838896,"station_name":"Tanjung Barat","time":3,"i_lat":-6.3080680000000005},{"i_long":106.843999,"i_lat":-6.2842400000000005,"transit":false,"time":4,"line":2,"is_transit":false,"station_id":"PSM","station_name":"Pasar Minggu","distance":2820},{"i_lat":-6.263214,"i_long":106.851577,"transit":false,"time":2,"line":2,"is_transit":false,"distance":2380,"station_name":"Pasar Minggu Baru","station_id":"PSMB"},{"distance":824,"transit":false,"station_id":"DRN","line":2,"is_transit":false,"i_long":106.85449,"station_name":"Duren Kalibata","time":2,"i_lat":-6.255332},{"i_long":106.856607,"line":2,"i_lat":-6.242512,"is_transit":false,"station_name":"Cawang","station_id":"CW","time":3,"transit":false,"distance":1546},{"station_id":"TEB","station_name":"Tebet","line":2,"transit":false,"is_transit":false,"distance":1230,"i_lat":-6.226659,"time":2,"i_long":106.857948},{"is_transit":true,"transit":true,"i_long":106.84912,"station_id":"MRI","time":4,"distance":2610,"i_lat":-6.209883,"line":2,"station_name":"Manggarai"},{"station_id":"MTR","distance":1275,"time":2,"line":1,"i_lat":-6.212485,"transit":false,"i_long":106.858896,"station_name":"Matraman","is_transit":false},{"time":8,"line":1,"station_name":"Jatinegara","transit":true,"distance":1377,"i_long":106.86807400000001,"station_id":"JNG","is_transit":true,"i_lat":-6.215091},{"time":2,"station_name":"Pondok Jati","i_long":106.861737,"distance":1236,"line":11,"i_lat":-6.209188,"station_id":"POK","transit":false,"is_transit":false},{"line":11,"distance":1829,"i_lat":-6.193792,"station_id":"KMT","time":2,"station_name":"Kramat","transit":false,"i_long":106.855437,"is_transit":false},{"i_lat":-6.185975,"is_transit":false,"line":11,"i_long":106.850107,"station_id":"GST","distance":973,"transit":false,"time":1,"station_name":"Gang Sentiong"},{"transit":false,"i_long":106.84368,"station_name":"Pasar Senen","is_transit":false,"station_id":"PSE","distance":1567,"line":11,"i_lat":-6.174784,"time":8},{"transit":false,"distance":1436,"i_long":106.839204,"line":11,"is_transit":false,"time":4,"i_lat":-6.161728,"station_name":"Kemayoran","station_id":"KMO"},{"station_id":"RJW","line":11,"distance":1901,"is_transit":false,"station_name":"Rajawali","i_lat":-6.14505,"time":5,"i_long":106.836569,"transit":false},{"station_id":"KPB","time":3,"transit":true,"i_long":106.826365,"i_lat":-6.132549,"line":4,"is_transit":true,"distance":1444,"station_name":"Kampung Bandan"},{"distance":1364,"station_name":"Jakarta Kota","time":3,"transit":true,"is_transit":true,"i_lat":-6.137569,"i_long":106.812439,"line":2,"station_id":"JAKK"},{"is_transit":false,"i_long":106.820901,"station_name":"Jayakarta","station_id":"JAY","transit":false,"i_lat":-6.141205,"line":2,"time":4,"distance":1264}]]}