{"data":[[{"station_name":"Univ. Pancasila","transit":false,"i_long":106.834175,"time":0,"i_lat":-6.339291,"distance":0,"station_id":"UP","is_transit":false,"line":2},{"line":2,"time":2,"station_id":"LNA","distance":1029,"i_lat":-6.330363,"transit":false,"i_long":106.832616,"station_name":"Lenteng Agung","is_transit":false},{"transit":false,"i_lat":-6.3080680000000005,"i_long":106.838896,"station_name":"Tanjung Barat","distance":2671,"station_id":"TNT","time":3,"is_transit":false,"line":2},{"time":4,"is_transit":false,"transit":false,"line":2,"distance":2820,"station_name":"Pasar Minggu","station_id":"PSM","i_long":106.843999,"i_lat":-6.2842400000000005},{"i_long":106.851577,"line":2,"is_transit":false,"station_id":"PSMB","distance":2380,"station_name":"Pasar Minggu Baru","i_lat":-6.263214,"transit":false,"time":2},{"distance":824,"station_id":"DRN","station_name":"Duren Kalibata","i_lat":-6.255332,"transit":false,"i_long":106.85449,"is_transit":false,"line":2,"time":2},{"station_id":"CW","i_lat":-6.242512,"line":2,"time":3,"is_transit":false,"transit":false,"station_name":"Cawang","distance":1546,"i_long":106.856607},{"is_transit":false,"i_long":106.857948,"i_lat":-6.226659,"station_id":"TEB","time":2,"distance":1230,"station_name":"Tebet","transit":false,"line":2},{"is_transit":false,"time":4,"station_name":"Manggarai","i_lat":-6.209883,"i_long":106.84912,"distance":2610,"line":2,"transit":false,"station_id":"MRI"},{"station_name":"Cikini","i_lat":-6.198556,"i_long":106.840169,"station_id":"CKI","is_transit":false,"time":4,"distance":1590,"line":2,"transit":false},{"station_id":"GDD","station_name":"Gondangdia","i_lat":-6.186295,"i_long":106.832183,"transit":false,"line":2,"time":3,"distance":1750,"is_transit":false},{"distance":2015,"station_id":"JUA","i_lat":-6.166716,"line":2,"is_transit":false,"station_name":"Juanda","time":4,"transit":false,"i_long":106.828284},{"is_transit":false,"time":2,"transit":false,"station_id":"SW","station_name":"Sawah Besar","distance":1149,"i_lat":-6.160725,"i_long":106.827103,"line":2},{"line":2,"station_id":"MGB","transit":false,"i_lat":-6.149769,"station_name":"Manggabesar","i_long":106.82482,"distance":906,"is_transit":false,"time":2},{"is_transit":false,"i_lat":-6.141205,"station_id":"JAY","transit":false,"station_name":"Jayakarta","distance":1080,"time":2,"i_long":106.820901,"line":2}],[{"station_id":"UP","i_long":106.834175,"station_name":"Univ. Pancasila","is_transit":false,"line":2,"time":0,"i_lat":-6.339291,"distance":0,"transit":false},{"i_lat":-6.330363,"distance":1029,"station_id":"LNA","is_transit":false,"transit":false,"station_name":"Lenteng Agung","time":2,"i_long":106.832616,"line":2},{"transit":false,"station_name":"Tanjung Barat","is_transit":false,"i_lat":-6.3080680000000005,"time":3,"distance":2671,"line":2,"i_long":106.838896,"station_id":"TNT"},{"i_lat":-6.2842400000000005,"is_transit":false,"i_long":106.843999,"station_name":"Pasar Minggu","line":2,"distance":2820,"time":4,"station_id":"PSM","transit":false},{"time":2,"station_name":"Pasar Minggu Baru","is_transit":false,"distance":2380,"transit":false,"i_lat":-6.263214,"i_long":106.851577,"line":2,"station_id":"PSMB"},{"distance":824,"i_lat":-6.255332,"i_long":106.85449,"station_id":"DRN","time":2,"transit":false,"is_transit":false,"station_name":"Duren Kalibata","line":2},{"line":2,"station_name":"Cawang","i_long":106.856607,"distance":1546,"time":3,"transit":false,"station_id":"CW","i_lat":-6.242512,"is_transit":false},{"is_transit":false,"time":2,"line":2,"i_long":106.857948,"distance":1230,"station_name":"Tebet","station_id":"TEB","i_lat":-6.226659,"transit":false},{"time":4,"distance":2610,"transit":true,"i_lat":-6.209883,"is_transit":true,"i_long":106.84912,"line":2,"station_id":"MRI","station_name":"Manggarai"},{"i_lat":-6.202263,"is_transit":false,"time":4,"distance":3186,"i_long":106.822649,"line":1,"transit":false,"station_id":"SUD","station_name":"Sudirman"},{"transit":false,"station_id":"SUDB","station_name":"Sudirman Baru","is_transit":false,"i_lat":-6.201433,"time":1,"i_long":106.819881,"line":1,"distance":280},{"station_id":"KAT","time":1,"is_transit":false,"i_long":106.816351,"line":1,"distance":471,"station_name":"Karet","i_lat":-6.20132,"transit":false},{"distance":2029,"line":1,"i_long":106.811091,"is_transit":false,"station_name":"Tanah Abang","time":5,"i_lat":-6.185545,"transit":false,"station_id":"THB"},{"distance":3632,"transit":false,"is_transit":false,"station_id":"DU","station_name":"Duri","line":1,"time":8,"i_lat":-6.155215,"i_long":106.800832},{"i_lat":-6.144674,"time":4,"is_transit":false,"station_id":"AK","station_name":"Angke","i_long":106.79867,"transit":false,"line":1,"distance":1230},{"distance":4102,"transit":true,"time":9,"i_lat":-6.132549,"station_name":"Kampung Bandan","is_transit":true,"line":4,"i_long":106.826365,"station_id":"KPB"},{"i_long":106.812439,"time":3,"is_transit":true,"line":2,"distance":1364,"transit":true,"station_id":"JAKK","i_lat":-6.137569,"station_name":"Jakarta Kota"},{"i_lat":-6.141205,"distance":1264,"transit":false,"station_id":"JAY","i_long":106.820901,"station_name":"Jayakarta","time":4,"line":2,"is_transit":false}],[{"time":0,"transit":false,"line":2,"is_transit":false,"station_name":"Univ. Pancasila","station_id":"UP","i_long":106.834175,"distance":0,"i_lat":-6.339291},{"transit":false,"is_transit":false,"i_long":106.832616,"station_id":"LNA","i_lat":-6.330363,"line":2,"distance":1029,"station_name":"Lenteng Agung","time":2},{"time":3,"is_transit":false,"i_lat":-6.3080680000000005,"transit":false,"distance":2671,"i_long":106.838896,"station_name":"Tanjung Barat","station_id":"TNT","line":2},{"transit":false,"distance":2820,"time":4,"station_id":"PSM","is_transit":false,"i_long":106.843999,"station_name":"Pasar Minggu","i_lat":-6.2842400000000005,"line":2},{"i_lat":-6.263214,"i_long":106.851577,"line":2,"time":2,"distance":2380,"is_transit":false,"station_name":"Pasar Minggu Baru","station_id":"PSMB","transit":false},{"distance":824,"i_lat":-6.255332,"station_name":"Duren Kalibata","is_transit":false,"transit":false,"station_id":"DRN","time":2,"line":2,"i_long":106.85449},{"i_long":106.856607,"station_name":"Cawang","line":2,"station_id":"CW","time":3,"distance":1546,"is_transit":false,"transit":false,"i_lat":-6.242512},{"station_id":"TEB","time":2,"distance":1230,"is_transit":false,"station_name":"Tebet","i_lat":-6.226659,"line":2,"i_long":106.857948,"transit":false},{"is_transit":true,"station_id":"MRI","transit":true,"i_lat":-6.209883,"line":2,"time":4,"distance":2610,"station_name":"Manggarai","i_long":106.84912},{"i_lat":-6.212485,"time":2,"distance":1275,"transit":false,"station_name":"Matraman","station_id":"MTR","is_transit":false,"line":1,"i_long":106.858896},{"transit":true,"distance":1377,"i_lat":-6.215091,"is_transit":true,"station_name":"Jatinegara","station_id":"JNG","time":8,"line":1,"i_long":106.86807400000001},{"station_id":"POK","time":2,"i_long":106.861737,"transit":false,"station_name":"Pondok Jati","i_lat":-6.209188,"line":11,"distance":1236,"is_transit":false},{"station_name":"Kramat","station_id":"KMT","time":2,"transit":false,"is_transit":false,"line":11,"distance":1829,"i_long":106.855437,"i_lat":-6.193792},{"station_id":"GST","line":11,"transit":false,"station_name":"Gang Sentiong","is_transit":false,"i_long":106.850107,"i_lat":-6.185975,"distance":973,"time":1},{"station_id":"PSE","is_transit":false,"distance":1567,"transit":false,"i_lat":-6.174784,"i_long":106.84368,"line":11,"station_name":"Pasar Senen","time":8},{"station_name":"Kemayoran","station_id":"KMO","transit":false,"i_lat":-6.161728,"i_long":106.839204,"line":11,"time":4,"distance":1436,"is_transit":false},{"line":11,"time":5,"distance":1901,"station_id":"RJW","i_lat":-6.14505,"transit":false,"station_name":"Rajawali","is_transit":false,"i_long":106.836569},{"distance":1444,"line":4,"station_id":"KPB","is_transit":true,"station_name":"Kampung Bandan","transit":true,"i_lat":-6.132549,"time":3,"i_long":106.826365},{"distance":1364,"line":2,"i_lat":-6.137569,"station_name":"Jakarta Kota","station_id":"JAKK","is_transit":true,"transit":true,"i_long":106.812439,"time":3},{"station_name":"Jayakarta","transit":false,"is_transit":false,"line":2,"time":4,"distance":1264,"i_lat":-6.141205,"i_long":106.820901,"station_id":"JAY"}]]}