{"data":[[{"i_lat":-6.339291,"station_name":"Univ. Pancasila","time":0,"distance":0,"line":2,"transit":false,"i_long":106.834175,"is_transit":false,"station_id":"UP"},{"station_name":"Lenteng Agung","i_lat":-6.330363,"time":2,"distance":1029,"transit":false,"is_transit":false,"i_long":106.832616,"line":2,"station_id":"LNA"},{"transit":false,"distance":2671,"is_transit":false,"i_lat":-6.3080680000000005,"i_long":106.838896,"station_id":"TNT","station_name":"Tanjung Barat","line":2,"time":3},{"distance":2820,"time":4,"i_long":106.843999,"line":2,"transit":false,"station_id":"PSM","is_transit":false,"i_lat":-6.2842400000000005,"station_name":"Pasar Minggu"},{"i_lat":-6.263214,"distance":2380,"i_long":106.851577,"line":2,"is_transit":false,"station_name":"Pasar Minggu Baru","time":2,"station_id":"PSMB","transit":false},{"is_transit":false,"transit":false,"i_lat":-6.255332,"i_long":106.85449,"station_name":"Duren Kalibata","time":2,"line":0,"distance":824,"station_id":"DRN"},{"distance":1546,"station_id":"CW","time":3,"station_name":"Cawang","line":0,"i_lat":-6.242512,"i_long":106.856607,"transit":false,"is_transit":false},{"station_name":"Tebet","distance":1230,"transit":false,"time":2,"i_lat":-6.226659,"station_id":"TEB","i_long":106.857948,"line":2,"is_transit":false},{"i_long":106.84912,"line":0,"station_name":"Manggarai","transit":true,"distance":2610,"i_lat":-6.209883,"station_id":"MRI","is_transit":true,"time":4},{"station_name":"Cikini","i_lat":-6.198556,"is_transit":false,"i_long":106.840169,"station_id":"CKI","distance":1590,"transit":false,"line":0,"time":4},{"i_lat":-6.186295,"is_transit":false,"station_id":"GDD","station_name":"Gondangdia","transit":false,"line":2,"i_long":106.832183,"time":3,"distance":1750},{"i_lat":-6.166716,"station_id":"JUA","time":4,"station_name":"Juanda","distance":2015,"i_long":106.828284,"line":2,"is_transit":false,"transit":false},{"i_long":106.827103,"i_lat":-6.160725,"station_name":"Sawah Besar","time":2,"distance":1149,"is_transit":false,"line":2,"station_id":"SW","transit":false},{"distance":906,"station_id":"MGB","is_transit":false,"station_name":"Manggabesar","time":2,"i_lat":-6.149769,"i_long":106.82482,"line":2,"transit":false},{"i_lat":-6.141205,"is_transit":false,"station_name":"Jayakarta","time":2,"i_long":106.820901,"line":7,"distance":1080,"transit":false,"station_id":"JAY"}],[{"time":0,"station_id":"UP","station_name":"Univ. Pancasila","i_long":106.834175,"is_transit":false,"transit":false,"distance":0,"i_lat":-6.339291,"line":2},{"i_long":106.832616,"distance":1029,"i_lat":-6.330363,"time":2,"line":2,"transit":false,"is_transit":false,"station_name":"Lenteng Agung","station_id":"LNA"},{"line":2,"station_id":"TNT","i_long":106.838896,"station_name":"Tanjung Barat","is_transit":false,"distance":2671,"i_lat":-6.3080680000000005,"transit":false,"time":3},{"distance":2820,"i_long":106.843999,"station_id":"PSM","time":4,"transit":false,"i_lat":-6.2842400000000005,"line":2,"is_transit":false,"station_name":"Pasar Minggu"},{"i_lat":-6.263214,"i_long":106.851577,"is_transit":false,"station_id":"PSMB","time":2,"line":2,"station_name":"Pasar Minggu Baru","distance":2380,"transit":false},{"time":2,"line":0,"station_id":"DRN","is_transit":false,"i_lat":-6.255332,"station_name":"Duren Kalibata","transit":false,"distance":824,"i_long":106.85449},{"line":0,"station_id":"CW","i_lat":-6.242512,"time":3,"is_transit":false,"distance":1546,"transit":false,"i_long":106.856607,"station_name":"Cawang"},{"transit":false,"station_id":"TEB","station_name":"Tebet","distance":1230,"is_transit":false,"line":2,"time":2,"i_lat":-6.226659,"i_long":106.857948},{"time":4,"is_transit":true,"i_long":106.84912,"line":0,"station_id":"MRI","station_name":"Manggarai","distance":2610,"transit":true,"i_lat":-6.209883},{"i_lat":-6.202263,"time":4,"line":1,"transit":false,"i_long":106.822649,"station_name":"Sudirman","distance":3186,"is_transit":false,"station_id":"SUD"},{"is_transit":false,"time":1,"station_id":"SUDB","distance":280,"i_lat":-6.201433,"line":1,"transit":false,"i_long":106.819881,"station_name":"Sudirman Baru"},{"i_lat":-6.20132,"station_id":"KAT","line":1,"transit":false,"is_transit":false,"time":1,"distance":471,"station_name":"Karet","i_long":106.816351},{"is_transit":true,"distance":2029,"station_id":"THB","transit":false,"i_lat":-6.185545,"line":1,"time":5,"station_name":"Tanah Abang","i_long":106.811091},{"i_lat":-6.155215,"distance":3632,"station_id":"DU","transit":true,"line":1,"is_transit":true,"station_name":"Duri","i_long":106.800832,"time":8},{"is_transit":false,"line":0,"i_long":106.79867,"time":4,"transit":false,"i_lat":-6.144674,"station_id":"AK","station_name":"Angke","distance":1230},{"station_name":"Kampung Bandan","is_transit":true,"i_long":106.826365,"station_id":"KPB","i_lat":-6.132549,"distance":4102,"time":9,"transit":false,"line":0},{"i_lat":-6.137569,"station_name":"Jakarta Kota","line":0,"distance":1364,"i_long":106.812439,"station_id":"JAKK","is_transit":true,"time":3,"transit":true},{"i_lat":-6.141205,"station_name":"Jayakarta","station_id":"JAY","distance":1264,"i_long":106.820901,"transit":false,"is_transit":false,"line":7,"time":4}],[{"distance":0,"station_name":"Univ. Pancasila","i_lat":-6.339291,"time":0,"i_long":106.834175,"station_id":"UP","is_transit":false,"transit":false,"line":2},{"is_transit":false,"distance":1029,"i_lat":-6.330363,"station_name":"Lenteng Agung","station_id":"LNA","time":2,"line":2,"transit":false,"i_long":106.832616},{"station_name":"Tanjung Barat","distance":2671,"transit":false,"i_lat":-6.3080680000000005,"station_id":"TNT","is_transit":false,"i_long":106.838896,"line":2,"time":3},{"time":4,"transit":false,"station_name":"Pasar Minggu","is_transit":false,"i_long":106.843999,"line":2,"i_lat":-6.2842400000000005,"station_id":"PSM","distance":2820},{"i_long":106.851577,"transit":false,"i_lat":-6.263214,"station_id":"PSMB","line":2,"time":2,"is_transit":false,"distance":2380,"station_name":"Pasar Minggu Baru"},{"station_id":"DRN","distance":824,"i_lat":-6.255332,"is_transit":false,"line":0,"time":2,"transit":false,"station_name":"Duren Kalibata","i_long":106.85449},{"distance":1546,"is_transit":false,"time":3,"transit":false,"i_long":106.856607,"i_lat":-6.242512,"station_id":"CW","station_name":"Cawang","line":0},{"distance":1230,"is_transit":false,"transit":false,"station_name":"Tebet","time":2,"i_lat":-6.226659,"station_id":"TEB","i_long":106.857948,"line":2},{"i_long":106.84912,"distance":2610,"line":0,"station_name":"Manggarai","station_id":"MRI","i_lat":-6.209883,"time":4,"transit":true,"is_transit":true},{"distance":1275,"i_lat":-6.212485,"transit":false,"i_long":106.858896,"time":2,"is_transit":false,"line":1,"station_name":"Matraman","station_id":"MTR"},{"time":8,"station_id":"JNG","distance":1377,"transit":true,"is_transit":true,"i_long":106.86807400000001,"line":0,"i_lat":-6.215091,"station_name":"Jatinegara"},{"transit":false,"time":2,"distance":1236,"line":11,"station_id":"POK","i_long":106.861737,"i_lat":-6.209188,"station_name":"Pondok Jati","is_transit":false},{"time":2,"station_id":"KMT","station_name":"Kramat","transit":false,"line":11,"i_lat":-6.193792,"is_transit":false,"distance":1829,"i_long":106.855437},{"is_transit":false,"time":1,"distance":973,"station_name":"Gang Sentiong","i_lat":-6.185975,"i_long":106.850107,"line":11,"station_id":"GST","transit":false},{"i_lat":-6.174784,"is_transit":false,"station_name":"Pasar Senen","station_id":"PSE","distance":1567,"transit":false,"time":8,"i_long":106.84368,"line":11},{"is_transit":false,"station_name":"Kemayoran","time":4,"distance":1436,"line":11,"transit":false,"i_lat":-6.161728,"station_id":"KMO","i_long":106.839204},{"distance":1901,"is_transit":false,"time":5,"station_name":"Rajawali","i_lat":-6.14505,"i_long":106.836569,"transit":false,"line":11,"station_id":"RJW"},{"transit":true,"time":3,"station_id":"KPB","is_transit":true,"i_long":106.826365,"distance":1444,"i_lat":-6.132549,"line":0,"station_name":"Kampung Bandan"},{"is_transit":true,"line":0,"station_id":"JAKK","i_long":106.812439,"station_name":"Jakarta Kota","time":3,"distance":1364,"transit":true,"i_lat":-6.137569},{"distance":1264,"station_id":"JAY","is_transit":false,"time":4,"transit":false,"i_lat":-6.141205,"station_name":"Jayakarta","i_long":106.820901,"line":7}]]}