{"data":[[{"is_transit":false,"transit":false,"i_long":106.834175,"station_id":"UP","station_name":"Univ. Pancasila","i_lat":-6.339291,"distance":0,"time":0,"line":2},{"line":2,"transit":false,"i_long":106.832616,"distance":1029,"i_lat":-6.330363,"time":2,"station_id":"LNA","station_name":"Lenteng Agung","is_transit":false},{"i_long":106.838896,"transit":false,"station_name":"Tanjung Barat","is_transit":false,"distance":2671,"i_lat":-6.3080680000000005,"line":2,"time":3,"station_id":"TNT"},{"station_name":"Pasar Minggu","station_id":"PSM","distance":2820,"time":4,"is_transit":false,"i_lat":-6.2842400000000005,"i_long":106.843999,"line":2,"transit":false},{"time":2,"transit":false,"distance":2380,"i_long":106.851577,"is_transit":false,"station_id":"PSMB","station_name":"Pasar Minggu Baru","i_lat":-6.263214,"line":2},{"distance":824,"transit":false,"station_id":"DRN","i_long":106.85449,"i_lat":-6.255332,"line":2,"is_transit":false,"station_name":"Duren Kalibata","time":2},{"is_transit":false,"transit":false,"i_long":106.856607,"time":3,"station_id":"CW","distance":1546,"station_name":"Cawang","i_lat":-6.242512,"line":2},{"i_long":106.857948,"distance":1230,"is_transit":false,"station_id":"TEB","transit":false,"i_lat":-6.226659,"line":2,"station_name":"Tebet","time":2},{"station_name":"Manggarai","is_transit":true,"transit":true,"station_id":"MRI","distance":2610,"i_lat":-6.209883,"line":2,"time":4,"i_long":106.84912},{"i_long":106.822649,"line":1,"i_lat":-6.202263,"station_id":"SUD","transit":false,"is_transit":false,"distance":3186,"time":4,"station_name":"Sudirman"},{"line":1,"station_name":"Sudirman Baru","transit":false,"i_lat":-6.201433,"is_transit":false,"i_long":106.819881,"distance":280,"station_id":"SUDB","time":1},{"distance":471,"time":1,"i_lat":-6.20132,"i_long":106.816351,"station_name":"Karet","station_id":"KAT","transit":false,"is_transit":false,"line":1},{"transit":false,"i_long":106.811091,"time":5,"station_name":"Tanah Abang","is_transit":false,"line":1,"station_id":"THB","distance":2029,"i_lat":-6.185545},{"i_lat":-6.155215,"line":1,"station_name":"Duri","transit":false,"is_transit":false,"station_id":"DU","time":8,"distance":3632,"i_long":106.800832},{"distance":1230,"transit":false,"station_id":"AK","time":4,"i_lat":-6.144674,"station_name":"Angke","i_long":106.79867,"line":1,"is_transit":false},{"transit":false,"line":4,"station_id":"KPB","i_long":106.826365,"is_transit":false,"time":9,"distance":4102,"station_name":"Kampung Bandan","i_lat":-6.132549}],[{"transit":false,"i_lat":-6.339291,"is_transit":false,"distance":0,"i_long":106.834175,"station_id":"UP","line":2,"station_name":"Univ. Pancasila","time":0},{"i_long":106.832616,"is_transit":false,"station_name":"Lenteng Agung","distance":1029,"time":2,"transit":false,"station_id":"LNA","i_lat":-6.330363,"line":2},{"station_name":"Tanjung Barat","time":3,"distance":2671,"line":2,"transit":false,"station_id":"TNT","i_lat":-6.3080680000000005,"i_long":106.838896,"is_transit":false},{"station_name":"Pasar Minggu","is_transit":false,"line":2,"distance":2820,"time":4,"i_lat":-6.2842400000000005,"station_id":"PSM","transit":false,"i_long":106.843999},{"distance":2380,"transit":false,"time":2,"line":2,"station_name":"Pasar Minggu Baru","i_lat":-6.263214,"station_id":"PSMB","is_transit":false,"i_long":106.851577},{"i_lat":-6.255332,"line":2,"transit":false,"i_long":106.85449,"distance":824,"station_id":"DRN","station_name":"Duren Kalibata","is_transit":false,"time":2},{"station_name":"Cawang","i_lat":-6.242512,"is_transit":false,"time":3,"transit":false,"station_id":"CW","distance":1546,"i_long":106.856607,"line":2},{"station_id":"TEB","i_long":106.857948,"transit":false,"is_transit":false,"time":2,"i_lat":-6.226659,"line":2,"station_name":"Tebet","distance":1230},{"i_lat":-6.209883,"transit":false,"is_transit":false,"distance":2610,"station_name":"Manggarai","i_long":106.84912,"line":2,"time":4,"station_id":"MRI"},{"line":2,"i_long":106.840169,"station_name":"Cikini","time":4,"distance":1590,"transit":false,"station_id":"CKI","i_lat":-6.198556,"is_transit":false},{"distance":1750,"station_id":"GDD","line":2,"is_transit":false,"i_long":106.832183,"time":3,"i_lat":-6.186295,"transit":false,"station_name":"Gondangdia"},{"i_long":106.828284,"station_name":"Juanda","is_transit":false,"transit":false,"i_lat":-6.166716,"distance":2015,"time":4,"station_id":"JUA","line":2},{"i_lat":-6.160725,"station_name":"Sawah Besar","is_transit":false,"line":2,"station_id":"SW","transit":false,"distance":1149,"i_long":106.827103,"time":2},{"station_name":"Manggabesar","is_transit":false,"station_id":"MGB","time":2,"line":2,"distance":906,"i_long":106.82482,"transit":false,"i_lat":-6.149769},{"i_long":106.820901,"i_lat":-6.141205,"is_transit":false,"transit":false,"time":2,"line":2,"station_name":"Jayakarta","distance":1080,"station_id":"JAY"},{"station_name":"Jakarta Kota","distance":1264,"time":4,"is_transit":true,"i_long":106.812439,"transit":true,"i_lat":-6.137569,"line":2,"station_id":"JAKK"},{"station_name":"Kampung Bandan","distance":1364,"i_long":106.826365,"transit":false,"station_id":"KPB","i_lat":-6.132549,"is_transit":false,"time":3,"line":4}],[{"time":0,"distance":0,"station_name":"Univ. Pancasila","i_lat":-6.339291,"station_id":"UP","transit":false,"is_transit":false,"i_long":106.834175,"line":2},{"transit":false,"i_long":106.832616,"is_transit":false,"station_name":"Lenteng Agung","time":2,"distance":1029,"station_id":"LNA","i_lat":-6.330363,"line":2},{"is_transit":false,"station_name":"Tanjung Barat","distance":2671,"transit":false,"time":3,"i_lat":-6.3080680000000005,"station_id":"TNT","i_long":106.838896,"line":2},{"is_transit":false,"time":4,"transit":false,"station_id":"PSM","i_lat":-6.2842400000000005,"i_long":106.843999,"distance":2820,"line":2,"station_name":"Pasar Minggu"},{"distance":2380,"i_long":106.851577,"line":2,"i_lat":-6.263214,"transit":false,"station_name":"Pasar Minggu Baru","is_transit":false,"time":2,"station_id":"PSMB"},{"i_long":106.85449,"i_lat":-6.255332,"line":2,"is_transit":false,"transit":false,"station_id":"DRN","time":2,"distance":824,"station_name":"Duren Kalibata"},{"is_transit":false,"line":2,"station_name":"Cawang","i_long":106.856607,"time":3,"station_id":"CW","transit":false,"i_lat":-6.242512,"distance":1546},{"is_transit":false,"distance":1230,"i_lat":-6.226659,"line":2,"time":2,"i_long":106.857948,"station_name":"Tebet","transit":false,"station_id":"TEB"},{"time":4,"distance":2610,"line":2,"station_id":"MRI","i_long":106.84912,"station_name":"Manggarai","i_lat":-6.209883,"transit":true,"is_transit":true},{"is_transit":false,"i_lat":-6.212485,"station_id":"MTR","station_name":"Matraman","i_long":106.858896,"line":1,"transit":false,"distance":1275,"time":2},{"time":8,"is_transit":true,"distance":1377,"i_long":106.86807400000001,"line":1,"station_id":"JNG","i_lat":-6.215091,"station_name":"Jatinegara","transit":true},{"station_name":"Pondok Jati","i_lat":-6.209188,"time":2,"distance":1236,"station_id":"POK","is_transit":false,"line":11,"i_long":106.861737,"transit":false},{"is_transit":false,"i_lat":-6.193792,"station_id":"KMT","transit":false,"station_name":"Kramat","distance":1829,"i_long":106.855437,"line":11,"time":2},{"station_id":"GST","i_long":106.850107,"time":1,"is_transit":false,"line":11,"station_name":"Gang Sentiong","distance":973,"transit":false,"i_lat":-6.185975},{"station_name":"Pasar Senen","is_transit":false,"distance":1567,"i_long":106.84368,"transit":false,"line":11,"station_id":"PSE","i_lat":-6.174784,"time":8},{"i_long":106.839204,"transit":false,"station_name":"Kemayoran","i_lat":-6.161728,"is_transit":false,"line":11,"distance":1436,"station_id":"KMO","time":4},{"transit":false,"is_transit":false,"i_long":106.836569,"station_name":"Rajawali","station_id":"RJW","distance":1901,"i_lat":-6.14505,"time":5,"line":11},{"i_long":106.826365,"transit":false,"station_name":"Kampung Bandan","is_transit":false,"time":3,"station_id":"KPB","line":4,"distance":1444,"i_lat":-6.132549}]]}