{"data":[[{"station_id":"UP","time":0,"i_lat":-6.339291,"station_name":"Univ. Pancasila","is_transit":false,"distance":0,"line":2,"i_long":106.834175,"transit":false},{"station_id":"LNA","i_lat":-6.330363,"i_long":106.832616,"line":2,"distance":1029,"station_name":"Lenteng Agung","time":2,"transit":false,"is_transit":false},{"transit":false,"station_name":"Tanjung Barat","i_lat":-6.3080680000000005,"i_long":106.838896,"station_id":"TNT","distance":2671,"line":2,"time":3,"is_transit":false},{"transit":false,"line":2,"station_name":"Pasar Minggu","distance":2820,"station_id":"PSM","is_transit":false,"time":4,"i_lat":-6.2842400000000005,"i_long":106.843999},{"time":2,"transit":false,"line":2,"distance":2380,"i_lat":-6.263214,"is_transit":false,"station_name":"Pasar Minggu Baru","i_long":106.851577,"station_id":"PSMB"},{"station_name":"Duren Kalibata","i_lat":-6.255332,"line":2,"i_long":106.85449,"station_id":"DRN","distance":824,"time":2,"transit":false,"is_transit":false},{"station_name":"Cawang","time":3,"line":2,"transit":false,"i_lat":-6.242512,"distance":1546,"station_id":"CW","is_transit":false,"i_long":106.856607},{"i_lat":-6.226659,"distance":1230,"station_name":"Tebet","line":2,"station_id":"TEB","time":2,"transit":false,"is_transit":false,"i_long":106.857948},{"transit":true,"i_lat":-6.209883,"time":4,"distance":2610,"station_name":"Manggarai","is_transit":true,"station_id":"MRI","i_long":106.84912,"line":2},{"i_long":106.822649,"distance":3186,"station_id":"SUD","line":1,"time":4,"transit":false,"is_transit":false,"station_name":"Sudirman","i_lat":-6.202263},{"station_id":"SUDB","time":1,"distance":280,"i_lat":-6.201433,"i_long":106.819881,"line":1,"transit":false,"is_transit":false,"station_name":"Sudirman Baru"},{"station_name":"Karet","time":1,"distance":471,"line":1,"i_long":106.816351,"is_transit":false,"station_id":"KAT","i_lat":-6.20132,"transit":false},{"station_name":"Tanah Abang","is_transit":false,"i_long":106.811091,"line":1,"time":5,"distance":2029,"i_lat":-6.185545,"station_id":"THB","transit":false},{"i_long":106.800832,"station_name":"Duri","station_id":"DU","is_transit":true,"time":8,"distance":3632,"i_lat":-6.155215,"transit":true,"line":1},{"distance":1700,"station_id":"GGL","station_name":"Grogol","is_transit":false,"i_lat":-6.162021,"line":5,"transit":false,"time":3,"i_long":106.788277},{"transit":false,"is_transit":false,"time":2,"line":5,"i_lat":-6.161433,"station_id":"PSG","i_long":106.771379,"station_name":"Pesing","distance":2036},{"distance":1614,"i_lat":-6.1587309999999995,"station_name":"Taman Kota","i_long":106.756522,"line":5,"time":2,"station_id":"TKO","transit":false,"is_transit":false},{"station_id":"BOI","i_long":106.737035,"line":5,"time":2,"distance":2334,"i_lat":-6.159876,"transit":false,"station_name":"Bojongindah","is_transit":false},{"time":4,"distance":1152,"station_id":"RW","transit":false,"i_lat":-6.162758,"i_long":106.723064,"station_name":"Rawa Buaya","line":5,"is_transit":false},{"station_name":"Kalideres","distance":2504,"transit":false,"station_id":"KDS","i_lat":-6.166068,"is_transit":false,"i_long":106.701612,"time":3,"line":5}],[{"distance":0,"line":2,"transit":false,"i_lat":-6.339291,"station_name":"Univ. Pancasila","time":0,"i_long":106.834175,"is_transit":false,"station_id":"UP"},{"station_name":"Lenteng Agung","i_lat":-6.330363,"i_long":106.832616,"station_id":"LNA","time":2,"is_transit":false,"distance":1029,"line":2,"transit":false},{"distance":2671,"station_name":"Tanjung Barat","i_lat":-6.3080680000000005,"station_id":"TNT","transit":false,"is_transit":false,"line":2,"i_long":106.838896,"time":3},{"i_lat":-6.2842400000000005,"transit":false,"time":4,"distance":2820,"line":2,"i_long":106.843999,"is_transit":false,"station_name":"Pasar Minggu","station_id":"PSM"},{"i_lat":-6.263214,"transit":false,"distance":2380,"i_long":106.851577,"line":2,"time":2,"station_id":"PSMB","is_transit":false,"station_name":"Pasar Minggu Baru"},{"distance":824,"time":2,"transit":false,"line":2,"station_name":"Duren Kalibata","is_transit":false,"i_lat":-6.255332,"i_long":106.85449,"station_id":"DRN"},{"i_lat":-6.242512,"station_id":"CW","station_name":"Cawang","line":2,"distance":1546,"time":3,"is_transit":false,"i_long":106.856607,"transit":false},{"is_transit":false,"distance":1230,"station_name":"Tebet","i_long":106.857948,"station_id":"TEB","time":2,"line":2,"transit":false,"i_lat":-6.226659},{"transit":false,"is_transit":false,"distance":2610,"station_name":"Manggarai","station_id":"MRI","i_lat":-6.209883,"i_long":106.84912,"time":4,"line":2},{"distance":1590,"time":4,"i_lat":-6.198556,"is_transit":false,"line":2,"i_long":106.840169,"station_id":"CKI","transit":false,"station_name":"Cikini"},{"station_id":"GDD","transit":false,"station_name":"Gondangdia","time":3,"distance":1750,"line":2,"is_transit":false,"i_lat":-6.186295,"i_long":106.832183},{"transit":false,"station_id":"JUA","distance":2015,"station_name":"Juanda","is_transit":false,"i_long":106.828284,"i_lat":-6.166716,"line":2,"time":4},{"i_lat":-6.160725,"line":2,"distance":1149,"is_transit":false,"transit":false,"station_name":"Sawah Besar","station_id":"SW","time":2,"i_long":106.827103},{"transit":false,"time":2,"i_lat":-6.149769,"distance":906,"i_long":106.82482,"station_id":"MGB","station_name":"Manggabesar","is_transit":false,"line":2},{"distance":1080,"i_lat":-6.141205,"transit":false,"station_id":"JAY","i_long":106.820901,"is_transit":false,"time":2,"station_name":"Jayakarta","line":2},{"is_transit":true,"station_name":"Jakarta Kota","time":4,"i_lat":-6.137569,"i_long":106.812439,"station_id":"JAKK","distance":1264,"line":2,"transit":true},{"i_lat":-6.132549,"station_name":"Kampung Bandan","transit":true,"distance":1364,"line":4,"station_id":"KPB","time":3,"i_long":106.826365,"is_transit":true},{"time":9,"station_id":"AK","distance":4102,"i_lat":-6.144674,"station_name":"Angke","i_long":106.79867,"line":1,"is_transit":false,"transit":false},{"time":4,"distance":1230,"transit":true,"i_lat":-6.155215,"station_name":"Duri","i_long":106.800832,"line":1,"is_transit":true,"station_id":"DU"},{"station_id":"GGL","distance":1700,"i_long":106.788277,"time":3,"line":5,"transit":false,"station_name":"Grogol","is_transit":false,"i_lat":-6.162021},{"is_transit":false,"transit":false,"i_lat":-6.161433,"i_long":106.771379,"distance":2036,"time":2,"line":5,"station_name":"Pesing","station_id":"PSG"},{"line":5,"time":2,"transit":false,"distance":1614,"i_lat":-6.1587309999999995,"i_long":106.756522,"station_name":"Taman Kota","is_transit":false,"station_id":"TKO"},{"station_name":"Bojongindah","time":2,"line":5,"is_transit":false,"station_id":"BOI","i_long":106.737035,"transit":false,"distance":2334,"i_lat":-6.159876},{"station_id":"RW","i_long":106.723064,"is_transit":false,"transit":false,"line":5,"time":4,"station_name":"Rawa Buaya","distance":1152,"i_lat":-6.162758},{"station_name":"Kalideres","is_transit":false,"i_long":106.701612,"transit":false,"distance":2504,"i_lat":-6.166068,"station_id":"KDS","line":5,"time":3}],[{"i_long":106.834175,"i_lat":-6.339291,"station_id":"UP","distance":0,"line":2,"time":0,"transit":false,"is_transit":false,"station_name":"Univ. Pancasila"},{"i_long":106.832616,"is_transit":false,"line":2,"distance":1029,"transit":false,"station_id":"LNA","station_name":"Lenteng Agung","i_lat":-6.330363,"time":2},{"transit":false,"station_name":"Tanjung Barat","station_id":"TNT","line":2,"i_lat":-6.3080680000000005,"distance":2671,"is_transit":false,"time":3,"i_long":106.838896},{"station_id":"PSM","i_lat":-6.2842400000000005,"transit":false,"is_transit":false,"i_long":106.843999,"time":4,"distance":2820,"line":2,"station_name":"Pasar Minggu"},{"is_transit":false,"transit":false,"station_name":"Pasar Minggu Baru","i_lat":-6.263214,"line":2,"station_id":"PSMB","distance":2380,"time":2,"i_long":106.851577},{"station_name":"Duren Kalibata","i_lat":-6.255332,"transit":false,"i_long":106.85449,"station_id":"DRN","is_transit":false,"time":2,"distance":824,"line":2},{"time":3,"i_lat":-6.242512,"i_long":106.856607,"transit":false,"station_id":"CW","line":2,"is_transit":false,"station_name":"Cawang","distance":1546},{"time":2,"is_transit":false,"line":2,"i_lat":-6.226659,"i_long":106.857948,"station_name":"Tebet","transit":false,"distance":1230,"station_id":"TEB"},{"is_transit":true,"i_long":106.84912,"i_lat":-6.209883,"station_name":"Manggarai","transit":true,"line":2,"station_id":"MRI","distance":2610,"time":4},{"transit":false,"i_lat":-6.212485,"time":2,"i_long":106.858896,"line":1,"station_name":"Matraman","is_transit":false,"station_id":"MTR","distance":1275},{"time":8,"transit":true,"station_id":"JNG","line":1,"station_name":"Jatinegara","distance":1377,"i_long":106.86807400000001,"i_lat":-6.215091,"is_transit":true},{"line":11,"station_name":"Pondok Jati","i_lat":-6.209188,"distance":1236,"i_long":106.861737,"is_transit":false,"station_id":"POK","time":2,"transit":false},{"station_id":"KMT","station_name":"Kramat","distance":1829,"transit":false,"is_transit":false,"i_lat":-6.193792,"i_long":106.855437,"line":11,"time":2},{"i_lat":-6.185975,"i_long":106.850107,"line":11,"is_transit":false,"time":1,"transit":false,"distance":973,"station_name":"Gang Sentiong","station_id":"GST"},{"transit":false,"station_name":"Pasar Senen","line":11,"is_transit":false,"time":8,"i_long":106.84368,"distance":1567,"i_lat":-6.174784,"station_id":"PSE"},{"time":4,"i_lat":-6.161728,"station_name":"Kemayoran","transit":false,"distance":1436,"i_long":106.839204,"line":11,"is_transit":false,"station_id":"KMO"},{"is_transit":false,"transit":false,"station_name":"Rajawali","station_id":"RJW","time":5,"distance":1901,"i_long":106.836569,"line":11,"i_lat":-6.14505},{"station_id":"KPB","station_name":"Kampung Bandan","is_transit":true,"i_lat":-6.132549,"i_long":106.826365,"line":4,"transit":true,"time":3,"distance":1444},{"i_lat":-6.144674,"line":1,"time":9,"is_transit":false,"i_long":106.79867,"transit":false,"station_id":"AK","station_name":"Angke","distance":4102},{"station_name":"Duri","line":1,"transit":true,"is_transit":true,"station_id":"DU","i_long":106.800832,"distance":1230,"time":4,"i_lat":-6.155215},{"station_name":"Grogol","is_transit":false,"line":5,"time":3,"transit":false,"i_long":106.788277,"station_id":"GGL","i_lat":-6.162021,"distance":1700},{"distance":2036,"line":5,"station_name":"Pesing","i_long":106.771379,"time":2,"station_id":"PSG","is_transit":false,"transit":false,"i_lat":-6.161433},{"line":5,"i_lat":-6.1587309999999995,"station_id":"TKO","is_transit":false,"distance":1614,"transit":false,"time":2,"i_long":106.756522,"station_name":"Taman Kota"},{"i_lat":-6.159876,"distance":2334,"station_id":"BOI","i_long":106.737035,"is_transit":false,"station_name":"Bojongindah","time":2,"transit":false,"line":5},{"transit":false,"station_name":"Rawa Buaya","station_id":"RW","line":5,"is_transit":false,"time":4,"i_long":106.723064,"distance":1152,"i_lat":-6.162758},{"transit":false,"is_transit":false,"i_lat":-6.166068,"line":5,"station_id":"KDS","distance":2504,"i_long":106.701612,"station_name":"Kalideres","time":3}]]}