{"data":[[{"i_lat":-6.339291,"is_transit":false,"station_name":"Univ. Pancasila","station_id":"UP","distance":0,"line":2,"transit":false,"time":0,"i_long":106.834175},{"i_lat":-6.330363,"i_long":106.832616,"line":2,"transit":false,"station_name":"Lenteng Agung","station_id":"LNA","time":2,"is_transit":false,"distance":1029},{"station_id":"TNT","i_long":106.838896,"line":2,"distance":2671,"time":3,"transit":false,"station_name":"Tanjung Barat","is_transit":false,"i_lat":-6.3080680000000005},{"station_id":"PSM","distance":2820,"transit":false,"is_transit":false,"station_name":"Pasar Minggu","line":2,"time":4,"i_lat":-6.2842400000000005,"i_long":106.843999},{"station_id":"PSMB","distance":2380,"is_transit":false,"line":2,"transit":false,"i_lat":-6.263214,"i_long":106.851577,"time":2,"station_name":"Pasar Minggu Baru"},{"i_long":106.85449,"time":2,"distance":824,"station_id":"DRN","transit":false,"station_name":"Duren Kalibata","line":2,"is_transit":false,"i_lat":-6.255332},{"line":2,"transit":false,"station_id":"CW","distance":1546,"i_long":106.856607,"is_transit":false,"station_name":"Cawang","time":3,"i_lat":-6.242512},{"time":2,"distance":1230,"i_lat":-6.226659,"i_long":106.857948,"line":2,"transit":false,"station_id":"TEB","is_transit":false,"station_name":"Tebet"},{"line":2,"i_lat":-6.209883,"distance":2610,"transit":true,"station_id":"MRI","is_transit":true,"time":4,"station_name":"Manggarai","i_long":106.84912},{"station_name":"Sudirman","distance":3186,"time":4,"i_long":106.822649,"transit":false,"station_id":"SUD","line":1,"i_lat":-6.202263,"is_transit":false},{"time":1,"station_name":"Sudirman Baru","is_transit":false,"i_lat":-6.201433,"i_long":106.819881,"line":1,"transit":false,"distance":280,"station_id":"SUDB"},{"station_name":"Karet","station_id":"KAT","is_transit":false,"i_lat":-6.20132,"time":1,"distance":471,"line":1,"i_long":106.816351,"transit":false},{"transit":false,"time":5,"station_name":"Tanah Abang","distance":2029,"i_long":106.811091,"station_id":"THB","is_transit":false,"i_lat":-6.185545,"line":1},{"is_transit":false,"station_name":"Duri","transit":false,"distance":3632,"station_id":"DU","i_long":106.800832,"time":8,"line":1,"i_lat":-6.155215},{"is_transit":false,"station_id":"AK","station_name":"Angke","i_long":106.79867,"transit":false,"distance":1230,"time":4,"i_lat":-6.144674,"line":1},{"station_id":"KPB","distance":4102,"is_transit":false,"station_name":"Kampung Bandan","line":4,"i_lat":-6.132549,"transit":false,"time":9,"i_long":106.826365}],[{"station_id":"UP","time":0,"i_lat":-6.339291,"line":2,"i_long":106.834175,"transit":false,"station_name":"Univ. Pancasila","is_transit":false,"distance":0},{"station_name":"Lenteng Agung","station_id":"LNA","distance":1029,"is_transit":false,"time":2,"i_lat":-6.330363,"i_long":106.832616,"line":2,"transit":false},{"station_id":"TNT","time":3,"transit":false,"station_name":"Tanjung Barat","distance":2671,"is_transit":false,"i_lat":-6.3080680000000005,"i_long":106.838896,"line":2},{"i_long":106.843999,"station_name":"Pasar Minggu","distance":2820,"time":4,"i_lat":-6.2842400000000005,"station_id":"PSM","line":2,"transit":false,"is_transit":false},{"station_id":"PSMB","line":2,"is_transit":false,"station_name":"Pasar Minggu Baru","distance":2380,"time":2,"transit":false,"i_lat":-6.263214,"i_long":106.851577},{"station_name":"Duren Kalibata","i_lat":-6.255332,"line":2,"station_id":"DRN","is_transit":false,"i_long":106.85449,"distance":824,"time":2,"transit":false},{"station_id":"CW","station_name":"Cawang","is_transit":false,"line":2,"distance":1546,"transit":false,"i_lat":-6.242512,"time":3,"i_long":106.856607},{"i_lat":-6.226659,"line":2,"station_name":"Tebet","is_transit":false,"time":2,"i_long":106.857948,"distance":1230,"transit":false,"station_id":"TEB"},{"transit":false,"is_transit":false,"i_long":106.84912,"station_id":"MRI","time":4,"station_name":"Manggarai","line":2,"distance":2610,"i_lat":-6.209883},{"i_lat":-6.198556,"transit":false,"i_long":106.840169,"line":2,"time":4,"station_name":"Cikini","station_id":"CKI","is_transit":false,"distance":1590},{"distance":1750,"i_lat":-6.186295,"i_long":106.832183,"station_name":"Gondangdia","time":3,"transit":false,"station_id":"GDD","is_transit":false,"line":2},{"is_transit":false,"distance":2015,"i_lat":-6.166716,"transit":false,"line":2,"station_id":"JUA","time":4,"station_name":"Juanda","i_long":106.828284},{"station_name":"Sawah Besar","is_transit":false,"time":2,"i_long":106.827103,"transit":false,"line":2,"station_id":"SW","distance":1149,"i_lat":-6.160725},{"transit":false,"i_lat":-6.149769,"line":2,"station_id":"MGB","is_transit":false,"distance":906,"time":2,"station_name":"Manggabesar","i_long":106.82482},{"station_name":"Jayakarta","time":2,"distance":1080,"station_id":"JAY","transit":false,"line":2,"i_lat":-6.141205,"i_long":106.820901,"is_transit":false},{"is_transit":true,"line":2,"distance":1264,"transit":true,"time":4,"station_name":"Jakarta Kota","i_lat":-6.137569,"i_long":106.812439,"station_id":"JAKK"},{"station_name":"Kampung Bandan","station_id":"KPB","is_transit":false,"distance":1364,"line":4,"transit":false,"i_lat":-6.132549,"i_long":106.826365,"time":3}],[{"transit":false,"distance":0,"i_long":106.834175,"line":2,"time":0,"is_transit":false,"i_lat":-6.339291,"station_name":"Univ. Pancasila","station_id":"UP"},{"transit":false,"is_transit":false,"line":2,"i_lat":-6.330363,"distance":1029,"i_long":106.832616,"station_name":"Lenteng Agung","station_id":"LNA","time":2},{"transit":false,"distance":2671,"line":2,"is_transit":false,"i_long":106.838896,"station_id":"TNT","station_name":"Tanjung Barat","i_lat":-6.3080680000000005,"time":3},{"time":4,"station_id":"PSM","is_transit":false,"station_name":"Pasar Minggu","i_long":106.843999,"i_lat":-6.2842400000000005,"transit":false,"distance":2820,"line":2},{"station_name":"Pasar Minggu Baru","transit":false,"line":2,"i_long":106.851577,"is_transit":false,"time":2,"station_id":"PSMB","distance":2380,"i_lat":-6.263214},{"transit":false,"station_name":"Duren Kalibata","is_transit":false,"station_id":"DRN","time":2,"i_long":106.85449,"distance":824,"line":2,"i_lat":-6.255332},{"is_transit":false,"i_lat":-6.242512,"distance":1546,"line":2,"transit":false,"time":3,"station_name":"Cawang","station_id":"CW","i_long":106.856607},{"i_lat":-6.226659,"line":2,"i_long":106.857948,"is_transit":false,"distance":1230,"time":2,"station_name":"Tebet","station_id":"TEB","transit":false},{"transit":true,"station_id":"MRI","station_name":"Manggarai","is_transit":true,"time":4,"i_long":106.84912,"distance":2610,"i_lat":-6.209883,"line":2},{"line":1,"station_id":"MTR","distance":1275,"i_long":106.858896,"time":2,"station_name":"Matraman","is_transit":false,"i_lat":-6.212485,"transit":false},{"distance":1377,"station_name":"Jatinegara","transit":true,"line":1,"is_transit":true,"time":8,"station_id":"JNG","i_lat":-6.215091,"i_long":106.86807400000001},{"i_long":106.861737,"station_id":"POK","line":11,"is_transit":false,"station_name":"Pondok Jati","transit":false,"distance":1236,"time":2,"i_lat":-6.209188},{"transit":false,"station_name":"Kramat","is_transit":false,"distance":1829,"line":11,"i_long":106.855437,"station_id":"KMT","time":2,"i_lat":-6.193792},{"station_name":"Gang Sentiong","line":11,"station_id":"GST","time":1,"transit":false,"is_transit":false,"distance":973,"i_lat":-6.185975,"i_long":106.850107},{"i_long":106.84368,"is_transit":false,"transit":false,"line":11,"station_id":"PSE","distance":1567,"station_name":"Pasar Senen","i_lat":-6.174784,"time":8},{"i_long":106.839204,"is_transit":false,"line":11,"i_lat":-6.161728,"transit":false,"station_id":"KMO","time":4,"distance":1436,"station_name":"Kemayoran"},{"transit":false,"distance":1901,"time":5,"i_long":106.836569,"is_transit":false,"line":11,"station_name":"Rajawali","station_id":"RJW","i_lat":-6.14505},{"time":3,"i_lat":-6.132549,"distance":1444,"transit":false,"station_id":"KPB","line":4,"station_name":"Kampung Bandan","is_transit":false,"i_long":106.826365}]]}