{"data":[[{"is_transit":false,"station_id":"UP","i_lat":-6.339291,"i_long":106.834175,"distance":0,"transit":false,"line":2,"station_name":"Univ. Pancasila","time":0},{"i_lat":-6.330363,"distance":1029,"station_name":"Lenteng Agung","i_long":106.832616,"time":2,"station_id":"LNA","is_transit":false,"transit":false,"line":2},{"transit":false,"time":3,"line":2,"station_id":"TNT","i_lat":-6.3080680000000005,"distance":2671,"i_long":106.838896,"is_transit":false,"station_name":"Tanjung Barat"},{"line":2,"i_lat":-6.2842400000000005,"station_id":"PSM","distance":2820,"station_name":"Pasar Minggu","time":4,"transit":false,"is_transit":false,"i_long":106.843999},{"i_lat":-6.263214,"time":2,"station_id":"PSMB","station_name":"Pasar Minggu Baru","is_transit":false,"transit":false,"distance":2380,"line":2,"i_long":106.851577},{"station_id":"DRN","i_long":106.85449,"transit":false,"line":2,"distance":824,"i_lat":-6.255332,"time":2,"station_name":"Duren Kalibata","is_transit":false},{"station_name":"Cawang","transit":false,"line":2,"distance":1546,"i_lat":-6.242512,"is_transit":false,"time":3,"station_id":"CW","i_long":106.856607},{"station_id":"TEB","station_name":"Tebet","line":2,"time":2,"is_transit":false,"distance":1230,"transit":false,"i_long":106.857948,"i_lat":-6.226659},{"time":4,"station_id":"MRI","distance":2610,"transit":true,"i_lat":-6.209883,"i_long":106.84912,"is_transit":true,"line":2,"station_name":"Manggarai"},{"station_name":"Matraman","station_id":"MTR","time":2,"i_long":106.858896,"is_transit":false,"transit":false,"distance":1275,"line":1,"i_lat":-6.212485},{"station_id":"JNG","station_name":"Jatinegara","i_long":106.86807400000001,"time":8,"transit":false,"i_lat":-6.215091,"line":1,"distance":1377,"is_transit":false},{"transit":false,"distance":3395,"station_name":"Klender","i_lat":-6.2135,"time":3,"i_long":106.899548,"line":1,"station_id":"KLD","is_transit":false},{"i_lat":-6.215568,"station_name":"Buaran","line":1,"i_long":106.922662,"distance":3100,"is_transit":false,"station_id":"BUA","transit":false,"time":2},{"time":1,"distance":1305,"station_name":"Klenderbaru","station_id":"KLDB","transit":false,"i_lat":-6.217455,"i_long":106.939679,"line":1,"is_transit":false}],[{"i_long":106.834175,"transit":false,"station_name":"Univ. Pancasila","station_id":"UP","distance":0,"time":0,"i_lat":-6.339291,"line":2,"is_transit":false},{"line":2,"time":2,"station_name":"Lenteng Agung","station_id":"LNA","distance":1029,"transit":false,"i_lat":-6.330363,"is_transit":false,"i_long":106.832616},{"i_long":106.838896,"time":3,"station_name":"Tanjung Barat","line":2,"is_transit":false,"station_id":"TNT","transit":false,"i_lat":-6.3080680000000005,"distance":2671},{"time":4,"i_long":106.843999,"is_transit":false,"distance":2820,"i_lat":-6.2842400000000005,"station_name":"Pasar Minggu","transit":false,"station_id":"PSM","line":2},{"line":2,"transit":false,"i_lat":-6.263214,"station_name":"Pasar Minggu Baru","distance":2380,"i_long":106.851577,"is_transit":false,"time":2,"station_id":"PSMB"},{"station_id":"DRN","station_name":"Duren Kalibata","is_transit":false,"time":2,"i_long":106.85449,"distance":824,"transit":false,"i_lat":-6.255332,"line":2},{"distance":1546,"i_long":106.856607,"station_id":"CW","transit":false,"is_transit":false,"time":3,"i_lat":-6.242512,"station_name":"Cawang","line":2},{"distance":1230,"i_long":106.857948,"line":2,"i_lat":-6.226659,"transit":false,"station_name":"Tebet","is_transit":false,"station_id":"TEB","time":2},{"i_long":106.84912,"distance":2610,"line":2,"station_name":"Manggarai","time":4,"station_id":"MRI","is_transit":true,"i_lat":-6.209883,"transit":true},{"transit":false,"station_id":"SUD","station_name":"Sudirman","i_lat":-6.202263,"distance":3186,"i_long":106.822649,"time":4,"is_transit":false,"line":1},{"distance":280,"is_transit":false,"i_lat":-6.201433,"station_id":"SUDB","line":1,"station_name":"Sudirman Baru","transit":false,"i_long":106.819881,"time":1},{"time":1,"distance":471,"i_lat":-6.20132,"station_name":"Karet","is_transit":false,"line":1,"station_id":"KAT","transit":false,"i_long":106.816351},{"station_id":"THB","i_lat":-6.185545,"time":5,"distance":2029,"station_name":"Tanah Abang","transit":false,"i_long":106.811091,"line":1,"is_transit":false},{"is_transit":false,"i_lat":-6.155215,"line":1,"station_name":"Duri","i_long":106.800832,"station_id":"DU","time":8,"distance":3632,"transit":false},{"i_long":106.79867,"is_transit":false,"line":1,"time":4,"distance":1230,"station_id":"AK","station_name":"Angke","transit":false,"i_lat":-6.144674},{"time":9,"distance":4102,"is_transit":true,"transit":true,"station_name":"Kampung Bandan","i_long":106.826365,"station_id":"KPB","i_lat":-6.132549,"line":4},{"time":3,"distance":1444,"i_long":106.836569,"station_id":"RJW","transit":false,"i_lat":-6.14505,"station_name":"Rajawali","line":11,"is_transit":false},{"transit":false,"station_name":"Kemayoran","time":5,"station_id":"KMO","i_lat":-6.161728,"i_long":106.839204,"is_transit":false,"distance":1901,"line":11},{"station_name":"Pasar Senen","distance":1436,"time":4,"i_long":106.84368,"i_lat":-6.174784,"line":11,"is_transit":false,"station_id":"PSE","transit":false},{"i_long":106.850107,"line":11,"transit":false,"distance":1567,"station_id":"GST","station_name":"Gang Sentiong","is_transit":false,"i_lat":-6.185975,"time":8},{"time":1,"station_id":"KMT","line":11,"transit":false,"station_name":"Kramat","i_lat":-6.193792,"i_long":106.855437,"distance":973,"is_transit":false},{"time":2,"transit":false,"distance":1829,"station_id":"POK","i_lat":-6.209188,"station_name":"Pondok Jati","i_long":106.861737,"line":11,"is_transit":false},{"station_name":"Jatinegara","i_long":106.86807400000001,"is_transit":true,"distance":1236,"station_id":"JNG","transit":true,"i_lat":-6.215091,"line":1,"time":9},{"station_id":"KLD","i_long":106.899548,"station_name":"Klender","is_transit":false,"line":1,"distance":3395,"transit":false,"i_lat":-6.2135,"time":3},{"transit":false,"distance":3100,"i_lat":-6.215568,"is_transit":false,"station_name":"Buaran","i_long":106.922662,"line":1,"time":2,"station_id":"BUA"},{"station_name":"Klenderbaru","time":1,"station_id":"KLDB","i_long":106.939679,"is_transit":false,"line":1,"i_lat":-6.217455,"distance":1305,"transit":false}],[{"station_name":"Univ. Pancasila","time":0,"distance":0,"transit":false,"i_lat":-6.339291,"i_long":106.834175,"is_transit":false,"line":2,"station_id":"UP"},{"station_name":"Lenteng Agung","distance":1029,"transit":false,"i_long":106.832616,"line":2,"i_lat":-6.330363,"is_transit":false,"station_id":"LNA","time":2},{"line":2,"time":3,"distance":2671,"is_transit":false,"station_name":"Tanjung Barat","station_id":"TNT","transit":false,"i_lat":-6.3080680000000005,"i_long":106.838896},{"time":4,"is_transit":false,"transit":false,"station_name":"Pasar Minggu","i_lat":-6.2842400000000005,"line":2,"station_id":"PSM","i_long":106.843999,"distance":2820},{"time":2,"transit":false,"station_name":"Pasar Minggu Baru","line":2,"distance":2380,"i_lat":-6.263214,"station_id":"PSMB","is_transit":false,"i_long":106.851577},{"station_name":"Duren Kalibata","i_lat":-6.255332,"line":2,"i_long":106.85449,"transit":false,"time":2,"station_id":"DRN","is_transit":false,"distance":824},{"station_id":"CW","is_transit":false,"line":2,"i_lat":-6.242512,"i_long":106.856607,"distance":1546,"station_name":"Cawang","transit":false,"time":3},{"station_id":"TEB","station_name":"Tebet","is_transit":false,"distance":1230,"i_long":106.857948,"line":2,"time":2,"transit":false,"i_lat":-6.226659},{"time":4,"line":2,"transit":false,"station_id":"MRI","i_lat":-6.209883,"i_long":106.84912,"distance":2610,"is_transit":false,"station_name":"Manggarai"},{"transit":false,"i_long":106.840169,"line":2,"time":4,"distance":1590,"station_id":"CKI","is_transit":false,"station_name":"Cikini","i_lat":-6.198556},{"transit":false,"station_id":"GDD","station_name":"Gondangdia","i_long":106.832183,"is_transit":false,"line":2,"time":3,"i_lat":-6.186295,"distance":1750},{"station_id":"JUA","i_lat":-6.166716,"i_long":106.828284,"time":4,"distance":2015,"line":2,"station_name":"Juanda","is_transit":false,"transit":false},{"is_transit":false,"i_long":106.827103,"line":2,"transit":false,"time":2,"distance":1149,"station_name":"Sawah Besar","station_id":"SW","i_lat":-6.160725},{"is_transit":false,"i_lat":-6.149769,"station_id":"MGB","i_long":106.82482,"line":2,"time":2,"transit":false,"distance":906,"station_name":"Manggabesar"},{"i_lat":-6.141205,"line":2,"time":2,"distance":1080,"transit":false,"station_id":"JAY","is_transit":false,"station_name":"Jayakarta","i_long":106.820901},{"i_long":106.812439,"station_name":"Jakarta Kota","time":4,"i_lat":-6.137569,"transit":true,"is_transit":true,"distance":1264,"station_id":"JAKK","line":2},{"line":4,"distance":1364,"station_name":"Kampung Bandan","i_long":106.826365,"station_id":"KPB","is_transit":true,"time":3,"i_lat":-6.132549,"transit":true},{"station_name":"Rajawali","line":11,"transit":false,"distance":1444,"i_long":106.836569,"station_id":"RJW","time":3,"i_lat":-6.14505,"is_transit":false},{"i_lat":-6.161728,"is_transit":false,"distance":1901,"line":11,"time":5,"transit":false,"station_id":"KMO","i_long":106.839204,"station_name":"Kemayoran"},{"station_name":"Pasar Senen","line":11,"i_lat":-6.174784,"transit":false,"i_long":106.84368,"distance":1436,"station_id":"PSE","is_transit":false,"time":4},{"i_long":106.850107,"is_transit":false,"line":11,"distance":1567,"station_name":"Gang Sentiong","station_id":"GST","i_lat":-6.185975,"transit":false,"time":8},{"line":11,"is_transit":false,"station_name":"Kramat","i_long":106.855437,"time":1,"transit":false,"distance":973,"station_id":"KMT","i_lat":-6.193792},{"i_lat":-6.209188,"i_long":106.861737,"station_id":"POK","is_transit":false,"distance":1829,"station_name":"Pondok Jati","line":11,"transit":false,"time":2},{"i_long":106.86807400000001,"transit":true,"is_transit":true,"time":9,"distance":1236,"station_id":"JNG","i_lat":-6.215091,"station_name":"Jatinegara","line":1},{"transit":false,"i_long":106.899548,"station_name":"Klender","line":1,"distance":3395,"station_id":"KLD","time":3,"is_transit":false,"i_lat":-6.2135},{"i_lat":-6.215568,"station_name":"Buaran","distance":3100,"time":2,"station_id":"BUA","line":1,"i_long":106.922662,"is_transit":false,"transit":false},{"distance":1305,"line":1,"time":1,"station_name":"Klenderbaru","i_lat":-6.217455,"i_long":106.939679,"station_id":"KLDB","is_transit":false,"transit":false}]]}