{"data":[[{"distance":0,"line":2,"station_id":"UP","transit":false,"time":0,"i_long":106.834175,"i_lat":-6.339291,"is_transit":false,"station_name":"Univ. Pancasila"},{"i_long":106.832616,"station_name":"Lenteng Agung","distance":1029,"i_lat":-6.330363,"station_id":"LNA","time":2,"transit":false,"line":2,"is_transit":false},{"i_lat":-6.3080680000000005,"time":3,"distance":2671,"station_name":"Tanjung Barat","is_transit":false,"transit":false,"i_long":106.838896,"line":2,"station_id":"TNT"},{"station_id":"PSM","is_transit":false,"station_name":"Pasar Minggu","transit":false,"i_long":106.843999,"distance":2820,"line":2,"time":4,"i_lat":-6.2842400000000005},{"is_transit":false,"i_lat":-6.263214,"i_long":106.851577,"transit":false,"time":2,"distance":2380,"station_id":"PSMB","station_name":"Pasar Minggu Baru","line":2},{"time":2,"line":2,"distance":824,"transit":false,"station_id":"DRN","station_name":"Duren Kalibata","is_transit":false,"i_lat":-6.255332,"i_long":106.85449},{"is_transit":false,"station_id":"CW","i_lat":-6.242512,"distance":1546,"time":3,"transit":false,"i_long":106.856607,"line":2,"station_name":"Cawang"},{"station_name":"Tebet","is_transit":false,"i_long":106.857948,"line":2,"i_lat":-6.226659,"distance":1230,"time":2,"station_id":"TEB","transit":false},{"is_transit":true,"station_name":"Manggarai","transit":true,"distance":2610,"time":4,"station_id":"MRI","i_lat":-6.209883,"i_long":106.84912,"line":2},{"distance":3186,"is_transit":false,"i_lat":-6.202263,"station_name":"Sudirman","line":1,"station_id":"SUD","time":4,"transit":false,"i_long":106.822649},{"distance":280,"is_transit":false,"i_lat":-6.201433,"line":1,"station_id":"SUDB","station_name":"Sudirman Baru","i_long":106.819881,"time":1,"transit":false},{"i_lat":-6.20132,"i_long":106.816351,"line":1,"station_id":"KAT","time":1,"distance":471,"transit":false,"station_name":"Karet","is_transit":false},{"time":5,"is_transit":false,"i_long":106.811091,"line":1,"transit":false,"distance":2029,"station_name":"Tanah Abang","i_lat":-6.185545,"station_id":"THB"},{"transit":true,"i_long":106.800832,"line":1,"station_id":"DU","i_lat":-6.155215,"station_name":"Duri","time":8,"distance":3632,"is_transit":true},{"line":5,"time":3,"i_long":106.788277,"transit":false,"i_lat":-6.162021,"is_transit":false,"distance":1700,"station_id":"GGL","station_name":"Grogol"},{"is_transit":false,"line":5,"i_long":106.771379,"distance":2036,"station_id":"PSG","i_lat":-6.161433,"station_name":"Pesing","transit":false,"time":2},{"is_transit":false,"i_lat":-6.1587309999999995,"line":5,"station_name":"Taman Kota","time":2,"station_id":"TKO","transit":false,"i_long":106.756522,"distance":1614},{"distance":2334,"time":2,"station_name":"Bojongindah","station_id":"BOI","line":5,"transit":false,"i_lat":-6.159876,"i_long":106.737035,"is_transit":false},{"transit":false,"i_lat":-6.162758,"station_id":"RW","is_transit":false,"i_long":106.723064,"line":5,"time":4,"station_name":"Rawa Buaya","distance":1152},{"line":5,"distance":2504,"is_transit":false,"transit":false,"station_id":"KDS","time":3,"station_name":"Kalideres","i_lat":-6.166068,"i_long":106.701612}],[{"transit":false,"is_transit":false,"i_lat":-6.339291,"time":0,"station_name":"Univ. Pancasila","distance":0,"station_id":"UP","i_long":106.834175,"line":2},{"distance":1029,"is_transit":false,"time":2,"i_long":106.832616,"line":2,"station_id":"LNA","i_lat":-6.330363,"transit":false,"station_name":"Lenteng Agung"},{"time":3,"transit":false,"is_transit":false,"station_name":"Tanjung Barat","station_id":"TNT","i_long":106.838896,"distance":2671,"line":2,"i_lat":-6.3080680000000005},{"station_name":"Pasar Minggu","time":4,"i_lat":-6.2842400000000005,"distance":2820,"station_id":"PSM","is_transit":false,"i_long":106.843999,"line":2,"transit":false},{"line":2,"i_long":106.851577,"is_transit":false,"station_id":"PSMB","distance":2380,"station_name":"Pasar Minggu Baru","transit":false,"time":2,"i_lat":-6.263214},{"line":2,"station_name":"Duren Kalibata","station_id":"DRN","distance":824,"time":2,"is_transit":false,"transit":false,"i_long":106.85449,"i_lat":-6.255332},{"time":3,"distance":1546,"transit":false,"line":2,"is_transit":false,"i_lat":-6.242512,"i_long":106.856607,"station_name":"Cawang","station_id":"CW"},{"i_lat":-6.226659,"is_transit":false,"time":2,"transit":false,"line":2,"i_long":106.857948,"station_id":"TEB","distance":1230,"station_name":"Tebet"},{"is_transit":false,"station_name":"Manggarai","time":4,"distance":2610,"line":2,"transit":false,"i_lat":-6.209883,"i_long":106.84912,"station_id":"MRI"},{"station_name":"Cikini","station_id":"CKI","i_lat":-6.198556,"i_long":106.840169,"line":2,"distance":1590,"time":4,"is_transit":false,"transit":false},{"distance":1750,"station_name":"Gondangdia","i_long":106.832183,"is_transit":false,"i_lat":-6.186295,"line":2,"station_id":"GDD","time":3,"transit":false},{"station_id":"JUA","station_name":"Juanda","time":4,"transit":false,"i_long":106.828284,"line":2,"i_lat":-6.166716,"is_transit":false,"distance":2015},{"station_id":"SW","i_long":106.827103,"station_name":"Sawah Besar","line":2,"is_transit":false,"i_lat":-6.160725,"transit":false,"time":2,"distance":1149},{"station_id":"MGB","line":2,"distance":906,"time":2,"is_transit":false,"transit":false,"station_name":"Manggabesar","i_lat":-6.149769,"i_long":106.82482},{"station_id":"JAY","line":2,"station_name":"Jayakarta","i_lat":-6.141205,"i_long":106.820901,"transit":false,"distance":1080,"time":2,"is_transit":false},{"line":2,"station_name":"Jakarta Kota","i_long":106.812439,"distance":1264,"time":4,"is_transit":true,"i_lat":-6.137569,"transit":true,"station_id":"JAKK"},{"station_name":"Kampung Bandan","i_lat":-6.132549,"time":3,"is_transit":true,"distance":1364,"i_long":106.826365,"station_id":"KPB","line":4,"transit":true},{"i_lat":-6.144674,"i_long":106.79867,"station_id":"AK","transit":false,"time":9,"station_name":"Angke","distance":4102,"is_transit":false,"line":1},{"line":1,"is_transit":true,"i_long":106.800832,"time":4,"station_id":"DU","transit":true,"station_name":"Duri","distance":1230,"i_lat":-6.155215},{"line":5,"i_long":106.788277,"distance":1700,"time":3,"transit":false,"station_id":"GGL","i_lat":-6.162021,"is_transit":false,"station_name":"Grogol"},{"station_id":"PSG","i_lat":-6.161433,"time":2,"is_transit":false,"transit":false,"i_long":106.771379,"station_name":"Pesing","distance":2036,"line":5},{"i_long":106.756522,"station_id":"TKO","line":5,"time":2,"transit":false,"distance":1614,"i_lat":-6.1587309999999995,"is_transit":false,"station_name":"Taman Kota"},{"station_name":"Bojongindah","station_id":"BOI","is_transit":false,"i_lat":-6.159876,"line":5,"transit":false,"distance":2334,"time":2,"i_long":106.737035},{"station_name":"Rawa Buaya","station_id":"RW","i_long":106.723064,"distance":1152,"transit":false,"line":5,"i_lat":-6.162758,"is_transit":false,"time":4},{"i_long":106.701612,"station_name":"Kalideres","line":5,"station_id":"KDS","is_transit":false,"time":3,"transit":false,"i_lat":-6.166068,"distance":2504}],[{"station_id":"UP","time":0,"station_name":"Univ. Pancasila","transit":false,"line":2,"is_transit":false,"i_long":106.834175,"distance":0,"i_lat":-6.339291},{"time":2,"station_name":"Lenteng Agung","distance":1029,"i_lat":-6.330363,"line":2,"station_id":"LNA","is_transit":false,"transit":false,"i_long":106.832616},{"line":2,"i_long":106.838896,"i_lat":-6.3080680000000005,"transit":false,"distance":2671,"time":3,"is_transit":false,"station_name":"Tanjung Barat","station_id":"TNT"},{"transit":false,"i_lat":-6.2842400000000005,"station_name":"Pasar Minggu","i_long":106.843999,"station_id":"PSM","is_transit":false,"line":2,"time":4,"distance":2820},{"time":2,"transit":false,"i_long":106.851577,"line":2,"is_transit":false,"station_name":"Pasar Minggu Baru","distance":2380,"station_id":"PSMB","i_lat":-6.263214},{"line":2,"time":2,"station_id":"DRN","station_name":"Duren Kalibata","i_long":106.85449,"i_lat":-6.255332,"is_transit":false,"distance":824,"transit":false},{"i_lat":-6.242512,"i_long":106.856607,"station_id":"CW","transit":false,"line":2,"distance":1546,"station_name":"Cawang","is_transit":false,"time":3},{"distance":1230,"time":2,"station_id":"TEB","station_name":"Tebet","i_lat":-6.226659,"i_long":106.857948,"line":2,"is_transit":false,"transit":false},{"station_id":"MRI","distance":2610,"station_name":"Manggarai","i_long":106.84912,"transit":true,"time":4,"line":2,"is_transit":true,"i_lat":-6.209883},{"station_id":"MTR","is_transit":false,"line":1,"distance":1275,"i_long":106.858896,"i_lat":-6.212485,"transit":false,"time":2,"station_name":"Matraman"},{"is_transit":true,"station_name":"Jatinegara","time":8,"line":1,"transit":true,"distance":1377,"i_lat":-6.215091,"i_long":106.86807400000001,"station_id":"JNG"},{"station_name":"Pondok Jati","i_long":106.861737,"i_lat":-6.209188,"distance":1236,"station_id":"POK","time":2,"line":11,"is_transit":false,"transit":false},{"distance":1829,"is_transit":false,"time":2,"line":11,"i_long":106.855437,"station_name":"Kramat","i_lat":-6.193792,"transit":false,"station_id":"KMT"},{"is_transit":false,"i_lat":-6.185975,"i_long":106.850107,"station_id":"GST","station_name":"Gang Sentiong","transit":false,"line":11,"distance":973,"time":1},{"i_long":106.84368,"station_name":"Pasar Senen","transit":false,"distance":1567,"time":8,"i_lat":-6.174784,"line":11,"station_id":"PSE","is_transit":false},{"i_lat":-6.161728,"distance":1436,"line":11,"is_transit":false,"station_id":"KMO","station_name":"Kemayoran","i_long":106.839204,"time":4,"transit":false},{"line":11,"station_id":"RJW","distance":1901,"i_lat":-6.14505,"i_long":106.836569,"station_name":"Rajawali","is_transit":false,"time":5,"transit":false},{"i_lat":-6.132549,"transit":true,"i_long":106.826365,"distance":1444,"time":3,"station_id":"KPB","station_name":"Kampung Bandan","is_transit":true,"line":4},{"time":9,"i_lat":-6.144674,"station_name":"Angke","station_id":"AK","distance":4102,"transit":false,"line":1,"is_transit":false,"i_long":106.79867},{"distance":1230,"station_name":"Duri","is_transit":true,"line":1,"station_id":"DU","transit":true,"time":4,"i_lat":-6.155215,"i_long":106.800832},{"distance":1700,"is_transit":false,"time":3,"i_long":106.788277,"transit":false,"i_lat":-6.162021,"station_name":"Grogol","line":5,"station_id":"GGL"},{"transit":false,"i_lat":-6.161433,"line":5,"time":2,"station_id":"PSG","is_transit":false,"i_long":106.771379,"distance":2036,"station_name":"Pesing"},{"time":2,"transit":false,"is_transit":false,"distance":1614,"i_lat":-6.1587309999999995,"station_name":"Taman Kota","i_long":106.756522,"station_id":"TKO","line":5},{"i_lat":-6.159876,"is_transit":false,"time":2,"i_long":106.737035,"station_id":"BOI","distance":2334,"line":5,"station_name":"Bojongindah","transit":false},{"time":4,"i_lat":-6.162758,"i_long":106.723064,"station_id":"RW","line":5,"is_transit":false,"distance":1152,"station_name":"Rawa Buaya","transit":false},{"is_transit":false,"transit":false,"time":3,"i_lat":-6.166068,"station_name":"Kalideres","distance":2504,"station_id":"KDS","i_long":106.701612,"line":5}]]}