{"data":[[{"is_transit":false,"i_lat":-6.339291,"i_long":106.834175,"time":0,"line":2,"distance":0,"transit":false,"station_name":"Univ. Pancasila","station_id":"UP"},{"is_transit":false,"distance":1029,"line":2,"station_name":"Lenteng Agung","i_long":106.832616,"i_lat":-6.330363,"transit":false,"time":2,"station_id":"LNA"},{"line":2,"distance":2671,"time":3,"is_transit":false,"station_name":"Tanjung Barat","station_id":"TNT","transit":false,"i_lat":-6.3080680000000005,"i_long":106.838896},{"is_transit":false,"station_id":"PSM","i_lat":-6.2842400000000005,"station_name":"Pasar Minggu","distance":2820,"time":4,"i_long":106.843999,"transit":false,"line":2},{"station_name":"Pasar Minggu Baru","station_id":"PSMB","is_transit":false,"time":2,"i_lat":-6.263214,"distance":2380,"line":2,"transit":false,"i_long":106.851577},{"line":0,"i_lat":-6.255332,"i_long":106.85449,"station_name":"Duren Kalibata","station_id":"DRN","is_transit":false,"time":2,"distance":824,"transit":false},{"line":0,"is_transit":false,"station_id":"CW","i_lat":-6.242512,"station_name":"Cawang","time":3,"distance":1546,"transit":false,"i_long":106.856607},{"time":2,"transit":false,"line":2,"i_long":106.857948,"station_name":"Tebet","is_transit":false,"distance":1230,"station_id":"TEB","i_lat":-6.226659},{"is_transit":true,"i_long":106.84912,"i_lat":-6.209883,"station_id":"MRI","line":0,"transit":true,"distance":2610,"station_name":"Manggarai","time":4},{"i_lat":-6.202263,"is_transit":false,"station_id":"SUD","line":1,"station_name":"Sudirman","time":4,"distance":3186,"i_long":106.822649,"transit":false},{"time":1,"distance":280,"i_long":106.819881,"is_transit":false,"transit":false,"station_id":"SUDB","station_name":"Sudirman Baru","i_lat":-6.201433,"line":1},{"i_lat":-6.20132,"distance":471,"i_long":106.816351,"line":1,"transit":false,"station_id":"KAT","time":1,"station_name":"Karet","is_transit":false},{"distance":2029,"i_lat":-6.185545,"transit":false,"i_long":106.811091,"station_id":"THB","line":1,"station_name":"Tanah Abang","is_transit":true,"time":5},{"line":1,"i_lat":-6.155215,"distance":3632,"time":8,"station_id":"DU","station_name":"Duri","is_transit":true,"transit":true,"i_long":106.800832},{"line":0,"i_long":106.79867,"is_transit":false,"time":4,"transit":false,"station_id":"AK","distance":1230,"i_lat":-6.144674,"station_name":"Angke"},{"distance":4102,"i_lat":-6.132549,"line":0,"station_id":"KPB","time":9,"i_long":106.826365,"transit":false,"station_name":"Kampung Bandan","is_transit":true}],[{"transit":false,"i_lat":-6.339291,"line":2,"station_id":"UP","is_transit":false,"i_long":106.834175,"distance":0,"station_name":"Univ. Pancasila","time":0},{"station_id":"LNA","i_lat":-6.330363,"line":2,"is_transit":false,"time":2,"station_name":"Lenteng Agung","i_long":106.832616,"transit":false,"distance":1029},{"transit":false,"line":2,"distance":2671,"i_long":106.838896,"station_id":"TNT","time":3,"i_lat":-6.3080680000000005,"is_transit":false,"station_name":"Tanjung Barat"},{"line":2,"i_lat":-6.2842400000000005,"i_long":106.843999,"station_id":"PSM","is_transit":false,"distance":2820,"station_name":"Pasar Minggu","time":4,"transit":false},{"time":2,"station_id":"PSMB","i_lat":-6.263214,"station_name":"Pasar Minggu Baru","distance":2380,"i_long":106.851577,"line":2,"transit":false,"is_transit":false},{"is_transit":false,"station_id":"DRN","i_long":106.85449,"station_name":"Duren Kalibata","time":2,"distance":824,"transit":false,"line":0,"i_lat":-6.255332},{"i_lat":-6.242512,"i_long":106.856607,"station_id":"CW","distance":1546,"station_name":"Cawang","time":3,"line":0,"transit":false,"is_transit":false},{"transit":false,"time":2,"station_name":"Tebet","is_transit":false,"i_long":106.857948,"distance":1230,"line":2,"i_lat":-6.226659,"station_id":"TEB"},{"station_name":"Manggarai","is_transit":true,"time":4,"i_lat":-6.209883,"distance":2610,"transit":true,"line":0,"i_long":106.84912,"station_id":"MRI"},{"time":4,"transit":false,"is_transit":false,"station_id":"CKI","distance":1590,"line":0,"station_name":"Cikini","i_long":106.840169,"i_lat":-6.198556},{"distance":1750,"is_transit":false,"transit":false,"station_name":"Gondangdia","time":3,"i_lat":-6.186295,"station_id":"GDD","i_long":106.832183,"line":2},{"i_long":106.828284,"distance":2015,"line":2,"station_name":"Juanda","station_id":"JUA","i_lat":-6.166716,"time":4,"transit":false,"is_transit":false},{"distance":1149,"i_lat":-6.160725,"transit":false,"i_long":106.827103,"time":2,"is_transit":false,"line":2,"station_name":"Sawah Besar","station_id":"SW"},{"time":2,"station_id":"MGB","distance":906,"transit":false,"is_transit":false,"i_long":106.82482,"line":2,"i_lat":-6.149769,"station_name":"Manggabesar"},{"transit":false,"time":2,"distance":1080,"line":7,"station_id":"JAY","i_long":106.820901,"i_lat":-6.141205,"station_name":"Jayakarta","is_transit":false},{"time":4,"station_id":"JAKK","station_name":"Jakarta Kota","transit":true,"line":0,"i_lat":-6.137569,"is_transit":true,"distance":1264,"i_long":106.812439},{"is_transit":true,"time":3,"distance":1364,"station_name":"Kampung Bandan","i_lat":-6.132549,"i_long":106.826365,"line":0,"station_id":"KPB","transit":false}],[{"i_lat":-6.339291,"is_transit":false,"station_name":"Univ. Pancasila","station_id":"UP","distance":0,"transit":false,"time":0,"i_long":106.834175,"line":2},{"is_transit":false,"station_name":"Lenteng Agung","time":2,"distance":1029,"line":2,"transit":false,"i_lat":-6.330363,"station_id":"LNA","i_long":106.832616},{"distance":2671,"is_transit":false,"time":3,"station_name":"Tanjung Barat","i_lat":-6.3080680000000005,"i_long":106.838896,"transit":false,"line":2,"station_id":"TNT"},{"transit":false,"time":4,"station_id":"PSM","is_transit":false,"i_long":106.843999,"distance":2820,"i_lat":-6.2842400000000005,"line":2,"station_name":"Pasar Minggu"},{"is_transit":false,"line":2,"station_id":"PSMB","i_long":106.851577,"station_name":"Pasar Minggu Baru","time":2,"distance":2380,"transit":false,"i_lat":-6.263214},{"distance":824,"station_id":"DRN","is_transit":false,"time":2,"transit":false,"i_lat":-6.255332,"station_name":"Duren Kalibata","i_long":106.85449,"line":0},{"station_name":"Cawang","transit":false,"line":0,"is_transit":false,"time":3,"distance":1546,"i_lat":-6.242512,"i_long":106.856607,"station_id":"CW"},{"transit":false,"i_long":106.857948,"distance":1230,"time":2,"i_lat":-6.226659,"is_transit":false,"line":2,"station_name":"Tebet","station_id":"TEB"},{"station_name":"Manggarai","i_lat":-6.209883,"i_long":106.84912,"is_transit":true,"transit":true,"line":0,"time":4,"station_id":"MRI","distance":2610},{"time":2,"i_lat":-6.212485,"line":1,"transit":false,"i_long":106.858896,"is_transit":false,"distance":1275,"station_id":"MTR","station_name":"Matraman"},{"line":0,"station_name":"Jatinegara","transit":true,"i_long":106.86807400000001,"station_id":"JNG","is_transit":true,"time":8,"distance":1377,"i_lat":-6.215091},{"time":2,"is_transit":false,"station_name":"Pondok Jati","transit":false,"i_lat":-6.209188,"station_id":"POK","distance":1236,"i_long":106.861737,"line":11},{"station_name":"Kramat","is_transit":false,"i_lat":-6.193792,"i_long":106.855437,"time":2,"transit":false,"distance":1829,"line":11,"station_id":"KMT"},{"distance":973,"i_lat":-6.185975,"station_id":"GST","time":1,"station_name":"Gang Sentiong","is_transit":false,"i_long":106.850107,"line":11,"transit":false},{"station_id":"PSE","line":11,"i_long":106.84368,"time":8,"station_name":"Pasar Senen","is_transit":false,"distance":1567,"i_lat":-6.174784,"transit":false},{"transit":false,"station_name":"Kemayoran","station_id":"KMO","i_lat":-6.161728,"i_long":106.839204,"is_transit":false,"line":11,"time":4,"distance":1436},{"distance":1901,"time":5,"is_transit":false,"i_long":106.836569,"transit":false,"line":11,"i_lat":-6.14505,"station_id":"RJW","station_name":"Rajawali"},{"line":0,"transit":false,"i_lat":-6.132549,"distance":1444,"station_name":"Kampung Bandan","station_id":"KPB","is_transit":true,"time":3,"i_long":106.826365}]]}