{"data":[[{"distance":0,"time":0,"station_id":"UP","i_lat":-6.339291,"is_transit":false,"i_long":106.834175,"station_name":"Univ. Pancasila","line":2,"transit":false},{"i_lat":-6.330363,"distance":1029,"station_id":"LNA","station_name":"Lenteng Agung","is_transit":false,"line":2,"transit":false,"i_long":106.832616,"time":2},{"is_transit":false,"transit":false,"line":2,"station_id":"TNT","i_lat":-6.3080680000000005,"time":3,"distance":2671,"station_name":"Tanjung Barat","i_long":106.838896},{"i_long":106.843999,"line":2,"station_name":"Pasar Minggu","i_lat":-6.2842400000000005,"time":4,"transit":false,"station_id":"PSM","is_transit":false,"distance":2820},{"transit":false,"i_lat":-6.263214,"line":2,"i_long":106.851577,"is_transit":false,"station_id":"PSMB","station_name":"Pasar Minggu Baru","time":2,"distance":2380},{"station_name":"Duren Kalibata","i_long":106.85449,"line":2,"station_id":"DRN","is_transit":false,"i_lat":-6.255332,"transit":false,"distance":824,"time":2},{"time":3,"is_transit":false,"transit":false,"i_long":106.856607,"station_name":"Cawang","i_lat":-6.242512,"distance":1546,"station_id":"CW","line":2},{"time":2,"i_lat":-6.226659,"line":2,"i_long":106.857948,"station_id":"TEB","transit":false,"station_name":"Tebet","is_transit":false,"distance":1230},{"i_long":106.84912,"time":4,"is_transit":true,"distance":2610,"station_name":"Manggarai","transit":true,"station_id":"MRI","line":2,"i_lat":-6.209883},{"station_name":"Matraman","time":2,"is_transit":false,"line":1,"station_id":"MTR","transit":false,"i_lat":-6.212485,"i_long":106.858896,"distance":1275},{"i_lat":-6.215091,"line":1,"i_long":106.86807400000001,"time":8,"is_transit":false,"distance":1377,"station_id":"JNG","transit":false,"station_name":"Jatinegara"},{"distance":3395,"time":3,"is_transit":false,"station_id":"KLD","transit":false,"line":1,"i_lat":-6.2135,"station_name":"Klender","i_long":106.899548},{"time":2,"line":1,"station_name":"Buaran","i_lat":-6.215568,"station_id":"BUA","transit":false,"is_transit":false,"i_long":106.922662,"distance":3100},{"line":1,"is_transit":false,"transit":false,"distance":1305,"time":1,"station_id":"KLDB","i_long":106.939679,"i_lat":-6.217455,"station_name":"Klenderbaru"}],[{"time":0,"i_lat":-6.339291,"distance":0,"station_id":"UP","i_long":106.834175,"line":2,"is_transit":false,"transit":false,"station_name":"Univ. Pancasila"},{"distance":1029,"i_lat":-6.330363,"station_name":"Lenteng Agung","station_id":"LNA","i_long":106.832616,"time":2,"transit":false,"line":2,"is_transit":false},{"time":3,"station_name":"Tanjung Barat","is_transit":false,"station_id":"TNT","i_lat":-6.3080680000000005,"i_long":106.838896,"line":2,"transit":false,"distance":2671},{"station_name":"Pasar Minggu","time":4,"transit":false,"i_lat":-6.2842400000000005,"is_transit":false,"distance":2820,"i_long":106.843999,"station_id":"PSM","line":2},{"transit":false,"i_long":106.851577,"station_name":"Pasar Minggu Baru","station_id":"PSMB","time":2,"line":2,"distance":2380,"is_transit":false,"i_lat":-6.263214},{"distance":824,"station_id":"DRN","is_transit":false,"station_name":"Duren Kalibata","time":2,"i_long":106.85449,"transit":false,"i_lat":-6.255332,"line":2},{"time":3,"distance":1546,"station_id":"CW","is_transit":false,"station_name":"Cawang","transit":false,"i_lat":-6.242512,"i_long":106.856607,"line":2},{"station_id":"TEB","transit":false,"i_lat":-6.226659,"i_long":106.857948,"station_name":"Tebet","is_transit":false,"line":2,"distance":1230,"time":2},{"line":2,"station_name":"Manggarai","transit":true,"i_lat":-6.209883,"i_long":106.84912,"time":4,"is_transit":true,"station_id":"MRI","distance":2610},{"station_name":"Sudirman","distance":3186,"time":4,"is_transit":false,"transit":false,"station_id":"SUD","i_long":106.822649,"line":1,"i_lat":-6.202263},{"station_id":"SUDB","i_long":106.819881,"is_transit":false,"i_lat":-6.201433,"transit":false,"line":1,"station_name":"Sudirman Baru","time":1,"distance":280},{"transit":false,"distance":471,"time":1,"i_long":106.816351,"station_id":"KAT","is_transit":false,"station_name":"Karet","i_lat":-6.20132,"line":1},{"station_name":"Tanah Abang","i_long":106.811091,"time":5,"transit":false,"i_lat":-6.185545,"station_id":"THB","is_transit":false,"line":1,"distance":2029},{"line":1,"i_lat":-6.155215,"transit":false,"time":8,"i_long":106.800832,"station_name":"Duri","distance":3632,"station_id":"DU","is_transit":false},{"station_name":"Angke","i_long":106.79867,"distance":1230,"transit":false,"time":4,"station_id":"AK","i_lat":-6.144674,"line":1,"is_transit":false},{"distance":4102,"station_name":"Kampung Bandan","i_long":106.826365,"is_transit":true,"time":9,"station_id":"KPB","i_lat":-6.132549,"line":4,"transit":true},{"time":3,"transit":false,"distance":1444,"is_transit":false,"i_lat":-6.14505,"line":11,"station_id":"RJW","station_name":"Rajawali","i_long":106.836569},{"time":5,"line":11,"is_transit":false,"i_lat":-6.161728,"i_long":106.839204,"station_id":"KMO","transit":false,"distance":1901,"station_name":"Kemayoran"},{"line":11,"time":4,"station_id":"PSE","distance":1436,"i_long":106.84368,"transit":false,"is_transit":false,"station_name":"Pasar Senen","i_lat":-6.174784},{"station_id":"GST","transit":false,"distance":1567,"time":8,"is_transit":false,"i_lat":-6.185975,"i_long":106.850107,"station_name":"Gang Sentiong","line":11},{"transit":false,"distance":973,"station_name":"Kramat","i_lat":-6.193792,"time":1,"line":11,"i_long":106.855437,"is_transit":false,"station_id":"KMT"},{"i_long":106.861737,"line":11,"station_id":"POK","transit":false,"time":2,"distance":1829,"station_name":"Pondok Jati","i_lat":-6.209188,"is_transit":false},{"station_name":"Jatinegara","i_long":106.86807400000001,"station_id":"JNG","transit":true,"i_lat":-6.215091,"line":1,"is_transit":true,"distance":1236,"time":9},{"station_name":"Klender","line":1,"transit":false,"distance":3395,"i_long":106.899548,"i_lat":-6.2135,"is_transit":false,"time":3,"station_id":"KLD"},{"i_lat":-6.215568,"station_id":"BUA","i_long":106.922662,"distance":3100,"line":1,"transit":false,"is_transit":false,"time":2,"station_name":"Buaran"},{"distance":1305,"is_transit":false,"i_long":106.939679,"line":1,"station_name":"Klenderbaru","station_id":"KLDB","transit":false,"time":1,"i_lat":-6.217455}],[{"distance":0,"station_id":"UP","i_lat":-6.339291,"line":2,"is_transit":false,"station_name":"Univ. Pancasila","i_long":106.834175,"transit":false,"time":0},{"is_transit":false,"time":2,"transit":false,"distance":1029,"i_long":106.832616,"i_lat":-6.330363,"station_name":"Lenteng Agung","station_id":"LNA","line":2},{"distance":2671,"time":3,"i_lat":-6.3080680000000005,"station_name":"Tanjung Barat","is_transit":false,"station_id":"TNT","i_long":106.838896,"transit":false,"line":2},{"station_name":"Pasar Minggu","transit":false,"i_long":106.843999,"time":4,"is_transit":false,"distance":2820,"line":2,"i_lat":-6.2842400000000005,"station_id":"PSM"},{"transit":false,"i_long":106.851577,"is_transit":false,"distance":2380,"station_name":"Pasar Minggu Baru","station_id":"PSMB","i_lat":-6.263214,"line":2,"time":2},{"station_id":"DRN","transit":false,"time":2,"i_long":106.85449,"station_name":"Duren Kalibata","distance":824,"i_lat":-6.255332,"line":2,"is_transit":false},{"distance":1546,"time":3,"station_id":"CW","i_lat":-6.242512,"transit":false,"station_name":"Cawang","is_transit":false,"line":2,"i_long":106.856607},{"distance":1230,"transit":false,"station_name":"Tebet","is_transit":false,"time":2,"i_long":106.857948,"line":2,"i_lat":-6.226659,"station_id":"TEB"},{"i_long":106.84912,"station_name":"Manggarai","transit":false,"line":2,"time":4,"station_id":"MRI","i_lat":-6.209883,"distance":2610,"is_transit":false},{"line":2,"station_name":"Cikini","i_lat":-6.198556,"transit":false,"station_id":"CKI","is_transit":false,"time":4,"distance":1590,"i_long":106.840169},{"time":3,"distance":1750,"line":2,"station_id":"GDD","transit":false,"is_transit":false,"i_long":106.832183,"i_lat":-6.186295,"station_name":"Gondangdia"},{"time":4,"transit":false,"i_long":106.828284,"distance":2015,"i_lat":-6.166716,"station_id":"JUA","is_transit":false,"line":2,"station_name":"Juanda"},{"transit":false,"station_id":"SW","time":2,"is_transit":false,"distance":1149,"station_name":"Sawah Besar","i_long":106.827103,"i_lat":-6.160725,"line":2},{"i_long":106.82482,"i_lat":-6.149769,"distance":906,"time":2,"station_name":"Manggabesar","station_id":"MGB","is_transit":false,"line":2,"transit":false},{"station_id":"JAY","line":2,"time":2,"is_transit":false,"transit":false,"distance":1080,"station_name":"Jayakarta","i_lat":-6.141205,"i_long":106.820901},{"line":2,"i_long":106.812439,"distance":1264,"station_id":"JAKK","i_lat":-6.137569,"time":4,"transit":true,"is_transit":true,"station_name":"Jakarta Kota"},{"transit":true,"station_name":"Kampung Bandan","time":3,"is_transit":true,"distance":1364,"i_long":106.826365,"line":4,"i_lat":-6.132549,"station_id":"KPB"},{"station_id":"RJW","time":3,"station_name":"Rajawali","distance":1444,"i_long":106.836569,"i_lat":-6.14505,"line":11,"is_transit":false,"transit":false},{"distance":1901,"station_name":"Kemayoran","is_transit":false,"i_lat":-6.161728,"time":5,"line":11,"station_id":"KMO","i_long":106.839204,"transit":false},{"station_name":"Pasar Senen","i_long":106.84368,"is_transit":false,"distance":1436,"station_id":"PSE","i_lat":-6.174784,"line":11,"time":4,"transit":false},{"distance":1567,"i_lat":-6.185975,"time":8,"station_id":"GST","station_name":"Gang Sentiong","line":11,"transit":false,"is_transit":false,"i_long":106.850107},{"line":11,"distance":973,"station_id":"KMT","station_name":"Kramat","i_long":106.855437,"time":1,"is_transit":false,"transit":false,"i_lat":-6.193792},{"transit":false,"time":2,"distance":1829,"i_lat":-6.209188,"i_long":106.861737,"is_transit":false,"line":11,"station_name":"Pondok Jati","station_id":"POK"},{"i_long":106.86807400000001,"station_id":"JNG","distance":1236,"i_lat":-6.215091,"transit":true,"is_transit":true,"time":9,"station_name":"Jatinegara","line":1},{"station_name":"Klender","i_lat":-6.2135,"is_transit":false,"transit":false,"distance":3395,"i_long":106.899548,"station_id":"KLD","line":1,"time":3},{"i_long":106.922662,"line":1,"station_name":"Buaran","station_id":"BUA","is_transit":false,"time":2,"transit":false,"distance":3100,"i_lat":-6.215568},{"time":1,"transit":false,"distance":1305,"is_transit":false,"i_long":106.939679,"station_id":"KLDB","line":1,"station_name":"Klenderbaru","i_lat":-6.217455}]]}