{"data":[[{"station_name":"Univ. Pancasila","distance":0,"transit":false,"line":2,"i_long":106.834175,"station_id":"UP","is_transit":false,"time":0,"i_lat":-6.339291},{"station_id":"LNA","time":2,"station_name":"Lenteng Agung","distance":1029,"transit":false,"line":2,"i_lat":-6.330363,"is_transit":false,"i_long":106.832616},{"distance":2671,"is_transit":false,"line":2,"time":3,"station_id":"TNT","station_name":"Tanjung Barat","i_lat":-6.3080680000000005,"i_long":106.838896,"transit":false},{"station_id":"PSM","distance":2820,"time":4,"line":2,"is_transit":false,"i_lat":-6.2842400000000005,"transit":false,"station_name":"Pasar Minggu","i_long":106.843999},{"distance":2380,"is_transit":false,"station_id":"PSMB","station_name":"Pasar Minggu Baru","transit":false,"i_lat":-6.263214,"time":2,"i_long":106.851577,"line":2},{"time":2,"line":0,"station_id":"DRN","i_long":106.85449,"is_transit":false,"i_lat":-6.255332,"distance":824,"station_name":"Duren Kalibata","transit":false},{"i_long":106.856607,"is_transit":false,"station_id":"CW","station_name":"Cawang","transit":false,"i_lat":-6.242512,"time":3,"distance":1546,"line":0},{"station_id":"TEB","time":2,"transit":false,"distance":1230,"line":2,"station_name":"Tebet","i_long":106.857948,"i_lat":-6.226659,"is_transit":false},{"station_id":"MRI","transit":true,"line":0,"distance":2610,"station_name":"Manggarai","is_transit":true,"i_lat":-6.209883,"i_long":106.84912,"time":4},{"transit":false,"i_lat":-6.212485,"i_long":106.858896,"is_transit":false,"station_name":"Matraman","line":1,"station_id":"MTR","time":2,"distance":1275},{"transit":false,"i_lat":-6.215091,"line":0,"i_long":106.86807400000001,"distance":1377,"station_id":"JNG","time":8,"station_name":"Jatinegara","is_transit":true},{"i_lat":-6.2135,"line":1,"i_long":106.899548,"station_id":"KLD","station_name":"Klender","is_transit":false,"time":3,"distance":3395,"transit":false},{"time":2,"i_long":106.922662,"station_id":"BUA","station_name":"Buaran","is_transit":false,"transit":false,"line":0,"i_lat":-6.215568,"distance":3100},{"station_id":"KLDB","line":1,"i_lat":-6.217455,"time":1,"distance":1305,"transit":false,"i_long":106.939679,"is_transit":false,"station_name":"Klenderbaru"}],[{"i_lat":-6.339291,"station_id":"UP","line":2,"distance":0,"i_long":106.834175,"time":0,"transit":false,"station_name":"Univ. Pancasila","is_transit":false},{"station_id":"LNA","transit":false,"i_long":106.832616,"is_transit":false,"distance":1029,"station_name":"Lenteng Agung","time":2,"i_lat":-6.330363,"line":2},{"time":3,"is_transit":false,"station_name":"Tanjung Barat","i_lat":-6.3080680000000005,"station_id":"TNT","distance":2671,"i_long":106.838896,"line":2,"transit":false},{"time":4,"transit":false,"station_name":"Pasar Minggu","station_id":"PSM","line":2,"i_lat":-6.2842400000000005,"is_transit":false,"i_long":106.843999,"distance":2820},{"i_long":106.851577,"transit":false,"distance":2380,"station_name":"Pasar Minggu Baru","station_id":"PSMB","is_transit":false,"i_lat":-6.263214,"time":2,"line":2},{"distance":824,"transit":false,"station_name":"Duren Kalibata","time":2,"station_id":"DRN","is_transit":false,"i_long":106.85449,"i_lat":-6.255332,"line":0},{"station_id":"CW","is_transit":false,"i_lat":-6.242512,"line":0,"transit":false,"station_name":"Cawang","i_long":106.856607,"distance":1546,"time":3},{"transit":false,"i_long":106.857948,"is_transit":false,"time":2,"line":2,"i_lat":-6.226659,"station_id":"TEB","distance":1230,"station_name":"Tebet"},{"transit":true,"i_lat":-6.209883,"station_name":"Manggarai","i_long":106.84912,"station_id":"MRI","time":4,"is_transit":true,"line":0,"distance":2610},{"i_long":106.822649,"station_id":"SUD","station_name":"Sudirman","is_transit":false,"transit":false,"i_lat":-6.202263,"time":4,"line":1,"distance":3186},{"i_long":106.819881,"i_lat":-6.201433,"transit":false,"line":1,"distance":280,"time":1,"station_name":"Sudirman Baru","station_id":"SUDB","is_transit":false},{"is_transit":false,"time":1,"distance":471,"i_lat":-6.20132,"station_id":"KAT","station_name":"Karet","i_long":106.816351,"transit":false,"line":1},{"line":1,"station_name":"Tanah Abang","time":5,"is_transit":true,"distance":2029,"transit":false,"i_long":106.811091,"station_id":"THB","i_lat":-6.185545},{"i_long":106.800832,"i_lat":-6.155215,"line":1,"distance":3632,"station_id":"DU","station_name":"Duri","time":8,"transit":true,"is_transit":true},{"time":4,"i_lat":-6.144674,"station_name":"Angke","station_id":"AK","i_long":106.79867,"transit":false,"line":0,"is_transit":false,"distance":1230},{"line":0,"distance":4102,"is_transit":true,"time":9,"transit":true,"i_lat":-6.132549,"station_name":"Kampung Bandan","i_long":106.826365,"station_id":"KPB"},{"distance":1444,"is_transit":false,"transit":false,"station_name":"Rajawali","time":3,"i_lat":-6.14505,"station_id":"RJW","i_long":106.836569,"line":11},{"i_long":106.839204,"distance":1901,"line":11,"station_name":"Kemayoran","station_id":"KMO","i_lat":-6.161728,"time":5,"transit":false,"is_transit":false},{"distance":1436,"i_lat":-6.174784,"transit":false,"i_long":106.84368,"time":4,"is_transit":false,"line":11,"station_name":"Pasar Senen","station_id":"PSE"},{"time":8,"station_id":"GST","distance":1567,"transit":false,"is_transit":false,"i_long":106.850107,"line":11,"i_lat":-6.185975,"station_name":"Gang Sentiong"},{"transit":false,"time":1,"distance":973,"line":11,"station_id":"KMT","i_long":106.855437,"i_lat":-6.193792,"station_name":"Kramat","is_transit":false},{"time":2,"station_id":"POK","station_name":"Pondok Jati","transit":false,"line":11,"i_lat":-6.209188,"is_transit":false,"distance":1829,"i_long":106.861737},{"is_transit":true,"time":9,"distance":1236,"station_name":"Jatinegara","i_lat":-6.215091,"i_long":106.86807400000001,"line":0,"station_id":"JNG","transit":true},{"i_lat":-6.2135,"is_transit":false,"station_name":"Klender","station_id":"KLD","distance":3395,"transit":false,"time":3,"i_long":106.899548,"line":1},{"is_transit":false,"station_name":"Buaran","time":2,"distance":3100,"line":0,"transit":false,"i_lat":-6.215568,"station_id":"BUA","i_long":106.922662},{"distance":1305,"is_transit":false,"time":1,"station_name":"Klenderbaru","i_lat":-6.217455,"i_long":106.939679,"transit":false,"line":1,"station_id":"KLDB"}],[{"transit":false,"time":0,"station_id":"UP","is_transit":false,"i_long":106.834175,"distance":0,"i_lat":-6.339291,"line":2,"station_name":"Univ. Pancasila"},{"is_transit":false,"line":2,"station_id":"LNA","i_long":106.832616,"station_name":"Lenteng Agung","time":2,"distance":1029,"transit":false,"i_lat":-6.330363},{"distance":2671,"station_id":"TNT","is_transit":false,"time":3,"transit":false,"i_lat":-6.3080680000000005,"station_name":"Tanjung Barat","i_long":106.838896,"line":2},{"station_name":"Pasar Minggu","transit":false,"line":2,"is_transit":false,"time":4,"distance":2820,"i_lat":-6.2842400000000005,"i_long":106.843999,"station_id":"PSM"},{"transit":false,"i_long":106.851577,"distance":2380,"time":2,"i_lat":-6.263214,"is_transit":false,"line":2,"station_name":"Pasar Minggu Baru","station_id":"PSMB"},{"station_name":"Duren Kalibata","i_lat":-6.255332,"i_long":106.85449,"is_transit":false,"transit":false,"line":0,"time":2,"station_id":"DRN","distance":824},{"time":3,"i_lat":-6.242512,"line":0,"transit":false,"i_long":106.856607,"is_transit":false,"distance":1546,"station_id":"CW","station_name":"Cawang"},{"line":2,"station_name":"Tebet","transit":false,"i_long":106.857948,"station_id":"TEB","is_transit":false,"time":2,"distance":1230,"i_lat":-6.226659},{"time":4,"is_transit":true,"station_name":"Manggarai","transit":true,"i_lat":-6.209883,"station_id":"MRI","distance":2610,"i_long":106.84912,"line":0},{"station_name":"Cikini","is_transit":false,"i_lat":-6.198556,"i_long":106.840169,"time":4,"transit":false,"distance":1590,"line":0,"station_id":"CKI"},{"distance":1750,"i_lat":-6.186295,"station_id":"GDD","time":3,"station_name":"Gondangdia","is_transit":false,"i_long":106.832183,"line":2,"transit":false},{"station_id":"JUA","line":2,"i_long":106.828284,"time":4,"station_name":"Juanda","is_transit":false,"distance":2015,"i_lat":-6.166716,"transit":false},{"transit":false,"station_name":"Sawah Besar","station_id":"SW","i_lat":-6.160725,"i_long":106.827103,"is_transit":false,"line":2,"time":2,"distance":1149},{"distance":906,"time":2,"is_transit":false,"i_long":106.82482,"transit":false,"line":2,"i_lat":-6.149769,"station_id":"MGB","station_name":"Manggabesar"},{"station_name":"Jayakarta","time":2,"transit":false,"line":7,"station_id":"JAY","i_lat":-6.141205,"is_transit":false,"distance":1080,"i_long":106.820901},{"station_id":"JAKK","i_lat":-6.137569,"station_name":"Jakarta Kota","distance":1264,"transit":true,"time":4,"is_transit":true,"i_long":106.812439,"line":0},{"transit":true,"distance":1364,"i_lat":-6.132549,"i_long":106.826365,"station_id":"KPB","station_name":"Kampung Bandan","is_transit":true,"time":3,"line":0},{"i_long":106.836569,"station_id":"RJW","line":11,"time":3,"transit":false,"i_lat":-6.14505,"distance":1444,"station_name":"Rajawali","is_transit":false},{"i_lat":-6.161728,"i_long":106.839204,"transit":false,"is_transit":false,"time":5,"station_id":"KMO","distance":1901,"station_name":"Kemayoran","line":11},{"line":11,"station_name":"Pasar Senen","distance":1436,"i_long":106.84368,"i_lat":-6.174784,"is_transit":false,"station_id":"PSE","time":4,"transit":false},{"station_id":"GST","station_name":"Gang Sentiong","distance":1567,"is_transit":false,"i_lat":-6.185975,"line":11,"time":8,"i_long":106.850107,"transit":false},{"transit":false,"i_long":106.855437,"time":1,"i_lat":-6.193792,"station_name":"Kramat","station_id":"KMT","line":11,"is_transit":false,"distance":973},{"time":2,"line":11,"transit":false,"station_name":"Pondok Jati","distance":1829,"station_id":"POK","is_transit":false,"i_lat":-6.209188,"i_long":106.861737},{"distance":1236,"station_id":"JNG","i_lat":-6.215091,"station_name":"Jatinegara","time":9,"i_long":106.86807400000001,"line":0,"is_transit":true,"transit":true},{"time":3,"line":1,"i_long":106.899548,"station_id":"KLD","station_name":"Klender","is_transit":false,"transit":false,"i_lat":-6.2135,"distance":3395},{"line":0,"distance":3100,"station_name":"Buaran","is_transit":false,"time":2,"i_lat":-6.215568,"transit":false,"i_long":106.922662,"station_id":"BUA"},{"distance":1305,"i_long":106.939679,"line":1,"station_id":"KLDB","is_transit":false,"i_lat":-6.217455,"time":1,"transit":false,"station_name":"Klenderbaru"}]]}