{"data":[[{"distance":0,"is_transit":false,"i_long":106.834175,"line":2,"time":0,"station_id":"UP","station_name":"Univ. Pancasila","i_lat":-6.339291,"transit":false},{"station_name":"Lenteng Agung","station_id":"LNA","transit":false,"is_transit":false,"time":2,"distance":1029,"i_lat":-6.330363,"i_long":106.832616,"line":2},{"i_lat":-6.3080680000000005,"is_transit":false,"station_id":"TNT","transit":false,"distance":2671,"i_long":106.838896,"station_name":"Tanjung Barat","line":2,"time":3},{"time":4,"i_lat":-6.2842400000000005,"station_id":"PSM","line":2,"i_long":106.843999,"transit":false,"is_transit":false,"station_name":"Pasar Minggu","distance":2820},{"is_transit":false,"station_id":"PSMB","station_name":"Pasar Minggu Baru","distance":2380,"i_long":106.851577,"line":2,"transit":false,"i_lat":-6.263214,"time":2},{"is_transit":false,"transit":false,"time":2,"distance":824,"station_name":"Duren Kalibata","station_id":"DRN","i_lat":-6.255332,"line":0,"i_long":106.85449},{"is_transit":false,"station_name":"Cawang","station_id":"CW","i_long":106.856607,"time":3,"i_lat":-6.242512,"transit":false,"distance":1546,"line":0},{"line":2,"distance":1230,"station_id":"TEB","station_name":"Tebet","transit":false,"i_lat":-6.226659,"i_long":106.857948,"is_transit":false,"time":2},{"station_id":"MRI","i_lat":-6.209883,"station_name":"Manggarai","is_transit":true,"transit":true,"line":0,"distance":2610,"i_long":106.84912,"time":4},{"distance":3186,"i_lat":-6.202263,"i_long":106.822649,"station_id":"SUD","station_name":"Sudirman","time":4,"transit":false,"is_transit":false,"line":1},{"station_id":"SUDB","distance":280,"line":1,"is_transit":false,"transit":false,"i_long":106.819881,"i_lat":-6.201433,"station_name":"Sudirman Baru","time":1},{"distance":471,"i_long":106.816351,"i_lat":-6.20132,"is_transit":false,"transit":false,"line":1,"time":1,"station_id":"KAT","station_name":"Karet"},{"station_name":"Tanah Abang","is_transit":true,"transit":false,"i_lat":-6.185545,"line":1,"time":5,"distance":2029,"i_long":106.811091,"station_id":"THB"},{"time":8,"i_long":106.800832,"transit":true,"station_id":"DU","station_name":"Duri","distance":3632,"is_transit":true,"i_lat":-6.155215,"line":1},{"time":3,"i_lat":-6.162021,"i_long":106.788277,"line":5,"distance":1700,"transit":false,"station_name":"Grogol","is_transit":false,"station_id":"GGL"},{"i_long":106.771379,"station_id":"PSG","distance":2036,"is_transit":false,"station_name":"Pesing","time":2,"transit":false,"i_lat":-6.161433,"line":5},{"i_lat":-6.1587309999999995,"line":5,"i_long":106.756522,"station_name":"Taman Kota","time":2,"station_id":"TKO","transit":false,"is_transit":false,"distance":1614},{"distance":2334,"station_name":"Bojongindah","transit":false,"i_long":106.737035,"i_lat":-6.159876,"line":0,"station_id":"BOI","is_transit":false,"time":2},{"is_transit":false,"transit":false,"line":5,"i_long":106.723064,"station_id":"RW","i_lat":-6.162758,"station_name":"Rawa Buaya","distance":1152,"time":4},{"distance":2504,"line":5,"i_long":106.701612,"transit":false,"is_transit":false,"time":3,"station_name":"Kalideres","station_id":"KDS","i_lat":-6.166068}],[{"line":2,"i_lat":-6.339291,"distance":0,"transit":false,"time":0,"is_transit":false,"station_name":"Univ. Pancasila","station_id":"UP","i_long":106.834175},{"station_name":"Lenteng Agung","line":2,"time":2,"station_id":"LNA","is_transit":false,"i_lat":-6.330363,"transit":false,"distance":1029,"i_long":106.832616},{"i_lat":-6.3080680000000005,"line":2,"distance":2671,"i_long":106.838896,"station_name":"Tanjung Barat","is_transit":false,"station_id":"TNT","transit":false,"time":3},{"distance":2820,"i_long":106.843999,"time":4,"transit":false,"station_id":"PSM","i_lat":-6.2842400000000005,"is_transit":false,"line":2,"station_name":"Pasar Minggu"},{"station_name":"Pasar Minggu Baru","station_id":"PSMB","i_lat":-6.263214,"time":2,"transit":false,"distance":2380,"i_long":106.851577,"line":2,"is_transit":false},{"time":2,"distance":824,"transit":false,"i_lat":-6.255332,"station_name":"Duren Kalibata","i_long":106.85449,"line":0,"station_id":"DRN","is_transit":false},{"station_id":"CW","i_lat":-6.242512,"distance":1546,"time":3,"is_transit":false,"station_name":"Cawang","i_long":106.856607,"line":0,"transit":false},{"transit":false,"line":2,"station_name":"Tebet","station_id":"TEB","is_transit":false,"time":2,"distance":1230,"i_lat":-6.226659,"i_long":106.857948},{"station_id":"MRI","is_transit":true,"distance":2610,"station_name":"Manggarai","time":4,"transit":true,"i_lat":-6.209883,"i_long":106.84912,"line":0},{"station_name":"Cikini","distance":1590,"station_id":"CKI","transit":false,"time":4,"line":0,"is_transit":false,"i_long":106.840169,"i_lat":-6.198556},{"distance":1750,"is_transit":false,"i_lat":-6.186295,"transit":false,"time":3,"station_name":"Gondangdia","i_long":106.832183,"line":2,"station_id":"GDD"},{"station_id":"JUA","is_transit":false,"i_long":106.828284,"distance":2015,"station_name":"Juanda","time":4,"i_lat":-6.166716,"line":2,"transit":false},{"distance":1149,"is_transit":false,"transit":false,"station_name":"Sawah Besar","time":2,"i_lat":-6.160725,"station_id":"SW","i_long":106.827103,"line":2},{"i_long":106.82482,"distance":906,"line":2,"station_name":"Manggabesar","station_id":"MGB","i_lat":-6.149769,"time":2,"transit":false,"is_transit":false},{"distance":1080,"i_lat":-6.141205,"transit":false,"i_long":106.820901,"time":2,"is_transit":false,"line":7,"station_name":"Jayakarta","station_id":"JAY"},{"time":4,"station_id":"JAKK","distance":1264,"transit":true,"is_transit":true,"i_long":106.812439,"line":0,"i_lat":-6.137569,"station_name":"Jakarta Kota"},{"transit":false,"time":3,"distance":1364,"line":0,"station_id":"KPB","i_long":106.826365,"i_lat":-6.132549,"station_name":"Kampung Bandan","is_transit":true},{"time":9,"station_id":"AK","station_name":"Angke","transit":false,"line":0,"i_lat":-6.144674,"is_transit":false,"distance":4102,"i_long":106.79867},{"is_transit":true,"time":4,"distance":1230,"station_name":"Duri","i_lat":-6.155215,"i_long":106.800832,"line":1,"station_id":"DU","transit":true},{"i_lat":-6.162021,"is_transit":false,"station_name":"Grogol","station_id":"GGL","distance":1700,"transit":false,"time":3,"i_long":106.788277,"line":5},{"is_transit":false,"station_name":"Pesing","time":2,"distance":2036,"line":5,"transit":false,"i_lat":-6.161433,"station_id":"PSG","i_long":106.771379},{"distance":1614,"is_transit":false,"time":2,"station_name":"Taman Kota","i_lat":-6.1587309999999995,"i_long":106.756522,"transit":false,"line":5,"station_id":"TKO"},{"transit":false,"time":2,"station_id":"BOI","is_transit":false,"i_long":106.737035,"distance":2334,"i_lat":-6.159876,"line":0,"station_name":"Bojongindah"},{"is_transit":false,"line":5,"station_id":"RW","i_long":106.723064,"station_name":"Rawa Buaya","time":4,"distance":1152,"transit":false,"i_lat":-6.162758},{"distance":2504,"station_id":"KDS","is_transit":false,"time":3,"transit":false,"i_lat":-6.166068,"station_name":"Kalideres","i_long":106.701612,"line":5}],[{"station_name":"Univ. Pancasila","transit":false,"line":2,"is_transit":false,"time":0,"distance":0,"i_lat":-6.339291,"i_long":106.834175,"station_id":"UP"},{"transit":false,"i_long":106.832616,"distance":1029,"time":2,"i_lat":-6.330363,"is_transit":false,"line":2,"station_name":"Lenteng Agung","station_id":"LNA"},{"station_name":"Tanjung Barat","i_lat":-6.3080680000000005,"i_long":106.838896,"is_transit":false,"transit":false,"line":2,"time":3,"station_id":"TNT","distance":2671},{"time":4,"i_lat":-6.2842400000000005,"line":2,"transit":false,"i_long":106.843999,"is_transit":false,"distance":2820,"station_id":"PSM","station_name":"Pasar Minggu"},{"line":2,"station_name":"Pasar Minggu Baru","transit":false,"i_long":106.851577,"station_id":"PSMB","is_transit":false,"time":2,"distance":2380,"i_lat":-6.263214},{"time":2,"is_transit":false,"station_name":"Duren Kalibata","transit":false,"i_lat":-6.255332,"station_id":"DRN","distance":824,"i_long":106.85449,"line":0},{"station_name":"Cawang","is_transit":false,"i_lat":-6.242512,"i_long":106.856607,"time":3,"transit":false,"distance":1546,"line":0,"station_id":"CW"},{"distance":1230,"i_lat":-6.226659,"station_id":"TEB","time":2,"station_name":"Tebet","is_transit":false,"i_long":106.857948,"line":2,"transit":false},{"station_id":"MRI","line":0,"i_long":106.84912,"time":4,"station_name":"Manggarai","is_transit":true,"distance":2610,"i_lat":-6.209883,"transit":true},{"transit":false,"station_name":"Matraman","station_id":"MTR","i_lat":-6.212485,"i_long":106.858896,"is_transit":false,"line":1,"time":2,"distance":1275},{"distance":1377,"time":8,"is_transit":true,"i_long":106.86807400000001,"transit":true,"line":0,"i_lat":-6.215091,"station_id":"JNG","station_name":"Jatinegara"},{"station_name":"Pondok Jati","time":2,"transit":false,"line":11,"station_id":"POK","i_lat":-6.209188,"is_transit":false,"distance":1236,"i_long":106.861737},{"station_id":"KMT","i_lat":-6.193792,"station_name":"Kramat","distance":1829,"transit":false,"time":2,"is_transit":false,"i_long":106.855437,"line":11},{"transit":false,"distance":973,"i_lat":-6.185975,"i_long":106.850107,"station_id":"GST","station_name":"Gang Sentiong","is_transit":false,"time":1,"line":11},{"distance":1567,"transit":false,"i_lat":-6.174784,"i_long":106.84368,"line":11,"station_id":"PSE","is_transit":false,"station_name":"Pasar Senen","time":8},{"distance":1436,"i_long":106.839204,"line":11,"i_lat":-6.161728,"station_id":"KMO","is_transit":false,"transit":false,"time":4,"station_name":"Kemayoran"},{"is_transit":false,"station_id":"RJW","time":5,"station_name":"Rajawali","transit":false,"i_long":106.836569,"distance":1901,"line":11,"i_lat":-6.14505},{"station_id":"KPB","station_name":"Kampung Bandan","distance":1444,"is_transit":true,"i_lat":-6.132549,"line":0,"time":3,"i_long":106.826365,"transit":true},{"transit":false,"i_long":106.79867,"time":9,"i_lat":-6.144674,"station_name":"Angke","station_id":"AK","line":0,"is_transit":false,"distance":4102},{"time":4,"line":1,"transit":true,"station_name":"Duri","distance":1230,"station_id":"DU","is_transit":true,"i_lat":-6.155215,"i_long":106.800832},{"distance":1700,"station_id":"GGL","i_lat":-6.162021,"station_name":"Grogol","time":3,"i_long":106.788277,"line":5,"is_transit":false,"transit":false},{"time":2,"line":5,"i_long":106.771379,"station_id":"PSG","station_name":"Pesing","is_transit":false,"transit":false,"i_lat":-6.161433,"distance":2036},{"line":5,"distance":1614,"station_name":"Taman Kota","is_transit":false,"time":2,"i_lat":-6.1587309999999995,"transit":false,"i_long":106.756522,"station_id":"TKO"},{"distance":2334,"i_long":106.737035,"line":0,"station_id":"BOI","is_transit":false,"i_lat":-6.159876,"time":2,"transit":false,"station_name":"Bojongindah"},{"time":4,"station_name":"Rawa Buaya","is_transit":false,"distance":1152,"i_lat":-6.162758,"line":5,"station_id":"RW","transit":false,"i_long":106.723064},{"i_long":106.701612,"station_name":"Kalideres","transit":false,"distance":2504,"is_transit":false,"line":5,"station_id":"KDS","time":3,"i_lat":-6.166068}]]}