{"data":[[{"distance":0,"line":2,"station_id":"UP","i_lat":-6.339291,"i_long":106.834175,"transit":false,"station_name":"Univ. Pancasila","time":0,"is_transit":false},{"distance":1029,"i_long":106.832616,"transit":false,"station_id":"LNA","station_name":"Lenteng Agung","time":2,"i_lat":-6.330363,"line":2,"is_transit":false},{"i_long":106.838896,"line":2,"transit":false,"is_transit":false,"i_lat":-6.3080680000000005,"distance":2671,"time":3,"station_id":"TNT","station_name":"Tanjung Barat"},{"i_lat":-6.2842400000000005,"i_long":106.843999,"line":2,"time":4,"is_transit":false,"distance":2820,"station_name":"Pasar Minggu","station_id":"PSM","transit":false},{"line":2,"is_transit":false,"station_name":"Pasar Minggu Baru","i_long":106.851577,"station_id":"PSMB","transit":false,"i_lat":-6.263214,"time":2,"distance":2380},{"line":2,"is_transit":false,"transit":false,"station_id":"DRN","station_name":"Duren Kalibata","i_lat":-6.255332,"time":2,"i_long":106.85449,"distance":824},{"time":3,"station_id":"CW","i_lat":-6.242512,"i_long":106.856607,"transit":false,"distance":1546,"station_name":"Cawang","line":2,"is_transit":false},{"i_lat":-6.226659,"is_transit":false,"i_long":106.857948,"distance":1230,"line":2,"station_id":"TEB","time":2,"station_name":"Tebet","transit":false},{"time":4,"is_transit":true,"i_long":106.84912,"distance":2610,"line":2,"station_name":"Manggarai","station_id":"MRI","i_lat":-6.209883,"transit":true},{"station_name":"Sudirman","station_id":"SUD","line":1,"i_lat":-6.202263,"distance":3186,"time":4,"is_transit":false,"transit":false,"i_long":106.822649},{"i_lat":-6.201433,"station_id":"SUDB","is_transit":false,"station_name":"Sudirman Baru","time":1,"distance":280,"line":1,"i_long":106.819881,"transit":false},{"station_name":"Karet","i_long":106.816351,"i_lat":-6.20132,"station_id":"KAT","line":1,"transit":false,"distance":471,"is_transit":false,"time":1},{"time":5,"distance":2029,"i_lat":-6.185545,"line":1,"station_name":"Tanah Abang","station_id":"THB","is_transit":false,"i_long":106.811091,"transit":false},{"station_id":"DU","transit":true,"station_name":"Duri","line":1,"time":8,"distance":3632,"i_lat":-6.155215,"i_long":106.800832,"is_transit":true},{"station_id":"GGL","distance":1700,"station_name":"Grogol","line":5,"time":3,"i_lat":-6.162021,"i_long":106.788277,"is_transit":false,"transit":false},{"distance":2036,"station_id":"PSG","time":2,"line":5,"i_lat":-6.161433,"i_long":106.771379,"transit":false,"station_name":"Pesing","is_transit":false},{"distance":1614,"station_name":"Taman Kota","time":2,"i_lat":-6.1587309999999995,"transit":false,"line":5,"i_long":106.756522,"station_id":"TKO","is_transit":false},{"station_id":"BOI","station_name":"Bojongindah","time":2,"is_transit":false,"transit":false,"i_lat":-6.159876,"distance":2334,"line":5,"i_long":106.737035},{"line":5,"station_name":"Rawa Buaya","station_id":"RW","transit":false,"distance":1152,"is_transit":false,"time":4,"i_lat":-6.162758,"i_long":106.723064},{"is_transit":false,"station_id":"KDS","distance":2504,"line":5,"i_lat":-6.166068,"i_long":106.701612,"time":3,"transit":false,"station_name":"Kalideres"}],[{"transit":false,"station_id":"UP","i_long":106.834175,"station_name":"Univ. Pancasila","i_lat":-6.339291,"distance":0,"is_transit":false,"line":2,"time":0},{"transit":false,"distance":1029,"line":2,"station_name":"Lenteng Agung","station_id":"LNA","time":2,"is_transit":false,"i_lat":-6.330363,"i_long":106.832616},{"transit":false,"i_lat":-6.3080680000000005,"is_transit":false,"distance":2671,"station_id":"TNT","i_long":106.838896,"time":3,"line":2,"station_name":"Tanjung Barat"},{"transit":false,"is_transit":false,"i_long":106.843999,"time":4,"station_name":"Pasar Minggu","i_lat":-6.2842400000000005,"line":2,"station_id":"PSM","distance":2820},{"time":2,"station_id":"PSMB","station_name":"Pasar Minggu Baru","i_lat":-6.263214,"i_long":106.851577,"distance":2380,"line":2,"is_transit":false,"transit":false},{"is_transit":false,"transit":false,"station_name":"Duren Kalibata","i_lat":-6.255332,"distance":824,"time":2,"line":2,"i_long":106.85449,"station_id":"DRN"},{"i_lat":-6.242512,"station_name":"Cawang","is_transit":false,"time":3,"station_id":"CW","line":2,"i_long":106.856607,"transit":false,"distance":1546},{"station_name":"Tebet","is_transit":false,"distance":1230,"transit":false,"i_long":106.857948,"line":2,"station_id":"TEB","i_lat":-6.226659,"time":2},{"transit":false,"station_name":"Manggarai","is_transit":false,"time":4,"i_lat":-6.209883,"distance":2610,"line":2,"i_long":106.84912,"station_id":"MRI"},{"station_id":"CKI","time":4,"transit":false,"i_long":106.840169,"is_transit":false,"station_name":"Cikini","i_lat":-6.198556,"line":2,"distance":1590},{"transit":false,"is_transit":false,"station_name":"Gondangdia","distance":1750,"line":2,"i_long":106.832183,"i_lat":-6.186295,"time":3,"station_id":"GDD"},{"station_id":"JUA","distance":2015,"i_long":106.828284,"i_lat":-6.166716,"line":2,"station_name":"Juanda","time":4,"is_transit":false,"transit":false},{"transit":false,"station_id":"SW","station_name":"Sawah Besar","is_transit":false,"distance":1149,"i_lat":-6.160725,"time":2,"i_long":106.827103,"line":2},{"is_transit":false,"station_name":"Manggabesar","distance":906,"time":2,"transit":false,"i_lat":-6.149769,"line":2,"i_long":106.82482,"station_id":"MGB"},{"i_long":106.820901,"time":2,"line":2,"transit":false,"is_transit":false,"station_name":"Jayakarta","distance":1080,"station_id":"JAY","i_lat":-6.141205},{"i_long":106.812439,"transit":true,"station_id":"JAKK","i_lat":-6.137569,"line":2,"is_transit":true,"distance":1264,"station_name":"Jakarta Kota","time":4},{"station_name":"Kampung Bandan","line":4,"station_id":"KPB","i_long":106.826365,"i_lat":-6.132549,"distance":1364,"transit":true,"time":3,"is_transit":true},{"transit":false,"time":9,"distance":4102,"is_transit":false,"i_long":106.79867,"line":1,"i_lat":-6.144674,"station_name":"Angke","station_id":"AK"},{"i_long":106.800832,"is_transit":true,"distance":1230,"station_name":"Duri","transit":true,"i_lat":-6.155215,"line":1,"time":4,"station_id":"DU"},{"line":5,"distance":1700,"i_lat":-6.162021,"station_id":"GGL","i_long":106.788277,"is_transit":false,"station_name":"Grogol","transit":false,"time":3},{"time":2,"i_long":106.771379,"i_lat":-6.161433,"is_transit":false,"station_id":"PSG","transit":false,"station_name":"Pesing","distance":2036,"line":5},{"i_long":106.756522,"line":5,"transit":false,"time":2,"station_name":"Taman Kota","station_id":"TKO","is_transit":false,"distance":1614,"i_lat":-6.1587309999999995},{"time":2,"distance":2334,"i_long":106.737035,"line":5,"is_transit":false,"station_name":"Bojongindah","transit":false,"i_lat":-6.159876,"station_id":"BOI"},{"station_name":"Rawa Buaya","is_transit":false,"time":4,"transit":false,"i_long":106.723064,"distance":1152,"line":5,"station_id":"RW","i_lat":-6.162758},{"station_name":"Kalideres","station_id":"KDS","is_transit":false,"time":3,"i_long":106.701612,"distance":2504,"transit":false,"i_lat":-6.166068,"line":5}],[{"line":2,"is_transit":false,"time":0,"distance":0,"station_name":"Univ. Pancasila","transit":false,"i_long":106.834175,"station_id":"UP","i_lat":-6.339291},{"station_name":"Lenteng Agung","is_transit":false,"line":2,"transit":false,"time":2,"i_long":106.832616,"station_id":"LNA","i_lat":-6.330363,"distance":1029},{"line":2,"is_transit":false,"time":3,"station_id":"TNT","distance":2671,"i_long":106.838896,"transit":false,"station_name":"Tanjung Barat","i_lat":-6.3080680000000005},{"station_name":"Pasar Minggu","is_transit":false,"station_id":"PSM","line":2,"i_long":106.843999,"transit":false,"distance":2820,"time":4,"i_lat":-6.2842400000000005},{"transit":false,"station_id":"PSMB","time":2,"distance":2380,"is_transit":false,"i_lat":-6.263214,"i_long":106.851577,"station_name":"Pasar Minggu Baru","line":2},{"station_id":"DRN","distance":824,"time":2,"i_long":106.85449,"line":2,"i_lat":-6.255332,"is_transit":false,"transit":false,"station_name":"Duren Kalibata"},{"is_transit":false,"transit":false,"i_lat":-6.242512,"line":2,"station_id":"CW","i_long":106.856607,"station_name":"Cawang","time":3,"distance":1546},{"line":2,"is_transit":false,"distance":1230,"time":2,"station_id":"TEB","transit":false,"station_name":"Tebet","i_long":106.857948,"i_lat":-6.226659},{"is_transit":true,"line":2,"station_name":"Manggarai","i_long":106.84912,"transit":true,"time":4,"distance":2610,"station_id":"MRI","i_lat":-6.209883},{"line":1,"i_lat":-6.212485,"station_name":"Matraman","station_id":"MTR","transit":false,"i_long":106.858896,"time":2,"is_transit":false,"distance":1275},{"station_id":"JNG","distance":1377,"station_name":"Jatinegara","is_transit":true,"i_long":106.86807400000001,"line":1,"transit":true,"time":8,"i_lat":-6.215091},{"distance":1236,"line":11,"time":2,"i_lat":-6.209188,"station_id":"POK","station_name":"Pondok Jati","is_transit":false,"i_long":106.861737,"transit":false},{"is_transit":false,"distance":1829,"i_long":106.855437,"time":2,"transit":false,"station_name":"Kramat","station_id":"KMT","i_lat":-6.193792,"line":11},{"transit":false,"station_id":"GST","station_name":"Gang Sentiong","i_lat":-6.185975,"line":11,"distance":973,"i_long":106.850107,"time":1,"is_transit":false},{"line":11,"station_name":"Pasar Senen","station_id":"PSE","transit":false,"i_long":106.84368,"time":8,"distance":1567,"i_lat":-6.174784,"is_transit":false},{"i_lat":-6.161728,"is_transit":false,"transit":false,"station_name":"Kemayoran","line":11,"station_id":"KMO","i_long":106.839204,"distance":1436,"time":4},{"distance":1901,"transit":false,"time":5,"is_transit":false,"i_long":106.836569,"station_name":"Rajawali","station_id":"RJW","i_lat":-6.14505,"line":11},{"i_lat":-6.132549,"station_id":"KPB","line":4,"i_long":106.826365,"time":3,"station_name":"Kampung Bandan","is_transit":true,"transit":true,"distance":1444},{"transit":false,"is_transit":false,"time":9,"i_long":106.79867,"i_lat":-6.144674,"line":1,"station_name":"Angke","station_id":"AK","distance":4102},{"station_id":"DU","transit":true,"is_transit":true,"distance":1230,"i_lat":-6.155215,"line":1,"time":4,"station_name":"Duri","i_long":106.800832},{"time":3,"i_long":106.788277,"line":5,"station_id":"GGL","station_name":"Grogol","i_lat":-6.162021,"transit":false,"is_transit":false,"distance":1700},{"time":2,"distance":2036,"i_long":106.771379,"transit":false,"i_lat":-6.161433,"station_id":"PSG","line":5,"station_name":"Pesing","is_transit":false},{"i_long":106.756522,"station_name":"Taman Kota","line":5,"distance":1614,"i_lat":-6.1587309999999995,"is_transit":false,"transit":false,"time":2,"station_id":"TKO"},{"line":5,"station_name":"Bojongindah","distance":2334,"transit":false,"station_id":"BOI","i_lat":-6.159876,"time":2,"is_transit":false,"i_long":106.737035},{"transit":false,"line":5,"station_id":"RW","distance":1152,"time":4,"i_long":106.723064,"is_transit":false,"i_lat":-6.162758,"station_name":"Rawa Buaya"},{"line":5,"is_transit":false,"station_name":"Kalideres","i_lat":-6.166068,"i_long":106.701612,"station_id":"KDS","distance":2504,"transit":false,"time":3}]]}