{"data":[[{"station_name":"Univ. Pancasila","i_long":106.834175,"is_transit":false,"line":2,"station_id":"UP","distance":0,"i_lat":-6.339291,"transit":false,"time":0},{"time":2,"station_id":"LNA","distance":1029,"i_long":106.832616,"station_name":"Lenteng Agung","line":2,"transit":false,"i_lat":-6.330363,"is_transit":false},{"line":2,"i_lat":-6.3080680000000005,"time":3,"distance":2671,"station_id":"TNT","i_long":106.838896,"station_name":"Tanjung Barat","is_transit":false,"transit":false},{"i_long":106.843999,"station_id":"PSM","is_transit":false,"time":4,"station_name":"Pasar Minggu","transit":false,"i_lat":-6.2842400000000005,"distance":2820,"line":2},{"station_name":"Pasar Minggu Baru","line":2,"i_lat":-6.263214,"station_id":"PSMB","transit":false,"i_long":106.851577,"time":2,"is_transit":false,"distance":2380},{"station_id":"DRN","station_name":"Duren Kalibata","i_long":106.85449,"distance":824,"line":2,"i_lat":-6.255332,"time":2,"is_transit":false,"transit":false},{"time":3,"station_id":"CW","i_lat":-6.242512,"transit":false,"distance":1546,"line":2,"i_long":106.856607,"station_name":"Cawang","is_transit":false},{"station_name":"Tebet","distance":1230,"time":2,"station_id":"TEB","i_long":106.857948,"i_lat":-6.226659,"line":2,"is_transit":false,"transit":false},{"transit":true,"station_name":"Manggarai","station_id":"MRI","i_long":106.84912,"line":2,"i_lat":-6.209883,"time":4,"is_transit":true,"distance":2610},{"i_lat":-6.212485,"time":2,"transit":false,"station_id":"MTR","station_name":"Matraman","distance":1275,"i_long":106.858896,"is_transit":false,"line":1},{"station_name":"Jatinegara","transit":false,"is_transit":false,"distance":1377,"station_id":"JNG","time":8,"i_long":106.86807400000001,"i_lat":-6.215091,"line":1},{"transit":false,"time":3,"station_id":"KLD","i_lat":-6.2135,"line":1,"distance":3395,"is_transit":false,"i_long":106.899548,"station_name":"Klender"},{"distance":3100,"station_id":"BUA","station_name":"Buaran","time":2,"i_long":106.922662,"i_lat":-6.215568,"line":1,"is_transit":false,"transit":false},{"transit":false,"is_transit":false,"time":1,"station_name":"Klenderbaru","line":1,"station_id":"KLDB","distance":1305,"i_lat":-6.217455,"i_long":106.939679}],[{"distance":0,"time":0,"transit":false,"station_name":"Univ. Pancasila","is_transit":false,"station_id":"UP","i_lat":-6.339291,"i_long":106.834175,"line":2},{"i_long":106.832616,"station_name":"Lenteng Agung","distance":1029,"line":2,"is_transit":false,"station_id":"LNA","transit":false,"time":2,"i_lat":-6.330363},{"distance":2671,"station_name":"Tanjung Barat","line":2,"time":3,"i_lat":-6.3080680000000005,"i_long":106.838896,"is_transit":false,"station_id":"TNT","transit":false},{"station_id":"PSM","distance":2820,"i_lat":-6.2842400000000005,"station_name":"Pasar Minggu","line":2,"time":4,"is_transit":false,"i_long":106.843999,"transit":false},{"station_name":"Pasar Minggu Baru","station_id":"PSMB","transit":false,"time":2,"distance":2380,"i_lat":-6.263214,"line":2,"i_long":106.851577,"is_transit":false},{"i_lat":-6.255332,"is_transit":false,"distance":824,"time":2,"station_name":"Duren Kalibata","i_long":106.85449,"transit":false,"station_id":"DRN","line":2},{"line":2,"station_id":"CW","is_transit":false,"time":3,"i_lat":-6.242512,"station_name":"Cawang","distance":1546,"i_long":106.856607,"transit":false},{"time":2,"i_lat":-6.226659,"line":2,"station_name":"Tebet","is_transit":false,"i_long":106.857948,"distance":1230,"transit":false,"station_id":"TEB"},{"is_transit":true,"time":4,"station_name":"Manggarai","line":2,"distance":2610,"transit":true,"station_id":"MRI","i_long":106.84912,"i_lat":-6.209883},{"i_lat":-6.202263,"line":1,"transit":false,"station_name":"Sudirman","distance":3186,"i_long":106.822649,"station_id":"SUD","is_transit":false,"time":4},{"is_transit":false,"time":1,"line":1,"station_name":"Sudirman Baru","distance":280,"station_id":"SUDB","i_long":106.819881,"transit":false,"i_lat":-6.201433},{"station_id":"KAT","line":1,"is_transit":false,"station_name":"Karet","time":1,"transit":false,"i_lat":-6.20132,"distance":471,"i_long":106.816351},{"station_id":"THB","i_long":106.811091,"transit":false,"line":1,"is_transit":false,"time":5,"station_name":"Tanah Abang","distance":2029,"i_lat":-6.185545},{"station_name":"Duri","time":8,"i_lat":-6.155215,"is_transit":false,"station_id":"DU","distance":3632,"transit":false,"line":1,"i_long":106.800832},{"line":1,"i_lat":-6.144674,"station_id":"AK","station_name":"Angke","time":4,"distance":1230,"transit":false,"i_long":106.79867,"is_transit":false},{"transit":true,"station_id":"KPB","is_transit":true,"line":4,"i_lat":-6.132549,"time":9,"station_name":"Kampung Bandan","distance":4102,"i_long":106.826365},{"i_lat":-6.14505,"is_transit":false,"i_long":106.836569,"station_name":"Rajawali","distance":1444,"line":11,"transit":false,"station_id":"RJW","time":3},{"station_id":"KMO","i_long":106.839204,"line":11,"time":5,"transit":false,"i_lat":-6.161728,"station_name":"Kemayoran","is_transit":false,"distance":1901},{"distance":1436,"time":4,"station_id":"PSE","station_name":"Pasar Senen","i_lat":-6.174784,"line":11,"is_transit":false,"i_long":106.84368,"transit":false},{"transit":false,"station_id":"GST","time":8,"i_lat":-6.185975,"i_long":106.850107,"station_name":"Gang Sentiong","is_transit":false,"distance":1567,"line":11},{"time":1,"line":11,"transit":false,"station_name":"Kramat","is_transit":false,"station_id":"KMT","distance":973,"i_lat":-6.193792,"i_long":106.855437},{"transit":false,"i_lat":-6.209188,"distance":1829,"line":11,"station_id":"POK","is_transit":false,"station_name":"Pondok Jati","i_long":106.861737,"time":2},{"time":9,"line":1,"station_name":"Jatinegara","transit":true,"i_long":106.86807400000001,"is_transit":true,"station_id":"JNG","distance":1236,"i_lat":-6.215091},{"transit":false,"station_name":"Klender","is_transit":false,"i_lat":-6.2135,"i_long":106.899548,"distance":3395,"line":1,"station_id":"KLD","time":3},{"line":1,"time":2,"station_name":"Buaran","distance":3100,"is_transit":false,"transit":false,"station_id":"BUA","i_lat":-6.215568,"i_long":106.922662},{"distance":1305,"i_long":106.939679,"line":1,"station_id":"KLDB","transit":false,"i_lat":-6.217455,"station_name":"Klenderbaru","is_transit":false,"time":1}],[{"transit":false,"station_name":"Univ. Pancasila","distance":0,"i_long":106.834175,"line":2,"time":0,"station_id":"UP","is_transit":false,"i_lat":-6.339291},{"line":2,"transit":false,"station_name":"Lenteng Agung","distance":1029,"i_long":106.832616,"time":2,"is_transit":false,"station_id":"LNA","i_lat":-6.330363},{"i_lat":-6.3080680000000005,"line":2,"station_name":"Tanjung Barat","transit":false,"distance":2671,"i_long":106.838896,"station_id":"TNT","is_transit":false,"time":3},{"distance":2820,"station_id":"PSM","is_transit":false,"station_name":"Pasar Minggu","line":2,"transit":false,"time":4,"i_lat":-6.2842400000000005,"i_long":106.843999},{"transit":false,"station_id":"PSMB","time":2,"distance":2380,"i_lat":-6.263214,"line":2,"station_name":"Pasar Minggu Baru","is_transit":false,"i_long":106.851577},{"transit":false,"distance":824,"i_long":106.85449,"time":2,"line":2,"i_lat":-6.255332,"is_transit":false,"station_name":"Duren Kalibata","station_id":"DRN"},{"station_name":"Cawang","line":2,"distance":1546,"is_transit":false,"i_lat":-6.242512,"time":3,"i_long":106.856607,"transit":false,"station_id":"CW"},{"is_transit":false,"i_lat":-6.226659,"transit":false,"station_id":"TEB","i_long":106.857948,"station_name":"Tebet","time":2,"distance":1230,"line":2},{"transit":false,"station_id":"MRI","is_transit":false,"distance":2610,"time":4,"i_long":106.84912,"i_lat":-6.209883,"station_name":"Manggarai","line":2},{"transit":false,"distance":1590,"time":4,"line":2,"i_lat":-6.198556,"i_long":106.840169,"station_id":"CKI","is_transit":false,"station_name":"Cikini"},{"is_transit":false,"time":3,"station_id":"GDD","distance":1750,"i_lat":-6.186295,"line":2,"station_name":"Gondangdia","i_long":106.832183,"transit":false},{"station_id":"JUA","line":2,"station_name":"Juanda","distance":2015,"transit":false,"time":4,"is_transit":false,"i_long":106.828284,"i_lat":-6.166716},{"is_transit":false,"time":2,"distance":1149,"i_long":106.827103,"station_name":"Sawah Besar","i_lat":-6.160725,"line":2,"station_id":"SW","transit":false},{"station_id":"MGB","transit":false,"time":2,"i_lat":-6.149769,"i_long":106.82482,"station_name":"Manggabesar","distance":906,"is_transit":false,"line":2},{"line":2,"station_id":"JAY","is_transit":false,"station_name":"Jayakarta","time":2,"distance":1080,"i_lat":-6.141205,"transit":false,"i_long":106.820901},{"station_name":"Jakarta Kota","time":4,"transit":true,"station_id":"JAKK","i_lat":-6.137569,"i_long":106.812439,"is_transit":true,"distance":1264,"line":2},{"i_long":106.826365,"station_name":"Kampung Bandan","transit":true,"is_transit":true,"distance":1364,"line":4,"time":3,"station_id":"KPB","i_lat":-6.132549},{"distance":1444,"is_transit":false,"line":11,"i_long":106.836569,"station_id":"RJW","i_lat":-6.14505,"transit":false,"time":3,"station_name":"Rajawali"},{"i_long":106.839204,"is_transit":false,"i_lat":-6.161728,"transit":false,"station_id":"KMO","time":5,"line":11,"station_name":"Kemayoran","distance":1901},{"line":11,"station_id":"PSE","is_transit":false,"distance":1436,"transit":false,"time":4,"i_lat":-6.174784,"station_name":"Pasar Senen","i_long":106.84368},{"time":8,"station_name":"Gang Sentiong","i_lat":-6.185975,"line":11,"i_long":106.850107,"station_id":"GST","is_transit":false,"distance":1567,"transit":false},{"station_name":"Kramat","is_transit":false,"time":1,"i_long":106.855437,"distance":973,"line":11,"station_id":"KMT","transit":false,"i_lat":-6.193792},{"time":2,"i_long":106.861737,"line":11,"station_id":"POK","i_lat":-6.209188,"station_name":"Pondok Jati","is_transit":false,"distance":1829,"transit":false},{"i_long":106.86807400000001,"station_name":"Jatinegara","is_transit":true,"i_lat":-6.215091,"station_id":"JNG","time":9,"line":1,"transit":true,"distance":1236},{"distance":3395,"station_name":"Klender","is_transit":false,"i_lat":-6.2135,"i_long":106.899548,"station_id":"KLD","transit":false,"time":3,"line":1},{"line":1,"station_name":"Buaran","i_lat":-6.215568,"distance":3100,"station_id":"BUA","i_long":106.922662,"is_transit":false,"transit":false,"time":2},{"station_id":"KLDB","is_transit":false,"transit":false,"line":1,"i_long":106.939679,"time":1,"i_lat":-6.217455,"distance":1305,"station_name":"Klenderbaru"}]]}