{"data":[[{"transit":false,"i_long":106.834175,"line":2,"distance":0,"station_id":"UP","station_name":"Univ. Pancasila","i_lat":-6.339291,"is_transit":false,"time":0},{"i_long":106.832616,"line":2,"time":2,"station_id":"LNA","i_lat":-6.330363,"transit":false,"distance":1029,"station_name":"Lenteng Agung","is_transit":false},{"station_name":"Tanjung Barat","i_long":106.838896,"is_transit":false,"line":2,"i_lat":-6.3080680000000005,"transit":false,"distance":2671,"time":3,"station_id":"TNT"},{"station_name":"Pasar Minggu","i_lat":-6.2842400000000005,"station_id":"PSM","distance":2820,"transit":false,"line":2,"is_transit":false,"i_long":106.843999,"time":4},{"distance":2380,"time":2,"station_name":"Pasar Minggu Baru","line":2,"i_long":106.851577,"is_transit":false,"i_lat":-6.263214,"transit":false,"station_id":"PSMB"},{"transit":false,"distance":824,"time":2,"station_id":"DRN","i_lat":-6.255332,"is_transit":false,"station_name":"Duren Kalibata","i_long":106.85449,"line":2},{"time":3,"is_transit":false,"transit":false,"i_lat":-6.242512,"i_long":106.856607,"distance":1546,"station_id":"CW","line":2,"station_name":"Cawang"},{"is_transit":false,"transit":false,"i_lat":-6.226659,"distance":1230,"i_long":106.857948,"time":2,"station_id":"TEB","station_name":"Tebet","line":2},{"station_id":"MRI","line":2,"time":4,"transit":true,"i_lat":-6.209883,"i_long":106.84912,"distance":2610,"is_transit":true,"station_name":"Manggarai"},{"line":1,"i_lat":-6.212485,"station_id":"MTR","is_transit":false,"transit":false,"distance":1275,"time":2,"station_name":"Matraman","i_long":106.858896}],[{"distance":0,"line":2,"i_lat":-6.339291,"station_id":"UP","time":0,"transit":false,"station_name":"Univ. Pancasila","i_long":106.834175,"is_transit":false},{"time":2,"i_lat":-6.330363,"i_long":106.832616,"distance":1029,"station_id":"LNA","station_name":"Lenteng Agung","transit":false,"is_transit":false,"line":2},{"i_long":106.838896,"line":2,"distance":2671,"i_lat":-6.3080680000000005,"transit":false,"station_id":"TNT","is_transit":false,"station_name":"Tanjung Barat","time":3},{"station_id":"PSM","i_lat":-6.2842400000000005,"line":2,"distance":2820,"time":4,"i_long":106.843999,"is_transit":false,"transit":false,"station_name":"Pasar Minggu"},{"station_name":"Pasar Minggu Baru","line":2,"station_id":"PSMB","i_long":106.851577,"time":2,"transit":false,"is_transit":false,"distance":2380,"i_lat":-6.263214},{"time":2,"line":2,"i_lat":-6.255332,"i_long":106.85449,"distance":824,"is_transit":false,"transit":false,"station_id":"DRN","station_name":"Duren Kalibata"},{"transit":false,"i_long":106.856607,"line":2,"station_id":"CW","station_name":"Cawang","distance":1546,"i_lat":-6.242512,"time":3,"is_transit":false},{"time":2,"i_lat":-6.226659,"station_id":"TEB","is_transit":false,"distance":1230,"transit":false,"i_long":106.857948,"station_name":"Tebet","line":2},{"is_transit":true,"transit":true,"time":4,"i_lat":-6.209883,"line":2,"distance":2610,"station_name":"Manggarai","i_long":106.84912,"station_id":"MRI"},{"distance":3186,"i_long":106.822649,"is_transit":false,"station_id":"SUD","line":1,"time":4,"i_lat":-6.202263,"transit":false,"station_name":"Sudirman"},{"is_transit":false,"transit":false,"distance":280,"time":1,"i_lat":-6.201433,"station_name":"Sudirman Baru","i_long":106.819881,"line":1,"station_id":"SUDB"},{"is_transit":false,"i_long":106.816351,"distance":471,"transit":false,"time":1,"station_name":"Karet","i_lat":-6.20132,"station_id":"KAT","line":1},{"distance":2029,"station_id":"THB","i_long":106.811091,"transit":false,"line":1,"is_transit":false,"i_lat":-6.185545,"time":5,"station_name":"Tanah Abang"},{"station_name":"Duri","i_lat":-6.155215,"i_long":106.800832,"is_transit":false,"distance":3632,"time":8,"transit":false,"station_id":"DU","line":1},{"station_id":"AK","distance":1230,"time":4,"is_transit":false,"i_lat":-6.144674,"station_name":"Angke","line":1,"i_long":106.79867,"transit":false},{"i_lat":-6.132549,"line":4,"station_id":"KPB","distance":4102,"time":9,"station_name":"Kampung Bandan","transit":true,"is_transit":true,"i_long":106.826365},{"station_id":"RJW","line":11,"transit":false,"i_lat":-6.14505,"i_long":106.836569,"is_transit":false,"distance":1444,"time":3,"station_name":"Rajawali"},{"station_id":"KMO","line":11,"station_name":"Kemayoran","transit":false,"is_transit":false,"i_lat":-6.161728,"distance":1901,"i_long":106.839204,"time":5},{"i_long":106.84368,"station_name":"Pasar Senen","distance":1436,"is_transit":false,"line":11,"station_id":"PSE","i_lat":-6.174784,"time":4,"transit":false},{"line":11,"i_long":106.850107,"station_id":"GST","distance":1567,"i_lat":-6.185975,"station_name":"Gang Sentiong","time":8,"is_transit":false,"transit":false},{"i_long":106.855437,"line":11,"time":1,"station_id":"KMT","is_transit":false,"transit":false,"distance":973,"station_name":"Kramat","i_lat":-6.193792},{"station_id":"POK","is_transit":false,"transit":false,"station_name":"Pondok Jati","distance":1829,"time":2,"i_long":106.861737,"line":11,"i_lat":-6.209188},{"i_long":106.86807400000001,"station_name":"Jatinegara","line":1,"station_id":"JNG","is_transit":true,"transit":true,"distance":1236,"time":9,"i_lat":-6.215091},{"is_transit":false,"station_id":"MTR","transit":false,"station_name":"Matraman","i_long":106.858896,"line":1,"time":2,"i_lat":-6.212485,"distance":1377}],[{"i_long":106.834175,"transit":false,"station_name":"Univ. Pancasila","station_id":"UP","time":0,"i_lat":-6.339291,"line":2,"is_transit":false,"distance":0},{"is_transit":false,"station_name":"Lenteng Agung","time":2,"transit":false,"i_long":106.832616,"distance":1029,"station_id":"LNA","i_lat":-6.330363,"line":2},{"i_long":106.838896,"time":3,"distance":2671,"station_id":"TNT","transit":false,"station_name":"Tanjung Barat","is_transit":false,"i_lat":-6.3080680000000005,"line":2},{"time":4,"station_id":"PSM","transit":false,"i_lat":-6.2842400000000005,"line":2,"is_transit":false,"distance":2820,"station_name":"Pasar Minggu","i_long":106.843999},{"is_transit":false,"transit":false,"line":2,"station_name":"Pasar Minggu Baru","i_long":106.851577,"station_id":"PSMB","distance":2380,"time":2,"i_lat":-6.263214},{"station_id":"DRN","i_lat":-6.255332,"is_transit":false,"line":2,"transit":false,"distance":824,"station_name":"Duren Kalibata","i_long":106.85449,"time":2},{"station_name":"Cawang","line":2,"i_long":106.856607,"time":3,"i_lat":-6.242512,"distance":1546,"is_transit":false,"station_id":"CW","transit":false},{"is_transit":false,"station_id":"TEB","transit":false,"i_lat":-6.226659,"station_name":"Tebet","i_long":106.857948,"distance":1230,"line":2,"time":2},{"transit":false,"station_name":"Manggarai","line":2,"station_id":"MRI","distance":2610,"i_long":106.84912,"time":4,"is_transit":false,"i_lat":-6.209883},{"station_name":"Cikini","i_long":106.840169,"is_transit":false,"transit":false,"distance":1590,"time":4,"i_lat":-6.198556,"line":2,"station_id":"CKI"},{"i_lat":-6.186295,"is_transit":false,"line":2,"i_long":106.832183,"time":3,"station_name":"Gondangdia","transit":false,"station_id":"GDD","distance":1750},{"transit":false,"distance":2015,"station_id":"JUA","is_transit":false,"station_name":"Juanda","line":2,"i_lat":-6.166716,"i_long":106.828284,"time":4},{"station_id":"SW","time":2,"i_long":106.827103,"distance":1149,"i_lat":-6.160725,"is_transit":false,"station_name":"Sawah Besar","transit":false,"line":2},{"i_long":106.82482,"is_transit":false,"time":2,"distance":906,"station_id":"MGB","line":2,"station_name":"Manggabesar","transit":false,"i_lat":-6.149769},{"transit":false,"station_name":"Jayakarta","distance":1080,"is_transit":false,"i_lat":-6.141205,"station_id":"JAY","i_long":106.820901,"line":2,"time":2},{"i_long":106.812439,"time":4,"distance":1264,"i_lat":-6.137569,"line":2,"station_id":"JAKK","is_transit":true,"transit":true,"station_name":"Jakarta Kota"},{"is_transit":true,"transit":true,"distance":1364,"station_id":"KPB","station_name":"Kampung Bandan","i_long":106.826365,"line":4,"time":3,"i_lat":-6.132549},{"transit":false,"is_transit":false,"time":3,"station_name":"Rajawali","distance":1444,"i_lat":-6.14505,"line":11,"i_long":106.836569,"station_id":"RJW"},{"station_id":"KMO","line":11,"time":5,"i_lat":-6.161728,"station_name":"Kemayoran","i_long":106.839204,"is_transit":false,"distance":1901,"transit":false},{"station_name":"Pasar Senen","time":4,"i_long":106.84368,"is_transit":false,"transit":false,"i_lat":-6.174784,"station_id":"PSE","line":11,"distance":1436},{"line":11,"i_lat":-6.185975,"station_name":"Gang Sentiong","time":8,"is_transit":false,"distance":1567,"station_id":"GST","transit":false,"i_long":106.850107},{"is_transit":false,"line":11,"transit":false,"station_id":"KMT","time":1,"distance":973,"i_lat":-6.193792,"i_long":106.855437,"station_name":"Kramat"},{"time":2,"transit":false,"line":11,"is_transit":false,"station_name":"Pondok Jati","i_lat":-6.209188,"i_long":106.861737,"distance":1829,"station_id":"POK"},{"i_long":106.86807400000001,"station_id":"JNG","line":1,"distance":1236,"i_lat":-6.215091,"time":9,"transit":true,"station_name":"Jatinegara","is_transit":true},{"i_long":106.858896,"i_lat":-6.212485,"time":2,"line":1,"station_name":"Matraman","is_transit":false,"distance":1377,"transit":false,"station_id":"MTR"}]]}