{"data":[[{"station_name":"Univ. Pancasila","line":2,"i_long":106.834175,"i_lat":-6.339291,"station_id":"UP","transit":false,"is_transit":false,"time":0,"distance":0},{"distance":1029,"station_name":"Lenteng Agung","station_id":"LNA","transit":false,"i_lat":-6.330363,"is_transit":false,"i_long":106.832616,"time":2,"line":2},{"station_name":"Tanjung Barat","line":2,"is_transit":false,"time":3,"i_long":106.838896,"distance":2671,"station_id":"TNT","i_lat":-6.3080680000000005,"transit":false},{"station_name":"Pasar Minggu","is_transit":false,"transit":false,"i_lat":-6.2842400000000005,"i_long":106.843999,"station_id":"PSM","time":4,"distance":2820,"line":2},{"time":2,"transit":false,"line":2,"station_name":"Pasar Minggu Baru","i_long":106.851577,"station_id":"PSMB","i_lat":-6.263214,"is_transit":false,"distance":2380},{"distance":824,"i_lat":-6.255332,"transit":false,"station_id":"DRN","time":2,"is_transit":false,"i_long":106.85449,"line":2,"station_name":"Duren Kalibata"},{"distance":1546,"line":2,"transit":false,"is_transit":false,"i_lat":-6.242512,"i_long":106.856607,"station_name":"Cawang","time":3,"station_id":"CW"},{"distance":1230,"station_id":"TEB","is_transit":false,"station_name":"Tebet","time":2,"i_long":106.857948,"line":2,"i_lat":-6.226659,"transit":false},{"station_name":"Manggarai","i_long":106.84912,"station_id":"MRI","distance":2610,"i_lat":-6.209883,"line":2,"transit":true,"time":4,"is_transit":true},{"station_name":"Sudirman","is_transit":false,"time":4,"line":1,"i_long":106.822649,"i_lat":-6.202263,"station_id":"SUD","distance":3186,"transit":false},{"is_transit":false,"station_id":"SUDB","transit":false,"line":1,"station_name":"Sudirman Baru","i_long":106.819881,"i_lat":-6.201433,"time":1,"distance":280},{"station_id":"KAT","time":1,"i_lat":-6.20132,"transit":false,"is_transit":false,"line":1,"distance":471,"station_name":"Karet","i_long":106.816351},{"transit":true,"distance":2029,"station_name":"Tanah Abang","is_transit":true,"station_id":"THB","time":5,"line":1,"i_long":106.811091,"i_lat":-6.185545},{"transit":false,"line":6,"i_long":106.79689,"distance":3191,"station_id":"PLM","i_lat":-6.207404,"is_transit":false,"time":6,"station_name":"Palmerah"},{"transit":false,"distance":3737,"time":7,"station_name":"Kebayoran","station_id":"KBY","is_transit":false,"i_long":106.780334,"i_lat":-6.237242,"line":6},{"line":6,"station_name":"Pondokranji","transit":false,"i_lat":-6.276362,"i_long":106.74273,"is_transit":false,"time":8,"distance":6218,"station_id":"PDJ"},{"station_name":"Jurangmangu","time":3,"station_id":"JMU","line":6,"transit":false,"is_transit":false,"i_lat":-6.288927,"distance":2179,"i_long":106.728916},{"i_long":106.712277,"station_id":"SDM","transit":false,"station_name":"Sudimara","time":4,"distance":1994,"i_lat":-6.296963,"line":6,"is_transit":false},{"station_id":"RU","station_name":"Rawa Buntu","distance":4566,"i_lat":-6.314823,"is_transit":false,"i_long":106.675475,"line":6,"time":6,"transit":false},{"i_lat":-6.319871,"i_long":106.66566,"line":6,"station_name":"Serpong","distance":2413,"time":4,"station_id":"SRP","is_transit":false,"transit":false},{"station_id":"CSK","line":3,"transit":false,"i_long":106.640411,"i_lat":-6.32484,"time":4,"is_transit":false,"distance":1784,"station_name":"Cisauk"},{"i_lat":-6.329547,"transit":false,"station_name":"Cicayur","station_id":"CC","line":3,"is_transit":false,"i_long":106.617853,"distance":2519,"time":4},{"line":6,"station_name":"Parung Panjang","i_long":106.568863,"distance":5968,"transit":false,"time":8,"station_id":"PRP","is_transit":false,"i_lat":-6.3441410000000005},{"station_id":"CJT","transit":false,"station_name":"Cilejit","i_lat":-6.354349,"time":9,"i_long":106.508482,"is_transit":false,"line":3,"distance":7025},{"transit":false,"distance":2675,"i_lat":-6.338021,"time":6,"line":0,"station_name":"Daru","station_id":"DAR","is_transit":false,"i_long":106.491338},{"line":6,"time":5,"station_name":"Tenjo","is_transit":false,"distance":3902,"i_lat":-6.327251,"station_id":"TEJ","transit":false,"i_long":106.460812},{"time":5,"station_name":"Tigaraksa","station_id":"TGS","i_long":106.425991,"is_transit":false,"transit":false,"i_lat":-6.328533,"line":6,"distance":2974},{"station_id":"CKY","time":3,"is_transit":false,"station_name":"Cikoya","line":3,"transit":false,"i_long":106.411216,"distance":2651,"i_lat":-6.33561},{"station_name":"Maja","station_id":"MJ","transit":false,"is_transit":false,"distance":1853,"i_lat":-6.332307,"i_long":106.394373,"time":4,"line":6}],[{"station_name":"Univ. Pancasila","station_id":"UP","i_long":106.834175,"line":2,"transit":false,"i_lat":-6.339291,"is_transit":false,"time":0,"distance":0},{"station_id":"LNA","line":2,"station_name":"Lenteng Agung","i_long":106.832616,"transit":false,"is_transit":false,"time":2,"distance":1029,"i_lat":-6.330363},{"i_lat":-6.3080680000000005,"station_id":"TNT","transit":false,"station_name":"Tanjung Barat","is_transit":false,"time":3,"distance":2671,"i_long":106.838896,"line":2},{"is_transit":false,"station_name":"Pasar Minggu","distance":2820,"i_lat":-6.2842400000000005,"time":4,"station_id":"PSM","transit":false,"i_long":106.843999,"line":2},{"distance":2380,"line":2,"is_transit":false,"time":2,"station_name":"Pasar Minggu Baru","i_lat":-6.263214,"station_id":"PSMB","i_long":106.851577,"transit":false},{"i_long":106.85449,"transit":false,"is_transit":false,"station_name":"Duren Kalibata","line":2,"time":2,"distance":824,"station_id":"DRN","i_lat":-6.255332},{"station_id":"CW","time":3,"i_lat":-6.242512,"distance":1546,"station_name":"Cawang","is_transit":false,"i_long":106.856607,"transit":false,"line":2},{"is_transit":false,"time":2,"i_lat":-6.226659,"transit":false,"station_name":"Tebet","station_id":"TEB","distance":1230,"i_long":106.857948,"line":2},{"station_id":"MRI","distance":2610,"transit":false,"station_name":"Manggarai","time":4,"i_lat":-6.209883,"is_transit":false,"i_long":106.84912,"line":2},{"line":2,"time":4,"distance":1590,"station_name":"Cikini","station_id":"CKI","i_long":106.840169,"i_lat":-6.198556,"transit":false,"is_transit":false},{"i_long":106.832183,"transit":false,"station_name":"Gondangdia","is_transit":false,"i_lat":-6.186295,"time":3,"line":2,"station_id":"GDD","distance":1750},{"time":4,"is_transit":false,"i_long":106.828284,"transit":false,"station_id":"JUA","distance":2015,"station_name":"Juanda","i_lat":-6.166716,"line":2},{"line":2,"is_transit":false,"station_id":"SW","i_lat":-6.160725,"transit":false,"station_name":"Sawah Besar","time":2,"distance":1149,"i_long":106.827103},{"distance":906,"i_lat":-6.149769,"line":2,"transit":false,"i_long":106.82482,"station_name":"Manggabesar","station_id":"MGB","is_transit":false,"time":2},{"station_id":"JAY","is_transit":false,"i_lat":-6.141205,"transit":false,"station_name":"Jayakarta","distance":1080,"line":2,"i_long":106.820901,"time":2},{"station_id":"JAKK","transit":true,"is_transit":true,"distance":1264,"i_lat":-6.137569,"i_long":106.812439,"station_name":"Jakarta Kota","time":4,"line":2},{"is_transit":true,"time":3,"distance":1364,"transit":true,"i_long":106.826365,"i_lat":-6.132549,"line":4,"station_id":"KPB","station_name":"Kampung Bandan"},{"i_long":106.79867,"line":1,"station_name":"Angke","is_transit":false,"distance":4102,"i_lat":-6.144674,"transit":false,"station_id":"AK","time":9},{"i_long":106.800832,"station_name":"Duri","is_transit":false,"time":4,"distance":1230,"line":1,"station_id":"DU","i_lat":-6.155215,"transit":false},{"station_name":"Tanah Abang","is_transit":true,"transit":true,"i_long":106.811091,"time":8,"station_id":"THB","i_lat":-6.185545,"line":1,"distance":3632},{"station_id":"PLM","is_transit":false,"station_name":"Palmerah","transit":false,"i_lat":-6.207404,"time":6,"i_long":106.79689,"distance":3191,"line":6},{"transit":false,"station_name":"Kebayoran","time":7,"i_long":106.780334,"station_id":"KBY","distance":3737,"i_lat":-6.237242,"is_transit":false,"line":6},{"time":8,"distance":6218,"line":6,"station_name":"Pondokranji","is_transit":false,"i_lat":-6.276362,"i_long":106.74273,"transit":false,"station_id":"PDJ"},{"i_lat":-6.288927,"time":3,"station_id":"JMU","station_name":"Jurangmangu","transit":false,"distance":2179,"is_transit":false,"i_long":106.728916,"line":6},{"station_name":"Sudimara","i_lat":-6.296963,"line":6,"station_id":"SDM","distance":1994,"is_transit":false,"transit":false,"time":4,"i_long":106.712277},{"distance":4566,"i_long":106.675475,"station_name":"Rawa Buntu","station_id":"RU","transit":false,"i_lat":-6.314823,"is_transit":false,"time":6,"line":6},{"time":4,"i_lat":-6.319871,"i_long":106.66566,"station_id":"SRP","station_name":"Serpong","is_transit":false,"distance":2413,"line":6,"transit":false},{"line":3,"transit":false,"distance":1784,"i_long":106.640411,"station_name":"Cisauk","station_id":"CSK","is_transit":false,"time":4,"i_lat":-6.32484},{"i_lat":-6.329547,"station_name":"Cicayur","transit":false,"i_long":106.617853,"is_transit":false,"time":4,"line":3,"distance":2519,"station_id":"CC"},{"station_id":"PRP","distance":5968,"is_transit":false,"i_long":106.568863,"time":8,"line":6,"i_lat":-6.3441410000000005,"station_name":"Parung Panjang","transit":false},{"time":9,"transit":false,"station_name":"Cilejit","is_transit":false,"i_lat":-6.354349,"distance":7025,"line":3,"i_long":106.508482,"station_id":"CJT"},{"station_id":"DAR","is_transit":false,"time":6,"station_name":"Daru","distance":2675,"i_lat":-6.338021,"i_long":106.491338,"line":0,"transit":false},{"station_id":"TEJ","i_lat":-6.327251,"station_name":"Tenjo","is_transit":false,"time":5,"line":6,"distance":3902,"i_long":106.460812,"transit":false},{"transit":false,"i_lat":-6.328533,"i_long":106.425991,"station_id":"TGS","station_name":"Tigaraksa","time":5,"distance":2974,"line":6,"is_transit":false},{"station_name":"Cikoya","is_transit":false,"line":3,"transit":false,"distance":2651,"station_id":"CKY","time":3,"i_long":106.411216,"i_lat":-6.33561},{"station_id":"MJ","distance":1853,"is_transit":false,"time":4,"station_name":"Maja","line":6,"i_lat":-6.332307,"i_long":106.394373,"transit":false}],[{"is_transit":false,"distance":0,"station_id":"UP","line":2,"station_name":"Univ. Pancasila","time":0,"i_lat":-6.339291,"i_long":106.834175,"transit":false},{"transit":false,"time":2,"i_long":106.832616,"line":2,"is_transit":false,"distance":1029,"station_name":"Lenteng Agung","station_id":"LNA","i_lat":-6.330363},{"i_lat":-6.3080680000000005,"line":2,"station_name":"Tanjung Barat","transit":false,"is_transit":false,"time":3,"i_long":106.838896,"distance":2671,"station_id":"TNT"},{"line":2,"transit":false,"i_lat":-6.2842400000000005,"distance":2820,"station_id":"PSM","station_name":"Pasar Minggu","is_transit":false,"time":4,"i_long":106.843999},{"distance":2380,"time":2,"line":2,"i_long":106.851577,"transit":false,"station_id":"PSMB","i_lat":-6.263214,"is_transit":false,"station_name":"Pasar Minggu Baru"},{"distance":824,"station_id":"DRN","line":2,"transit":false,"is_transit":false,"i_lat":-6.255332,"time":2,"station_name":"Duren Kalibata","i_long":106.85449},{"station_id":"CW","i_long":106.856607,"is_transit":false,"station_name":"Cawang","transit":false,"time":3,"distance":1546,"i_lat":-6.242512,"line":2},{"time":2,"transit":false,"station_id":"TEB","i_long":106.857948,"line":2,"is_transit":false,"distance":1230,"station_name":"Tebet","i_lat":-6.226659},{"distance":2610,"i_long":106.84912,"line":2,"time":4,"station_id":"MRI","transit":true,"station_name":"Manggarai","is_transit":true,"i_lat":-6.209883},{"station_name":"Matraman","distance":1275,"line":1,"station_id":"MTR","transit":false,"is_transit":false,"time":2,"i_lat":-6.212485,"i_long":106.858896},{"is_transit":true,"station_id":"JNG","time":8,"distance":1377,"i_long":106.86807400000001,"line":1,"transit":true,"station_name":"Jatinegara","i_lat":-6.215091},{"station_id":"POK","station_name":"Pondok Jati","i_long":106.861737,"line":11,"time":2,"transit":false,"is_transit":false,"i_lat":-6.209188,"distance":1236},{"station_name":"Kramat","i_lat":-6.193792,"line":11,"is_transit":false,"transit":false,"time":2,"station_id":"KMT","distance":1829,"i_long":106.855437},{"i_lat":-6.185975,"line":11,"transit":false,"i_long":106.850107,"station_name":"Gang Sentiong","station_id":"GST","time":1,"distance":973,"is_transit":false},{"i_long":106.84368,"is_transit":false,"transit":false,"time":8,"line":11,"i_lat":-6.174784,"station_name":"Pasar Senen","distance":1567,"station_id":"PSE"},{"time":4,"station_id":"KMO","is_transit":false,"i_lat":-6.161728,"transit":false,"station_name":"Kemayoran","i_long":106.839204,"distance":1436,"line":11},{"transit":false,"is_transit":false,"line":11,"distance":1901,"station_id":"RJW","i_long":106.836569,"i_lat":-6.14505,"time":5,"station_name":"Rajawali"},{"transit":true,"station_id":"KPB","line":4,"i_long":106.826365,"is_transit":true,"station_name":"Kampung Bandan","distance":1444,"i_lat":-6.132549,"time":3},{"transit":false,"i_lat":-6.144674,"is_transit":false,"time":9,"station_id":"AK","distance":4102,"i_long":106.79867,"line":1,"station_name":"Angke"},{"time":4,"i_lat":-6.155215,"distance":1230,"station_name":"Duri","station_id":"DU","transit":false,"is_transit":false,"i_long":106.800832,"line":1},{"station_id":"THB","distance":3632,"i_lat":-6.185545,"is_transit":true,"i_long":106.811091,"line":1,"station_name":"Tanah Abang","transit":true,"time":8},{"time":6,"is_transit":false,"i_long":106.79689,"transit":false,"line":6,"station_name":"Palmerah","station_id":"PLM","distance":3191,"i_lat":-6.207404},{"time":7,"station_id":"KBY","station_name":"Kebayoran","is_transit":false,"i_lat":-6.237242,"distance":3737,"transit":false,"line":6,"i_long":106.780334},{"i_long":106.74273,"line":6,"station_id":"PDJ","i_lat":-6.276362,"station_name":"Pondokranji","time":8,"distance":6218,"is_transit":false,"transit":false},{"is_transit":false,"i_lat":-6.288927,"station_name":"Jurangmangu","line":6,"distance":2179,"i_long":106.728916,"time":3,"transit":false,"station_id":"JMU"},{"time":4,"station_name":"Sudimara","i_long":106.712277,"i_lat":-6.296963,"is_transit":false,"station_id":"SDM","distance":1994,"line":6,"transit":false},{"transit":false,"distance":4566,"station_name":"Rawa Buntu","i_lat":-6.314823,"i_long":106.675475,"line":6,"is_transit":false,"time":6,"station_id":"RU"},{"distance":2413,"transit":false,"i_long":106.66566,"is_transit":false,"line":6,"station_id":"SRP","station_name":"Serpong","time":4,"i_lat":-6.319871},{"i_lat":-6.32484,"i_long":106.640411,"time":4,"line":3,"transit":false,"distance":1784,"station_id":"CSK","station_name":"Cisauk","is_transit":false},{"is_transit":false,"i_long":106.617853,"transit":false,"line":3,"station_name":"Cicayur","distance":2519,"i_lat":-6.329547,"station_id":"CC","time":4},{"i_long":106.568863,"distance":5968,"line":6,"is_transit":false,"transit":false,"station_id":"PRP","station_name":"Parung Panjang","time":8,"i_lat":-6.3441410000000005},{"distance":7025,"i_lat":-6.354349,"transit":false,"is_transit":false,"time":9,"i_long":106.508482,"line":3,"station_name":"Cilejit","station_id":"CJT"},{"distance":2675,"station_id":"DAR","transit":false,"station_name":"Daru","line":0,"is_transit":false,"time":6,"i_long":106.491338,"i_lat":-6.338021},{"line":6,"is_transit":false,"time":5,"transit":false,"i_lat":-6.327251,"station_name":"Tenjo","station_id":"TEJ","distance":3902,"i_long":106.460812},{"distance":2974,"station_id":"TGS","line":6,"i_lat":-6.328533,"is_transit":false,"time":5,"i_long":106.425991,"transit":false,"station_name":"Tigaraksa"},{"transit":false,"time":3,"distance":2651,"i_lat":-6.33561,"i_long":106.411216,"station_name":"Cikoya","station_id":"CKY","is_transit":false,"line":3},{"is_transit":false,"time":4,"transit":false,"i_lat":-6.332307,"line":6,"station_id":"MJ","station_name":"Maja","i_long":106.394373,"distance":1853}]]}