{"data":[[{"i_lat":-6.339291,"station_id":"UP","distance":0,"i_long":106.834175,"station_name":"Univ. Pancasila","transit":false,"is_transit":false,"time":0,"line":2},{"station_name":"Lenteng Agung","i_lat":-6.330363,"transit":false,"time":2,"station_id":"LNA","i_long":106.832616,"distance":1029,"line":2,"is_transit":false},{"i_long":106.838896,"station_name":"Tanjung Barat","time":3,"station_id":"TNT","is_transit":false,"transit":false,"distance":2671,"line":2,"i_lat":-6.3080680000000005},{"transit":false,"i_long":106.843999,"station_name":"Pasar Minggu","is_transit":false,"i_lat":-6.2842400000000005,"line":2,"distance":2820,"time":4,"station_id":"PSM"},{"line":2,"station_name":"Pasar Minggu Baru","time":2,"i_long":106.851577,"i_lat":-6.263214,"distance":2380,"transit":false,"station_id":"PSMB","is_transit":false},{"time":2,"distance":824,"i_lat":-6.255332,"line":0,"station_name":"Duren Kalibata","transit":false,"station_id":"DRN","i_long":106.85449,"is_transit":false},{"time":3,"station_id":"CW","is_transit":false,"transit":false,"line":0,"distance":1546,"i_lat":-6.242512,"station_name":"Cawang","i_long":106.856607},{"time":2,"transit":false,"is_transit":false,"line":2,"i_lat":-6.226659,"distance":1230,"station_id":"TEB","i_long":106.857948,"station_name":"Tebet"},{"is_transit":true,"station_name":"Manggarai","time":4,"transit":true,"distance":2610,"i_lat":-6.209883,"station_id":"MRI","line":0,"i_long":106.84912},{"station_id":"SUD","transit":false,"i_long":106.822649,"line":1,"distance":3186,"i_lat":-6.202263,"time":4,"station_name":"Sudirman","is_transit":false},{"station_id":"SUDB","is_transit":false,"i_long":106.819881,"time":1,"distance":280,"i_lat":-6.201433,"transit":false,"line":1,"station_name":"Sudirman Baru"},{"station_id":"KAT","line":1,"station_name":"Karet","distance":471,"time":1,"i_long":106.816351,"is_transit":false,"i_lat":-6.20132,"transit":false},{"line":1,"is_transit":true,"station_id":"THB","i_lat":-6.185545,"station_name":"Tanah Abang","time":5,"transit":true,"distance":2029,"i_long":106.811091},{"i_long":106.79689,"is_transit":false,"distance":3191,"station_id":"PLM","time":6,"line":6,"transit":false,"i_lat":-6.207404,"station_name":"Palmerah"},{"transit":false,"line":6,"station_id":"KBY","i_lat":-6.237242,"distance":3737,"i_long":106.780334,"station_name":"Kebayoran","is_transit":false,"time":7},{"station_id":"PDJ","is_transit":false,"i_lat":-6.276362,"time":8,"distance":6218,"transit":false,"line":6,"i_long":106.74273,"station_name":"Pondokranji"},{"station_name":"Jurangmangu","i_lat":-6.288927,"transit":false,"is_transit":false,"distance":2179,"time":3,"i_long":106.728916,"station_id":"JMU","line":6},{"time":4,"station_name":"Sudimara","i_long":106.712277,"i_lat":-6.296963,"transit":false,"is_transit":false,"distance":1994,"station_id":"SDM","line":6},{"time":6,"is_transit":false,"distance":4566,"i_long":106.675475,"station_name":"Rawa Buntu","transit":false,"i_lat":-6.314823,"line":6,"station_id":"RU"},{"time":4,"distance":2413,"transit":false,"i_long":106.66566,"line":6,"is_transit":false,"i_lat":-6.319871,"station_id":"SRP","station_name":"Serpong"},{"distance":1784,"is_transit":false,"transit":false,"station_name":"Cisauk","time":4,"i_lat":-6.32484,"station_id":"CSK","i_long":106.640411,"line":0},{"i_long":106.617853,"distance":2519,"line":0,"station_name":"Cicayur","station_id":"CC","i_lat":-6.329547,"time":4,"transit":false,"is_transit":false},{"distance":5968,"i_lat":-6.3441410000000005,"transit":false,"i_long":106.568863,"time":8,"is_transit":false,"line":6,"station_name":"Parung Panjang","station_id":"PRP"},{"time":9,"station_id":"CJT","distance":7025,"transit":false,"is_transit":false,"i_long":106.508482,"line":0,"i_lat":-6.354349,"station_name":"Cilejit"},{"transit":false,"time":6,"distance":2675,"line":0,"station_id":"DAR","i_long":106.491338,"i_lat":-6.338021,"station_name":"Daru","is_transit":false},{"time":5,"station_id":"TEJ","station_name":"Tenjo","transit":false,"line":6,"i_lat":-6.327251,"is_transit":false,"distance":3902,"i_long":106.460812},{"is_transit":false,"time":5,"distance":2974,"station_name":"Tigaraksa","i_lat":-6.328533,"i_long":106.425991,"line":6,"station_id":"TGS","transit":false},{"i_lat":-6.33561,"is_transit":false,"station_name":"Cikoya","station_id":"CKY","distance":2651,"transit":false,"time":3,"i_long":106.411216,"line":0},{"is_transit":false,"station_name":"Maja","time":4,"distance":1853,"line":6,"transit":false,"i_lat":-6.332307,"station_id":"MJ","i_long":106.394373}],[{"distance":0,"is_transit":false,"time":0,"station_name":"Univ. Pancasila","i_lat":-6.339291,"i_long":106.834175,"transit":false,"line":2,"station_id":"UP"},{"transit":false,"time":2,"station_id":"LNA","is_transit":false,"i_long":106.832616,"distance":1029,"i_lat":-6.330363,"line":2,"station_name":"Lenteng Agung"},{"is_transit":false,"line":2,"station_id":"TNT","i_long":106.838896,"station_name":"Tanjung Barat","time":3,"distance":2671,"transit":false,"i_lat":-6.3080680000000005},{"distance":2820,"station_id":"PSM","is_transit":false,"time":4,"transit":false,"i_lat":-6.2842400000000005,"station_name":"Pasar Minggu","i_long":106.843999,"line":2},{"station_name":"Pasar Minggu Baru","transit":false,"line":2,"is_transit":false,"time":2,"distance":2380,"i_lat":-6.263214,"i_long":106.851577,"station_id":"PSMB"},{"transit":false,"i_long":106.85449,"distance":824,"time":2,"i_lat":-6.255332,"is_transit":false,"line":0,"station_name":"Duren Kalibata","station_id":"DRN"},{"station_name":"Cawang","i_lat":-6.242512,"i_long":106.856607,"is_transit":false,"transit":false,"line":0,"time":3,"station_id":"CW","distance":1546},{"time":2,"i_lat":-6.226659,"line":2,"transit":false,"i_long":106.857948,"is_transit":false,"distance":1230,"station_id":"TEB","station_name":"Tebet"},{"line":0,"station_name":"Manggarai","transit":true,"i_long":106.84912,"station_id":"MRI","is_transit":true,"time":4,"distance":2610,"i_lat":-6.209883},{"time":4,"is_transit":false,"station_name":"Cikini","transit":false,"i_lat":-6.198556,"station_id":"CKI","distance":1590,"i_long":106.840169,"line":0},{"station_name":"Gondangdia","is_transit":false,"i_lat":-6.186295,"i_long":106.832183,"time":3,"transit":false,"distance":1750,"line":2,"station_id":"GDD"},{"distance":2015,"i_lat":-6.166716,"station_id":"JUA","time":4,"station_name":"Juanda","is_transit":false,"i_long":106.828284,"line":2,"transit":false},{"station_id":"SW","line":2,"i_long":106.827103,"time":2,"station_name":"Sawah Besar","is_transit":false,"distance":1149,"i_lat":-6.160725,"transit":false},{"transit":false,"station_name":"Manggabesar","station_id":"MGB","i_lat":-6.149769,"i_long":106.82482,"is_transit":false,"line":2,"time":2,"distance":906},{"distance":1080,"time":2,"is_transit":false,"i_long":106.820901,"transit":false,"line":7,"i_lat":-6.141205,"station_id":"JAY","station_name":"Jayakarta"},{"station_name":"Jakarta Kota","time":4,"transit":true,"line":0,"station_id":"JAKK","i_lat":-6.137569,"is_transit":true,"distance":1264,"i_long":106.812439},{"station_id":"KPB","i_lat":-6.132549,"station_name":"Kampung Bandan","distance":1364,"transit":false,"time":3,"is_transit":true,"i_long":106.826365,"line":0},{"transit":false,"distance":4102,"i_lat":-6.144674,"i_long":106.79867,"station_id":"AK","station_name":"Angke","is_transit":false,"time":9,"line":0},{"distance":1230,"transit":true,"i_lat":-6.155215,"i_long":106.800832,"line":1,"station_id":"DU","is_transit":true,"station_name":"Duri","time":4},{"distance":3632,"i_long":106.811091,"line":1,"i_lat":-6.185545,"station_id":"THB","is_transit":true,"transit":true,"time":8,"station_name":"Tanah Abang"},{"is_transit":false,"station_id":"PLM","time":6,"station_name":"Palmerah","transit":false,"i_long":106.79689,"distance":3191,"line":6,"i_lat":-6.207404},{"i_lat":-6.237242,"distance":3737,"station_name":"Kebayoran","time":7,"transit":false,"is_transit":false,"station_id":"KBY","line":6,"i_long":106.780334},{"distance":6218,"i_lat":-6.276362,"i_long":106.74273,"transit":false,"is_transit":false,"time":8,"station_name":"Pondokranji","station_id":"PDJ","line":6},{"station_name":"Jurangmangu","is_transit":false,"distance":2179,"transit":false,"time":3,"i_lat":-6.288927,"station_id":"JMU","i_long":106.728916,"line":6},{"station_id":"SDM","line":6,"i_lat":-6.296963,"i_long":106.712277,"is_transit":false,"station_name":"Sudimara","time":4,"distance":1994,"transit":false},{"i_lat":-6.314823,"transit":false,"station_id":"RU","time":6,"line":6,"is_transit":false,"station_name":"Rawa Buntu","distance":4566,"i_long":106.675475},{"station_name":"Serpong","distance":2413,"transit":false,"line":6,"station_id":"SRP","is_transit":false,"i_long":106.66566,"i_lat":-6.319871,"time":4},{"transit":false,"is_transit":false,"i_lat":-6.32484,"time":4,"station_name":"Cisauk","line":0,"station_id":"CSK","distance":1784,"i_long":106.640411},{"station_id":"CC","i_long":106.617853,"station_name":"Cicayur","i_lat":-6.329547,"time":4,"is_transit":false,"transit":false,"line":0,"distance":2519},{"line":6,"is_transit":false,"i_lat":-6.3441410000000005,"station_id":"PRP","distance":5968,"station_name":"Parung Panjang","time":8,"transit":false,"i_long":106.568863},{"line":0,"time":9,"transit":false,"is_transit":false,"station_id":"CJT","distance":7025,"i_lat":-6.354349,"i_long":106.508482,"station_name":"Cilejit"},{"i_long":106.491338,"line":0,"station_name":"Daru","distance":2675,"is_transit":false,"time":6,"station_id":"DAR","transit":false,"i_lat":-6.338021},{"time":5,"line":6,"i_long":106.460812,"transit":false,"station_name":"Tenjo","is_transit":false,"distance":3902,"station_id":"TEJ","i_lat":-6.327251},{"time":5,"line":6,"distance":2974,"transit":false,"station_name":"Tigaraksa","i_long":106.425991,"is_transit":false,"station_id":"TGS","i_lat":-6.328533},{"i_long":106.411216,"time":3,"line":0,"station_name":"Cikoya","station_id":"CKY","distance":2651,"is_transit":false,"i_lat":-6.33561,"transit":false},{"transit":false,"i_lat":-6.332307,"station_name":"Maja","station_id":"MJ","time":4,"distance":1853,"is_transit":false,"line":6,"i_long":106.394373}],[{"i_lat":-6.339291,"i_long":106.834175,"transit":false,"distance":0,"station_id":"UP","is_transit":false,"time":0,"line":2,"station_name":"Univ. Pancasila"},{"station_name":"Lenteng Agung","is_transit":false,"time":2,"distance":1029,"transit":false,"line":2,"i_lat":-6.330363,"station_id":"LNA","i_long":106.832616},{"station_id":"TNT","is_transit":false,"station_name":"Tanjung Barat","time":3,"i_lat":-6.3080680000000005,"transit":false,"i_long":106.838896,"distance":2671,"line":2},{"time":4,"station_id":"PSM","is_transit":false,"transit":false,"i_lat":-6.2842400000000005,"distance":2820,"line":2,"i_long":106.843999,"station_name":"Pasar Minggu"},{"distance":2380,"line":2,"station_id":"PSMB","i_lat":-6.263214,"transit":false,"is_transit":false,"i_long":106.851577,"station_name":"Pasar Minggu Baru","time":2},{"line":0,"is_transit":false,"distance":824,"transit":false,"i_lat":-6.255332,"i_long":106.85449,"station_id":"DRN","time":2,"station_name":"Duren Kalibata"},{"i_lat":-6.242512,"is_transit":false,"time":3,"i_long":106.856607,"station_id":"CW","transit":false,"line":0,"distance":1546,"station_name":"Cawang"},{"transit":false,"i_lat":-6.226659,"is_transit":false,"line":2,"station_id":"TEB","i_long":106.857948,"station_name":"Tebet","distance":1230,"time":2},{"transit":true,"i_lat":-6.209883,"station_name":"Manggarai","station_id":"MRI","time":4,"distance":2610,"i_long":106.84912,"is_transit":true,"line":0},{"line":1,"time":2,"station_id":"MTR","transit":false,"distance":1275,"i_lat":-6.212485,"i_long":106.858896,"station_name":"Matraman","is_transit":false},{"time":8,"transit":true,"i_long":106.86807400000001,"distance":1377,"station_id":"JNG","i_lat":-6.215091,"is_transit":true,"station_name":"Jatinegara","line":0},{"transit":false,"time":2,"station_id":"POK","station_name":"Pondok Jati","is_transit":false,"distance":1236,"i_lat":-6.209188,"i_long":106.861737,"line":11},{"station_id":"KMT","is_transit":false,"distance":1829,"transit":false,"station_name":"Kramat","line":11,"time":2,"i_long":106.855437,"i_lat":-6.193792},{"station_id":"GST","is_transit":false,"i_long":106.850107,"line":11,"i_lat":-6.185975,"transit":false,"station_name":"Gang Sentiong","time":1,"distance":973},{"transit":false,"distance":1567,"time":8,"i_lat":-6.174784,"station_id":"PSE","station_name":"Pasar Senen","line":11,"is_transit":false,"i_long":106.84368},{"i_long":106.839204,"station_id":"KMO","transit":false,"time":4,"is_transit":false,"distance":1436,"line":11,"i_lat":-6.161728,"station_name":"Kemayoran"},{"i_long":106.836569,"station_name":"Rajawali","is_transit":false,"transit":false,"i_lat":-6.14505,"line":11,"distance":1901,"station_id":"RJW","time":5},{"is_transit":true,"i_lat":-6.132549,"transit":true,"i_long":106.826365,"line":0,"station_id":"KPB","time":3,"distance":1444,"station_name":"Kampung Bandan"},{"is_transit":false,"distance":4102,"transit":false,"line":0,"station_id":"AK","i_long":106.79867,"station_name":"Angke","time":9,"i_lat":-6.144674},{"station_name":"Duri","distance":1230,"i_lat":-6.155215,"is_transit":true,"i_long":106.800832,"time":4,"station_id":"DU","transit":true,"line":1},{"i_lat":-6.185545,"i_long":106.811091,"is_transit":true,"time":8,"station_name":"Tanah Abang","distance":3632,"line":1,"transit":true,"station_id":"THB"},{"line":6,"time":6,"distance":3191,"transit":false,"i_long":106.79689,"is_transit":false,"station_id":"PLM","station_name":"Palmerah","i_lat":-6.207404},{"transit":false,"i_long":106.780334,"i_lat":-6.237242,"line":6,"is_transit":false,"time":7,"station_name":"Kebayoran","station_id":"KBY","distance":3737},{"station_name":"Pondokranji","time":8,"is_transit":false,"distance":6218,"i_lat":-6.276362,"line":6,"station_id":"PDJ","transit":false,"i_long":106.74273},{"distance":2179,"transit":false,"line":6,"i_long":106.728916,"i_lat":-6.288927,"station_id":"JMU","station_name":"Jurangmangu","is_transit":false,"time":3},{"is_transit":false,"station_name":"Sudimara","distance":1994,"i_long":106.712277,"station_id":"SDM","transit":false,"time":4,"i_lat":-6.296963,"line":6},{"is_transit":false,"i_lat":-6.314823,"i_long":106.675475,"station_id":"RU","station_name":"Rawa Buntu","time":6,"distance":4566,"transit":false,"line":6},{"station_id":"SRP","is_transit":false,"i_long":106.66566,"time":4,"transit":false,"i_lat":-6.319871,"distance":2413,"line":6,"station_name":"Serpong"},{"i_lat":-6.32484,"is_transit":false,"station_id":"CSK","time":4,"distance":1784,"station_name":"Cisauk","line":0,"transit":false,"i_long":106.640411},{"is_transit":false,"station_id":"CC","time":4,"transit":false,"i_lat":-6.329547,"i_long":106.617853,"distance":2519,"station_name":"Cicayur","line":0},{"time":8,"i_lat":-6.3441410000000005,"line":6,"transit":false,"station_name":"Parung Panjang","station_id":"PRP","i_long":106.568863,"is_transit":false,"distance":5968},{"line":0,"transit":false,"is_transit":false,"i_lat":-6.354349,"time":9,"distance":7025,"i_long":106.508482,"station_name":"Cilejit","station_id":"CJT"},{"transit":false,"distance":2675,"i_lat":-6.338021,"line":0,"time":6,"is_transit":false,"station_id":"DAR","i_long":106.491338,"station_name":"Daru"},{"station_name":"Tenjo","i_lat":-6.327251,"distance":3902,"transit":false,"station_id":"TEJ","is_transit":false,"i_long":106.460812,"line":6,"time":5},{"station_name":"Tigaraksa","i_lat":-6.328533,"is_transit":false,"line":6,"transit":false,"time":5,"station_id":"TGS","i_long":106.425991,"distance":2974},{"i_long":106.411216,"station_id":"CKY","distance":2651,"time":3,"station_name":"Cikoya","transit":false,"i_lat":-6.33561,"line":0,"is_transit":false},{"i_lat":-6.332307,"station_name":"Maja","station_id":"MJ","i_long":106.394373,"time":4,"distance":1853,"transit":false,"line":6,"is_transit":false}]]}