{"data":[[{"station_name":"Univ. Pancasila","transit":false,"time":0,"i_lat":-6.339291,"distance":0,"i_long":106.834175,"station_id":"UP","is_transit":false,"line":2},{"transit":false,"time":2,"distance":1029,"i_lat":-6.330363,"i_long":106.832616,"line":2,"is_transit":false,"station_name":"Lenteng Agung","station_id":"LNA"},{"transit":false,"i_long":106.838896,"distance":2671,"station_name":"Tanjung Barat","is_transit":false,"time":3,"line":2,"station_id":"TNT","i_lat":-6.3080680000000005},{"i_lat":-6.2842400000000005,"is_transit":false,"line":2,"transit":false,"i_long":106.843999,"time":4,"station_name":"Pasar Minggu","distance":2820,"station_id":"PSM"},{"time":2,"distance":2380,"station_name":"Pasar Minggu Baru","i_lat":-6.263214,"line":2,"station_id":"PSMB","transit":false,"is_transit":false,"i_long":106.851577},{"is_transit":false,"station_name":"Duren Kalibata","station_id":"DRN","distance":824,"i_lat":-6.255332,"line":2,"time":2,"i_long":106.85449,"transit":false},{"line":2,"transit":false,"distance":1546,"i_lat":-6.242512,"i_long":106.856607,"station_id":"CW","is_transit":false,"station_name":"Cawang","time":3},{"is_transit":false,"i_lat":-6.226659,"transit":false,"station_name":"Tebet","i_long":106.857948,"distance":1230,"time":2,"station_id":"TEB","line":2},{"transit":true,"i_long":106.84912,"line":2,"time":4,"station_name":"Manggarai","is_transit":true,"distance":2610,"i_lat":-6.209883,"station_id":"MRI"},{"distance":1275,"is_transit":false,"station_id":"MTR","station_name":"Matraman","time":2,"line":1,"transit":false,"i_lat":-6.212485,"i_long":106.858896}],[{"is_transit":false,"i_long":106.834175,"distance":0,"line":2,"transit":false,"station_id":"UP","station_name":"Univ. Pancasila","time":0,"i_lat":-6.339291},{"time":2,"i_lat":-6.330363,"is_transit":false,"line":2,"i_long":106.832616,"station_id":"LNA","transit":false,"distance":1029,"station_name":"Lenteng Agung"},{"distance":2671,"i_lat":-6.3080680000000005,"i_long":106.838896,"line":2,"is_transit":false,"transit":false,"station_id":"TNT","station_name":"Tanjung Barat","time":3},{"is_transit":false,"transit":false,"distance":2820,"station_name":"Pasar Minggu","line":2,"i_lat":-6.2842400000000005,"i_long":106.843999,"time":4,"station_id":"PSM"},{"transit":false,"time":2,"i_lat":-6.263214,"station_id":"PSMB","line":2,"is_transit":false,"distance":2380,"station_name":"Pasar Minggu Baru","i_long":106.851577},{"i_lat":-6.255332,"transit":false,"time":2,"distance":824,"i_long":106.85449,"station_id":"DRN","is_transit":false,"station_name":"Duren Kalibata","line":2},{"i_long":106.856607,"transit":false,"distance":1546,"is_transit":false,"station_name":"Cawang","station_id":"CW","line":2,"i_lat":-6.242512,"time":3},{"transit":false,"station_name":"Tebet","distance":1230,"is_transit":false,"line":2,"time":2,"station_id":"TEB","i_lat":-6.226659,"i_long":106.857948},{"line":2,"transit":true,"time":4,"station_id":"MRI","station_name":"Manggarai","i_lat":-6.209883,"distance":2610,"is_transit":true,"i_long":106.84912},{"time":4,"distance":3186,"transit":false,"station_name":"Sudirman","station_id":"SUD","is_transit":false,"i_long":106.822649,"i_lat":-6.202263,"line":1},{"line":1,"station_id":"SUDB","is_transit":false,"transit":false,"i_long":106.819881,"i_lat":-6.201433,"station_name":"Sudirman Baru","time":1,"distance":280},{"station_name":"Karet","transit":false,"is_transit":false,"line":1,"station_id":"KAT","distance":471,"i_long":106.816351,"i_lat":-6.20132,"time":1},{"transit":false,"station_id":"THB","is_transit":false,"station_name":"Tanah Abang","i_long":106.811091,"time":5,"line":1,"i_lat":-6.185545,"distance":2029},{"is_transit":false,"station_name":"Duri","distance":3632,"transit":false,"time":8,"i_lat":-6.155215,"i_long":106.800832,"line":1,"station_id":"DU"},{"time":4,"transit":false,"line":1,"station_name":"Angke","distance":1230,"i_long":106.79867,"station_id":"AK","is_transit":false,"i_lat":-6.144674},{"i_lat":-6.132549,"transit":true,"time":9,"distance":4102,"line":4,"station_id":"KPB","is_transit":true,"i_long":106.826365,"station_name":"Kampung Bandan"},{"transit":false,"is_transit":false,"i_lat":-6.14505,"station_name":"Rajawali","station_id":"RJW","line":11,"distance":1444,"i_long":106.836569,"time":3},{"i_long":106.839204,"transit":false,"station_id":"KMO","i_lat":-6.161728,"station_name":"Kemayoran","is_transit":false,"line":11,"distance":1901,"time":5},{"i_long":106.84368,"distance":1436,"i_lat":-6.174784,"transit":false,"is_transit":false,"station_name":"Pasar Senen","time":4,"station_id":"PSE","line":11},{"transit":false,"station_name":"Gang Sentiong","station_id":"GST","distance":1567,"time":8,"i_lat":-6.185975,"i_long":106.850107,"is_transit":false,"line":11},{"time":1,"distance":973,"i_lat":-6.193792,"line":11,"i_long":106.855437,"station_id":"KMT","is_transit":false,"station_name":"Kramat","transit":false},{"i_lat":-6.209188,"station_name":"Pondok Jati","transit":false,"is_transit":false,"station_id":"POK","i_long":106.861737,"time":2,"line":11,"distance":1829},{"time":9,"i_lat":-6.215091,"i_long":106.86807400000001,"is_transit":true,"distance":1236,"line":1,"station_id":"JNG","transit":true,"station_name":"Jatinegara"},{"station_id":"MTR","time":2,"transit":false,"distance":1377,"i_lat":-6.212485,"is_transit":false,"i_long":106.858896,"line":1,"station_name":"Matraman"}],[{"transit":false,"i_long":106.834175,"distance":0,"time":0,"is_transit":false,"station_id":"UP","station_name":"Univ. Pancasila","i_lat":-6.339291,"line":2},{"line":2,"is_transit":false,"i_long":106.832616,"time":2,"i_lat":-6.330363,"distance":1029,"transit":false,"station_name":"Lenteng Agung","station_id":"LNA"},{"distance":2671,"transit":false,"i_long":106.838896,"line":2,"station_name":"Tanjung Barat","station_id":"TNT","is_transit":false,"time":3,"i_lat":-6.3080680000000005},{"i_lat":-6.2842400000000005,"line":2,"station_name":"Pasar Minggu","distance":2820,"i_long":106.843999,"is_transit":false,"time":4,"transit":false,"station_id":"PSM"},{"distance":2380,"i_long":106.851577,"station_name":"Pasar Minggu Baru","line":2,"i_lat":-6.263214,"transit":false,"station_id":"PSMB","is_transit":false,"time":2},{"i_long":106.85449,"distance":824,"station_name":"Duren Kalibata","i_lat":-6.255332,"line":2,"transit":false,"time":2,"station_id":"DRN","is_transit":false},{"line":2,"transit":false,"is_transit":false,"time":3,"distance":1546,"station_name":"Cawang","i_long":106.856607,"station_id":"CW","i_lat":-6.242512},{"i_long":106.857948,"time":2,"line":2,"i_lat":-6.226659,"station_name":"Tebet","transit":false,"is_transit":false,"station_id":"TEB","distance":1230},{"distance":2610,"i_long":106.84912,"time":4,"i_lat":-6.209883,"station_name":"Manggarai","is_transit":false,"line":2,"transit":false,"station_id":"MRI"},{"station_id":"CKI","station_name":"Cikini","line":2,"distance":1590,"is_transit":false,"transit":false,"time":4,"i_lat":-6.198556,"i_long":106.840169},{"line":2,"transit":false,"distance":1750,"i_lat":-6.186295,"station_name":"Gondangdia","station_id":"GDD","i_long":106.832183,"is_transit":false,"time":3},{"station_id":"JUA","transit":false,"i_long":106.828284,"station_name":"Juanda","is_transit":false,"line":2,"time":4,"i_lat":-6.166716,"distance":2015},{"i_lat":-6.160725,"distance":1149,"is_transit":false,"station_name":"Sawah Besar","line":2,"station_id":"SW","transit":false,"i_long":106.827103,"time":2},{"i_long":106.82482,"transit":false,"line":2,"is_transit":false,"time":2,"i_lat":-6.149769,"station_name":"Manggabesar","distance":906,"station_id":"MGB"},{"transit":false,"distance":1080,"station_name":"Jayakarta","i_lat":-6.141205,"station_id":"JAY","i_long":106.820901,"time":2,"line":2,"is_transit":false},{"i_long":106.812439,"line":2,"distance":1264,"transit":true,"time":4,"station_id":"JAKK","is_transit":true,"i_lat":-6.137569,"station_name":"Jakarta Kota"},{"time":3,"station_name":"Kampung Bandan","transit":true,"is_transit":true,"distance":1364,"station_id":"KPB","i_lat":-6.132549,"line":4,"i_long":106.826365},{"time":3,"station_name":"Rajawali","transit":false,"line":11,"station_id":"RJW","i_long":106.836569,"distance":1444,"i_lat":-6.14505,"is_transit":false},{"line":11,"station_name":"Kemayoran","time":5,"transit":false,"station_id":"KMO","i_long":106.839204,"distance":1901,"is_transit":false,"i_lat":-6.161728},{"station_id":"PSE","i_lat":-6.174784,"i_long":106.84368,"transit":false,"distance":1436,"line":11,"station_name":"Pasar Senen","time":4,"is_transit":false},{"station_id":"GST","transit":false,"station_name":"Gang Sentiong","time":8,"i_lat":-6.185975,"i_long":106.850107,"line":11,"distance":1567,"is_transit":false},{"station_name":"Kramat","time":1,"distance":973,"line":11,"i_long":106.855437,"transit":false,"station_id":"KMT","is_transit":false,"i_lat":-6.193792},{"station_name":"Pondok Jati","time":2,"i_lat":-6.209188,"line":11,"distance":1829,"transit":false,"is_transit":false,"station_id":"POK","i_long":106.861737},{"distance":1236,"line":1,"i_long":106.86807400000001,"station_name":"Jatinegara","station_id":"JNG","is_transit":true,"transit":true,"i_lat":-6.215091,"time":9},{"is_transit":false,"distance":1377,"line":1,"i_long":106.858896,"time":2,"station_name":"Matraman","station_id":"MTR","i_lat":-6.212485,"transit":false}]]}