{"data":[[{"station_id":"UP","is_transit":false,"line":2,"time":0,"distance":0,"station_name":"Univ. Pancasila","transit":false,"i_lat":-6.339291,"i_long":106.834175},{"time":2,"station_id":"LNA","line":2,"i_long":106.832616,"station_name":"Lenteng Agung","distance":1029,"i_lat":-6.330363,"is_transit":false,"transit":false},{"line":2,"is_transit":false,"station_id":"TNT","transit":false,"distance":2671,"time":3,"i_lat":-6.3080680000000005,"i_long":106.838896,"station_name":"Tanjung Barat"},{"station_id":"PSM","distance":2820,"is_transit":false,"transit":false,"station_name":"Pasar Minggu","i_lat":-6.2842400000000005,"time":4,"line":2,"i_long":106.843999},{"transit":false,"line":2,"i_lat":-6.263214,"i_long":106.851577,"station_id":"PSMB","is_transit":false,"distance":2380,"time":2,"station_name":"Pasar Minggu Baru"},{"distance":824,"time":2,"station_id":"DRN","station_name":"Duren Kalibata","is_transit":false,"line":2,"i_lat":-6.255332,"transit":false,"i_long":106.85449},{"transit":false,"station_id":"CW","time":3,"i_lat":-6.242512,"i_long":106.856607,"distance":1546,"is_transit":false,"line":2,"station_name":"Cawang"},{"i_long":106.857948,"time":2,"station_id":"TEB","transit":false,"is_transit":false,"line":2,"i_lat":-6.226659,"station_name":"Tebet","distance":1230},{"distance":2610,"line":2,"station_id":"MRI","is_transit":true,"station_name":"Manggarai","transit":true,"time":4,"i_lat":-6.209883,"i_long":106.84912},{"distance":3186,"line":1,"i_long":106.822649,"is_transit":false,"time":4,"station_id":"SUD","transit":false,"station_name":"Sudirman","i_lat":-6.202263},{"is_transit":false,"line":1,"i_lat":-6.201433,"distance":280,"station_id":"SUDB","time":1,"station_name":"Sudirman Baru","transit":false,"i_long":106.819881},{"i_lat":-6.20132,"line":1,"time":1,"distance":471,"is_transit":false,"transit":false,"station_id":"KAT","station_name":"Karet","i_long":106.816351},{"is_transit":true,"line":1,"station_name":"Tanah Abang","station_id":"THB","i_long":106.811091,"time":5,"distance":2029,"i_lat":-6.185545,"transit":true},{"line":6,"time":6,"distance":3191,"station_name":"Palmerah","is_transit":false,"station_id":"PLM","i_long":106.79689,"i_lat":-6.207404,"transit":false},{"transit":false,"distance":3737,"station_name":"Kebayoran","i_long":106.780334,"line":6,"is_transit":false,"time":7,"i_lat":-6.237242,"station_id":"KBY"},{"station_name":"Pondokranji","station_id":"PDJ","i_long":106.74273,"line":6,"transit":false,"i_lat":-6.276362,"time":8,"is_transit":false,"distance":6218},{"distance":2179,"i_long":106.728916,"station_name":"Jurangmangu","station_id":"JMU","i_lat":-6.288927,"transit":false,"line":6,"is_transit":false,"time":3},{"time":4,"is_transit":false,"line":6,"station_id":"SDM","transit":false,"distance":1994,"i_lat":-6.296963,"station_name":"Sudimara","i_long":106.712277},{"is_transit":false,"time":6,"transit":false,"station_name":"Rawa Buntu","i_long":106.675475,"line":6,"i_lat":-6.314823,"distance":4566,"station_id":"RU"},{"distance":2413,"i_lat":-6.319871,"transit":false,"is_transit":false,"i_long":106.66566,"station_id":"SRP","station_name":"Serpong","line":6,"time":4},{"is_transit":false,"station_id":"CSK","i_lat":-6.32484,"line":3,"transit":false,"time":4,"i_long":106.640411,"distance":1784,"station_name":"Cisauk"},{"time":4,"station_name":"Cicayur","is_transit":false,"i_lat":-6.329547,"i_long":106.617853,"transit":false,"distance":2519,"station_id":"CC","line":3},{"time":8,"is_transit":false,"station_id":"PRP","i_lat":-6.3441410000000005,"transit":false,"distance":5968,"station_name":"Parung Panjang","line":6,"i_long":106.568863},{"distance":7025,"station_id":"CJT","is_transit":false,"transit":false,"i_lat":-6.354349,"i_long":106.508482,"line":3,"station_name":"Cilejit","time":9},{"time":6,"is_transit":false,"station_name":"Daru","station_id":"DAR","i_lat":-6.338021,"distance":2675,"line":0,"i_long":106.491338,"transit":false},{"transit":false,"i_lat":-6.327251,"i_long":106.460812,"distance":3902,"station_id":"TEJ","is_transit":false,"time":5,"station_name":"Tenjo","line":6},{"i_lat":-6.328533,"station_name":"Tigaraksa","station_id":"TGS","distance":2974,"i_long":106.425991,"is_transit":false,"line":6,"transit":false,"time":5},{"i_lat":-6.33561,"i_long":106.411216,"distance":2651,"transit":false,"line":3,"time":3,"is_transit":false,"station_id":"CKY","station_name":"Cikoya"},{"i_long":106.394373,"line":6,"station_id":"MJ","i_lat":-6.332307,"is_transit":false,"transit":false,"distance":1853,"station_name":"Maja","time":4}],[{"i_long":106.834175,"is_transit":false,"station_id":"UP","line":2,"distance":0,"transit":false,"i_lat":-6.339291,"time":0,"station_name":"Univ. Pancasila"},{"is_transit":false,"transit":false,"time":2,"station_id":"LNA","line":2,"i_lat":-6.330363,"station_name":"Lenteng Agung","distance":1029,"i_long":106.832616},{"i_long":106.838896,"line":2,"distance":2671,"transit":false,"is_transit":false,"time":3,"station_name":"Tanjung Barat","station_id":"TNT","i_lat":-6.3080680000000005},{"distance":2820,"station_name":"Pasar Minggu","is_transit":false,"transit":false,"i_lat":-6.2842400000000005,"station_id":"PSM","i_long":106.843999,"time":4,"line":2},{"station_id":"PSMB","i_long":106.851577,"time":2,"is_transit":false,"station_name":"Pasar Minggu Baru","transit":false,"distance":2380,"line":2,"i_lat":-6.263214},{"i_long":106.85449,"distance":824,"time":2,"line":2,"transit":false,"i_lat":-6.255332,"is_transit":false,"station_id":"DRN","station_name":"Duren Kalibata"},{"i_lat":-6.242512,"time":3,"station_name":"Cawang","line":2,"distance":1546,"transit":false,"is_transit":false,"station_id":"CW","i_long":106.856607},{"distance":1230,"line":2,"time":2,"station_id":"TEB","i_lat":-6.226659,"is_transit":false,"i_long":106.857948,"transit":false,"station_name":"Tebet"},{"i_long":106.84912,"station_name":"Manggarai","distance":2610,"time":4,"is_transit":false,"station_id":"MRI","i_lat":-6.209883,"transit":false,"line":2},{"station_id":"CKI","transit":false,"station_name":"Cikini","i_long":106.840169,"time":4,"line":2,"is_transit":false,"distance":1590,"i_lat":-6.198556},{"station_name":"Gondangdia","line":2,"i_long":106.832183,"is_transit":false,"i_lat":-6.186295,"station_id":"GDD","transit":false,"time":3,"distance":1750},{"station_id":"JUA","i_lat":-6.166716,"i_long":106.828284,"line":2,"is_transit":false,"time":4,"distance":2015,"transit":false,"station_name":"Juanda"},{"time":2,"line":2,"station_name":"Sawah Besar","transit":false,"distance":1149,"station_id":"SW","i_lat":-6.160725,"is_transit":false,"i_long":106.827103},{"time":2,"station_id":"MGB","i_lat":-6.149769,"i_long":106.82482,"is_transit":false,"station_name":"Manggabesar","transit":false,"line":2,"distance":906},{"line":2,"distance":1080,"i_long":106.820901,"is_transit":false,"station_name":"Jayakarta","station_id":"JAY","time":2,"i_lat":-6.141205,"transit":false},{"distance":1264,"i_long":106.812439,"line":2,"is_transit":true,"i_lat":-6.137569,"transit":true,"station_id":"JAKK","time":4,"station_name":"Jakarta Kota"},{"station_id":"KPB","time":3,"i_lat":-6.132549,"transit":true,"line":4,"is_transit":true,"distance":1364,"i_long":106.826365,"station_name":"Kampung Bandan"},{"station_name":"Angke","line":1,"transit":false,"time":9,"is_transit":false,"i_long":106.79867,"i_lat":-6.144674,"station_id":"AK","distance":4102},{"transit":false,"time":4,"station_id":"DU","is_transit":false,"distance":1230,"station_name":"Duri","i_lat":-6.155215,"i_long":106.800832,"line":1},{"station_name":"Tanah Abang","i_lat":-6.185545,"transit":true,"station_id":"THB","line":1,"time":8,"distance":3632,"is_transit":true,"i_long":106.811091},{"i_lat":-6.207404,"station_name":"Palmerah","line":6,"transit":false,"is_transit":false,"i_long":106.79689,"station_id":"PLM","time":6,"distance":3191},{"station_name":"Kebayoran","i_lat":-6.237242,"is_transit":false,"line":6,"i_long":106.780334,"transit":false,"station_id":"KBY","time":7,"distance":3737},{"distance":6218,"i_lat":-6.276362,"i_long":106.74273,"is_transit":false,"transit":false,"station_id":"PDJ","time":8,"line":6,"station_name":"Pondokranji"},{"is_transit":false,"station_name":"Jurangmangu","i_long":106.728916,"transit":false,"time":3,"i_lat":-6.288927,"line":6,"station_id":"JMU","distance":2179},{"line":6,"i_long":106.712277,"transit":false,"time":4,"is_transit":false,"station_id":"SDM","distance":1994,"i_lat":-6.296963,"station_name":"Sudimara"},{"time":6,"station_name":"Rawa Buntu","is_transit":false,"i_lat":-6.314823,"distance":4566,"i_long":106.675475,"transit":false,"line":6,"station_id":"RU"},{"i_long":106.66566,"i_lat":-6.319871,"distance":2413,"is_transit":false,"line":6,"time":4,"transit":false,"station_name":"Serpong","station_id":"SRP"},{"i_long":106.640411,"line":3,"time":4,"i_lat":-6.32484,"transit":false,"distance":1784,"is_transit":false,"station_id":"CSK","station_name":"Cisauk"},{"i_long":106.617853,"station_name":"Cicayur","station_id":"CC","transit":false,"distance":2519,"i_lat":-6.329547,"time":4,"line":3,"is_transit":false},{"i_long":106.568863,"line":6,"distance":5968,"station_name":"Parung Panjang","station_id":"PRP","is_transit":false,"time":8,"transit":false,"i_lat":-6.3441410000000005},{"line":3,"time":9,"is_transit":false,"i_lat":-6.354349,"station_id":"CJT","transit":false,"distance":7025,"station_name":"Cilejit","i_long":106.508482},{"is_transit":false,"i_lat":-6.338021,"station_name":"Daru","time":6,"distance":2675,"i_long":106.491338,"transit":false,"line":0,"station_id":"DAR"},{"line":6,"transit":false,"is_transit":false,"station_name":"Tenjo","distance":3902,"i_lat":-6.327251,"i_long":106.460812,"station_id":"TEJ","time":5},{"station_id":"TGS","transit":false,"i_lat":-6.328533,"is_transit":false,"time":5,"i_long":106.425991,"line":6,"station_name":"Tigaraksa","distance":2974},{"transit":false,"i_long":106.411216,"line":3,"time":3,"distance":2651,"is_transit":false,"station_name":"Cikoya","i_lat":-6.33561,"station_id":"CKY"},{"distance":1853,"transit":false,"i_long":106.394373,"time":4,"is_transit":false,"station_name":"Maja","station_id":"MJ","line":6,"i_lat":-6.332307}],[{"line":2,"transit":false,"station_id":"UP","i_long":106.834175,"station_name":"Univ. Pancasila","is_transit":false,"distance":0,"i_lat":-6.339291,"time":0},{"i_lat":-6.330363,"transit":false,"is_transit":false,"distance":1029,"station_name":"Lenteng Agung","i_long":106.832616,"line":2,"station_id":"LNA","time":2},{"station_id":"TNT","i_lat":-6.3080680000000005,"transit":false,"time":3,"is_transit":false,"line":2,"station_name":"Tanjung Barat","i_long":106.838896,"distance":2671},{"transit":false,"station_name":"Pasar Minggu","i_lat":-6.2842400000000005,"line":2,"i_long":106.843999,"station_id":"PSM","distance":2820,"time":4,"is_transit":false},{"transit":false,"i_long":106.851577,"time":2,"i_lat":-6.263214,"station_id":"PSMB","is_transit":false,"distance":2380,"line":2,"station_name":"Pasar Minggu Baru"},{"time":2,"transit":false,"station_name":"Duren Kalibata","is_transit":false,"i_long":106.85449,"station_id":"DRN","line":2,"distance":824,"i_lat":-6.255332},{"station_id":"CW","is_transit":false,"transit":false,"distance":1546,"i_long":106.856607,"i_lat":-6.242512,"time":3,"station_name":"Cawang","line":2},{"station_id":"TEB","time":2,"is_transit":false,"station_name":"Tebet","i_long":106.857948,"line":2,"i_lat":-6.226659,"transit":false,"distance":1230},{"i_long":106.84912,"is_transit":true,"transit":true,"time":4,"station_id":"MRI","line":2,"station_name":"Manggarai","distance":2610,"i_lat":-6.209883},{"i_lat":-6.212485,"is_transit":false,"transit":false,"station_id":"MTR","i_long":106.858896,"line":1,"time":2,"distance":1275,"station_name":"Matraman"},{"transit":true,"time":8,"i_long":106.86807400000001,"i_lat":-6.215091,"station_id":"JNG","distance":1377,"station_name":"Jatinegara","is_transit":true,"line":1},{"is_transit":false,"station_id":"POK","i_lat":-6.209188,"line":11,"distance":1236,"station_name":"Pondok Jati","time":2,"transit":false,"i_long":106.861737},{"distance":1829,"station_id":"KMT","i_long":106.855437,"time":2,"line":11,"is_transit":false,"station_name":"Kramat","i_lat":-6.193792,"transit":false},{"is_transit":false,"station_name":"Gang Sentiong","i_lat":-6.185975,"i_long":106.850107,"station_id":"GST","line":11,"time":1,"distance":973,"transit":false},{"transit":false,"distance":1567,"i_long":106.84368,"i_lat":-6.174784,"is_transit":false,"station_name":"Pasar Senen","line":11,"station_id":"PSE","time":8},{"line":11,"is_transit":false,"station_id":"KMO","time":4,"i_long":106.839204,"station_name":"Kemayoran","i_lat":-6.161728,"transit":false,"distance":1436},{"station_id":"RJW","transit":false,"time":5,"i_lat":-6.14505,"distance":1901,"line":11,"station_name":"Rajawali","is_transit":false,"i_long":106.836569},{"is_transit":true,"distance":1444,"i_lat":-6.132549,"station_id":"KPB","time":3,"i_long":106.826365,"transit":true,"station_name":"Kampung Bandan","line":4},{"distance":4102,"line":1,"transit":false,"station_name":"Angke","time":9,"is_transit":false,"i_long":106.79867,"station_id":"AK","i_lat":-6.144674},{"distance":1230,"station_name":"Duri","i_lat":-6.155215,"i_long":106.800832,"line":1,"station_id":"DU","time":4,"transit":false,"is_transit":false},{"transit":true,"station_id":"THB","i_long":106.811091,"is_transit":true,"i_lat":-6.185545,"distance":3632,"time":8,"station_name":"Tanah Abang","line":1},{"transit":false,"distance":3191,"time":6,"station_id":"PLM","i_long":106.79689,"line":6,"station_name":"Palmerah","i_lat":-6.207404,"is_transit":false},{"i_lat":-6.237242,"transit":false,"i_long":106.780334,"time":7,"station_id":"KBY","distance":3737,"line":6,"station_name":"Kebayoran","is_transit":false},{"station_id":"PDJ","i_lat":-6.276362,"time":8,"distance":6218,"station_name":"Pondokranji","i_long":106.74273,"line":6,"is_transit":false,"transit":false},{"i_lat":-6.288927,"line":6,"i_long":106.728916,"transit":false,"is_transit":false,"time":3,"station_id":"JMU","distance":2179,"station_name":"Jurangmangu"},{"time":4,"station_name":"Sudimara","i_long":106.712277,"line":6,"distance":1994,"i_lat":-6.296963,"is_transit":false,"transit":false,"station_id":"SDM"},{"transit":false,"is_transit":false,"distance":4566,"i_lat":-6.314823,"i_long":106.675475,"line":6,"time":6,"station_name":"Rawa Buntu","station_id":"RU"},{"transit":false,"station_id":"SRP","line":6,"i_lat":-6.319871,"time":4,"is_transit":false,"station_name":"Serpong","i_long":106.66566,"distance":2413},{"is_transit":false,"i_lat":-6.32484,"i_long":106.640411,"station_name":"Cisauk","line":3,"station_id":"CSK","time":4,"transit":false,"distance":1784},{"i_long":106.617853,"transit":false,"i_lat":-6.329547,"distance":2519,"station_id":"CC","line":3,"is_transit":false,"station_name":"Cicayur","time":4},{"transit":false,"is_transit":false,"line":6,"distance":5968,"station_id":"PRP","station_name":"Parung Panjang","time":8,"i_lat":-6.3441410000000005,"i_long":106.568863},{"i_lat":-6.354349,"line":3,"distance":7025,"time":9,"transit":false,"i_long":106.508482,"station_name":"Cilejit","is_transit":false,"station_id":"CJT"},{"i_lat":-6.338021,"time":6,"distance":2675,"station_name":"Daru","i_long":106.491338,"line":0,"transit":false,"is_transit":false,"station_id":"DAR"},{"transit":false,"distance":3902,"i_long":106.460812,"line":6,"i_lat":-6.327251,"time":5,"station_id":"TEJ","is_transit":false,"station_name":"Tenjo"},{"line":6,"station_id":"TGS","time":5,"distance":2974,"i_lat":-6.328533,"is_transit":false,"transit":false,"station_name":"Tigaraksa","i_long":106.425991},{"i_lat":-6.33561,"is_transit":false,"distance":2651,"i_long":106.411216,"transit":false,"station_id":"CKY","time":3,"station_name":"Cikoya","line":3},{"transit":false,"station_id":"MJ","line":6,"station_name":"Maja","i_lat":-6.332307,"is_transit":false,"distance":1853,"time":4,"i_long":106.394373}]]}