{"data":[[{"station_name":"Univ. Pancasila","i_lat":-6.339291,"i_long":106.834175,"time":0,"distance":0,"line":2,"station_id":"UP","is_transit":false,"transit":false},{"is_transit":false,"distance":1029,"station_id":"LNA","i_lat":-6.330363,"station_name":"Lenteng Agung","i_long":106.832616,"transit":false,"time":2,"line":2},{"is_transit":false,"line":2,"station_name":"Tanjung Barat","i_lat":-6.3080680000000005,"time":3,"distance":2671,"i_long":106.838896,"station_id":"TNT","transit":false},{"time":4,"transit":false,"distance":2820,"i_long":106.843999,"is_transit":false,"line":2,"station_name":"Pasar Minggu","i_lat":-6.2842400000000005,"station_id":"PSM"},{"station_name":"Pasar Minggu Baru","is_transit":false,"line":2,"time":2,"station_id":"PSMB","transit":false,"i_long":106.851577,"distance":2380,"i_lat":-6.263214},{"i_long":106.85449,"line":2,"distance":824,"transit":false,"i_lat":-6.255332,"station_id":"DRN","station_name":"Duren Kalibata","time":2,"is_transit":false},{"station_id":"CW","is_transit":false,"distance":1546,"time":3,"transit":false,"i_lat":-6.242512,"i_long":106.856607,"line":2,"station_name":"Cawang"},{"line":2,"time":2,"i_long":106.857948,"station_name":"Tebet","transit":false,"is_transit":false,"station_id":"TEB","i_lat":-6.226659,"distance":1230},{"distance":2610,"i_lat":-6.209883,"is_transit":true,"line":2,"station_id":"MRI","station_name":"Manggarai","transit":true,"time":4,"i_long":106.84912},{"i_long":106.858896,"transit":false,"station_name":"Matraman","line":1,"i_lat":-6.212485,"time":2,"is_transit":false,"station_id":"MTR","distance":1275}],[{"line":2,"is_transit":false,"time":0,"transit":false,"i_long":106.834175,"distance":0,"station_id":"UP","station_name":"Univ. Pancasila","i_lat":-6.339291},{"station_id":"LNA","transit":false,"i_lat":-6.330363,"is_transit":false,"time":2,"i_long":106.832616,"line":2,"station_name":"Lenteng Agung","distance":1029},{"transit":false,"i_long":106.838896,"line":2,"time":3,"distance":2671,"is_transit":false,"station_name":"Tanjung Barat","i_lat":-6.3080680000000005,"station_id":"TNT"},{"distance":2820,"transit":false,"i_long":106.843999,"time":4,"station_name":"Pasar Minggu","is_transit":false,"station_id":"PSM","line":2,"i_lat":-6.2842400000000005},{"line":2,"transit":false,"station_id":"PSMB","i_long":106.851577,"station_name":"Pasar Minggu Baru","distance":2380,"is_transit":false,"i_lat":-6.263214,"time":2},{"i_lat":-6.255332,"transit":false,"station_name":"Duren Kalibata","distance":824,"is_transit":false,"i_long":106.85449,"line":2,"time":2,"station_id":"DRN"},{"station_id":"CW","i_lat":-6.242512,"transit":false,"time":3,"is_transit":false,"line":2,"station_name":"Cawang","i_long":106.856607,"distance":1546},{"transit":false,"station_name":"Tebet","i_lat":-6.226659,"line":2,"i_long":106.857948,"station_id":"TEB","distance":1230,"time":2,"is_transit":false},{"transit":true,"i_long":106.84912,"time":4,"i_lat":-6.209883,"station_id":"MRI","distance":2610,"is_transit":true,"line":2,"station_name":"Manggarai"},{"line":1,"distance":3186,"station_name":"Sudirman","time":4,"i_lat":-6.202263,"is_transit":false,"i_long":106.822649,"transit":false,"station_id":"SUD"},{"time":1,"i_long":106.819881,"distance":280,"station_name":"Sudirman Baru","is_transit":false,"i_lat":-6.201433,"line":1,"station_id":"SUDB","transit":false},{"time":1,"line":1,"distance":471,"transit":false,"station_name":"Karet","i_lat":-6.20132,"i_long":106.816351,"is_transit":false,"station_id":"KAT"},{"is_transit":false,"station_name":"Tanah Abang","i_lat":-6.185545,"station_id":"THB","transit":false,"distance":2029,"time":5,"i_long":106.811091,"line":1},{"distance":3632,"is_transit":false,"i_lat":-6.155215,"line":1,"transit":false,"i_long":106.800832,"time":8,"station_name":"Duri","station_id":"DU"},{"distance":1230,"station_id":"AK","station_name":"Angke","is_transit":false,"i_long":106.79867,"line":1,"time":4,"i_lat":-6.144674,"transit":false},{"transit":true,"line":4,"station_name":"Kampung Bandan","station_id":"KPB","i_lat":-6.132549,"distance":4102,"i_long":106.826365,"is_transit":true,"time":9},{"transit":false,"i_lat":-6.14505,"station_name":"Rajawali","time":3,"line":11,"station_id":"RJW","is_transit":false,"distance":1444,"i_long":106.836569},{"time":5,"is_transit":false,"i_lat":-6.161728,"distance":1901,"line":11,"transit":false,"station_name":"Kemayoran","i_long":106.839204,"station_id":"KMO"},{"station_name":"Pasar Senen","i_lat":-6.174784,"i_long":106.84368,"line":11,"time":4,"station_id":"PSE","distance":1436,"is_transit":false,"transit":false},{"station_id":"GST","i_lat":-6.185975,"line":11,"transit":false,"i_long":106.850107,"is_transit":false,"time":8,"distance":1567,"station_name":"Gang Sentiong"},{"time":1,"distance":973,"is_transit":false,"station_name":"Kramat","i_lat":-6.193792,"i_long":106.855437,"station_id":"KMT","transit":false,"line":11},{"is_transit":false,"i_long":106.861737,"distance":1829,"station_name":"Pondok Jati","line":11,"station_id":"POK","i_lat":-6.209188,"transit":false,"time":2},{"distance":1236,"station_id":"JNG","i_long":106.86807400000001,"transit":true,"time":9,"station_name":"Jatinegara","is_transit":true,"line":1,"i_lat":-6.215091},{"i_lat":-6.212485,"i_long":106.858896,"line":1,"distance":1377,"transit":false,"station_id":"MTR","station_name":"Matraman","is_transit":false,"time":2}],[{"time":0,"is_transit":false,"i_lat":-6.339291,"i_long":106.834175,"transit":false,"station_name":"Univ. Pancasila","station_id":"UP","line":2,"distance":0},{"distance":1029,"is_transit":false,"station_name":"Lenteng Agung","i_lat":-6.330363,"i_long":106.832616,"time":2,"station_id":"LNA","line":2,"transit":false},{"station_id":"TNT","transit":false,"time":3,"station_name":"Tanjung Barat","i_lat":-6.3080680000000005,"line":2,"i_long":106.838896,"distance":2671,"is_transit":false},{"i_lat":-6.2842400000000005,"line":2,"i_long":106.843999,"is_transit":false,"time":4,"distance":2820,"station_name":"Pasar Minggu","transit":false,"station_id":"PSM"},{"line":2,"station_name":"Pasar Minggu Baru","distance":2380,"i_lat":-6.263214,"time":2,"station_id":"PSMB","i_long":106.851577,"transit":false,"is_transit":false},{"time":2,"i_lat":-6.255332,"i_long":106.85449,"line":2,"distance":824,"transit":false,"is_transit":false,"station_name":"Duren Kalibata","station_id":"DRN"},{"transit":false,"distance":1546,"station_id":"CW","i_long":106.856607,"is_transit":false,"line":2,"time":3,"station_name":"Cawang","i_lat":-6.242512},{"time":2,"transit":false,"station_id":"TEB","i_long":106.857948,"station_name":"Tebet","line":2,"is_transit":false,"distance":1230,"i_lat":-6.226659},{"station_name":"Manggarai","transit":false,"i_lat":-6.209883,"line":2,"is_transit":false,"station_id":"MRI","time":4,"i_long":106.84912,"distance":2610},{"distance":1590,"time":4,"station_name":"Cikini","i_long":106.840169,"line":2,"is_transit":false,"transit":false,"station_id":"CKI","i_lat":-6.198556},{"station_name":"Gondangdia","i_long":106.832183,"line":2,"station_id":"GDD","is_transit":false,"transit":false,"time":3,"distance":1750,"i_lat":-6.186295},{"station_id":"JUA","distance":2015,"line":2,"i_long":106.828284,"i_lat":-6.166716,"time":4,"is_transit":false,"station_name":"Juanda","transit":false},{"station_id":"SW","station_name":"Sawah Besar","i_lat":-6.160725,"distance":1149,"transit":false,"time":2,"is_transit":false,"i_long":106.827103,"line":2},{"i_long":106.82482,"time":2,"is_transit":false,"line":2,"distance":906,"transit":false,"i_lat":-6.149769,"station_name":"Manggabesar","station_id":"MGB"},{"station_name":"Jayakarta","line":2,"distance":1080,"time":2,"is_transit":false,"station_id":"JAY","i_lat":-6.141205,"i_long":106.820901,"transit":false},{"is_transit":true,"time":4,"distance":1264,"i_lat":-6.137569,"i_long":106.812439,"station_id":"JAKK","line":2,"station_name":"Jakarta Kota","transit":true},{"station_name":"Kampung Bandan","transit":true,"station_id":"KPB","i_lat":-6.132549,"line":4,"i_long":106.826365,"time":3,"is_transit":true,"distance":1364},{"is_transit":false,"distance":1444,"station_id":"RJW","time":3,"i_lat":-6.14505,"station_name":"Rajawali","i_long":106.836569,"line":11,"transit":false},{"i_lat":-6.161728,"line":11,"distance":1901,"i_long":106.839204,"time":5,"transit":false,"station_id":"KMO","is_transit":false,"station_name":"Kemayoran"},{"station_id":"PSE","station_name":"Pasar Senen","distance":1436,"i_lat":-6.174784,"time":4,"i_long":106.84368,"line":11,"transit":false,"is_transit":false},{"transit":false,"time":8,"station_id":"GST","i_long":106.850107,"distance":1567,"i_lat":-6.185975,"line":11,"station_name":"Gang Sentiong","is_transit":false},{"line":11,"station_name":"Kramat","station_id":"KMT","distance":973,"is_transit":false,"i_long":106.855437,"time":1,"i_lat":-6.193792,"transit":false},{"station_name":"Pondok Jati","line":11,"station_id":"POK","transit":false,"time":2,"i_lat":-6.209188,"i_long":106.861737,"distance":1829,"is_transit":false},{"is_transit":true,"station_id":"JNG","time":9,"station_name":"Jatinegara","distance":1236,"i_long":106.86807400000001,"transit":true,"i_lat":-6.215091,"line":1},{"station_id":"MTR","i_lat":-6.212485,"time":2,"transit":false,"is_transit":false,"i_long":106.858896,"line":1,"station_name":"Matraman","distance":1377}]]}