{"data":[[{"line":2,"station_id":"UP","i_lat":-6.339291,"station_name":"Univ. Pancasila","distance":0,"transit":false,"is_transit":false,"time":0,"i_long":106.834175},{"station_name":"Lenteng Agung","transit":false,"distance":1029,"station_id":"LNA","is_transit":false,"time":2,"i_long":106.832616,"line":2,"i_lat":-6.330363},{"station_name":"Tanjung Barat","line":2,"station_id":"TNT","time":3,"distance":2671,"transit":false,"i_long":106.838896,"i_lat":-6.3080680000000005,"is_transit":false},{"distance":2820,"station_name":"Pasar Minggu","time":4,"i_lat":-6.2842400000000005,"is_transit":false,"transit":false,"station_id":"PSM","line":2,"i_long":106.843999},{"line":2,"is_transit":false,"time":2,"station_name":"Pasar Minggu Baru","station_id":"PSMB","i_lat":-6.263214,"distance":2380,"transit":false,"i_long":106.851577},{"station_id":"DRN","i_long":106.85449,"time":2,"i_lat":-6.255332,"is_transit":false,"station_name":"Duren Kalibata","distance":824,"line":0,"transit":false},{"distance":1546,"time":3,"i_lat":-6.242512,"station_name":"Cawang","is_transit":false,"transit":false,"i_long":106.856607,"station_id":"CW","line":0},{"transit":false,"time":2,"is_transit":false,"i_lat":-6.226659,"i_long":106.857948,"line":2,"station_name":"Tebet","distance":1230,"station_id":"TEB"},{"time":4,"station_name":"Manggarai","transit":true,"i_long":106.84912,"line":0,"i_lat":-6.209883,"is_transit":true,"distance":2610,"station_id":"MRI"},{"distance":1275,"time":2,"i_lat":-6.212485,"i_long":106.858896,"station_name":"Matraman","station_id":"MTR","line":1,"transit":false,"is_transit":false}],[{"station_id":"UP","station_name":"Univ. Pancasila","line":2,"time":0,"transit":false,"distance":0,"i_long":106.834175,"is_transit":false,"i_lat":-6.339291},{"i_lat":-6.330363,"station_id":"LNA","i_long":106.832616,"time":2,"station_name":"Lenteng Agung","is_transit":false,"distance":1029,"transit":false,"line":2},{"i_long":106.838896,"station_id":"TNT","line":2,"time":3,"distance":2671,"station_name":"Tanjung Barat","is_transit":false,"transit":false,"i_lat":-6.3080680000000005},{"line":2,"distance":2820,"time":4,"i_long":106.843999,"transit":false,"station_name":"Pasar Minggu","is_transit":false,"i_lat":-6.2842400000000005,"station_id":"PSM"},{"time":2,"transit":false,"i_long":106.851577,"line":2,"distance":2380,"station_name":"Pasar Minggu Baru","station_id":"PSMB","is_transit":false,"i_lat":-6.263214},{"station_name":"Duren Kalibata","transit":false,"i_long":106.85449,"line":0,"is_transit":false,"station_id":"DRN","distance":824,"i_lat":-6.255332,"time":2},{"station_name":"Cawang","i_long":106.856607,"is_transit":false,"transit":false,"line":0,"time":3,"distance":1546,"i_lat":-6.242512,"station_id":"CW"},{"transit":false,"i_long":106.857948,"distance":1230,"is_transit":false,"time":2,"station_name":"Tebet","i_lat":-6.226659,"station_id":"TEB","line":2},{"transit":true,"station_id":"MRI","i_lat":-6.209883,"distance":2610,"line":0,"station_name":"Manggarai","is_transit":true,"time":4,"i_long":106.84912},{"time":4,"is_transit":false,"distance":3186,"transit":false,"station_name":"Sudirman","i_lat":-6.202263,"station_id":"SUD","i_long":106.822649,"line":1},{"line":1,"distance":280,"transit":false,"i_long":106.819881,"station_id":"SUDB","is_transit":false,"station_name":"Sudirman Baru","time":1,"i_lat":-6.201433},{"station_name":"Karet","distance":471,"time":1,"station_id":"KAT","i_lat":-6.20132,"transit":false,"i_long":106.816351,"is_transit":false,"line":1},{"station_id":"THB","distance":2029,"transit":false,"line":1,"i_lat":-6.185545,"i_long":106.811091,"station_name":"Tanah Abang","is_transit":true,"time":5},{"time":8,"line":1,"distance":3632,"transit":true,"station_name":"Duri","i_long":106.800832,"is_transit":true,"station_id":"DU","i_lat":-6.155215},{"i_long":106.79867,"time":4,"line":0,"station_name":"Angke","station_id":"AK","distance":1230,"is_transit":false,"i_lat":-6.144674,"transit":false},{"transit":true,"i_lat":-6.132549,"station_name":"Kampung Bandan","distance":4102,"time":9,"station_id":"KPB","is_transit":true,"line":0,"i_long":106.826365},{"i_lat":-6.14505,"i_long":106.836569,"transit":false,"distance":1444,"is_transit":false,"station_id":"RJW","time":3,"line":11,"station_name":"Rajawali"},{"station_name":"Kemayoran","is_transit":false,"time":5,"distance":1901,"transit":false,"line":11,"i_lat":-6.161728,"station_id":"KMO","i_long":106.839204},{"station_id":"PSE","is_transit":false,"station_name":"Pasar Senen","time":4,"i_lat":-6.174784,"transit":false,"i_long":106.84368,"distance":1436,"line":11},{"time":8,"is_transit":false,"station_id":"GST","transit":false,"i_lat":-6.185975,"distance":1567,"line":11,"i_long":106.850107,"station_name":"Gang Sentiong"},{"distance":973,"line":11,"station_id":"KMT","i_lat":-6.193792,"transit":false,"is_transit":false,"i_long":106.855437,"station_name":"Kramat","time":1},{"line":11,"distance":1829,"is_transit":false,"transit":false,"i_lat":-6.209188,"i_long":106.861737,"station_id":"POK","time":2,"station_name":"Pondok Jati"},{"i_lat":-6.215091,"is_transit":true,"time":9,"i_long":106.86807400000001,"station_id":"JNG","transit":true,"line":0,"distance":1236,"station_name":"Jatinegara"},{"is_transit":false,"station_id":"MTR","i_long":106.858896,"station_name":"Matraman","time":2,"transit":false,"line":1,"i_lat":-6.212485,"distance":1377}],[{"station_id":"UP","station_name":"Univ. Pancasila","i_lat":-6.339291,"i_long":106.834175,"is_transit":false,"time":0,"transit":false,"line":2,"distance":0},{"is_transit":false,"station_id":"LNA","i_lat":-6.330363,"i_long":106.832616,"distance":1029,"line":2,"time":2,"transit":false,"station_name":"Lenteng Agung"},{"time":3,"transit":false,"i_lat":-6.3080680000000005,"station_id":"TNT","i_long":106.838896,"distance":2671,"is_transit":false,"station_name":"Tanjung Barat","line":2},{"transit":false,"station_name":"Pasar Minggu","is_transit":false,"distance":2820,"time":4,"station_id":"PSM","i_lat":-6.2842400000000005,"i_long":106.843999,"line":2},{"distance":2380,"i_lat":-6.263214,"i_long":106.851577,"station_id":"PSMB","line":2,"transit":false,"time":2,"station_name":"Pasar Minggu Baru","is_transit":false},{"line":0,"station_name":"Duren Kalibata","i_long":106.85449,"transit":false,"is_transit":false,"time":2,"distance":824,"station_id":"DRN","i_lat":-6.255332},{"is_transit":false,"time":3,"station_name":"Cawang","i_lat":-6.242512,"transit":false,"i_long":106.856607,"station_id":"CW","line":0,"distance":1546},{"i_lat":-6.226659,"i_long":106.857948,"distance":1230,"transit":false,"station_id":"TEB","station_name":"Tebet","is_transit":false,"time":2,"line":2},{"station_id":"MRI","station_name":"Manggarai","distance":2610,"transit":true,"time":4,"line":0,"is_transit":true,"i_lat":-6.209883,"i_long":106.84912},{"time":4,"station_id":"CKI","station_name":"Cikini","is_transit":false,"transit":false,"i_long":106.840169,"line":0,"i_lat":-6.198556,"distance":1590},{"line":2,"station_name":"Gondangdia","distance":1750,"transit":false,"time":3,"station_id":"GDD","i_lat":-6.186295,"i_long":106.832183,"is_transit":false},{"is_transit":false,"time":4,"i_lat":-6.166716,"station_id":"JUA","i_long":106.828284,"transit":false,"station_name":"Juanda","distance":2015,"line":2},{"i_long":106.827103,"is_transit":false,"transit":false,"line":2,"station_name":"Sawah Besar","time":2,"i_lat":-6.160725,"station_id":"SW","distance":1149},{"distance":906,"station_name":"Manggabesar","station_id":"MGB","line":2,"transit":false,"is_transit":false,"time":2,"i_lat":-6.149769,"i_long":106.82482},{"station_name":"Jayakarta","is_transit":false,"distance":1080,"i_lat":-6.141205,"i_long":106.820901,"line":7,"station_id":"JAY","time":2,"transit":false},{"distance":1264,"time":4,"station_name":"Jakarta Kota","is_transit":true,"transit":true,"station_id":"JAKK","i_long":106.812439,"i_lat":-6.137569,"line":0},{"station_id":"KPB","distance":1364,"transit":true,"is_transit":true,"line":0,"station_name":"Kampung Bandan","i_lat":-6.132549,"time":3,"i_long":106.826365},{"station_id":"RJW","distance":1444,"station_name":"Rajawali","transit":false,"is_transit":false,"i_long":106.836569,"time":3,"i_lat":-6.14505,"line":11},{"i_long":106.839204,"is_transit":false,"station_name":"Kemayoran","time":5,"transit":false,"station_id":"KMO","i_lat":-6.161728,"line":11,"distance":1901},{"i_lat":-6.174784,"i_long":106.84368,"line":11,"station_name":"Pasar Senen","is_transit":false,"time":4,"distance":1436,"transit":false,"station_id":"PSE"},{"i_long":106.850107,"transit":false,"station_id":"GST","distance":1567,"time":8,"is_transit":false,"line":11,"station_name":"Gang Sentiong","i_lat":-6.185975},{"station_name":"Kramat","i_long":106.855437,"transit":false,"i_lat":-6.193792,"is_transit":false,"station_id":"KMT","distance":973,"line":11,"time":1},{"time":2,"is_transit":false,"i_lat":-6.209188,"i_long":106.861737,"line":11,"station_name":"Pondok Jati","distance":1829,"station_id":"POK","transit":false},{"time":9,"station_id":"JNG","i_long":106.86807400000001,"line":0,"is_transit":true,"i_lat":-6.215091,"distance":1236,"station_name":"Jatinegara","transit":true},{"station_name":"Matraman","i_lat":-6.212485,"i_long":106.858896,"distance":1377,"time":2,"is_transit":false,"transit":false,"line":1,"station_id":"MTR"}]]}