{"data":[[{"i_long":106.834175,"distance":0,"station_name":"Univ. Pancasila","is_transit":false,"station_id":"UP","i_lat":-6.339291,"transit":false,"time":0,"line":2},{"is_transit":false,"line":2,"i_lat":-6.330363,"time":2,"station_name":"Lenteng Agung","distance":1029,"transit":false,"i_long":106.832616,"station_id":"LNA"},{"station_id":"TNT","time":3,"transit":false,"i_lat":-6.3080680000000005,"i_long":106.838896,"is_transit":false,"line":2,"station_name":"Tanjung Barat","distance":2671},{"transit":false,"is_transit":false,"line":2,"station_id":"PSM","time":4,"i_lat":-6.2842400000000005,"station_name":"Pasar Minggu","i_long":106.843999,"distance":2820},{"distance":2380,"i_lat":-6.263214,"is_transit":false,"station_name":"Pasar Minggu Baru","line":2,"transit":false,"station_id":"PSMB","time":2,"i_long":106.851577},{"transit":false,"line":2,"distance":824,"i_lat":-6.255332,"station_id":"DRN","time":2,"i_long":106.85449,"is_transit":false,"station_name":"Duren Kalibata"},{"distance":1546,"station_id":"CW","station_name":"Cawang","time":3,"i_lat":-6.242512,"is_transit":false,"transit":false,"line":2,"i_long":106.856607},{"i_lat":-6.226659,"is_transit":false,"i_long":106.857948,"line":2,"station_name":"Tebet","station_id":"TEB","distance":1230,"transit":false,"time":2},{"line":2,"station_id":"MRI","is_transit":true,"distance":2610,"i_long":106.84912,"i_lat":-6.209883,"time":4,"transit":true,"station_name":"Manggarai"},{"station_name":"Matraman","i_long":106.858896,"station_id":"MTR","distance":1275,"is_transit":false,"line":1,"time":2,"transit":false,"i_lat":-6.212485},{"transit":true,"station_id":"JNG","i_long":106.86807400000001,"time":8,"line":1,"i_lat":-6.215091,"distance":1377,"is_transit":true,"station_name":"Jatinegara"},{"transit":false,"time":2,"i_long":106.861737,"is_transit":false,"line":11,"station_id":"POK","distance":1236,"i_lat":-6.209188,"station_name":"Pondok Jati"},{"station_id":"KMT","is_transit":false,"distance":1829,"i_lat":-6.193792,"station_name":"Kramat","line":11,"time":2,"i_long":106.855437,"transit":false},{"time":1,"line":11,"i_long":106.850107,"station_id":"GST","transit":false,"station_name":"Gang Sentiong","i_lat":-6.185975,"is_transit":false,"distance":973},{"i_lat":-6.174784,"time":8,"station_id":"PSE","distance":1567,"line":11,"is_transit":false,"transit":false,"station_name":"Pasar Senen","i_long":106.84368},{"i_lat":-6.161728,"i_long":106.839204,"distance":1436,"is_transit":false,"line":11,"transit":false,"time":4,"station_name":"Kemayoran","station_id":"KMO"},{"distance":1901,"is_transit":false,"station_id":"RJW","i_lat":-6.14505,"transit":false,"i_long":106.836569,"line":11,"station_name":"Rajawali","time":5}],[{"station_id":"UP","time":0,"line":2,"i_lat":-6.339291,"i_long":106.834175,"transit":false,"is_transit":false,"distance":0,"station_name":"Univ. Pancasila"},{"time":2,"line":2,"i_long":106.832616,"is_transit":false,"distance":1029,"station_name":"Lenteng Agung","station_id":"LNA","transit":false,"i_lat":-6.330363},{"distance":2671,"station_id":"TNT","time":3,"transit":false,"line":2,"station_name":"Tanjung Barat","i_lat":-6.3080680000000005,"is_transit":false,"i_long":106.838896},{"station_name":"Pasar Minggu","transit":false,"is_transit":false,"distance":2820,"time":4,"line":2,"i_lat":-6.2842400000000005,"i_long":106.843999,"station_id":"PSM"},{"is_transit":false,"distance":2380,"transit":false,"station_name":"Pasar Minggu Baru","time":2,"station_id":"PSMB","i_long":106.851577,"i_lat":-6.263214,"line":2},{"is_transit":false,"i_lat":-6.255332,"i_long":106.85449,"station_id":"DRN","station_name":"Duren Kalibata","time":2,"distance":824,"line":2,"transit":false},{"is_transit":false,"station_name":"Cawang","time":3,"distance":1546,"transit":false,"i_long":106.856607,"line":2,"i_lat":-6.242512,"station_id":"CW"},{"line":2,"station_id":"TEB","station_name":"Tebet","transit":false,"time":2,"is_transit":false,"distance":1230,"i_lat":-6.226659,"i_long":106.857948},{"transit":true,"station_name":"Manggarai","station_id":"MRI","is_transit":true,"i_lat":-6.209883,"distance":2610,"line":2,"time":4,"i_long":106.84912},{"transit":false,"station_id":"SUD","is_transit":false,"line":1,"station_name":"Sudirman","time":4,"distance":3186,"i_long":106.822649,"i_lat":-6.202263},{"time":1,"transit":false,"is_transit":false,"i_long":106.819881,"i_lat":-6.201433,"distance":280,"station_name":"Sudirman Baru","line":1,"station_id":"SUDB"},{"station_name":"Karet","station_id":"KAT","i_long":106.816351,"distance":471,"transit":false,"i_lat":-6.20132,"time":1,"is_transit":false,"line":1},{"i_lat":-6.185545,"station_name":"Tanah Abang","transit":false,"distance":2029,"line":1,"i_long":106.811091,"time":5,"station_id":"THB","is_transit":false},{"time":8,"transit":false,"station_name":"Duri","distance":3632,"i_lat":-6.155215,"station_id":"DU","i_long":106.800832,"line":1,"is_transit":false},{"i_long":106.79867,"station_id":"AK","distance":1230,"station_name":"Angke","i_lat":-6.144674,"transit":false,"time":4,"is_transit":false,"line":1},{"distance":4102,"i_lat":-6.132549,"station_id":"KPB","time":9,"is_transit":true,"transit":true,"line":4,"i_long":106.826365,"station_name":"Kampung Bandan"},{"line":11,"station_name":"Rajawali","i_lat":-6.14505,"i_long":106.836569,"time":3,"is_transit":false,"distance":1444,"transit":false,"station_id":"RJW"}],[{"time":0,"is_transit":false,"station_id":"UP","distance":0,"i_lat":-6.339291,"station_name":"Univ. Pancasila","line":2,"i_long":106.834175,"transit":false},{"station_id":"LNA","distance":1029,"station_name":"Lenteng Agung","transit":false,"is_transit":false,"i_lat":-6.330363,"i_long":106.832616,"time":2,"line":2},{"i_long":106.838896,"is_transit":false,"station_id":"TNT","i_lat":-6.3080680000000005,"line":2,"time":3,"transit":false,"station_name":"Tanjung Barat","distance":2671},{"transit":false,"time":4,"line":2,"station_id":"PSM","i_lat":-6.2842400000000005,"distance":2820,"station_name":"Pasar Minggu","i_long":106.843999,"is_transit":false},{"distance":2380,"line":2,"transit":false,"time":2,"is_transit":false,"station_name":"Pasar Minggu Baru","i_long":106.851577,"station_id":"PSMB","i_lat":-6.263214},{"time":2,"distance":824,"i_lat":-6.255332,"i_long":106.85449,"transit":false,"station_name":"Duren Kalibata","station_id":"DRN","line":2,"is_transit":false},{"i_long":106.856607,"i_lat":-6.242512,"line":2,"station_name":"Cawang","time":3,"station_id":"CW","transit":false,"distance":1546,"is_transit":false},{"time":2,"i_lat":-6.226659,"station_id":"TEB","line":2,"i_long":106.857948,"transit":false,"is_transit":false,"station_name":"Tebet","distance":1230},{"i_lat":-6.209883,"station_id":"MRI","i_long":106.84912,"time":4,"station_name":"Manggarai","distance":2610,"line":2,"transit":false,"is_transit":false},{"is_transit":false,"station_id":"CKI","i_lat":-6.198556,"distance":1590,"i_long":106.840169,"transit":false,"time":4,"line":2,"station_name":"Cikini"},{"is_transit":false,"time":3,"line":2,"i_lat":-6.186295,"station_id":"GDD","distance":1750,"i_long":106.832183,"transit":false,"station_name":"Gondangdia"},{"line":2,"transit":false,"station_id":"JUA","station_name":"Juanda","time":4,"i_long":106.828284,"distance":2015,"is_transit":false,"i_lat":-6.166716},{"station_name":"Sawah Besar","station_id":"SW","is_transit":false,"time":2,"distance":1149,"i_long":106.827103,"line":2,"transit":false,"i_lat":-6.160725},{"i_long":106.82482,"transit":false,"i_lat":-6.149769,"line":2,"is_transit":false,"station_name":"Manggabesar","station_id":"MGB","time":2,"distance":906},{"i_lat":-6.141205,"transit":false,"station_name":"Jayakarta","station_id":"JAY","time":2,"i_long":106.820901,"line":2,"is_transit":false,"distance":1080},{"distance":1264,"time":4,"line":2,"i_long":106.812439,"transit":true,"station_id":"JAKK","i_lat":-6.137569,"is_transit":true,"station_name":"Jakarta Kota"},{"distance":1364,"station_id":"KPB","line":4,"transit":true,"is_transit":true,"i_lat":-6.132549,"time":3,"station_name":"Kampung Bandan","i_long":106.826365},{"is_transit":false,"line":11,"i_lat":-6.14505,"i_long":106.836569,"distance":1444,"station_id":"RJW","time":3,"station_name":"Rajawali","transit":false}]]}