{"data":[[{"i_long":106.834175,"i_lat":-6.339291,"is_transit":false,"distance":0,"station_id":"UP","transit":false,"time":0,"station_name":"Univ. Pancasila","line":2},{"is_transit":false,"time":2,"station_name":"Lenteng Agung","i_long":106.832616,"distance":1029,"station_id":"LNA","transit":false,"i_lat":-6.330363,"line":2},{"time":3,"distance":2671,"line":2,"station_name":"Tanjung Barat","i_lat":-6.3080680000000005,"transit":false,"station_id":"TNT","i_long":106.838896,"is_transit":false},{"line":2,"is_transit":false,"transit":false,"i_long":106.843999,"time":4,"station_id":"PSM","distance":2820,"station_name":"Pasar Minggu","i_lat":-6.2842400000000005},{"distance":2380,"transit":false,"line":2,"station_name":"Pasar Minggu Baru","i_long":106.851577,"station_id":"PSMB","time":2,"i_lat":-6.263214,"is_transit":false},{"line":2,"time":2,"i_long":106.85449,"is_transit":false,"i_lat":-6.255332,"transit":false,"station_id":"DRN","station_name":"Duren Kalibata","distance":824},{"transit":false,"i_lat":-6.242512,"i_long":106.856607,"line":2,"station_name":"Cawang","distance":1546,"time":3,"station_id":"CW","is_transit":false},{"is_transit":false,"station_id":"TEB","i_lat":-6.226659,"distance":1230,"line":2,"station_name":"Tebet","transit":false,"i_long":106.857948,"time":2},{"station_name":"Manggarai","i_lat":-6.209883,"i_long":106.84912,"station_id":"MRI","distance":2610,"time":4,"line":2,"is_transit":true,"transit":true},{"transit":false,"time":2,"distance":1275,"line":1,"station_id":"MTR","i_lat":-6.212485,"is_transit":false,"i_long":106.858896,"station_name":"Matraman"},{"line":1,"transit":true,"i_lat":-6.215091,"i_long":106.86807400000001,"time":8,"station_name":"Jatinegara","distance":1377,"station_id":"JNG","is_transit":true},{"i_long":106.861737,"distance":1236,"i_lat":-6.209188,"transit":false,"time":2,"station_name":"Pondok Jati","is_transit":false,"station_id":"POK","line":11},{"time":2,"is_transit":false,"transit":false,"station_id":"KMT","station_name":"Kramat","i_long":106.855437,"distance":1829,"i_lat":-6.193792,"line":11},{"station_name":"Gang Sentiong","time":1,"station_id":"GST","distance":973,"i_long":106.850107,"is_transit":false,"i_lat":-6.185975,"line":11,"transit":false},{"station_id":"PSE","i_lat":-6.174784,"is_transit":false,"station_name":"Pasar Senen","line":11,"transit":false,"i_long":106.84368,"distance":1567,"time":8},{"time":4,"distance":1436,"i_lat":-6.161728,"station_id":"KMO","line":11,"transit":false,"station_name":"Kemayoran","i_long":106.839204,"is_transit":false},{"distance":1901,"i_lat":-6.14505,"station_id":"RJW","is_transit":false,"station_name":"Rajawali","line":11,"transit":false,"i_long":106.836569,"time":5}],[{"time":0,"transit":false,"line":2,"station_name":"Univ. Pancasila","station_id":"UP","i_lat":-6.339291,"i_long":106.834175,"is_transit":false,"distance":0},{"station_id":"LNA","distance":1029,"i_lat":-6.330363,"i_long":106.832616,"line":2,"time":2,"station_name":"Lenteng Agung","is_transit":false,"transit":false},{"transit":false,"station_name":"Tanjung Barat","time":3,"i_lat":-6.3080680000000005,"is_transit":false,"i_long":106.838896,"line":2,"distance":2671,"station_id":"TNT"},{"i_lat":-6.2842400000000005,"station_name":"Pasar Minggu","i_long":106.843999,"transit":false,"line":2,"time":4,"distance":2820,"station_id":"PSM","is_transit":false},{"time":2,"station_id":"PSMB","is_transit":false,"i_lat":-6.263214,"line":2,"transit":false,"station_name":"Pasar Minggu Baru","i_long":106.851577,"distance":2380},{"station_id":"DRN","time":2,"transit":false,"i_lat":-6.255332,"line":2,"i_long":106.85449,"is_transit":false,"station_name":"Duren Kalibata","distance":824},{"station_id":"CW","line":2,"distance":1546,"i_long":106.856607,"i_lat":-6.242512,"is_transit":false,"transit":false,"time":3,"station_name":"Cawang"},{"time":2,"station_id":"TEB","i_lat":-6.226659,"distance":1230,"transit":false,"is_transit":false,"station_name":"Tebet","i_long":106.857948,"line":2},{"distance":2610,"station_id":"MRI","i_lat":-6.209883,"station_name":"Manggarai","is_transit":true,"transit":true,"i_long":106.84912,"line":2,"time":4},{"time":4,"distance":3186,"line":1,"i_lat":-6.202263,"transit":false,"station_id":"SUD","station_name":"Sudirman","i_long":106.822649,"is_transit":false},{"station_id":"SUDB","i_lat":-6.201433,"i_long":106.819881,"distance":280,"transit":false,"line":1,"time":1,"is_transit":false,"station_name":"Sudirman Baru"},{"is_transit":false,"i_lat":-6.20132,"i_long":106.816351,"line":1,"station_id":"KAT","transit":false,"station_name":"Karet","distance":471,"time":1},{"time":5,"distance":2029,"i_lat":-6.185545,"line":1,"is_transit":false,"station_name":"Tanah Abang","transit":false,"i_long":106.811091,"station_id":"THB"},{"transit":false,"distance":3632,"i_long":106.800832,"station_id":"DU","is_transit":false,"i_lat":-6.155215,"time":8,"station_name":"Duri","line":1},{"station_name":"Angke","transit":false,"line":1,"station_id":"AK","is_transit":false,"time":4,"i_lat":-6.144674,"i_long":106.79867,"distance":1230},{"time":9,"is_transit":true,"station_id":"KPB","distance":4102,"station_name":"Kampung Bandan","i_lat":-6.132549,"transit":true,"i_long":106.826365,"line":4},{"distance":1444,"station_name":"Rajawali","station_id":"RJW","transit":false,"i_lat":-6.14505,"i_long":106.836569,"is_transit":false,"time":3,"line":11}],[{"line":2,"station_name":"Univ. Pancasila","is_transit":false,"time":0,"transit":false,"station_id":"UP","i_long":106.834175,"i_lat":-6.339291,"distance":0},{"i_long":106.832616,"distance":1029,"transit":false,"i_lat":-6.330363,"station_id":"LNA","station_name":"Lenteng Agung","line":2,"time":2,"is_transit":false},{"transit":false,"i_lat":-6.3080680000000005,"time":3,"station_name":"Tanjung Barat","distance":2671,"is_transit":false,"i_long":106.838896,"line":2,"station_id":"TNT"},{"station_name":"Pasar Minggu","station_id":"PSM","time":4,"distance":2820,"i_lat":-6.2842400000000005,"is_transit":false,"i_long":106.843999,"line":2,"transit":false},{"station_name":"Pasar Minggu Baru","line":2,"distance":2380,"station_id":"PSMB","transit":false,"time":2,"is_transit":false,"i_long":106.851577,"i_lat":-6.263214},{"distance":824,"station_name":"Duren Kalibata","i_long":106.85449,"station_id":"DRN","line":2,"is_transit":false,"i_lat":-6.255332,"transit":false,"time":2},{"distance":1546,"line":2,"station_name":"Cawang","i_lat":-6.242512,"is_transit":false,"transit":false,"i_long":106.856607,"time":3,"station_id":"CW"},{"i_long":106.857948,"is_transit":false,"distance":1230,"station_name":"Tebet","line":2,"time":2,"transit":false,"station_id":"TEB","i_lat":-6.226659},{"station_id":"MRI","is_transit":false,"line":2,"i_lat":-6.209883,"i_long":106.84912,"time":4,"transit":false,"distance":2610,"station_name":"Manggarai"},{"transit":false,"is_transit":false,"station_name":"Cikini","i_long":106.840169,"time":4,"distance":1590,"station_id":"CKI","line":2,"i_lat":-6.198556},{"station_id":"GDD","transit":false,"is_transit":false,"station_name":"Gondangdia","i_long":106.832183,"time":3,"i_lat":-6.186295,"distance":1750,"line":2},{"distance":2015,"station_id":"JUA","line":2,"is_transit":false,"i_long":106.828284,"transit":false,"time":4,"station_name":"Juanda","i_lat":-6.166716},{"i_long":106.827103,"distance":1149,"time":2,"transit":false,"station_name":"Sawah Besar","station_id":"SW","is_transit":false,"line":2,"i_lat":-6.160725},{"station_id":"MGB","is_transit":false,"transit":false,"time":2,"i_lat":-6.149769,"line":2,"station_name":"Manggabesar","distance":906,"i_long":106.82482},{"i_long":106.820901,"line":2,"i_lat":-6.141205,"distance":1080,"station_id":"JAY","transit":false,"station_name":"Jayakarta","time":2,"is_transit":false},{"transit":true,"i_lat":-6.137569,"station_id":"JAKK","distance":1264,"is_transit":true,"line":2,"i_long":106.812439,"time":4,"station_name":"Jakarta Kota"},{"is_transit":true,"station_name":"Kampung Bandan","time":3,"transit":true,"i_long":106.826365,"line":4,"distance":1364,"i_lat":-6.132549,"station_id":"KPB"},{"transit":false,"i_long":106.836569,"distance":1444,"station_name":"Rajawali","line":11,"time":3,"station_id":"RJW","is_transit":false,"i_lat":-6.14505}]]}