{"data":[[{"station_name":"Univ. Pancasila","station_id":"UP","is_transit":false,"transit":false,"line":2,"distance":0,"time":0,"i_lat":-6.339291,"i_long":106.834175},{"i_long":106.832616,"transit":false,"station_id":"LNA","line":2,"i_lat":-6.330363,"station_name":"Lenteng Agung","distance":1029,"time":2,"is_transit":false},{"station_name":"Tanjung Barat","time":3,"distance":2671,"line":2,"is_transit":false,"station_id":"TNT","i_lat":-6.3080680000000005,"transit":false,"i_long":106.838896},{"is_transit":false,"station_id":"PSM","distance":2820,"transit":false,"time":4,"station_name":"Pasar Minggu","i_lat":-6.2842400000000005,"i_long":106.843999,"line":2},{"distance":2380,"is_transit":false,"transit":false,"station_name":"Pasar Minggu Baru","time":2,"i_lat":-6.263214,"station_id":"PSMB","i_long":106.851577,"line":2},{"i_long":106.85449,"distance":824,"line":0,"station_name":"Duren Kalibata","station_id":"DRN","i_lat":-6.255332,"time":2,"transit":false,"is_transit":false},{"distance":1546,"i_lat":-6.242512,"transit":false,"i_long":106.856607,"time":3,"is_transit":false,"line":0,"station_name":"Cawang","station_id":"CW"},{"time":2,"station_id":"TEB","distance":1230,"transit":false,"is_transit":false,"i_long":106.857948,"line":2,"i_lat":-6.226659,"station_name":"Tebet"},{"transit":true,"time":4,"distance":2610,"line":0,"station_id":"MRI","i_long":106.84912,"i_lat":-6.209883,"station_name":"Manggarai","is_transit":true},{"time":4,"station_id":"SUD","station_name":"Sudirman","transit":false,"line":1,"i_lat":-6.202263,"is_transit":false,"distance":3186,"i_long":106.822649},{"is_transit":false,"time":1,"distance":280,"station_name":"Sudirman Baru","i_lat":-6.201433,"i_long":106.819881,"line":1,"station_id":"SUDB","transit":false},{"i_lat":-6.20132,"is_transit":false,"station_name":"Karet","station_id":"KAT","distance":471,"transit":false,"time":1,"i_long":106.816351,"line":1},{"is_transit":true,"station_name":"Tanah Abang","time":5,"distance":2029,"line":1,"transit":false,"i_lat":-6.185545,"station_id":"THB","i_long":106.811091},{"distance":3632,"is_transit":true,"time":8,"station_name":"Duri","i_lat":-6.155215,"i_long":106.800832,"transit":true,"line":1,"station_id":"DU"},{"transit":false,"time":4,"station_id":"AK","is_transit":false,"i_long":106.79867,"distance":1230,"i_lat":-6.144674,"line":0,"station_name":"Angke"},{"is_transit":true,"line":0,"station_id":"KPB","i_long":106.826365,"station_name":"Kampung Bandan","time":9,"distance":4102,"transit":true,"i_lat":-6.132549},{"distance":1444,"station_id":"RJW","is_transit":false,"time":3,"transit":false,"i_lat":-6.14505,"station_name":"Rajawali","i_long":106.836569,"line":11}],[{"station_name":"Univ. Pancasila","transit":false,"line":2,"is_transit":false,"time":0,"distance":0,"i_lat":-6.339291,"i_long":106.834175,"station_id":"UP"},{"transit":false,"i_long":106.832616,"distance":1029,"time":2,"i_lat":-6.330363,"is_transit":false,"line":2,"station_name":"Lenteng Agung","station_id":"LNA"},{"station_name":"Tanjung Barat","i_lat":-6.3080680000000005,"i_long":106.838896,"is_transit":false,"transit":false,"line":2,"time":3,"station_id":"TNT","distance":2671},{"time":4,"i_lat":-6.2842400000000005,"line":2,"transit":false,"i_long":106.843999,"is_transit":false,"distance":2820,"station_id":"PSM","station_name":"Pasar Minggu"},{"line":2,"station_name":"Pasar Minggu Baru","transit":false,"i_long":106.851577,"station_id":"PSMB","is_transit":false,"time":2,"distance":2380,"i_lat":-6.263214},{"time":2,"is_transit":false,"station_name":"Duren Kalibata","transit":false,"i_lat":-6.255332,"station_id":"DRN","distance":824,"i_long":106.85449,"line":0},{"station_name":"Cawang","is_transit":false,"i_lat":-6.242512,"i_long":106.856607,"time":3,"transit":false,"distance":1546,"line":0,"station_id":"CW"},{"distance":1230,"i_lat":-6.226659,"station_id":"TEB","time":2,"station_name":"Tebet","is_transit":false,"i_long":106.857948,"line":2,"transit":false},{"station_id":"MRI","line":0,"i_long":106.84912,"time":4,"station_name":"Manggarai","is_transit":true,"distance":2610,"i_lat":-6.209883,"transit":true},{"transit":false,"station_name":"Matraman","station_id":"MTR","i_lat":-6.212485,"i_long":106.858896,"is_transit":false,"line":1,"time":2,"distance":1275},{"distance":1377,"time":8,"is_transit":true,"i_long":106.86807400000001,"transit":true,"line":0,"i_lat":-6.215091,"station_id":"JNG","station_name":"Jatinegara"},{"station_name":"Pondok Jati","time":2,"transit":false,"line":11,"station_id":"POK","i_lat":-6.209188,"is_transit":false,"distance":1236,"i_long":106.861737},{"station_id":"KMT","i_lat":-6.193792,"station_name":"Kramat","distance":1829,"transit":false,"time":2,"is_transit":false,"i_long":106.855437,"line":11},{"transit":false,"distance":973,"i_lat":-6.185975,"i_long":106.850107,"station_id":"GST","station_name":"Gang Sentiong","is_transit":false,"time":1,"line":11},{"distance":1567,"transit":false,"i_lat":-6.174784,"i_long":106.84368,"line":11,"station_id":"PSE","is_transit":false,"station_name":"Pasar Senen","time":8},{"distance":1436,"i_long":106.839204,"line":11,"i_lat":-6.161728,"station_id":"KMO","is_transit":false,"transit":false,"time":4,"station_name":"Kemayoran"},{"is_transit":false,"station_id":"RJW","time":5,"station_name":"Rajawali","transit":false,"i_long":106.836569,"distance":1901,"line":11,"i_lat":-6.14505}],[{"i_lat":-6.339291,"distance":0,"station_name":"Univ. Pancasila","time":0,"transit":false,"is_transit":false,"station_id":"UP","line":2,"i_long":106.834175},{"distance":1029,"i_lat":-6.330363,"i_long":106.832616,"transit":false,"is_transit":false,"time":2,"station_name":"Lenteng Agung","station_id":"LNA","line":2},{"station_name":"Tanjung Barat","is_transit":false,"distance":2671,"transit":false,"time":3,"i_lat":-6.3080680000000005,"station_id":"TNT","i_long":106.838896,"line":2},{"station_id":"PSM","line":2,"i_lat":-6.2842400000000005,"i_long":106.843999,"is_transit":false,"station_name":"Pasar Minggu","time":4,"distance":2820,"transit":false},{"i_lat":-6.263214,"transit":false,"station_id":"PSMB","time":2,"line":2,"is_transit":false,"station_name":"Pasar Minggu Baru","distance":2380,"i_long":106.851577},{"station_name":"Duren Kalibata","distance":824,"transit":false,"line":0,"station_id":"DRN","is_transit":false,"i_long":106.85449,"i_lat":-6.255332,"time":2},{"transit":false,"is_transit":false,"i_lat":-6.242512,"time":3,"station_name":"Cawang","line":0,"station_id":"CW","distance":1546,"i_long":106.856607},{"station_id":"TEB","i_long":106.857948,"station_name":"Tebet","i_lat":-6.226659,"time":2,"is_transit":false,"transit":false,"line":2,"distance":1230},{"line":0,"is_transit":true,"i_lat":-6.209883,"station_id":"MRI","distance":2610,"station_name":"Manggarai","time":4,"transit":true,"i_long":106.84912},{"line":0,"time":4,"transit":false,"is_transit":false,"station_id":"CKI","distance":1590,"i_lat":-6.198556,"i_long":106.840169,"station_name":"Cikini"},{"i_long":106.832183,"line":2,"station_name":"Gondangdia","distance":1750,"is_transit":false,"time":3,"station_id":"GDD","transit":false,"i_lat":-6.186295},{"time":4,"line":2,"i_long":106.828284,"transit":false,"station_name":"Juanda","is_transit":false,"distance":2015,"station_id":"JUA","i_lat":-6.166716},{"distance":1149,"is_transit":false,"transit":false,"line":2,"station_id":"SW","i_lat":-6.160725,"time":2,"station_name":"Sawah Besar","i_long":106.827103},{"transit":false,"time":2,"line":2,"distance":906,"i_long":106.82482,"i_lat":-6.149769,"station_id":"MGB","is_transit":false,"station_name":"Manggabesar"},{"distance":1080,"transit":false,"station_name":"Jayakarta","i_lat":-6.141205,"station_id":"JAY","is_transit":false,"time":2,"i_long":106.820901,"line":7},{"station_name":"Jakarta Kota","line":0,"i_long":106.812439,"is_transit":true,"time":4,"distance":1264,"transit":true,"station_id":"JAKK","i_lat":-6.137569},{"is_transit":true,"station_name":"Kampung Bandan","distance":1364,"i_long":106.826365,"station_id":"KPB","time":3,"transit":true,"i_lat":-6.132549,"line":0},{"i_long":106.836569,"line":11,"distance":1444,"station_id":"RJW","station_name":"Rajawali","time":3,"transit":false,"i_lat":-6.14505,"is_transit":false}]]}