{"data":[[{"i_long":106.834175,"distance":0,"i_lat":-6.339291,"station_id":"UP","line":2,"transit":false,"time":0,"station_name":"Univ. Pancasila","is_transit":false},{"is_transit":false,"i_long":106.832616,"i_lat":-6.330363,"line":2,"distance":1029,"station_id":"LNA","station_name":"Lenteng Agung","time":2,"transit":false},{"time":3,"i_lat":-6.3080680000000005,"i_long":106.838896,"distance":2671,"station_name":"Tanjung Barat","is_transit":false,"line":2,"transit":false,"station_id":"TNT"},{"station_id":"PSM","is_transit":false,"station_name":"Pasar Minggu","transit":false,"i_long":106.843999,"line":2,"time":4,"i_lat":-6.2842400000000005,"distance":2820},{"transit":false,"is_transit":false,"i_lat":-6.263214,"station_id":"PSMB","line":2,"i_long":106.851577,"station_name":"Pasar Minggu Baru","distance":2380,"time":2},{"station_name":"Duren Kalibata","time":2,"transit":false,"station_id":"DRN","line":2,"i_lat":-6.255332,"distance":824,"i_long":106.85449,"is_transit":false},{"i_lat":-6.242512,"time":3,"line":2,"transit":false,"station_id":"CW","distance":1546,"is_transit":false,"station_name":"Cawang","i_long":106.856607},{"distance":1230,"time":2,"is_transit":false,"transit":false,"i_lat":-6.226659,"station_id":"TEB","i_long":106.857948,"station_name":"Tebet","line":2},{"station_name":"Manggarai","i_lat":-6.209883,"time":4,"i_long":106.84912,"is_transit":true,"distance":2610,"transit":true,"line":2,"station_id":"MRI"},{"time":4,"station_id":"SUD","is_transit":false,"line":1,"i_lat":-6.202263,"station_name":"Sudirman","distance":3186,"transit":false,"i_long":106.822649},{"i_lat":-6.201433,"station_name":"Sudirman Baru","i_long":106.819881,"transit":false,"distance":280,"is_transit":false,"station_id":"SUDB","line":1,"time":1},{"distance":471,"time":1,"line":1,"i_long":106.816351,"station_id":"KAT","transit":false,"station_name":"Karet","i_lat":-6.20132,"is_transit":false},{"distance":2029,"i_long":106.811091,"time":5,"transit":true,"line":1,"station_name":"Tanah Abang","is_transit":true,"station_id":"THB","i_lat":-6.185545},{"time":6,"is_transit":false,"station_id":"PLM","distance":3191,"station_name":"Palmerah","transit":false,"i_long":106.79689,"i_lat":-6.207404,"line":6},{"line":6,"transit":false,"station_id":"KBY","distance":3737,"station_name":"Kebayoran","is_transit":false,"i_lat":-6.237242,"time":7,"i_long":106.780334},{"i_lat":-6.276362,"station_name":"Pondokranji","distance":6218,"i_long":106.74273,"time":8,"transit":false,"line":6,"station_id":"PDJ","is_transit":false},{"station_name":"Jurangmangu","i_lat":-6.288927,"time":3,"is_transit":false,"transit":false,"station_id":"JMU","distance":2179,"i_long":106.728916,"line":6},{"is_transit":false,"station_name":"Sudimara","distance":1994,"transit":false,"time":4,"i_lat":-6.296963,"i_long":106.712277,"station_id":"SDM","line":6}],[{"station_id":"UP","distance":0,"i_long":106.834175,"line":2,"i_lat":-6.339291,"station_name":"Univ. Pancasila","time":0,"is_transit":false,"transit":false},{"i_lat":-6.330363,"line":2,"i_long":106.832616,"time":2,"station_name":"Lenteng Agung","distance":1029,"transit":false,"station_id":"LNA","is_transit":false},{"time":3,"i_lat":-6.3080680000000005,"i_long":106.838896,"distance":2671,"is_transit":false,"station_name":"Tanjung Barat","station_id":"TNT","transit":false,"line":2},{"station_id":"PSM","station_name":"Pasar Minggu","line":2,"is_transit":false,"i_lat":-6.2842400000000005,"distance":2820,"transit":false,"i_long":106.843999,"time":4},{"time":2,"transit":false,"i_long":106.851577,"station_id":"PSMB","line":2,"station_name":"Pasar Minggu Baru","is_transit":false,"distance":2380,"i_lat":-6.263214},{"distance":824,"is_transit":false,"station_name":"Duren Kalibata","line":2,"time":2,"i_lat":-6.255332,"station_id":"DRN","transit":false,"i_long":106.85449},{"line":2,"transit":false,"distance":1546,"i_long":106.856607,"station_id":"CW","time":3,"is_transit":false,"station_name":"Cawang","i_lat":-6.242512},{"transit":false,"i_lat":-6.226659,"line":2,"time":2,"is_transit":false,"station_name":"Tebet","station_id":"TEB","i_long":106.857948,"distance":1230},{"i_lat":-6.209883,"distance":2610,"is_transit":false,"time":4,"transit":false,"i_long":106.84912,"line":2,"station_id":"MRI","station_name":"Manggarai"},{"time":4,"distance":1590,"is_transit":false,"transit":false,"station_id":"CKI","i_long":106.840169,"station_name":"Cikini","i_lat":-6.198556,"line":2},{"station_name":"Gondangdia","is_transit":false,"i_lat":-6.186295,"i_long":106.832183,"line":2,"time":3,"distance":1750,"transit":false,"station_id":"GDD"},{"distance":2015,"is_transit":false,"i_lat":-6.166716,"transit":false,"i_long":106.828284,"line":2,"time":4,"station_id":"JUA","station_name":"Juanda"},{"distance":1149,"is_transit":false,"station_name":"Sawah Besar","station_id":"SW","i_long":106.827103,"line":2,"time":2,"i_lat":-6.160725,"transit":false},{"station_id":"MGB","time":2,"transit":false,"distance":906,"station_name":"Manggabesar","is_transit":false,"i_lat":-6.149769,"i_long":106.82482,"line":2},{"station_name":"Jayakarta","transit":false,"i_long":106.820901,"line":2,"distance":1080,"is_transit":false,"station_id":"JAY","i_lat":-6.141205,"time":2},{"line":2,"transit":true,"station_id":"JAKK","time":4,"station_name":"Jakarta Kota","is_transit":true,"distance":1264,"i_long":106.812439,"i_lat":-6.137569},{"i_lat":-6.132549,"is_transit":true,"station_name":"Kampung Bandan","transit":true,"i_long":106.826365,"time":3,"line":4,"distance":1364,"station_id":"KPB"},{"i_long":106.79867,"distance":4102,"is_transit":false,"i_lat":-6.144674,"station_name":"Angke","station_id":"AK","transit":false,"time":9,"line":1},{"is_transit":false,"time":4,"i_lat":-6.155215,"i_long":106.800832,"transit":false,"station_name":"Duri","distance":1230,"station_id":"DU","line":1},{"i_long":106.811091,"i_lat":-6.185545,"distance":3632,"transit":true,"line":1,"station_id":"THB","time":8,"station_name":"Tanah Abang","is_transit":true},{"is_transit":false,"transit":false,"i_lat":-6.207404,"i_long":106.79689,"station_name":"Palmerah","line":6,"time":6,"station_id":"PLM","distance":3191},{"is_transit":false,"transit":false,"i_long":106.780334,"line":6,"station_name":"Kebayoran","i_lat":-6.237242,"distance":3737,"time":7,"station_id":"KBY"},{"station_name":"Pondokranji","i_lat":-6.276362,"i_long":106.74273,"station_id":"PDJ","distance":6218,"line":6,"is_transit":false,"time":8,"transit":false},{"i_lat":-6.288927,"i_long":106.728916,"is_transit":false,"line":6,"distance":2179,"station_name":"Jurangmangu","time":3,"transit":false,"station_id":"JMU"},{"station_name":"Sudimara","is_transit":false,"time":4,"transit":false,"line":6,"i_long":106.712277,"i_lat":-6.296963,"station_id":"SDM","distance":1994}],[{"line":2,"i_lat":-6.339291,"station_name":"Univ. Pancasila","i_long":106.834175,"station_id":"UP","transit":false,"distance":0,"is_transit":false,"time":0},{"station_name":"Lenteng Agung","i_lat":-6.330363,"distance":1029,"is_transit":false,"time":2,"station_id":"LNA","transit":false,"i_long":106.832616,"line":2},{"is_transit":false,"station_id":"TNT","transit":false,"line":2,"station_name":"Tanjung Barat","i_lat":-6.3080680000000005,"time":3,"distance":2671,"i_long":106.838896},{"i_lat":-6.2842400000000005,"i_long":106.843999,"is_transit":false,"transit":false,"line":2,"distance":2820,"station_name":"Pasar Minggu","station_id":"PSM","time":4},{"transit":false,"time":2,"station_id":"PSMB","is_transit":false,"station_name":"Pasar Minggu Baru","i_lat":-6.263214,"i_long":106.851577,"distance":2380,"line":2},{"station_id":"DRN","i_lat":-6.255332,"i_long":106.85449,"line":2,"time":2,"transit":false,"is_transit":false,"station_name":"Duren Kalibata","distance":824},{"station_name":"Cawang","distance":1546,"transit":false,"i_lat":-6.242512,"i_long":106.856607,"is_transit":false,"station_id":"CW","line":2,"time":3},{"is_transit":false,"time":2,"line":2,"transit":false,"i_lat":-6.226659,"station_id":"TEB","station_name":"Tebet","distance":1230,"i_long":106.857948},{"station_id":"MRI","station_name":"Manggarai","transit":true,"time":4,"i_lat":-6.209883,"distance":2610,"is_transit":true,"i_long":106.84912,"line":2},{"time":2,"i_lat":-6.212485,"i_long":106.858896,"transit":false,"is_transit":false,"station_name":"Matraman","distance":1275,"station_id":"MTR","line":1},{"transit":true,"i_long":106.86807400000001,"station_name":"Jatinegara","i_lat":-6.215091,"line":1,"is_transit":true,"distance":1377,"station_id":"JNG","time":8},{"i_lat":-6.209188,"is_transit":false,"time":2,"station_id":"POK","transit":false,"i_long":106.861737,"line":11,"distance":1236,"station_name":"Pondok Jati"},{"is_transit":false,"transit":false,"i_lat":-6.193792,"station_id":"KMT","i_long":106.855437,"time":2,"line":11,"station_name":"Kramat","distance":1829},{"station_id":"GST","distance":973,"transit":false,"i_lat":-6.185975,"station_name":"Gang Sentiong","is_transit":false,"time":1,"i_long":106.850107,"line":11},{"is_transit":false,"i_lat":-6.174784,"transit":false,"i_long":106.84368,"station_id":"PSE","line":11,"station_name":"Pasar Senen","time":8,"distance":1567},{"distance":1436,"is_transit":false,"i_long":106.839204,"station_id":"KMO","i_lat":-6.161728,"time":4,"station_name":"Kemayoran","transit":false,"line":11},{"line":11,"i_lat":-6.14505,"distance":1901,"time":5,"station_id":"RJW","transit":false,"is_transit":false,"i_long":106.836569,"station_name":"Rajawali"},{"i_long":106.826365,"transit":true,"station_id":"KPB","time":3,"station_name":"Kampung Bandan","is_transit":true,"distance":1444,"line":4,"i_lat":-6.132549},{"line":1,"time":9,"station_name":"Angke","station_id":"AK","is_transit":false,"transit":false,"i_lat":-6.144674,"distance":4102,"i_long":106.79867},{"station_id":"DU","transit":false,"distance":1230,"i_lat":-6.155215,"station_name":"Duri","is_transit":false,"time":4,"i_long":106.800832,"line":1},{"distance":3632,"time":8,"station_id":"THB","transit":true,"i_long":106.811091,"i_lat":-6.185545,"line":1,"station_name":"Tanah Abang","is_transit":true},{"transit":false,"is_transit":false,"distance":3191,"i_long":106.79689,"time":6,"line":6,"station_id":"PLM","i_lat":-6.207404,"station_name":"Palmerah"},{"station_id":"KBY","station_name":"Kebayoran","is_transit":false,"i_long":106.780334,"line":6,"distance":3737,"time":7,"i_lat":-6.237242,"transit":false},{"i_long":106.74273,"line":6,"distance":6218,"transit":false,"i_lat":-6.276362,"is_transit":false,"station_id":"PDJ","time":8,"station_name":"Pondokranji"},{"i_long":106.728916,"time":3,"transit":false,"station_name":"Jurangmangu","is_transit":false,"i_lat":-6.288927,"line":6,"distance":2179,"station_id":"JMU"},{"is_transit":false,"time":4,"station_name":"Sudimara","station_id":"SDM","transit":false,"distance":1994,"line":6,"i_lat":-6.296963,"i_long":106.712277}]]}