{"data":[[{"time":0,"station_id":"UP","i_lat":-6.339291,"i_long":106.834175,"transit":false,"line":2,"station_name":"Univ. Pancasila","is_transit":false,"distance":0},{"is_transit":false,"distance":1029,"i_lat":-6.330363,"transit":false,"line":2,"station_name":"Lenteng Agung","i_long":106.832616,"station_id":"LNA","time":2},{"i_lat":-6.3080680000000005,"is_transit":false,"time":3,"line":2,"transit":false,"station_name":"Tanjung Barat","station_id":"TNT","distance":2671,"i_long":106.838896},{"transit":false,"line":2,"time":4,"i_long":106.843999,"i_lat":-6.2842400000000005,"station_id":"PSM","is_transit":false,"distance":2820,"station_name":"Pasar Minggu"},{"time":2,"line":2,"station_id":"PSMB","is_transit":false,"station_name":"Pasar Minggu Baru","i_lat":-6.263214,"i_long":106.851577,"transit":false,"distance":2380},{"transit":false,"station_id":"DRN","i_lat":-6.255332,"time":2,"line":2,"distance":824,"is_transit":false,"station_name":"Duren Kalibata","i_long":106.85449},{"i_long":106.856607,"station_id":"CW","i_lat":-6.242512,"transit":false,"line":2,"station_name":"Cawang","is_transit":false,"distance":1546,"time":3},{"i_lat":-6.226659,"distance":1230,"station_id":"TEB","time":2,"transit":false,"station_name":"Tebet","i_long":106.857948,"line":2,"is_transit":false},{"station_name":"Manggarai","transit":true,"station_id":"MRI","is_transit":true,"i_lat":-6.209883,"i_long":106.84912,"time":4,"line":2,"distance":2610},{"i_lat":-6.202263,"i_long":106.822649,"line":1,"station_name":"Sudirman","is_transit":false,"transit":false,"station_id":"SUD","time":4,"distance":3186},{"time":1,"i_long":106.819881,"i_lat":-6.201433,"line":1,"transit":false,"station_id":"SUDB","station_name":"Sudirman Baru","is_transit":false,"distance":280},{"line":1,"station_id":"KAT","distance":471,"is_transit":false,"i_lat":-6.20132,"i_long":106.816351,"transit":false,"station_name":"Karet","time":1},{"transit":true,"distance":2029,"station_id":"THB","is_transit":true,"time":5,"i_lat":-6.185545,"line":1,"station_name":"Tanah Abang","i_long":106.811091},{"i_long":106.79689,"is_transit":false,"distance":3191,"i_lat":-6.207404,"line":6,"transit":false,"station_id":"PLM","station_name":"Palmerah","time":6},{"station_name":"Kebayoran","i_lat":-6.237242,"station_id":"KBY","time":7,"i_long":106.780334,"line":6,"distance":3737,"transit":false,"is_transit":false},{"is_transit":false,"station_name":"Pondokranji","time":8,"station_id":"PDJ","distance":6218,"line":6,"i_lat":-6.276362,"transit":false,"i_long":106.74273},{"i_lat":-6.288927,"distance":2179,"transit":false,"is_transit":false,"station_name":"Jurangmangu","station_id":"JMU","time":3,"i_long":106.728916,"line":6},{"station_id":"SDM","is_transit":false,"i_long":106.712277,"line":6,"time":4,"transit":false,"station_name":"Sudimara","i_lat":-6.296963,"distance":1994},{"i_long":106.675475,"i_lat":-6.314823,"station_id":"RU","line":6,"is_transit":false,"time":6,"transit":false,"station_name":"Rawa Buntu","distance":4566},{"station_id":"SRP","time":4,"line":6,"is_transit":false,"i_lat":-6.319871,"distance":2413,"transit":false,"station_name":"Serpong","i_long":106.66566}],[{"is_transit":false,"station_id":"UP","transit":false,"time":0,"i_lat":-6.339291,"i_long":106.834175,"station_name":"Univ. Pancasila","distance":0,"line":2},{"is_transit":false,"i_long":106.832616,"distance":1029,"i_lat":-6.330363,"station_id":"LNA","station_name":"Lenteng Agung","time":2,"transit":false,"line":2},{"is_transit":false,"line":2,"station_id":"TNT","transit":false,"i_lat":-6.3080680000000005,"i_long":106.838896,"station_name":"Tanjung Barat","distance":2671,"time":3},{"time":4,"is_transit":false,"distance":2820,"i_lat":-6.2842400000000005,"transit":false,"i_long":106.843999,"line":2,"station_name":"Pasar Minggu","station_id":"PSM"},{"i_long":106.851577,"line":2,"station_name":"Pasar Minggu Baru","distance":2380,"time":2,"is_transit":false,"station_id":"PSMB","i_lat":-6.263214,"transit":false},{"time":2,"station_name":"Duren Kalibata","distance":824,"i_lat":-6.255332,"transit":false,"is_transit":false,"line":2,"i_long":106.85449,"station_id":"DRN"},{"station_id":"CW","transit":false,"distance":1546,"i_long":106.856607,"is_transit":false,"i_lat":-6.242512,"station_name":"Cawang","time":3,"line":2},{"line":2,"transit":false,"station_id":"TEB","station_name":"Tebet","is_transit":false,"distance":1230,"i_lat":-6.226659,"i_long":106.857948,"time":2},{"is_transit":false,"station_name":"Manggarai","station_id":"MRI","transit":false,"distance":2610,"line":2,"time":4,"i_long":106.84912,"i_lat":-6.209883},{"station_id":"CKI","is_transit":false,"time":4,"distance":1590,"station_name":"Cikini","i_lat":-6.198556,"transit":false,"i_long":106.840169,"line":2},{"line":2,"is_transit":false,"transit":false,"station_id":"GDD","i_long":106.832183,"distance":1750,"time":3,"i_lat":-6.186295,"station_name":"Gondangdia"},{"i_long":106.828284,"station_name":"Juanda","station_id":"JUA","is_transit":false,"distance":2015,"transit":false,"i_lat":-6.166716,"time":4,"line":2},{"i_lat":-6.160725,"station_id":"SW","station_name":"Sawah Besar","is_transit":false,"time":2,"i_long":106.827103,"transit":false,"line":2,"distance":1149},{"time":2,"i_long":106.82482,"line":2,"station_id":"MGB","transit":false,"distance":906,"station_name":"Manggabesar","is_transit":false,"i_lat":-6.149769},{"station_name":"Jayakarta","i_lat":-6.141205,"i_long":106.820901,"station_id":"JAY","distance":1080,"line":2,"transit":false,"time":2,"is_transit":false},{"transit":true,"station_id":"JAKK","i_lat":-6.137569,"line":2,"station_name":"Jakarta Kota","time":4,"i_long":106.812439,"distance":1264,"is_transit":true},{"station_name":"Kampung Bandan","is_transit":true,"line":4,"i_lat":-6.132549,"time":3,"distance":1364,"i_long":106.826365,"transit":true,"station_id":"KPB"},{"distance":4102,"i_long":106.79867,"transit":false,"station_name":"Angke","station_id":"AK","i_lat":-6.144674,"time":9,"is_transit":false,"line":1},{"is_transit":false,"i_lat":-6.155215,"distance":1230,"i_long":106.800832,"line":1,"time":4,"transit":false,"station_name":"Duri","station_id":"DU"},{"is_transit":true,"transit":true,"line":1,"station_id":"THB","station_name":"Tanah Abang","time":8,"i_lat":-6.185545,"i_long":106.811091,"distance":3632},{"i_lat":-6.207404,"is_transit":false,"transit":false,"station_id":"PLM","time":6,"i_long":106.79689,"station_name":"Palmerah","line":6,"distance":3191},{"line":6,"i_long":106.780334,"station_name":"Kebayoran","station_id":"KBY","is_transit":false,"i_lat":-6.237242,"transit":false,"time":7,"distance":3737},{"i_lat":-6.276362,"station_name":"Pondokranji","station_id":"PDJ","time":8,"is_transit":false,"distance":6218,"i_long":106.74273,"transit":false,"line":6},{"station_id":"JMU","time":3,"station_name":"Jurangmangu","distance":2179,"i_long":106.728916,"is_transit":false,"line":6,"transit":false,"i_lat":-6.288927},{"i_lat":-6.296963,"station_name":"Sudimara","station_id":"SDM","time":4,"transit":false,"i_long":106.712277,"line":6,"is_transit":false,"distance":1994},{"station_name":"Rawa Buntu","station_id":"RU","i_long":106.675475,"distance":4566,"line":6,"i_lat":-6.314823,"time":6,"is_transit":false,"transit":false},{"i_long":106.66566,"transit":false,"distance":2413,"station_id":"SRP","station_name":"Serpong","line":6,"is_transit":false,"time":4,"i_lat":-6.319871}],[{"station_name":"Univ. Pancasila","is_transit":false,"distance":0,"station_id":"UP","i_long":106.834175,"line":2,"i_lat":-6.339291,"transit":false,"time":0},{"station_name":"Lenteng Agung","is_transit":false,"i_long":106.832616,"station_id":"LNA","i_lat":-6.330363,"line":2,"transit":false,"time":2,"distance":1029},{"is_transit":false,"station_id":"TNT","line":2,"station_name":"Tanjung Barat","transit":false,"time":3,"i_lat":-6.3080680000000005,"distance":2671,"i_long":106.838896},{"station_name":"Pasar Minggu","i_lat":-6.2842400000000005,"station_id":"PSM","transit":false,"time":4,"line":2,"is_transit":false,"distance":2820,"i_long":106.843999},{"transit":false,"i_long":106.851577,"station_name":"Pasar Minggu Baru","time":2,"line":2,"station_id":"PSMB","distance":2380,"is_transit":false,"i_lat":-6.263214},{"time":2,"station_name":"Duren Kalibata","distance":824,"line":2,"is_transit":false,"transit":false,"station_id":"DRN","i_lat":-6.255332,"i_long":106.85449},{"transit":false,"station_id":"CW","station_name":"Cawang","distance":1546,"i_lat":-6.242512,"i_long":106.856607,"line":2,"is_transit":false,"time":3},{"is_transit":false,"time":2,"station_name":"Tebet","transit":false,"i_long":106.857948,"distance":1230,"line":2,"i_lat":-6.226659,"station_id":"TEB"},{"time":4,"i_lat":-6.209883,"station_id":"MRI","i_long":106.84912,"station_name":"Manggarai","distance":2610,"line":2,"transit":true,"is_transit":true},{"time":2,"distance":1275,"line":1,"transit":false,"station_id":"MTR","i_lat":-6.212485,"is_transit":false,"station_name":"Matraman","i_long":106.858896},{"transit":true,"station_name":"Jatinegara","time":8,"i_lat":-6.215091,"i_long":106.86807400000001,"is_transit":true,"distance":1377,"station_id":"JNG","line":1},{"is_transit":false,"transit":false,"i_long":106.861737,"station_name":"Pondok Jati","station_id":"POK","distance":1236,"time":2,"i_lat":-6.209188,"line":11},{"is_transit":false,"station_name":"Kramat","time":2,"distance":1829,"transit":false,"station_id":"KMT","i_long":106.855437,"i_lat":-6.193792,"line":11},{"station_id":"GST","distance":973,"transit":false,"is_transit":false,"station_name":"Gang Sentiong","time":1,"i_lat":-6.185975,"i_long":106.850107,"line":11},{"transit":false,"station_id":"PSE","time":8,"i_long":106.84368,"line":11,"is_transit":false,"station_name":"Pasar Senen","distance":1567,"i_lat":-6.174784},{"i_lat":-6.161728,"is_transit":false,"time":4,"station_name":"Kemayoran","distance":1436,"i_long":106.839204,"transit":false,"station_id":"KMO","line":11},{"station_id":"RJW","time":5,"i_long":106.836569,"station_name":"Rajawali","distance":1901,"line":11,"is_transit":false,"transit":false,"i_lat":-6.14505},{"transit":true,"station_id":"KPB","i_lat":-6.132549,"line":4,"distance":1444,"i_long":106.826365,"is_transit":true,"time":3,"station_name":"Kampung Bandan"},{"station_name":"Angke","i_lat":-6.144674,"is_transit":false,"distance":4102,"line":1,"time":9,"i_long":106.79867,"transit":false,"station_id":"AK"},{"is_transit":false,"line":1,"transit":false,"station_name":"Duri","i_lat":-6.155215,"station_id":"DU","time":4,"distance":1230,"i_long":106.800832},{"station_id":"THB","i_lat":-6.185545,"is_transit":true,"distance":3632,"station_name":"Tanah Abang","time":8,"line":1,"i_long":106.811091,"transit":true},{"time":6,"i_lat":-6.207404,"line":6,"is_transit":false,"station_name":"Palmerah","transit":false,"i_long":106.79689,"distance":3191,"station_id":"PLM"},{"line":6,"station_name":"Kebayoran","i_lat":-6.237242,"time":7,"station_id":"KBY","distance":3737,"transit":false,"is_transit":false,"i_long":106.780334},{"i_lat":-6.276362,"distance":6218,"station_id":"PDJ","line":6,"i_long":106.74273,"station_name":"Pondokranji","is_transit":false,"transit":false,"time":8},{"distance":2179,"time":3,"i_lat":-6.288927,"line":6,"is_transit":false,"station_id":"JMU","station_name":"Jurangmangu","i_long":106.728916,"transit":false},{"is_transit":false,"station_id":"SDM","distance":1994,"i_lat":-6.296963,"station_name":"Sudimara","i_long":106.712277,"transit":false,"time":4,"line":6},{"station_name":"Rawa Buntu","time":6,"distance":4566,"is_transit":false,"i_long":106.675475,"i_lat":-6.314823,"line":6,"transit":false,"station_id":"RU"},{"time":4,"transit":false,"is_transit":false,"station_name":"Serpong","line":6,"i_long":106.66566,"distance":2413,"station_id":"SRP","i_lat":-6.319871}]]}