{"data":[[{"i_lat":-6.339291,"distance":0,"station_name":"Univ. Pancasila","is_transit":false,"time":0,"transit":false,"station_id":"UP","line":2,"i_long":106.834175},{"station_id":"LNA","line":2,"time":2,"i_lat":-6.330363,"i_long":106.832616,"distance":1029,"station_name":"Lenteng Agung","is_transit":false,"transit":false},{"is_transit":false,"time":3,"distance":2671,"station_name":"Tanjung Barat","i_lat":-6.3080680000000005,"line":2,"transit":false,"i_long":106.838896,"station_id":"TNT"},{"station_name":"Pasar Minggu","transit":false,"station_id":"PSM","line":2,"i_lat":-6.2842400000000005,"time":4,"is_transit":false,"i_long":106.843999,"distance":2820},{"time":2,"line":2,"station_name":"Pasar Minggu Baru","station_id":"PSMB","transit":false,"i_lat":-6.263214,"is_transit":false,"distance":2380,"i_long":106.851577},{"is_transit":false,"distance":824,"station_id":"DRN","station_name":"Duren Kalibata","i_lat":-6.255332,"i_long":106.85449,"transit":false,"line":2,"time":2},{"distance":1546,"line":2,"station_id":"CW","station_name":"Cawang","time":3,"is_transit":false,"i_long":106.856607,"i_lat":-6.242512,"transit":false},{"station_name":"Tebet","transit":false,"i_lat":-6.226659,"line":2,"is_transit":false,"i_long":106.857948,"time":2,"station_id":"TEB","distance":1230},{"transit":true,"i_lat":-6.209883,"distance":2610,"station_id":"MRI","time":4,"i_long":106.84912,"is_transit":true,"line":2,"station_name":"Manggarai"},{"transit":false,"i_lat":-6.202263,"is_transit":false,"distance":3186,"line":1,"station_name":"Sudirman","time":4,"station_id":"SUD","i_long":106.822649},{"station_id":"SUDB","i_lat":-6.201433,"station_name":"Sudirman Baru","time":1,"line":1,"is_transit":false,"distance":280,"transit":false,"i_long":106.819881},{"transit":false,"distance":471,"i_lat":-6.20132,"is_transit":false,"i_long":106.816351,"station_id":"KAT","station_name":"Karet","time":1,"line":1},{"distance":2029,"station_name":"Tanah Abang","time":5,"i_long":106.811091,"line":1,"is_transit":true,"transit":true,"i_lat":-6.185545,"station_id":"THB"},{"station_id":"PLM","is_transit":false,"line":6,"distance":3191,"i_lat":-6.207404,"transit":false,"time":6,"i_long":106.79689,"station_name":"Palmerah"},{"distance":3737,"time":7,"transit":false,"station_id":"KBY","is_transit":false,"station_name":"Kebayoran","i_long":106.780334,"line":6,"i_lat":-6.237242},{"time":8,"is_transit":false,"line":6,"station_name":"Pondokranji","station_id":"PDJ","distance":6218,"i_lat":-6.276362,"transit":false,"i_long":106.74273},{"i_long":106.728916,"line":6,"i_lat":-6.288927,"is_transit":false,"transit":false,"time":3,"distance":2179,"station_name":"Jurangmangu","station_id":"JMU"},{"line":6,"transit":false,"station_name":"Sudimara","distance":1994,"i_lat":-6.296963,"is_transit":false,"station_id":"SDM","i_long":106.712277,"time":4}],[{"station_id":"UP","is_transit":false,"distance":0,"time":0,"transit":false,"i_lat":-6.339291,"station_name":"Univ. Pancasila","i_long":106.834175,"line":2},{"distance":1029,"i_lat":-6.330363,"transit":false,"station_name":"Lenteng Agung","line":2,"station_id":"LNA","i_long":106.832616,"is_transit":false,"time":2},{"time":3,"distance":2671,"station_name":"Tanjung Barat","station_id":"TNT","i_lat":-6.3080680000000005,"line":2,"i_long":106.838896,"is_transit":false,"transit":false},{"station_id":"PSM","station_name":"Pasar Minggu","is_transit":false,"time":4,"distance":2820,"i_long":106.843999,"i_lat":-6.2842400000000005,"transit":false,"line":2},{"line":2,"time":2,"i_lat":-6.263214,"distance":2380,"station_name":"Pasar Minggu Baru","transit":false,"is_transit":false,"station_id":"PSMB","i_long":106.851577},{"is_transit":false,"i_lat":-6.255332,"i_long":106.85449,"time":2,"transit":false,"line":2,"distance":824,"station_id":"DRN","station_name":"Duren Kalibata"},{"station_name":"Cawang","station_id":"CW","time":3,"i_lat":-6.242512,"is_transit":false,"i_long":106.856607,"line":2,"distance":1546,"transit":false},{"transit":false,"is_transit":false,"i_long":106.857948,"line":2,"station_name":"Tebet","time":2,"station_id":"TEB","distance":1230,"i_lat":-6.226659},{"station_name":"Manggarai","is_transit":false,"distance":2610,"station_id":"MRI","line":2,"time":4,"i_lat":-6.209883,"i_long":106.84912,"transit":false},{"transit":false,"station_name":"Cikini","i_lat":-6.198556,"i_long":106.840169,"distance":1590,"is_transit":false,"station_id":"CKI","line":2,"time":4},{"i_long":106.832183,"transit":false,"time":3,"is_transit":false,"station_name":"Gondangdia","i_lat":-6.186295,"distance":1750,"line":2,"station_id":"GDD"},{"is_transit":false,"station_id":"JUA","time":4,"i_lat":-6.166716,"distance":2015,"transit":false,"station_name":"Juanda","i_long":106.828284,"line":2},{"i_lat":-6.160725,"time":2,"line":2,"i_long":106.827103,"station_name":"Sawah Besar","station_id":"SW","transit":false,"is_transit":false,"distance":1149},{"station_name":"Manggabesar","station_id":"MGB","i_lat":-6.149769,"time":2,"distance":906,"i_long":106.82482,"transit":false,"is_transit":false,"line":2},{"transit":false,"line":2,"time":2,"distance":1080,"station_name":"Jayakarta","i_lat":-6.141205,"i_long":106.820901,"is_transit":false,"station_id":"JAY"},{"station_id":"JAKK","is_transit":true,"i_lat":-6.137569,"station_name":"Jakarta Kota","line":2,"distance":1264,"i_long":106.812439,"transit":true,"time":4},{"station_id":"KPB","station_name":"Kampung Bandan","transit":true,"i_long":106.826365,"is_transit":true,"time":3,"distance":1364,"i_lat":-6.132549,"line":4},{"line":1,"i_long":106.79867,"distance":4102,"is_transit":false,"transit":false,"station_id":"AK","time":9,"station_name":"Angke","i_lat":-6.144674},{"transit":false,"is_transit":false,"i_lat":-6.155215,"station_name":"Duri","distance":1230,"station_id":"DU","line":1,"time":4,"i_long":106.800832},{"station_name":"Tanah Abang","time":8,"line":1,"station_id":"THB","i_lat":-6.185545,"transit":true,"is_transit":true,"i_long":106.811091,"distance":3632},{"time":6,"distance":3191,"i_long":106.79689,"transit":false,"station_name":"Palmerah","i_lat":-6.207404,"station_id":"PLM","is_transit":false,"line":6},{"line":6,"transit":false,"station_id":"KBY","is_transit":false,"distance":3737,"i_lat":-6.237242,"i_long":106.780334,"station_name":"Kebayoran","time":7},{"i_long":106.74273,"station_id":"PDJ","station_name":"Pondokranji","is_transit":false,"time":8,"transit":false,"distance":6218,"i_lat":-6.276362,"line":6},{"i_long":106.728916,"station_id":"JMU","time":3,"is_transit":false,"station_name":"Jurangmangu","i_lat":-6.288927,"distance":2179,"line":6,"transit":false},{"i_lat":-6.296963,"i_long":106.712277,"line":6,"station_name":"Sudimara","time":4,"station_id":"SDM","distance":1994,"transit":false,"is_transit":false}],[{"station_name":"Univ. Pancasila","line":2,"i_long":106.834175,"i_lat":-6.339291,"station_id":"UP","transit":false,"time":0,"distance":0,"is_transit":false},{"distance":1029,"station_id":"LNA","transit":false,"i_long":106.832616,"station_name":"Lenteng Agung","time":2,"line":2,"is_transit":false,"i_lat":-6.330363},{"station_id":"TNT","station_name":"Tanjung Barat","distance":2671,"time":3,"i_long":106.838896,"transit":false,"i_lat":-6.3080680000000005,"line":2,"is_transit":false},{"time":4,"i_lat":-6.2842400000000005,"transit":false,"station_name":"Pasar Minggu","is_transit":false,"line":2,"i_long":106.843999,"station_id":"PSM","distance":2820},{"station_id":"PSMB","distance":2380,"i_long":106.851577,"is_transit":false,"i_lat":-6.263214,"station_name":"Pasar Minggu Baru","line":2,"time":2,"transit":false},{"transit":false,"station_name":"Duren Kalibata","is_transit":false,"distance":824,"station_id":"DRN","time":2,"i_lat":-6.255332,"line":2,"i_long":106.85449},{"transit":false,"line":2,"station_id":"CW","is_transit":false,"station_name":"Cawang","i_lat":-6.242512,"time":3,"i_long":106.856607,"distance":1546},{"is_transit":false,"station_id":"TEB","station_name":"Tebet","time":2,"distance":1230,"i_lat":-6.226659,"transit":false,"i_long":106.857948,"line":2},{"i_lat":-6.209883,"station_name":"Manggarai","station_id":"MRI","is_transit":true,"distance":2610,"i_long":106.84912,"line":2,"time":4,"transit":true},{"i_long":106.858896,"line":1,"transit":false,"i_lat":-6.212485,"distance":1275,"is_transit":false,"station_id":"MTR","station_name":"Matraman","time":2},{"distance":1377,"station_id":"JNG","station_name":"Jatinegara","time":8,"line":1,"transit":true,"is_transit":true,"i_lat":-6.215091,"i_long":106.86807400000001},{"station_id":"POK","is_transit":false,"station_name":"Pondok Jati","line":11,"i_lat":-6.209188,"i_long":106.861737,"transit":false,"distance":1236,"time":2},{"station_name":"Kramat","station_id":"KMT","distance":1829,"transit":false,"line":11,"time":2,"i_long":106.855437,"is_transit":false,"i_lat":-6.193792},{"time":1,"i_lat":-6.185975,"station_id":"GST","is_transit":false,"transit":false,"station_name":"Gang Sentiong","distance":973,"line":11,"i_long":106.850107},{"is_transit":false,"time":8,"station_id":"PSE","line":11,"i_lat":-6.174784,"station_name":"Pasar Senen","transit":false,"distance":1567,"i_long":106.84368},{"station_id":"KMO","is_transit":false,"distance":1436,"i_long":106.839204,"time":4,"i_lat":-6.161728,"station_name":"Kemayoran","line":11,"transit":false},{"distance":1901,"transit":false,"i_lat":-6.14505,"station_name":"Rajawali","i_long":106.836569,"station_id":"RJW","line":11,"time":5,"is_transit":false},{"distance":1444,"time":3,"station_name":"Kampung Bandan","station_id":"KPB","i_lat":-6.132549,"transit":true,"i_long":106.826365,"is_transit":true,"line":4},{"distance":4102,"line":1,"time":9,"i_long":106.79867,"is_transit":false,"station_id":"AK","station_name":"Angke","transit":false,"i_lat":-6.144674},{"distance":1230,"line":1,"time":4,"transit":false,"station_name":"Duri","is_transit":false,"i_lat":-6.155215,"i_long":106.800832,"station_id":"DU"},{"transit":true,"distance":3632,"line":1,"i_long":106.811091,"station_name":"Tanah Abang","time":8,"station_id":"THB","i_lat":-6.185545,"is_transit":true},{"i_lat":-6.207404,"line":6,"i_long":106.79689,"is_transit":false,"distance":3191,"station_name":"Palmerah","station_id":"PLM","transit":false,"time":6},{"distance":3737,"station_name":"Kebayoran","line":6,"station_id":"KBY","i_lat":-6.237242,"i_long":106.780334,"is_transit":false,"transit":false,"time":7},{"time":8,"transit":false,"is_transit":false,"i_long":106.74273,"distance":6218,"station_name":"Pondokranji","station_id":"PDJ","i_lat":-6.276362,"line":6},{"line":6,"station_name":"Jurangmangu","time":3,"is_transit":false,"station_id":"JMU","transit":false,"distance":2179,"i_lat":-6.288927,"i_long":106.728916},{"i_lat":-6.296963,"station_id":"SDM","time":4,"i_long":106.712277,"distance":1994,"is_transit":false,"line":6,"station_name":"Sudimara","transit":false}]]}