{"data":[[{"station_id":"UP","is_transit":false,"distance":0,"transit":false,"time":0,"i_lat":-6.339291,"station_name":"Univ. Pancasila","i_long":106.834175,"line":2},{"distance":1029,"station_name":"Lenteng Agung","line":2,"transit":false,"time":2,"is_transit":false,"i_lat":-6.330363,"station_id":"LNA","i_long":106.832616},{"station_name":"Tanjung Barat","i_lat":-6.3080680000000005,"i_long":106.838896,"station_id":"TNT","time":3,"transit":false,"line":2,"is_transit":false,"distance":2671},{"i_long":106.843999,"line":2,"station_id":"PSM","transit":false,"distance":2820,"time":4,"is_transit":false,"i_lat":-6.2842400000000005,"station_name":"Pasar Minggu"},{"line":2,"time":2,"i_lat":-6.263214,"station_id":"PSMB","distance":2380,"transit":false,"station_name":"Pasar Minggu Baru","i_long":106.851577,"is_transit":false},{"i_lat":-6.255332,"station_name":"Duren Kalibata","is_transit":false,"line":2,"transit":false,"i_long":106.85449,"distance":824,"station_id":"DRN","time":2},{"station_name":"Cawang","is_transit":false,"transit":false,"line":2,"distance":1546,"i_lat":-6.242512,"i_long":106.856607,"station_id":"CW","time":3},{"i_lat":-6.226659,"distance":1230,"i_long":106.857948,"station_name":"Tebet","line":2,"transit":false,"time":2,"is_transit":false,"station_id":"TEB"},{"time":4,"station_id":"MRI","i_lat":-6.209883,"i_long":106.84912,"is_transit":true,"line":2,"distance":2610,"station_name":"Manggarai","transit":true},{"time":4,"station_id":"SUD","station_name":"Sudirman","i_lat":-6.202263,"is_transit":false,"line":1,"distance":3186,"transit":false,"i_long":106.822649},{"distance":280,"i_long":106.819881,"station_name":"Sudirman Baru","is_transit":false,"time":1,"line":1,"i_lat":-6.201433,"transit":false,"station_id":"SUDB"},{"time":1,"i_long":106.816351,"station_name":"Karet","station_id":"KAT","is_transit":false,"distance":471,"line":1,"transit":false,"i_lat":-6.20132},{"distance":2029,"is_transit":true,"time":5,"station_id":"THB","station_name":"Tanah Abang","i_long":106.811091,"transit":true,"i_lat":-6.185545,"line":1},{"is_transit":false,"time":6,"i_lat":-6.207404,"distance":3191,"line":6,"station_id":"PLM","transit":false,"station_name":"Palmerah","i_long":106.79689},{"distance":3737,"station_id":"KBY","i_lat":-6.237242,"transit":false,"i_long":106.780334,"is_transit":false,"line":6,"station_name":"Kebayoran","time":7},{"time":8,"i_lat":-6.276362,"line":6,"is_transit":false,"station_id":"PDJ","i_long":106.74273,"distance":6218,"transit":false,"station_name":"Pondokranji"},{"station_id":"JMU","line":6,"i_long":106.728916,"transit":false,"time":3,"i_lat":-6.288927,"distance":2179,"is_transit":false,"station_name":"Jurangmangu"},{"distance":1994,"is_transit":false,"station_id":"SDM","transit":false,"i_lat":-6.296963,"i_long":106.712277,"time":4,"station_name":"Sudimara","line":6},{"transit":false,"station_id":"RU","i_lat":-6.314823,"is_transit":false,"line":6,"time":6,"i_long":106.675475,"distance":4566,"station_name":"Rawa Buntu"},{"time":4,"i_long":106.66566,"station_name":"Serpong","station_id":"SRP","i_lat":-6.319871,"line":6,"distance":2413,"is_transit":false,"transit":false}],[{"line":2,"i_lat":-6.339291,"station_id":"UP","distance":0,"station_name":"Univ. Pancasila","i_long":106.834175,"is_transit":false,"transit":false,"time":0},{"station_name":"Lenteng Agung","time":2,"transit":false,"line":2,"distance":1029,"station_id":"LNA","i_lat":-6.330363,"is_transit":false,"i_long":106.832616},{"time":3,"station_id":"TNT","station_name":"Tanjung Barat","distance":2671,"is_transit":false,"i_long":106.838896,"i_lat":-6.3080680000000005,"line":2,"transit":false},{"distance":2820,"time":4,"line":2,"station_id":"PSM","transit":false,"station_name":"Pasar Minggu","is_transit":false,"i_lat":-6.2842400000000005,"i_long":106.843999},{"transit":false,"time":2,"distance":2380,"is_transit":false,"station_id":"PSMB","station_name":"Pasar Minggu Baru","i_lat":-6.263214,"line":2,"i_long":106.851577},{"transit":false,"distance":824,"is_transit":false,"line":2,"station_id":"DRN","station_name":"Duren Kalibata","i_lat":-6.255332,"i_long":106.85449,"time":2},{"is_transit":false,"time":3,"i_lat":-6.242512,"transit":false,"i_long":106.856607,"distance":1546,"line":2,"station_name":"Cawang","station_id":"CW"},{"is_transit":false,"i_long":106.857948,"i_lat":-6.226659,"distance":1230,"transit":false,"time":2,"station_id":"TEB","station_name":"Tebet","line":2},{"i_long":106.84912,"station_id":"MRI","line":2,"transit":false,"time":4,"i_lat":-6.209883,"station_name":"Manggarai","is_transit":false,"distance":2610},{"distance":1590,"transit":false,"line":2,"i_lat":-6.198556,"is_transit":false,"time":4,"station_name":"Cikini","i_long":106.840169,"station_id":"CKI"},{"station_id":"GDD","i_long":106.832183,"line":2,"distance":1750,"transit":false,"station_name":"Gondangdia","i_lat":-6.186295,"is_transit":false,"time":3},{"time":4,"is_transit":false,"transit":false,"station_name":"Juanda","line":2,"i_lat":-6.166716,"i_long":106.828284,"distance":2015,"station_id":"JUA"},{"distance":1149,"station_id":"SW","line":2,"i_long":106.827103,"time":2,"transit":false,"is_transit":false,"i_lat":-6.160725,"station_name":"Sawah Besar"},{"is_transit":false,"time":2,"i_lat":-6.149769,"station_id":"MGB","line":2,"station_name":"Manggabesar","distance":906,"transit":false,"i_long":106.82482},{"transit":false,"i_long":106.820901,"i_lat":-6.141205,"distance":1080,"line":2,"is_transit":false,"station_name":"Jayakarta","time":2,"station_id":"JAY"},{"i_lat":-6.137569,"transit":true,"station_name":"Jakarta Kota","line":2,"station_id":"JAKK","time":4,"i_long":106.812439,"distance":1264,"is_transit":true},{"transit":true,"i_long":106.826365,"station_id":"KPB","is_transit":true,"station_name":"Kampung Bandan","line":4,"distance":1364,"time":3,"i_lat":-6.132549},{"station_name":"Angke","time":9,"distance":4102,"line":1,"station_id":"AK","is_transit":false,"i_lat":-6.144674,"transit":false,"i_long":106.79867},{"distance":1230,"transit":false,"is_transit":false,"station_id":"DU","station_name":"Duri","time":4,"i_long":106.800832,"line":1,"i_lat":-6.155215},{"i_lat":-6.185545,"transit":true,"time":8,"i_long":106.811091,"station_id":"THB","distance":3632,"is_transit":true,"station_name":"Tanah Abang","line":1},{"is_transit":false,"i_lat":-6.207404,"distance":3191,"transit":false,"i_long":106.79689,"line":6,"time":6,"station_id":"PLM","station_name":"Palmerah"},{"distance":3737,"station_id":"KBY","time":7,"station_name":"Kebayoran","transit":false,"is_transit":false,"i_long":106.780334,"line":6,"i_lat":-6.237242},{"station_name":"Pondokranji","i_long":106.74273,"is_transit":false,"time":8,"line":6,"station_id":"PDJ","distance":6218,"transit":false,"i_lat":-6.276362},{"station_name":"Jurangmangu","distance":2179,"is_transit":false,"station_id":"JMU","transit":false,"i_lat":-6.288927,"i_long":106.728916,"time":3,"line":6},{"time":4,"station_id":"SDM","station_name":"Sudimara","transit":false,"i_long":106.712277,"line":6,"i_lat":-6.296963,"distance":1994,"is_transit":false},{"is_transit":false,"distance":4566,"i_lat":-6.314823,"station_name":"Rawa Buntu","time":6,"line":6,"i_long":106.675475,"station_id":"RU","transit":false},{"distance":2413,"time":4,"transit":false,"is_transit":false,"station_name":"Serpong","station_id":"SRP","line":6,"i_long":106.66566,"i_lat":-6.319871}],[{"is_transit":false,"i_lat":-6.339291,"time":0,"station_name":"Univ. Pancasila","i_long":106.834175,"station_id":"UP","line":2,"transit":false,"distance":0},{"transit":false,"station_name":"Lenteng Agung","i_lat":-6.330363,"line":2,"i_long":106.832616,"distance":1029,"station_id":"LNA","is_transit":false,"time":2},{"transit":false,"line":2,"time":3,"station_name":"Tanjung Barat","i_lat":-6.3080680000000005,"i_long":106.838896,"distance":2671,"is_transit":false,"station_id":"TNT"},{"station_id":"PSM","distance":2820,"time":4,"transit":false,"station_name":"Pasar Minggu","i_long":106.843999,"is_transit":false,"i_lat":-6.2842400000000005,"line":2},{"station_name":"Pasar Minggu Baru","i_lat":-6.263214,"distance":2380,"station_id":"PSMB","is_transit":false,"time":2,"transit":false,"i_long":106.851577,"line":2},{"is_transit":false,"i_lat":-6.255332,"line":2,"time":2,"i_long":106.85449,"transit":false,"distance":824,"station_id":"DRN","station_name":"Duren Kalibata"},{"i_lat":-6.242512,"distance":1546,"station_id":"CW","is_transit":false,"i_long":106.856607,"line":2,"station_name":"Cawang","transit":false,"time":3},{"i_long":106.857948,"time":2,"line":2,"station_id":"TEB","is_transit":false,"distance":1230,"station_name":"Tebet","transit":false,"i_lat":-6.226659},{"line":2,"station_name":"Manggarai","transit":true,"distance":2610,"time":4,"is_transit":true,"i_long":106.84912,"station_id":"MRI","i_lat":-6.209883},{"station_id":"MTR","transit":false,"line":1,"distance":1275,"is_transit":false,"i_lat":-6.212485,"i_long":106.858896,"time":2,"station_name":"Matraman"},{"i_long":106.86807400000001,"line":1,"transit":true,"i_lat":-6.215091,"is_transit":true,"station_name":"Jatinegara","distance":1377,"time":8,"station_id":"JNG"},{"station_id":"POK","transit":false,"station_name":"Pondok Jati","time":2,"line":11,"i_lat":-6.209188,"is_transit":false,"i_long":106.861737,"distance":1236},{"line":11,"i_lat":-6.193792,"station_id":"KMT","is_transit":false,"time":2,"station_name":"Kramat","i_long":106.855437,"distance":1829,"transit":false},{"distance":973,"station_id":"GST","time":1,"i_long":106.850107,"is_transit":false,"i_lat":-6.185975,"transit":false,"line":11,"station_name":"Gang Sentiong"},{"station_id":"PSE","transit":false,"i_long":106.84368,"station_name":"Pasar Senen","is_transit":false,"time":8,"line":11,"i_lat":-6.174784,"distance":1567},{"station_id":"KMO","distance":1436,"time":4,"line":11,"station_name":"Kemayoran","i_long":106.839204,"is_transit":false,"transit":false,"i_lat":-6.161728},{"station_id":"RJW","distance":1901,"is_transit":false,"transit":false,"line":11,"time":5,"station_name":"Rajawali","i_long":106.836569,"i_lat":-6.14505},{"transit":true,"i_lat":-6.132549,"is_transit":true,"distance":1444,"time":3,"station_id":"KPB","station_name":"Kampung Bandan","line":4,"i_long":106.826365},{"station_id":"AK","is_transit":false,"time":9,"transit":false,"distance":4102,"station_name":"Angke","i_long":106.79867,"i_lat":-6.144674,"line":1},{"i_lat":-6.155215,"station_name":"Duri","distance":1230,"transit":false,"is_transit":false,"i_long":106.800832,"station_id":"DU","time":4,"line":1},{"transit":true,"station_name":"Tanah Abang","i_long":106.811091,"line":1,"is_transit":true,"distance":3632,"i_lat":-6.185545,"station_id":"THB","time":8},{"i_lat":-6.207404,"station_name":"Palmerah","transit":false,"station_id":"PLM","time":6,"line":6,"distance":3191,"is_transit":false,"i_long":106.79689},{"is_transit":false,"time":7,"i_long":106.780334,"station_id":"KBY","i_lat":-6.237242,"line":6,"distance":3737,"station_name":"Kebayoran","transit":false},{"transit":false,"station_id":"PDJ","station_name":"Pondokranji","is_transit":false,"time":8,"distance":6218,"i_long":106.74273,"i_lat":-6.276362,"line":6},{"station_name":"Jurangmangu","transit":false,"time":3,"i_lat":-6.288927,"i_long":106.728916,"line":6,"distance":2179,"is_transit":false,"station_id":"JMU"},{"i_long":106.712277,"line":6,"transit":false,"is_transit":false,"distance":1994,"time":4,"station_id":"SDM","station_name":"Sudimara","i_lat":-6.296963},{"transit":false,"line":6,"i_lat":-6.314823,"distance":4566,"is_transit":false,"station_name":"Rawa Buntu","i_long":106.675475,"time":6,"station_id":"RU"},{"transit":false,"time":4,"station_id":"SRP","i_long":106.66566,"distance":2413,"station_name":"Serpong","is_transit":false,"line":6,"i_lat":-6.319871}]]}