{"data":[[{"transit":false,"time":0,"line":2,"distance":0,"i_lat":-6.339291,"i_long":106.834175,"is_transit":false,"station_name":"Univ. Pancasila","station_id":"UP"},{"distance":1029,"is_transit":false,"station_name":"Lenteng Agung","i_long":106.832616,"time":2,"station_id":"LNA","i_lat":-6.330363,"line":2,"transit":false},{"line":2,"station_name":"Tanjung Barat","distance":2671,"transit":false,"i_long":106.838896,"station_id":"TNT","time":3,"i_lat":-6.3080680000000005,"is_transit":false},{"is_transit":false,"distance":2820,"time":4,"station_id":"PSM","i_long":106.843999,"station_name":"Pasar Minggu","line":2,"i_lat":-6.2842400000000005,"transit":false},{"transit":false,"distance":2380,"station_id":"PSMB","i_long":106.851577,"line":2,"i_lat":-6.263214,"station_name":"Pasar Minggu Baru","time":2,"is_transit":false},{"is_transit":false,"distance":824,"station_name":"Duren Kalibata","transit":false,"i_lat":-6.255332,"station_id":"DRN","line":0,"time":2,"i_long":106.85449},{"station_id":"CW","transit":false,"line":0,"distance":1546,"i_lat":-6.242512,"is_transit":false,"station_name":"Cawang","time":3,"i_long":106.856607},{"distance":1230,"transit":false,"station_id":"TEB","is_transit":false,"i_long":106.857948,"i_lat":-6.226659,"line":2,"time":2,"station_name":"Tebet"},{"is_transit":true,"transit":true,"station_name":"Manggarai","i_long":106.84912,"distance":2610,"station_id":"MRI","i_lat":-6.209883,"time":4,"line":0},{"station_name":"Sudirman","distance":3186,"time":4,"transit":false,"station_id":"SUD","is_transit":false,"i_long":106.822649,"i_lat":-6.202263,"line":1},{"is_transit":false,"transit":false,"station_id":"SUDB","i_lat":-6.201433,"station_name":"Sudirman Baru","line":1,"time":1,"i_long":106.819881,"distance":280},{"i_long":106.816351,"is_transit":false,"time":1,"line":1,"station_name":"Karet","transit":false,"distance":471,"station_id":"KAT","i_lat":-6.20132},{"station_id":"THB","i_long":106.811091,"time":5,"line":1,"i_lat":-6.185545,"is_transit":true,"transit":true,"distance":2029,"station_name":"Tanah Abang"},{"is_transit":false,"station_id":"PLM","station_name":"Palmerah","i_long":106.79689,"line":6,"i_lat":-6.207404,"time":6,"distance":3191,"transit":false},{"is_transit":false,"i_lat":-6.237242,"station_name":"Kebayoran","time":7,"transit":false,"i_long":106.780334,"distance":3737,"station_id":"KBY","line":6},{"distance":6218,"line":6,"time":8,"transit":false,"i_long":106.74273,"i_lat":-6.276362,"is_transit":false,"station_name":"Pondokranji","station_id":"PDJ"},{"station_name":"Jurangmangu","station_id":"JMU","time":3,"transit":false,"distance":2179,"i_lat":-6.288927,"i_long":106.728916,"is_transit":false,"line":6},{"i_long":106.712277,"station_id":"SDM","is_transit":false,"distance":1994,"station_name":"Sudimara","i_lat":-6.296963,"line":6,"time":4,"transit":false},{"station_name":"Rawa Buntu","is_transit":false,"distance":4566,"transit":false,"i_long":106.675475,"i_lat":-6.314823,"time":6,"station_id":"RU","line":6},{"time":4,"station_name":"Serpong","distance":2413,"is_transit":false,"transit":false,"station_id":"SRP","line":6,"i_lat":-6.319871,"i_long":106.66566}],[{"distance":0,"is_transit":false,"line":2,"station_id":"UP","i_lat":-6.339291,"time":0,"i_long":106.834175,"station_name":"Univ. Pancasila","transit":false},{"transit":false,"i_lat":-6.330363,"i_long":106.832616,"station_id":"LNA","is_transit":false,"station_name":"Lenteng Agung","distance":1029,"line":2,"time":2},{"station_name":"Tanjung Barat","time":3,"line":2,"transit":false,"i_lat":-6.3080680000000005,"station_id":"TNT","is_transit":false,"distance":2671,"i_long":106.838896},{"line":2,"time":4,"distance":2820,"transit":false,"i_lat":-6.2842400000000005,"i_long":106.843999,"station_id":"PSM","station_name":"Pasar Minggu","is_transit":false},{"distance":2380,"i_long":106.851577,"station_name":"Pasar Minggu Baru","station_id":"PSMB","line":2,"is_transit":false,"transit":false,"time":2,"i_lat":-6.263214},{"transit":false,"station_name":"Duren Kalibata","station_id":"DRN","i_lat":-6.255332,"i_long":106.85449,"distance":824,"line":0,"time":2,"is_transit":false},{"station_id":"CW","transit":false,"is_transit":false,"line":0,"i_long":106.856607,"station_name":"Cawang","i_lat":-6.242512,"time":3,"distance":1546},{"transit":false,"station_id":"TEB","i_long":106.857948,"line":2,"i_lat":-6.226659,"distance":1230,"station_name":"Tebet","is_transit":false,"time":2},{"station_id":"MRI","i_lat":-6.209883,"i_long":106.84912,"line":0,"is_transit":true,"distance":2610,"station_name":"Manggarai","transit":true,"time":4},{"distance":1590,"i_long":106.840169,"is_transit":false,"line":0,"station_name":"Cikini","transit":false,"station_id":"CKI","time":4,"i_lat":-6.198556},{"time":3,"station_id":"GDD","line":2,"is_transit":false,"distance":1750,"transit":false,"i_lat":-6.186295,"i_long":106.832183,"station_name":"Gondangdia"},{"is_transit":false,"time":4,"i_long":106.828284,"i_lat":-6.166716,"station_name":"Juanda","station_id":"JUA","line":2,"distance":2015,"transit":false},{"is_transit":false,"i_lat":-6.160725,"time":2,"i_long":106.827103,"station_id":"SW","station_name":"Sawah Besar","line":2,"transit":false,"distance":1149},{"i_long":106.82482,"is_transit":false,"transit":false,"station_name":"Manggabesar","i_lat":-6.149769,"line":2,"time":2,"distance":906,"station_id":"MGB"},{"i_long":106.820901,"distance":1080,"i_lat":-6.141205,"transit":false,"station_name":"Jayakarta","is_transit":false,"line":7,"time":2,"station_id":"JAY"},{"i_long":106.812439,"time":4,"is_transit":true,"station_name":"Jakarta Kota","transit":true,"distance":1264,"station_id":"JAKK","i_lat":-6.137569,"line":0},{"distance":1364,"is_transit":true,"station_name":"Kampung Bandan","i_lat":-6.132549,"i_long":106.826365,"time":3,"transit":false,"station_id":"KPB","line":0},{"is_transit":false,"transit":false,"line":0,"distance":4102,"time":9,"i_long":106.79867,"station_name":"Angke","station_id":"AK","i_lat":-6.144674},{"i_long":106.800832,"transit":true,"time":4,"i_lat":-6.155215,"is_transit":true,"distance":1230,"line":1,"station_name":"Duri","station_id":"DU"},{"line":1,"i_long":106.811091,"i_lat":-6.185545,"transit":true,"station_id":"THB","station_name":"Tanah Abang","time":8,"is_transit":true,"distance":3632},{"station_id":"PLM","i_lat":-6.207404,"time":6,"transit":false,"station_name":"Palmerah","distance":3191,"is_transit":false,"i_long":106.79689,"line":6},{"time":7,"transit":false,"station_id":"KBY","i_lat":-6.237242,"line":6,"station_name":"Kebayoran","distance":3737,"i_long":106.780334,"is_transit":false},{"transit":false,"is_transit":false,"line":6,"i_lat":-6.276362,"station_id":"PDJ","time":8,"distance":6218,"i_long":106.74273,"station_name":"Pondokranji"},{"station_name":"Jurangmangu","distance":2179,"i_long":106.728916,"time":3,"transit":false,"station_id":"JMU","i_lat":-6.288927,"is_transit":false,"line":6},{"i_long":106.712277,"distance":1994,"i_lat":-6.296963,"station_id":"SDM","is_transit":false,"station_name":"Sudimara","time":4,"line":6,"transit":false},{"station_name":"Rawa Buntu","line":6,"distance":4566,"time":6,"is_transit":false,"transit":false,"i_long":106.675475,"i_lat":-6.314823,"station_id":"RU"},{"distance":2413,"station_name":"Serpong","time":4,"i_lat":-6.319871,"station_id":"SRP","i_long":106.66566,"transit":false,"is_transit":false,"line":6}],[{"station_name":"Univ. Pancasila","distance":0,"station_id":"UP","is_transit":false,"line":2,"transit":false,"time":0,"i_lat":-6.339291,"i_long":106.834175},{"is_transit":false,"time":2,"i_lat":-6.330363,"station_id":"LNA","i_long":106.832616,"distance":1029,"transit":false,"station_name":"Lenteng Agung","line":2},{"time":3,"station_id":"TNT","line":2,"i_long":106.838896,"transit":false,"is_transit":false,"station_name":"Tanjung Barat","i_lat":-6.3080680000000005,"distance":2671},{"station_name":"Pasar Minggu","i_lat":-6.2842400000000005,"distance":2820,"i_long":106.843999,"line":2,"time":4,"station_id":"PSM","is_transit":false,"transit":false},{"station_id":"PSMB","time":2,"transit":false,"i_long":106.851577,"is_transit":false,"i_lat":-6.263214,"station_name":"Pasar Minggu Baru","distance":2380,"line":2},{"distance":824,"station_id":"DRN","time":2,"transit":false,"i_long":106.85449,"station_name":"Duren Kalibata","is_transit":false,"i_lat":-6.255332,"line":0},{"i_lat":-6.242512,"station_name":"Cawang","transit":false,"line":0,"is_transit":false,"time":3,"station_id":"CW","distance":1546,"i_long":106.856607},{"station_name":"Tebet","distance":1230,"line":2,"transit":false,"is_transit":false,"time":2,"station_id":"TEB","i_lat":-6.226659,"i_long":106.857948},{"station_name":"Manggarai","distance":2610,"transit":true,"i_lat":-6.209883,"time":4,"i_long":106.84912,"line":0,"station_id":"MRI","is_transit":true},{"distance":1275,"time":2,"station_id":"MTR","station_name":"Matraman","is_transit":false,"i_lat":-6.212485,"i_long":106.858896,"line":1,"transit":false},{"i_lat":-6.215091,"station_name":"Jatinegara","is_transit":true,"distance":1377,"station_id":"JNG","transit":true,"i_long":106.86807400000001,"line":0,"time":8},{"is_transit":false,"transit":false,"station_name":"Pondok Jati","i_long":106.861737,"station_id":"POK","i_lat":-6.209188,"time":2,"distance":1236,"line":11},{"station_name":"Kramat","time":2,"transit":false,"i_long":106.855437,"i_lat":-6.193792,"line":11,"distance":1829,"is_transit":false,"station_id":"KMT"},{"i_long":106.850107,"line":11,"distance":973,"is_transit":false,"time":1,"transit":false,"station_id":"GST","i_lat":-6.185975,"station_name":"Gang Sentiong"},{"is_transit":false,"distance":1567,"i_long":106.84368,"station_name":"Pasar Senen","i_lat":-6.174784,"time":8,"station_id":"PSE","line":11,"transit":false},{"i_long":106.839204,"line":11,"is_transit":false,"distance":1436,"time":4,"transit":false,"station_id":"KMO","i_lat":-6.161728,"station_name":"Kemayoran"},{"line":11,"i_long":106.836569,"i_lat":-6.14505,"transit":false,"station_id":"RJW","station_name":"Rajawali","is_transit":false,"time":5,"distance":1901},{"time":3,"station_name":"Kampung Bandan","distance":1444,"transit":true,"i_lat":-6.132549,"station_id":"KPB","i_long":106.826365,"line":0,"is_transit":true},{"transit":false,"is_transit":false,"time":9,"i_long":106.79867,"station_name":"Angke","i_lat":-6.144674,"line":0,"distance":4102,"station_id":"AK"},{"is_transit":true,"station_name":"Duri","distance":1230,"transit":true,"i_lat":-6.155215,"i_long":106.800832,"time":4,"line":1,"station_id":"DU"},{"i_lat":-6.185545,"i_long":106.811091,"line":1,"station_id":"THB","transit":true,"is_transit":true,"station_name":"Tanah Abang","distance":3632,"time":8},{"i_lat":-6.207404,"transit":false,"station_id":"PLM","distance":3191,"is_transit":false,"time":6,"i_long":106.79689,"line":6,"station_name":"Palmerah"},{"time":7,"transit":false,"station_id":"KBY","line":6,"is_transit":false,"i_long":106.780334,"i_lat":-6.237242,"station_name":"Kebayoran","distance":3737},{"line":6,"is_transit":false,"i_lat":-6.276362,"transit":false,"station_name":"Pondokranji","time":8,"i_long":106.74273,"station_id":"PDJ","distance":6218},{"time":3,"station_name":"Jurangmangu","station_id":"JMU","i_lat":-6.288927,"distance":2179,"line":6,"i_long":106.728916,"is_transit":false,"transit":false},{"time":4,"transit":false,"i_long":106.712277,"station_id":"SDM","station_name":"Sudimara","i_lat":-6.296963,"is_transit":false,"distance":1994,"line":6},{"i_lat":-6.314823,"time":6,"transit":false,"station_id":"RU","line":6,"station_name":"Rawa Buntu","i_long":106.675475,"distance":4566,"is_transit":false},{"station_id":"SRP","transit":false,"distance":2413,"time":4,"is_transit":false,"i_long":106.66566,"line":6,"station_name":"Serpong","i_lat":-6.319871}]]}