{"data":[[{"i_long":106.834175,"station_name":"Univ. Pancasila","distance":0,"is_transit":false,"time":0,"line":2,"i_lat":-6.339291,"station_id":"UP","transit":false},{"i_long":106.832616,"line":2,"is_transit":false,"distance":1029,"station_id":"LNA","i_lat":-6.330363,"time":2,"station_name":"Lenteng Agung","transit":false},{"station_name":"Tanjung Barat","time":3,"transit":false,"distance":2671,"station_id":"TNT","i_lat":-6.3080680000000005,"i_long":106.838896,"is_transit":false,"line":2},{"station_id":"PSM","i_long":106.843999,"line":2,"transit":false,"station_name":"Pasar Minggu","time":4,"distance":2820,"i_lat":-6.2842400000000005,"is_transit":false},{"time":2,"station_name":"Pasar Minggu Baru","transit":false,"station_id":"PSMB","distance":2380,"is_transit":false,"i_lat":-6.263214,"i_long":106.851577,"line":2},{"i_long":106.85449,"transit":false,"station_id":"DRN","i_lat":-6.255332,"line":0,"is_transit":false,"time":2,"station_name":"Duren Kalibata","distance":824},{"transit":false,"station_name":"Cawang","station_id":"CW","is_transit":false,"distance":1546,"time":3,"i_lat":-6.242512,"i_long":106.856607,"line":0},{"i_lat":-6.226659,"line":2,"i_long":106.857948,"station_id":"TEB","station_name":"Tebet","transit":false,"is_transit":false,"distance":1230,"time":2},{"time":4,"station_id":"MRI","i_long":106.84912,"distance":2610,"is_transit":true,"transit":true,"line":0,"station_name":"Manggarai","i_lat":-6.209883},{"i_lat":-6.202263,"station_id":"SUD","transit":false,"distance":3186,"station_name":"Sudirman","time":4,"line":1,"is_transit":false,"i_long":106.822649},{"is_transit":false,"transit":false,"station_id":"SUDB","line":1,"station_name":"Sudirman Baru","distance":280,"i_long":106.819881,"i_lat":-6.201433,"time":1},{"station_id":"KAT","station_name":"Karet","time":1,"is_transit":false,"distance":471,"i_lat":-6.20132,"i_long":106.816351,"transit":false,"line":1},{"station_id":"THB","i_lat":-6.185545,"time":5,"i_long":106.811091,"station_name":"Tanah Abang","line":1,"distance":2029,"transit":true,"is_transit":true},{"is_transit":false,"line":6,"distance":3191,"time":6,"station_id":"PLM","i_long":106.79689,"station_name":"Palmerah","i_lat":-6.207404,"transit":false},{"i_lat":-6.237242,"is_transit":false,"transit":false,"distance":3737,"i_long":106.780334,"station_id":"KBY","station_name":"Kebayoran","line":6,"time":7},{"i_long":106.74273,"i_lat":-6.276362,"line":6,"station_id":"PDJ","station_name":"Pondokranji","distance":6218,"is_transit":false,"time":8,"transit":false},{"i_lat":-6.288927,"distance":2179,"station_name":"Jurangmangu","is_transit":false,"station_id":"JMU","time":3,"transit":false,"i_long":106.728916,"line":6},{"is_transit":false,"transit":false,"distance":1994,"i_lat":-6.296963,"station_id":"SDM","time":4,"i_long":106.712277,"line":6,"station_name":"Sudimara"}],[{"time":0,"transit":false,"station_id":"UP","i_lat":-6.339291,"is_transit":false,"station_name":"Univ. Pancasila","i_long":106.834175,"line":2,"distance":0},{"is_transit":false,"station_name":"Lenteng Agung","distance":1029,"station_id":"LNA","transit":false,"i_long":106.832616,"i_lat":-6.330363,"line":2,"time":2},{"station_id":"TNT","station_name":"Tanjung Barat","transit":false,"line":2,"time":3,"distance":2671,"i_long":106.838896,"i_lat":-6.3080680000000005,"is_transit":false},{"distance":2820,"transit":false,"station_id":"PSM","i_long":106.843999,"station_name":"Pasar Minggu","is_transit":false,"i_lat":-6.2842400000000005,"time":4,"line":2},{"is_transit":false,"i_long":106.851577,"distance":2380,"i_lat":-6.263214,"station_id":"PSMB","station_name":"Pasar Minggu Baru","time":2,"transit":false,"line":2},{"line":0,"distance":824,"time":2,"is_transit":false,"transit":false,"station_id":"DRN","i_long":106.85449,"i_lat":-6.255332,"station_name":"Duren Kalibata"},{"distance":1546,"i_long":106.856607,"time":3,"station_id":"CW","station_name":"Cawang","is_transit":false,"line":0,"transit":false,"i_lat":-6.242512},{"station_name":"Tebet","line":2,"time":2,"i_lat":-6.226659,"transit":false,"station_id":"TEB","is_transit":false,"i_long":106.857948,"distance":1230},{"transit":true,"i_lat":-6.209883,"station_id":"MRI","time":4,"station_name":"Manggarai","line":0,"distance":2610,"is_transit":true,"i_long":106.84912},{"time":4,"station_id":"CKI","i_long":106.840169,"line":0,"is_transit":false,"distance":1590,"i_lat":-6.198556,"transit":false,"station_name":"Cikini"},{"distance":1750,"time":3,"line":2,"transit":false,"station_name":"Gondangdia","is_transit":false,"i_lat":-6.186295,"i_long":106.832183,"station_id":"GDD"},{"time":4,"station_name":"Juanda","distance":2015,"line":2,"is_transit":false,"i_lat":-6.166716,"station_id":"JUA","i_long":106.828284,"transit":false},{"time":2,"line":2,"is_transit":false,"i_lat":-6.160725,"station_id":"SW","distance":1149,"transit":false,"i_long":106.827103,"station_name":"Sawah Besar"},{"transit":false,"time":2,"station_name":"Manggabesar","station_id":"MGB","i_long":106.82482,"line":2,"i_lat":-6.149769,"is_transit":false,"distance":906},{"station_id":"JAY","station_name":"Jayakarta","transit":false,"i_long":106.820901,"is_transit":false,"line":7,"i_lat":-6.141205,"time":2,"distance":1080},{"i_lat":-6.137569,"station_name":"Jakarta Kota","is_transit":true,"station_id":"JAKK","line":0,"i_long":106.812439,"distance":1264,"time":4,"transit":true},{"transit":false,"distance":1364,"i_lat":-6.132549,"i_long":106.826365,"station_id":"KPB","line":0,"time":3,"is_transit":true,"station_name":"Kampung Bandan"},{"station_name":"Angke","line":0,"station_id":"AK","time":9,"is_transit":false,"i_lat":-6.144674,"distance":4102,"transit":false,"i_long":106.79867},{"time":4,"station_id":"DU","i_long":106.800832,"i_lat":-6.155215,"distance":1230,"is_transit":true,"line":1,"station_name":"Duri","transit":true},{"i_lat":-6.185545,"station_name":"Tanah Abang","time":8,"i_long":106.811091,"station_id":"THB","line":1,"distance":3632,"transit":true,"is_transit":true},{"line":6,"i_lat":-6.207404,"station_name":"Palmerah","transit":false,"i_long":106.79689,"is_transit":false,"distance":3191,"time":6,"station_id":"PLM"},{"is_transit":false,"line":6,"station_id":"KBY","station_name":"Kebayoran","time":7,"transit":false,"i_long":106.780334,"i_lat":-6.237242,"distance":3737},{"distance":6218,"is_transit":false,"transit":false,"i_long":106.74273,"station_id":"PDJ","station_name":"Pondokranji","time":8,"i_lat":-6.276362,"line":6},{"transit":false,"distance":2179,"i_lat":-6.288927,"is_transit":false,"station_id":"JMU","station_name":"Jurangmangu","i_long":106.728916,"time":3,"line":6},{"station_name":"Sudimara","is_transit":false,"line":6,"i_long":106.712277,"transit":false,"station_id":"SDM","distance":1994,"time":4,"i_lat":-6.296963}],[{"distance":0,"i_long":106.834175,"station_id":"UP","is_transit":false,"station_name":"Univ. Pancasila","time":0,"line":2,"i_lat":-6.339291,"transit":false},{"transit":false,"is_transit":false,"distance":1029,"station_id":"LNA","i_lat":-6.330363,"line":2,"station_name":"Lenteng Agung","i_long":106.832616,"time":2},{"station_id":"TNT","transit":false,"is_transit":false,"station_name":"Tanjung Barat","i_lat":-6.3080680000000005,"i_long":106.838896,"line":2,"time":3,"distance":2671},{"i_lat":-6.2842400000000005,"station_id":"PSM","distance":2820,"station_name":"Pasar Minggu","line":2,"transit":false,"is_transit":false,"i_long":106.843999,"time":4},{"station_id":"PSMB","distance":2380,"is_transit":false,"i_lat":-6.263214,"station_name":"Pasar Minggu Baru","line":2,"transit":false,"time":2,"i_long":106.851577},{"is_transit":false,"station_id":"DRN","station_name":"Duren Kalibata","i_long":106.85449,"i_lat":-6.255332,"distance":824,"time":2,"transit":false,"line":0},{"line":0,"is_transit":false,"i_long":106.856607,"i_lat":-6.242512,"station_id":"CW","time":3,"transit":false,"station_name":"Cawang","distance":1546},{"line":2,"is_transit":false,"transit":false,"station_id":"TEB","distance":1230,"time":2,"station_name":"Tebet","i_lat":-6.226659,"i_long":106.857948},{"station_name":"Manggarai","distance":2610,"i_lat":-6.209883,"i_long":106.84912,"transit":true,"time":4,"is_transit":true,"line":0,"station_id":"MRI"},{"transit":false,"station_id":"MTR","line":1,"distance":1275,"is_transit":false,"station_name":"Matraman","time":2,"i_lat":-6.212485,"i_long":106.858896},{"is_transit":true,"station_name":"Jatinegara","line":0,"time":8,"i_lat":-6.215091,"transit":true,"i_long":106.86807400000001,"distance":1377,"station_id":"JNG"},{"distance":1236,"line":11,"station_id":"POK","station_name":"Pondok Jati","is_transit":false,"transit":false,"i_lat":-6.209188,"time":2,"i_long":106.861737},{"i_long":106.855437,"distance":1829,"i_lat":-6.193792,"line":11,"station_name":"Kramat","transit":false,"station_id":"KMT","time":2,"is_transit":false},{"station_id":"GST","i_long":106.850107,"transit":false,"time":1,"distance":973,"i_lat":-6.185975,"station_name":"Gang Sentiong","line":11,"is_transit":false},{"time":8,"transit":false,"i_lat":-6.174784,"line":11,"station_id":"PSE","is_transit":false,"station_name":"Pasar Senen","i_long":106.84368,"distance":1567},{"distance":1436,"line":11,"i_long":106.839204,"station_id":"KMO","is_transit":false,"i_lat":-6.161728,"time":4,"transit":false,"station_name":"Kemayoran"},{"i_lat":-6.14505,"i_long":106.836569,"is_transit":false,"line":11,"distance":1901,"time":5,"station_name":"Rajawali","station_id":"RJW","transit":false},{"is_transit":true,"time":3,"line":0,"i_lat":-6.132549,"distance":1444,"transit":true,"station_name":"Kampung Bandan","i_long":106.826365,"station_id":"KPB"},{"station_name":"Angke","i_lat":-6.144674,"i_long":106.79867,"line":0,"distance":4102,"time":9,"transit":false,"is_transit":false,"station_id":"AK"},{"time":4,"i_long":106.800832,"station_name":"Duri","station_id":"DU","transit":true,"line":1,"distance":1230,"i_lat":-6.155215,"is_transit":true},{"time":8,"transit":true,"station_id":"THB","station_name":"Tanah Abang","i_long":106.811091,"is_transit":true,"line":1,"i_lat":-6.185545,"distance":3632},{"line":6,"transit":false,"i_lat":-6.207404,"i_long":106.79689,"station_name":"Palmerah","is_transit":false,"time":6,"station_id":"PLM","distance":3191},{"time":7,"station_name":"Kebayoran","i_long":106.780334,"is_transit":false,"transit":false,"distance":3737,"station_id":"KBY","i_lat":-6.237242,"line":6},{"station_name":"Pondokranji","distance":6218,"station_id":"PDJ","is_transit":false,"line":6,"time":8,"transit":false,"i_lat":-6.276362,"i_long":106.74273},{"i_lat":-6.288927,"station_name":"Jurangmangu","is_transit":false,"transit":false,"station_id":"JMU","line":6,"time":3,"distance":2179,"i_long":106.728916},{"station_id":"SDM","i_lat":-6.296963,"station_name":"Sudimara","i_long":106.712277,"line":6,"transit":false,"distance":1994,"is_transit":false,"time":4}]]}