{"data":[[{"time":0,"line":2,"station_name":"Univ. Pancasila","is_transit":false,"distance":0,"station_id":"UP","i_long":106.834175,"i_lat":-6.339291,"transit":false},{"i_long":106.832616,"line":2,"distance":1029,"time":2,"i_lat":-6.330363,"is_transit":false,"transit":false,"station_name":"Lenteng Agung","station_id":"LNA"},{"i_long":106.838896,"station_name":"Tanjung Barat","is_transit":false,"distance":2671,"time":3,"station_id":"TNT","i_lat":-6.3080680000000005,"line":2,"transit":false},{"i_long":106.843999,"time":4,"station_id":"PSM","distance":2820,"station_name":"Pasar Minggu","transit":false,"i_lat":-6.2842400000000005,"line":2,"is_transit":false},{"is_transit":false,"i_lat":-6.263214,"station_id":"PSMB","transit":false,"line":2,"i_long":106.851577,"distance":2380,"station_name":"Pasar Minggu Baru","time":2},{"i_long":106.85449,"line":2,"transit":false,"time":2,"distance":824,"i_lat":-6.255332,"station_id":"DRN","station_name":"Duren Kalibata","is_transit":false},{"time":3,"station_name":"Cawang","is_transit":false,"i_lat":-6.242512,"station_id":"CW","distance":1546,"i_long":106.856607,"line":2,"transit":false},{"station_id":"TEB","i_lat":-6.226659,"time":2,"i_long":106.857948,"line":2,"station_name":"Tebet","is_transit":false,"transit":false,"distance":1230}]]}