{"data":[[{"station_id":"UP","i_lat":-6.339291,"line":2,"distance":0,"i_long":106.834175,"transit":false,"station_name":"Univ. Pancasila","time":0,"is_transit":false},{"distance":1029,"i_lat":-6.330363,"is_transit":false,"transit":false,"i_long":106.832616,"station_name":"Lenteng Agung","time":2,"station_id":"LNA","line":2},{"line":2,"transit":false,"i_long":106.838896,"station_name":"Tanjung Barat","time":3,"i_lat":-6.3080680000000005,"distance":2671,"is_transit":false,"station_id":"TNT"},{"transit":false,"distance":2820,"i_lat":-6.2842400000000005,"is_transit":false,"time":4,"station_id":"PSM","station_name":"Pasar Minggu","i_long":106.843999,"line":2},{"transit":false,"i_long":106.851577,"distance":2380,"line":2,"station_id":"PSMB","station_name":"Pasar Minggu Baru","time":2,"i_lat":-6.263214,"is_transit":false},{"time":2,"i_lat":-6.255332,"station_id":"DRN","is_transit":false,"distance":824,"i_long":106.85449,"line":2,"transit":false,"station_name":"Duren Kalibata"},{"is_transit":false,"i_lat":-6.242512,"i_long":106.856607,"distance":1546,"transit":false,"station_name":"Cawang","time":3,"station_id":"CW","line":2},{"i_lat":-6.226659,"distance":1230,"station_name":"Tebet","line":2,"transit":false,"time":2,"i_long":106.857948,"is_transit":false,"station_id":"TEB"}]]}