{"data":[[{"transit":false,"is_transit":false,"station_name":"Univ. Pancasila","i_long":106.834175,"station_id":"UP","distance":0,"i_lat":-6.339291,"line":2,"time":0},{"station_name":"Lenteng Agung","i_lat":-6.330363,"distance":1029,"is_transit":false,"line":2,"transit":false,"time":2,"i_long":106.832616,"station_id":"LNA"},{"station_name":"Tanjung Barat","station_id":"TNT","i_long":106.838896,"transit":false,"is_transit":false,"i_lat":-6.3080680000000005,"line":2,"time":3,"distance":2671},{"line":2,"transit":false,"is_transit":false,"i_long":106.843999,"time":4,"i_lat":-6.2842400000000005,"distance":2820,"station_id":"PSM","station_name":"Pasar Minggu"},{"station_name":"Pasar Minggu Baru","station_id":"PSMB","distance":2380,"is_transit":false,"i_long":106.851577,"transit":false,"time":2,"i_lat":-6.263214,"line":2},{"i_long":106.85449,"is_transit":false,"station_name":"Duren Kalibata","distance":824,"time":2,"i_lat":-6.255332,"line":2,"station_id":"DRN","transit":false},{"line":2,"time":3,"station_id":"CW","distance":1546,"i_long":106.856607,"transit":false,"is_transit":false,"i_lat":-6.242512,"station_name":"Cawang"},{"distance":1230,"station_name":"Tebet","i_long":106.857948,"time":2,"transit":false,"i_lat":-6.226659,"line":2,"station_id":"TEB","is_transit":false},{"station_id":"MRI","station_name":"Manggarai","is_transit":true,"i_lat":-6.209883,"i_long":106.84912,"line":2,"transit":true,"time":4,"distance":2610},{"i_lat":-6.202263,"line":1,"time":4,"is_transit":false,"i_long":106.822649,"transit":false,"station_id":"SUD","station_name":"Sudirman","distance":3186},{"station_name":"Sudirman Baru","line":1,"transit":false,"is_transit":false,"station_id":"SUDB","i_long":106.819881,"distance":280,"time":1,"i_lat":-6.201433},{"station_name":"Karet","is_transit":false,"line":1,"time":1,"transit":false,"i_long":106.816351,"station_id":"KAT","i_lat":-6.20132,"distance":471},{"distance":2029,"line":1,"station_name":"Tanah Abang","i_long":106.811091,"time":5,"station_id":"THB","is_transit":false,"transit":false,"i_lat":-6.185545},{"line":1,"i_lat":-6.155215,"station_id":"DU","is_transit":true,"distance":3632,"transit":true,"time":8,"i_long":106.800832,"station_name":"Duri"},{"i_lat":-6.162021,"distance":1700,"station_id":"GGL","i_long":106.788277,"is_transit":false,"station_name":"Grogol","time":3,"transit":false,"line":5},{"transit":false,"station_name":"Pesing","station_id":"PSG","line":5,"is_transit":false,"time":2,"i_long":106.771379,"distance":2036,"i_lat":-6.161433},{"transit":false,"is_transit":false,"i_lat":-6.1587309999999995,"line":5,"station_id":"TKO","distance":1614,"i_long":106.756522,"station_name":"Taman Kota","time":2}],[{"line":2,"station_id":"UP","i_long":106.834175,"transit":false,"is_transit":false,"i_lat":-6.339291,"distance":0,"station_name":"Univ. Pancasila","time":0},{"is_transit":false,"i_long":106.832616,"i_lat":-6.330363,"station_name":"Lenteng Agung","distance":1029,"time":2,"station_id":"LNA","transit":false,"line":2},{"station_name":"Tanjung Barat","station_id":"TNT","is_transit":false,"distance":2671,"transit":false,"i_long":106.838896,"time":3,"i_lat":-6.3080680000000005,"line":2},{"line":2,"transit":false,"time":4,"distance":2820,"is_transit":false,"i_long":106.843999,"station_id":"PSM","i_lat":-6.2842400000000005,"station_name":"Pasar Minggu"},{"i_long":106.851577,"line":2,"time":2,"station_id":"PSMB","distance":2380,"station_name":"Pasar Minggu Baru","transit":false,"is_transit":false,"i_lat":-6.263214},{"station_id":"DRN","i_lat":-6.255332,"station_name":"Duren Kalibata","time":2,"line":2,"is_transit":false,"distance":824,"transit":false,"i_long":106.85449},{"i_long":106.856607,"i_lat":-6.242512,"station_name":"Cawang","line":2,"distance":1546,"transit":false,"time":3,"is_transit":false,"station_id":"CW"},{"i_lat":-6.226659,"time":2,"i_long":106.857948,"line":2,"is_transit":false,"station_id":"TEB","distance":1230,"transit":false,"station_name":"Tebet"},{"time":4,"line":2,"transit":false,"is_transit":false,"i_long":106.84912,"i_lat":-6.209883,"station_name":"Manggarai","distance":2610,"station_id":"MRI"},{"station_name":"Cikini","is_transit":false,"station_id":"CKI","distance":1590,"transit":false,"i_lat":-6.198556,"line":2,"i_long":106.840169,"time":4},{"i_long":106.832183,"distance":1750,"line":2,"is_transit":false,"station_id":"GDD","station_name":"Gondangdia","time":3,"i_lat":-6.186295,"transit":false},{"i_long":106.828284,"i_lat":-6.166716,"is_transit":false,"distance":2015,"time":4,"station_id":"JUA","line":2,"transit":false,"station_name":"Juanda"},{"station_id":"SW","i_lat":-6.160725,"i_long":106.827103,"transit":false,"line":2,"station_name":"Sawah Besar","is_transit":false,"time":2,"distance":1149},{"i_long":106.82482,"i_lat":-6.149769,"time":2,"is_transit":false,"distance":906,"line":2,"transit":false,"station_id":"MGB","station_name":"Manggabesar"},{"time":2,"station_id":"JAY","distance":1080,"station_name":"Jayakarta","transit":false,"is_transit":false,"i_lat":-6.141205,"i_long":106.820901,"line":2},{"i_lat":-6.137569,"station_name":"Jakarta Kota","station_id":"JAKK","is_transit":true,"time":4,"line":2,"i_long":106.812439,"transit":true,"distance":1264},{"time":3,"transit":true,"is_transit":true,"i_lat":-6.132549,"i_long":106.826365,"station_id":"KPB","distance":1364,"line":4,"station_name":"Kampung Bandan"},{"time":9,"line":1,"transit":false,"station_id":"AK","i_lat":-6.144674,"i_long":106.79867,"distance":4102,"is_transit":false,"station_name":"Angke"},{"i_lat":-6.155215,"station_id":"DU","is_transit":true,"line":1,"transit":true,"distance":1230,"time":4,"i_long":106.800832,"station_name":"Duri"},{"is_transit":false,"station_name":"Grogol","station_id":"GGL","time":3,"i_lat":-6.162021,"i_long":106.788277,"line":5,"transit":false,"distance":1700},{"transit":false,"is_transit":false,"distance":2036,"i_lat":-6.161433,"i_long":106.771379,"time":2,"station_id":"PSG","line":5,"station_name":"Pesing"},{"i_lat":-6.1587309999999995,"i_long":106.756522,"time":2,"line":5,"station_id":"TKO","is_transit":false,"distance":1614,"transit":false,"station_name":"Taman Kota"}],[{"station_name":"Univ. Pancasila","transit":false,"station_id":"UP","time":0,"i_lat":-6.339291,"line":2,"is_transit":false,"distance":0,"i_long":106.834175},{"station_name":"Lenteng Agung","station_id":"LNA","is_transit":false,"i_long":106.832616,"line":2,"time":2,"i_lat":-6.330363,"distance":1029,"transit":false},{"station_id":"TNT","transit":false,"distance":2671,"i_lat":-6.3080680000000005,"station_name":"Tanjung Barat","line":2,"is_transit":false,"time":3,"i_long":106.838896},{"transit":false,"i_lat":-6.2842400000000005,"line":2,"i_long":106.843999,"station_id":"PSM","time":4,"is_transit":false,"station_name":"Pasar Minggu","distance":2820},{"distance":2380,"i_long":106.851577,"i_lat":-6.263214,"line":2,"transit":false,"station_name":"Pasar Minggu Baru","is_transit":false,"station_id":"PSMB","time":2},{"i_long":106.85449,"transit":false,"is_transit":false,"time":2,"station_name":"Duren Kalibata","distance":824,"station_id":"DRN","line":2,"i_lat":-6.255332},{"distance":1546,"line":2,"station_id":"CW","is_transit":false,"transit":false,"i_long":106.856607,"i_lat":-6.242512,"station_name":"Cawang","time":3},{"i_long":106.857948,"station_name":"Tebet","station_id":"TEB","transit":false,"time":2,"distance":1230,"is_transit":false,"i_lat":-6.226659,"line":2},{"distance":2610,"i_lat":-6.209883,"line":2,"is_transit":true,"transit":true,"station_name":"Manggarai","i_long":106.84912,"station_id":"MRI","time":4},{"distance":1275,"station_name":"Matraman","station_id":"MTR","time":2,"transit":false,"i_lat":-6.212485,"i_long":106.858896,"line":1,"is_transit":false},{"station_name":"Jatinegara","i_lat":-6.215091,"transit":true,"station_id":"JNG","line":1,"is_transit":true,"time":8,"i_long":106.86807400000001,"distance":1377},{"station_id":"POK","i_long":106.861737,"time":2,"station_name":"Pondok Jati","is_transit":false,"i_lat":-6.209188,"line":11,"transit":false,"distance":1236},{"i_long":106.855437,"distance":1829,"time":2,"station_id":"KMT","transit":false,"is_transit":false,"i_lat":-6.193792,"line":11,"station_name":"Kramat"},{"line":11,"i_long":106.850107,"time":1,"is_transit":false,"station_name":"Gang Sentiong","i_lat":-6.185975,"distance":973,"transit":false,"station_id":"GST"},{"line":11,"time":8,"station_name":"Pasar Senen","is_transit":false,"i_lat":-6.174784,"i_long":106.84368,"station_id":"PSE","transit":false,"distance":1567},{"i_long":106.839204,"time":4,"i_lat":-6.161728,"station_id":"KMO","station_name":"Kemayoran","distance":1436,"transit":false,"is_transit":false,"line":11},{"is_transit":false,"distance":1901,"station_name":"Rajawali","i_long":106.836569,"transit":false,"time":5,"i_lat":-6.14505,"line":11,"station_id":"RJW"},{"line":4,"station_id":"KPB","i_long":106.826365,"transit":true,"station_name":"Kampung Bandan","is_transit":true,"i_lat":-6.132549,"distance":1444,"time":3},{"transit":false,"station_id":"AK","is_transit":false,"station_name":"Angke","line":1,"i_lat":-6.144674,"time":9,"distance":4102,"i_long":106.79867},{"i_lat":-6.155215,"station_name":"Duri","is_transit":true,"line":1,"transit":true,"i_long":106.800832,"time":4,"station_id":"DU","distance":1230},{"is_transit":false,"i_lat":-6.162021,"time":3,"station_id":"GGL","i_long":106.788277,"distance":1700,"line":5,"station_name":"Grogol","transit":false},{"distance":2036,"station_id":"PSG","is_transit":false,"i_lat":-6.161433,"i_long":106.771379,"transit":false,"station_name":"Pesing","time":2,"line":5},{"time":2,"station_name":"Taman Kota","distance":1614,"i_lat":-6.1587309999999995,"station_id":"TKO","line":5,"transit":false,"i_long":106.756522,"is_transit":false}]]}