{"data":[[{"transit":false,"station_name":"Univ. Pancasila","i_lat":-6.339291,"distance":0,"i_long":106.834175,"is_transit":false,"line":2,"station_id":"UP","time":0},{"station_name":"Lenteng Agung","is_transit":false,"time":2,"transit":false,"distance":1029,"line":2,"station_id":"LNA","i_lat":-6.330363,"i_long":106.832616},{"distance":2671,"station_name":"Tanjung Barat","i_long":106.838896,"i_lat":-6.3080680000000005,"transit":false,"is_transit":false,"station_id":"TNT","time":3,"line":2},{"station_name":"Pasar Minggu","transit":false,"is_transit":false,"station_id":"PSM","line":2,"distance":2820,"i_lat":-6.2842400000000005,"i_long":106.843999,"time":4},{"distance":2380,"i_long":106.851577,"is_transit":false,"time":2,"station_name":"Pasar Minggu Baru","i_lat":-6.263214,"transit":false,"station_id":"PSMB","line":2},{"transit":false,"station_name":"Duren Kalibata","i_lat":-6.255332,"distance":824,"line":2,"station_id":"DRN","time":2,"is_transit":false,"i_long":106.85449},{"transit":false,"line":2,"is_transit":false,"station_name":"Cawang","time":3,"station_id":"CW","i_lat":-6.242512,"distance":1546,"i_long":106.856607},{"station_id":"TEB","transit":false,"i_long":106.857948,"distance":1230,"time":2,"station_name":"Tebet","i_lat":-6.226659,"line":2,"is_transit":false},{"station_name":"Manggarai","station_id":"MRI","i_long":106.84912,"time":4,"distance":2610,"transit":true,"i_lat":-6.209883,"line":2,"is_transit":true},{"is_transit":false,"i_lat":-6.202263,"station_name":"Sudirman","transit":false,"distance":3186,"station_id":"SUD","i_long":106.822649,"line":1,"time":4},{"line":1,"time":1,"i_lat":-6.201433,"station_name":"Sudirman Baru","transit":false,"station_id":"SUDB","distance":280,"is_transit":false,"i_long":106.819881},{"is_transit":false,"distance":471,"line":1,"time":1,"i_lat":-6.20132,"station_name":"Karet","station_id":"KAT","transit":false,"i_long":106.816351},{"i_lat":-6.185545,"is_transit":false,"station_id":"THB","time":5,"line":1,"i_long":106.811091,"transit":false,"station_name":"Tanah Abang","distance":2029}],[{"transit":false,"station_name":"Univ. Pancasila","distance":0,"i_long":106.834175,"time":0,"line":2,"is_transit":false,"station_id":"UP","i_lat":-6.339291},{"is_transit":false,"distance":1029,"time":2,"station_id":"LNA","i_long":106.832616,"line":2,"transit":false,"i_lat":-6.330363,"station_name":"Lenteng Agung"},{"distance":2671,"transit":false,"i_long":106.838896,"line":2,"time":3,"is_transit":false,"station_name":"Tanjung Barat","station_id":"TNT","i_lat":-6.3080680000000005},{"time":4,"transit":false,"i_lat":-6.2842400000000005,"i_long":106.843999,"station_name":"Pasar Minggu","distance":2820,"station_id":"PSM","is_transit":false,"line":2},{"i_long":106.851577,"station_id":"PSMB","is_transit":false,"station_name":"Pasar Minggu Baru","time":2,"transit":false,"distance":2380,"i_lat":-6.263214,"line":2},{"station_name":"Duren Kalibata","i_lat":-6.255332,"line":2,"station_id":"DRN","time":2,"i_long":106.85449,"distance":824,"transit":false,"is_transit":false},{"station_id":"CW","time":3,"transit":false,"is_transit":false,"i_long":106.856607,"station_name":"Cawang","line":2,"distance":1546,"i_lat":-6.242512},{"line":2,"transit":false,"station_id":"TEB","i_lat":-6.226659,"distance":1230,"is_transit":false,"time":2,"i_long":106.857948,"station_name":"Tebet"},{"distance":2610,"station_id":"MRI","is_transit":false,"station_name":"Manggarai","time":4,"i_lat":-6.209883,"i_long":106.84912,"line":2,"transit":false},{"i_lat":-6.198556,"station_name":"Cikini","line":2,"i_long":106.840169,"is_transit":false,"transit":false,"station_id":"CKI","time":4,"distance":1590},{"is_transit":false,"i_lat":-6.186295,"line":2,"transit":false,"station_id":"GDD","distance":1750,"time":3,"station_name":"Gondangdia","i_long":106.832183},{"i_lat":-6.166716,"transit":false,"distance":2015,"time":4,"station_id":"JUA","i_long":106.828284,"station_name":"Juanda","line":2,"is_transit":false},{"station_name":"Sawah Besar","i_lat":-6.160725,"transit":false,"is_transit":false,"distance":1149,"i_long":106.827103,"time":2,"line":2,"station_id":"SW"},{"i_long":106.82482,"station_name":"Manggabesar","time":2,"transit":false,"distance":906,"line":2,"is_transit":false,"i_lat":-6.149769,"station_id":"MGB"},{"station_name":"Jayakarta","distance":1080,"transit":false,"line":2,"is_transit":false,"time":2,"i_long":106.820901,"station_id":"JAY","i_lat":-6.141205},{"is_transit":true,"distance":1264,"line":2,"time":4,"i_long":106.812439,"station_id":"JAKK","transit":true,"station_name":"Jakarta Kota","i_lat":-6.137569},{"is_transit":true,"station_name":"Kampung Bandan","station_id":"KPB","transit":true,"i_long":106.826365,"distance":1364,"time":3,"i_lat":-6.132549,"line":4},{"distance":4102,"station_name":"Angke","transit":false,"i_long":106.79867,"line":1,"is_transit":false,"i_lat":-6.144674,"station_id":"AK","time":9},{"line":1,"transit":false,"is_transit":false,"distance":1230,"station_id":"DU","i_long":106.800832,"time":4,"station_name":"Duri","i_lat":-6.155215},{"transit":false,"i_lat":-6.185545,"line":1,"station_name":"Tanah Abang","is_transit":false,"i_long":106.811091,"distance":3632,"time":8,"station_id":"THB"}],[{"i_long":106.834175,"time":0,"distance":0,"station_id":"UP","transit":false,"station_name":"Univ. Pancasila","line":2,"is_transit":false,"i_lat":-6.339291},{"distance":1029,"i_long":106.832616,"line":2,"time":2,"transit":false,"station_name":"Lenteng Agung","station_id":"LNA","is_transit":false,"i_lat":-6.330363},{"i_long":106.838896,"station_name":"Tanjung Barat","distance":2671,"transit":false,"line":2,"is_transit":false,"station_id":"TNT","i_lat":-6.3080680000000005,"time":3},{"station_id":"PSM","time":4,"transit":false,"i_lat":-6.2842400000000005,"is_transit":false,"line":2,"station_name":"Pasar Minggu","distance":2820,"i_long":106.843999},{"station_name":"Pasar Minggu Baru","line":2,"time":2,"station_id":"PSMB","i_lat":-6.263214,"i_long":106.851577,"distance":2380,"is_transit":false,"transit":false},{"is_transit":false,"station_id":"DRN","i_long":106.85449,"line":2,"i_lat":-6.255332,"distance":824,"transit":false,"time":2,"station_name":"Duren Kalibata"},{"distance":1546,"station_id":"CW","i_long":106.856607,"i_lat":-6.242512,"is_transit":false,"transit":false,"time":3,"station_name":"Cawang","line":2},{"i_long":106.857948,"is_transit":false,"station_id":"TEB","i_lat":-6.226659,"time":2,"station_name":"Tebet","transit":false,"distance":1230,"line":2},{"distance":2610,"i_lat":-6.209883,"station_id":"MRI","is_transit":true,"i_long":106.84912,"line":2,"time":4,"station_name":"Manggarai","transit":true},{"i_lat":-6.212485,"is_transit":false,"i_long":106.858896,"station_id":"MTR","line":1,"transit":false,"distance":1275,"time":2,"station_name":"Matraman"},{"i_long":106.86807400000001,"station_id":"JNG","distance":1377,"transit":true,"is_transit":true,"i_lat":-6.215091,"station_name":"Jatinegara","line":1,"time":8},{"distance":1236,"is_transit":false,"i_long":106.861737,"i_lat":-6.209188,"time":2,"station_name":"Pondok Jati","station_id":"POK","line":11,"transit":false},{"time":2,"i_long":106.855437,"i_lat":-6.193792,"line":11,"transit":false,"station_name":"Kramat","distance":1829,"is_transit":false,"station_id":"KMT"},{"station_name":"Gang Sentiong","i_lat":-6.185975,"i_long":106.850107,"station_id":"GST","time":1,"transit":false,"line":11,"is_transit":false,"distance":973},{"time":8,"transit":false,"i_lat":-6.174784,"is_transit":false,"station_id":"PSE","station_name":"Pasar Senen","i_long":106.84368,"distance":1567,"line":11},{"station_name":"Kemayoran","i_lat":-6.161728,"line":11,"is_transit":false,"station_id":"KMO","distance":1436,"i_long":106.839204,"transit":false,"time":4},{"i_long":106.836569,"i_lat":-6.14505,"is_transit":false,"transit":false,"station_name":"Rajawali","time":5,"distance":1901,"station_id":"RJW","line":11},{"distance":1444,"station_name":"Kampung Bandan","time":3,"i_lat":-6.132549,"is_transit":true,"line":4,"station_id":"KPB","transit":true,"i_long":106.826365},{"station_id":"AK","i_lat":-6.144674,"distance":4102,"is_transit":false,"station_name":"Angke","i_long":106.79867,"line":1,"time":9,"transit":false},{"distance":1230,"station_name":"Duri","transit":false,"station_id":"DU","i_long":106.800832,"is_transit":false,"time":4,"line":1,"i_lat":-6.155215},{"i_long":106.811091,"station_name":"Tanah Abang","time":8,"distance":3632,"line":1,"is_transit":false,"i_lat":-6.185545,"transit":false,"station_id":"THB"}]]}