{"data":[[{"i_long":106.834175,"i_lat":-6.339291,"line":2,"station_name":"Univ. Pancasila","time":0,"is_transit":false,"transit":false,"distance":0,"station_id":"UP"},{"i_long":106.832616,"is_transit":false,"time":2,"transit":false,"station_id":"LNA","station_name":"Lenteng Agung","distance":1029,"i_lat":-6.330363,"line":2},{"time":3,"is_transit":false,"transit":false,"distance":2671,"station_id":"TNT","station_name":"Tanjung Barat","i_lat":-6.3080680000000005,"line":2,"i_long":106.838896},{"station_id":"PSM","line":2,"i_lat":-6.2842400000000005,"distance":2820,"transit":false,"i_long":106.843999,"time":4,"station_name":"Pasar Minggu","is_transit":false},{"is_transit":false,"station_name":"Pasar Minggu Baru","i_lat":-6.263214,"station_id":"PSMB","line":2,"i_long":106.851577,"distance":2380,"time":2,"transit":false},{"time":2,"station_id":"DRN","i_long":106.85449,"transit":false,"is_transit":false,"distance":824,"i_lat":-6.255332,"line":2,"station_name":"Duren Kalibata"},{"time":3,"distance":1546,"is_transit":false,"transit":false,"line":2,"station_id":"CW","station_name":"Cawang","i_lat":-6.242512,"i_long":106.856607},{"i_lat":-6.226659,"line":2,"distance":1230,"time":2,"is_transit":false,"transit":false,"station_id":"TEB","i_long":106.857948,"station_name":"Tebet"},{"station_id":"MRI","station_name":"Manggarai","time":4,"distance":2610,"i_long":106.84912,"i_lat":-6.209883,"line":2,"transit":true,"is_transit":true},{"i_long":106.822649,"line":1,"time":4,"distance":3186,"transit":false,"station_id":"SUD","is_transit":false,"i_lat":-6.202263,"station_name":"Sudirman"},{"line":1,"station_name":"Sudirman Baru","is_transit":false,"station_id":"SUDB","time":1,"distance":280,"i_long":106.819881,"transit":false,"i_lat":-6.201433},{"transit":false,"i_long":106.816351,"line":1,"is_transit":false,"distance":471,"station_id":"KAT","station_name":"Karet","i_lat":-6.20132,"time":1},{"is_transit":false,"transit":false,"station_name":"Tanah Abang","time":5,"line":1,"i_lat":-6.185545,"i_long":106.811091,"station_id":"THB","distance":2029},{"i_lat":-6.155215,"is_transit":false,"i_long":106.800832,"distance":3632,"station_name":"Duri","time":8,"line":1,"transit":false,"station_id":"DU"},{"transit":false,"time":4,"distance":1230,"station_id":"AK","is_transit":false,"i_lat":-6.144674,"line":1,"i_long":106.79867,"station_name":"Angke"},{"transit":true,"line":4,"is_transit":true,"distance":4102,"time":9,"i_lat":-6.132549,"station_id":"KPB","station_name":"Kampung Bandan","i_long":106.826365},{"time":4,"transit":false,"station_name":"Ancol","i_lat":-6.128023,"i_long":106.84464,"line":4,"is_transit":false,"station_id":"AC","distance":2185},{"time":9,"station_id":"TPK","line":4,"station_name":"Tanjung Priuk","i_lat":-6.1109480000000005,"transit":false,"distance":4566,"is_transit":false,"i_long":106.880089}],[{"i_lat":-6.339291,"i_long":106.834175,"line":2,"distance":0,"is_transit":false,"transit":false,"time":0,"station_id":"UP","station_name":"Univ. Pancasila"},{"is_transit":false,"time":2,"station_id":"LNA","i_long":106.832616,"distance":1029,"transit":false,"station_name":"Lenteng Agung","i_lat":-6.330363,"line":2},{"station_name":"Tanjung Barat","i_lat":-6.3080680000000005,"time":3,"line":2,"transit":false,"station_id":"TNT","i_long":106.838896,"is_transit":false,"distance":2671},{"station_id":"PSM","is_transit":false,"station_name":"Pasar Minggu","distance":2820,"i_lat":-6.2842400000000005,"i_long":106.843999,"line":2,"transit":false,"time":4},{"distance":2380,"transit":false,"station_id":"PSMB","time":2,"station_name":"Pasar Minggu Baru","is_transit":false,"line":2,"i_lat":-6.263214,"i_long":106.851577},{"transit":false,"line":2,"station_id":"DRN","time":2,"distance":824,"is_transit":false,"i_long":106.85449,"i_lat":-6.255332,"station_name":"Duren Kalibata"},{"time":3,"is_transit":false,"transit":false,"distance":1546,"line":2,"i_lat":-6.242512,"station_name":"Cawang","i_long":106.856607,"station_id":"CW"},{"line":2,"i_lat":-6.226659,"is_transit":false,"distance":1230,"transit":false,"station_name":"Tebet","station_id":"TEB","time":2,"i_long":106.857948},{"time":4,"is_transit":false,"i_lat":-6.209883,"distance":2610,"station_id":"MRI","i_long":106.84912,"transit":false,"line":2,"station_name":"Manggarai"},{"distance":1590,"station_name":"Cikini","is_transit":false,"i_long":106.840169,"station_id":"CKI","transit":false,"line":2,"i_lat":-6.198556,"time":4},{"station_name":"Gondangdia","time":3,"is_transit":false,"i_long":106.832183,"i_lat":-6.186295,"line":2,"distance":1750,"transit":false,"station_id":"GDD"},{"time":4,"line":2,"distance":2015,"i_lat":-6.166716,"is_transit":false,"station_name":"Juanda","station_id":"JUA","i_long":106.828284,"transit":false},{"station_name":"Sawah Besar","distance":1149,"transit":false,"i_long":106.827103,"i_lat":-6.160725,"time":2,"is_transit":false,"station_id":"SW","line":2},{"distance":906,"transit":false,"station_id":"MGB","i_lat":-6.149769,"time":2,"i_long":106.82482,"line":2,"is_transit":false,"station_name":"Manggabesar"},{"transit":false,"station_name":"Jayakarta","time":2,"line":2,"station_id":"JAY","is_transit":false,"i_long":106.820901,"i_lat":-6.141205,"distance":1080},{"time":4,"station_name":"Jakarta Kota","is_transit":true,"transit":true,"distance":1264,"line":2,"i_long":106.812439,"i_lat":-6.137569,"station_id":"JAKK"},{"station_id":"KPB","station_name":"Kampung Bandan","transit":true,"i_lat":-6.132549,"distance":1364,"i_long":106.826365,"line":4,"is_transit":true,"time":3},{"station_id":"AC","i_lat":-6.128023,"is_transit":false,"station_name":"Ancol","line":4,"transit":false,"i_long":106.84464,"distance":2185,"time":4},{"time":9,"distance":4566,"i_lat":-6.1109480000000005,"station_id":"TPK","line":4,"transit":false,"station_name":"Tanjung Priuk","i_long":106.880089,"is_transit":false}],[{"distance":0,"i_lat":-6.339291,"station_id":"UP","is_transit":false,"station_name":"Univ. Pancasila","line":2,"transit":false,"i_long":106.834175,"time":0},{"i_long":106.832616,"i_lat":-6.330363,"distance":1029,"time":2,"station_id":"LNA","station_name":"Lenteng Agung","transit":false,"is_transit":false,"line":2},{"time":3,"i_lat":-6.3080680000000005,"station_name":"Tanjung Barat","transit":false,"line":2,"is_transit":false,"i_long":106.838896,"distance":2671,"station_id":"TNT"},{"station_id":"PSM","is_transit":false,"station_name":"Pasar Minggu","time":4,"transit":false,"i_lat":-6.2842400000000005,"line":2,"i_long":106.843999,"distance":2820},{"transit":false,"station_id":"PSMB","i_long":106.851577,"station_name":"Pasar Minggu Baru","i_lat":-6.263214,"is_transit":false,"time":2,"line":2,"distance":2380},{"distance":824,"is_transit":false,"line":2,"i_lat":-6.255332,"transit":false,"time":2,"i_long":106.85449,"station_name":"Duren Kalibata","station_id":"DRN"},{"station_name":"Cawang","i_long":106.856607,"line":2,"transit":false,"i_lat":-6.242512,"distance":1546,"is_transit":false,"station_id":"CW","time":3},{"line":2,"is_transit":false,"station_name":"Tebet","station_id":"TEB","i_lat":-6.226659,"distance":1230,"transit":false,"i_long":106.857948,"time":2},{"i_long":106.84912,"time":4,"station_id":"MRI","station_name":"Manggarai","i_lat":-6.209883,"distance":2610,"transit":true,"line":2,"is_transit":true},{"transit":false,"station_name":"Matraman","i_long":106.858896,"is_transit":false,"time":2,"distance":1275,"i_lat":-6.212485,"station_id":"MTR","line":1},{"transit":true,"time":8,"i_long":106.86807400000001,"station_id":"JNG","i_lat":-6.215091,"is_transit":true,"line":1,"distance":1377,"station_name":"Jatinegara"},{"distance":1236,"is_transit":false,"i_long":106.861737,"station_name":"Pondok Jati","time":2,"transit":false,"station_id":"POK","i_lat":-6.209188,"line":11},{"line":11,"distance":1829,"i_lat":-6.193792,"time":2,"station_name":"Kramat","is_transit":false,"transit":false,"station_id":"KMT","i_long":106.855437},{"is_transit":false,"distance":973,"station_id":"GST","transit":false,"i_long":106.850107,"time":1,"line":11,"station_name":"Gang Sentiong","i_lat":-6.185975},{"line":11,"station_id":"PSE","distance":1567,"station_name":"Pasar Senen","is_transit":false,"i_long":106.84368,"time":8,"transit":false,"i_lat":-6.174784},{"transit":false,"station_name":"Kemayoran","time":4,"i_long":106.839204,"is_transit":false,"distance":1436,"i_lat":-6.161728,"station_id":"KMO","line":11},{"station_name":"Rajawali","is_transit":false,"i_long":106.836569,"line":11,"i_lat":-6.14505,"time":5,"transit":false,"station_id":"RJW","distance":1901},{"distance":1444,"transit":true,"i_lat":-6.132549,"station_name":"Kampung Bandan","i_long":106.826365,"is_transit":true,"time":3,"station_id":"KPB","line":4},{"i_long":106.84464,"station_name":"Ancol","transit":false,"time":4,"line":4,"distance":2185,"is_transit":false,"station_id":"AC","i_lat":-6.128023},{"distance":4566,"time":9,"i_lat":-6.1109480000000005,"is_transit":false,"i_long":106.880089,"line":4,"station_id":"TPK","transit":false,"station_name":"Tanjung Priuk"}]]}