{"data":[[{"time":0,"line":2,"i_long":106.834175,"is_transit":false,"distance":0,"station_name":"Univ. Pancasila","station_id":"UP","transit":false,"i_lat":-6.339291},{"distance":1029,"station_id":"LNA","time":2,"transit":false,"line":2,"station_name":"Lenteng Agung","i_lat":-6.330363,"is_transit":false,"i_long":106.832616},{"station_name":"Tanjung Barat","transit":false,"is_transit":false,"distance":2671,"time":3,"line":2,"i_lat":-6.3080680000000005,"i_long":106.838896,"station_id":"TNT"},{"is_transit":false,"distance":2820,"transit":false,"station_name":"Pasar Minggu","time":4,"station_id":"PSM","i_long":106.843999,"i_lat":-6.2842400000000005,"line":2},{"is_transit":false,"i_lat":-6.263214,"i_long":106.851577,"station_id":"PSMB","station_name":"Pasar Minggu Baru","time":2,"distance":2380,"line":2,"transit":false},{"is_transit":false,"station_name":"Duren Kalibata","time":2,"distance":824,"transit":false,"i_long":106.85449,"line":2,"i_lat":-6.255332,"station_id":"DRN"},{"line":2,"station_id":"CW","station_name":"Cawang","transit":false,"time":3,"is_transit":false,"distance":1546,"i_lat":-6.242512,"i_long":106.856607},{"transit":false,"station_name":"Tebet","station_id":"TEB","is_transit":false,"i_lat":-6.226659,"distance":1230,"line":2,"time":2,"i_long":106.857948},{"transit":true,"station_id":"MRI","is_transit":true,"line":2,"station_name":"Manggarai","time":4,"distance":2610,"i_long":106.84912,"i_lat":-6.209883},{"time":4,"transit":false,"is_transit":false,"i_long":106.822649,"i_lat":-6.202263,"distance":3186,"station_name":"Sudirman","line":1,"station_id":"SUD"},{"station_name":"Sudirman Baru","station_id":"SUDB","i_long":106.819881,"distance":280,"transit":false,"i_lat":-6.201433,"time":1,"is_transit":false,"line":1},{"i_lat":-6.20132,"station_name":"Karet","transit":false,"distance":471,"line":1,"i_long":106.816351,"time":1,"station_id":"KAT","is_transit":false},{"time":5,"transit":false,"station_name":"Tanah Abang","distance":2029,"i_lat":-6.185545,"station_id":"THB","i_long":106.811091,"line":1,"is_transit":false}],[{"i_long":106.834175,"station_id":"UP","distance":0,"station_name":"Univ. Pancasila","i_lat":-6.339291,"transit":false,"time":0,"is_transit":false,"line":2},{"distance":1029,"i_lat":-6.330363,"station_id":"LNA","time":2,"is_transit":false,"transit":false,"line":2,"i_long":106.832616,"station_name":"Lenteng Agung"},{"line":2,"station_name":"Tanjung Barat","i_lat":-6.3080680000000005,"i_long":106.838896,"time":3,"is_transit":false,"distance":2671,"transit":false,"station_id":"TNT"},{"distance":2820,"transit":false,"i_long":106.843999,"line":2,"i_lat":-6.2842400000000005,"time":4,"station_name":"Pasar Minggu","station_id":"PSM","is_transit":false},{"i_lat":-6.263214,"station_name":"Pasar Minggu Baru","i_long":106.851577,"transit":false,"is_transit":false,"time":2,"line":2,"distance":2380,"station_id":"PSMB"},{"i_lat":-6.255332,"station_id":"DRN","time":2,"line":2,"i_long":106.85449,"distance":824,"station_name":"Duren Kalibata","transit":false,"is_transit":false},{"is_transit":false,"station_id":"CW","transit":false,"line":2,"i_long":106.856607,"station_name":"Cawang","distance":1546,"i_lat":-6.242512,"time":3},{"station_id":"TEB","i_long":106.857948,"time":2,"distance":1230,"i_lat":-6.226659,"is_transit":false,"transit":false,"line":2,"station_name":"Tebet"},{"is_transit":false,"station_id":"MRI","time":4,"distance":2610,"i_lat":-6.209883,"station_name":"Manggarai","i_long":106.84912,"line":2,"transit":false},{"distance":1590,"i_lat":-6.198556,"is_transit":false,"i_long":106.840169,"line":2,"transit":false,"station_name":"Cikini","time":4,"station_id":"CKI"},{"line":2,"is_transit":false,"i_lat":-6.186295,"transit":false,"station_name":"Gondangdia","time":3,"i_long":106.832183,"station_id":"GDD","distance":1750},{"i_long":106.828284,"station_name":"Juanda","line":2,"time":4,"is_transit":false,"distance":2015,"station_id":"JUA","i_lat":-6.166716,"transit":false},{"distance":1149,"i_lat":-6.160725,"station_name":"Sawah Besar","i_long":106.827103,"time":2,"transit":false,"is_transit":false,"line":2,"station_id":"SW"},{"station_name":"Manggabesar","distance":906,"time":2,"i_lat":-6.149769,"i_long":106.82482,"line":2,"station_id":"MGB","transit":false,"is_transit":false},{"i_lat":-6.141205,"transit":false,"station_id":"JAY","i_long":106.820901,"station_name":"Jayakarta","line":2,"is_transit":false,"distance":1080,"time":2},{"is_transit":true,"distance":1264,"i_lat":-6.137569,"i_long":106.812439,"station_name":"Jakarta Kota","station_id":"JAKK","time":4,"line":2,"transit":true},{"station_name":"Kampung Bandan","is_transit":true,"station_id":"KPB","time":3,"i_lat":-6.132549,"transit":true,"distance":1364,"i_long":106.826365,"line":4},{"i_lat":-6.144674,"transit":false,"station_name":"Angke","station_id":"AK","time":9,"i_long":106.79867,"line":1,"is_transit":false,"distance":4102},{"distance":1230,"time":4,"line":1,"i_long":106.800832,"transit":false,"station_id":"DU","i_lat":-6.155215,"is_transit":false,"station_name":"Duri"},{"distance":3632,"station_id":"THB","line":1,"transit":false,"is_transit":false,"i_lat":-6.185545,"time":8,"station_name":"Tanah Abang","i_long":106.811091}],[{"station_id":"UP","i_long":106.834175,"is_transit":false,"station_name":"Univ. Pancasila","transit":false,"time":0,"distance":0,"i_lat":-6.339291,"line":2},{"time":2,"transit":false,"station_id":"LNA","i_long":106.832616,"line":2,"is_transit":false,"distance":1029,"station_name":"Lenteng Agung","i_lat":-6.330363},{"distance":2671,"i_long":106.838896,"line":2,"time":3,"station_id":"TNT","transit":false,"station_name":"Tanjung Barat","is_transit":false,"i_lat":-6.3080680000000005},{"station_name":"Pasar Minggu","distance":2820,"line":2,"station_id":"PSM","transit":false,"is_transit":false,"time":4,"i_lat":-6.2842400000000005,"i_long":106.843999},{"is_transit":false,"station_id":"PSMB","time":2,"distance":2380,"i_long":106.851577,"line":2,"transit":false,"station_name":"Pasar Minggu Baru","i_lat":-6.263214},{"station_id":"DRN","station_name":"Duren Kalibata","i_long":106.85449,"line":2,"time":2,"transit":false,"is_transit":false,"i_lat":-6.255332,"distance":824},{"station_name":"Cawang","i_lat":-6.242512,"line":2,"is_transit":false,"transit":false,"time":3,"station_id":"CW","distance":1546,"i_long":106.856607},{"i_lat":-6.226659,"line":2,"transit":false,"i_long":106.857948,"station_name":"Tebet","station_id":"TEB","time":2,"distance":1230,"is_transit":false},{"i_long":106.84912,"is_transit":true,"transit":true,"time":4,"line":2,"i_lat":-6.209883,"station_name":"Manggarai","distance":2610,"station_id":"MRI"},{"time":2,"station_id":"MTR","is_transit":false,"i_lat":-6.212485,"transit":false,"station_name":"Matraman","i_long":106.858896,"distance":1275,"line":1},{"transit":true,"is_transit":true,"line":1,"distance":1377,"station_id":"JNG","i_long":106.86807400000001,"i_lat":-6.215091,"time":8,"station_name":"Jatinegara"},{"transit":false,"station_id":"POK","line":11,"i_long":106.861737,"is_transit":false,"station_name":"Pondok Jati","distance":1236,"i_lat":-6.209188,"time":2},{"transit":false,"i_lat":-6.193792,"is_transit":false,"time":2,"station_id":"KMT","distance":1829,"i_long":106.855437,"line":11,"station_name":"Kramat"},{"time":1,"i_lat":-6.185975,"distance":973,"station_name":"Gang Sentiong","station_id":"GST","transit":false,"is_transit":false,"i_long":106.850107,"line":11},{"station_id":"PSE","distance":1567,"i_lat":-6.174784,"is_transit":false,"i_long":106.84368,"line":11,"station_name":"Pasar Senen","transit":false,"time":8},{"time":4,"is_transit":false,"i_long":106.839204,"transit":false,"line":11,"station_name":"Kemayoran","station_id":"KMO","distance":1436,"i_lat":-6.161728},{"time":5,"station_id":"RJW","station_name":"Rajawali","is_transit":false,"i_lat":-6.14505,"distance":1901,"transit":false,"line":11,"i_long":106.836569},{"station_name":"Kampung Bandan","line":4,"is_transit":true,"distance":1444,"transit":true,"i_long":106.826365,"time":3,"i_lat":-6.132549,"station_id":"KPB"},{"station_name":"Angke","is_transit":false,"distance":4102,"station_id":"AK","line":1,"i_lat":-6.144674,"i_long":106.79867,"time":9,"transit":false},{"station_id":"DU","is_transit":false,"i_lat":-6.155215,"station_name":"Duri","distance":1230,"line":1,"i_long":106.800832,"transit":false,"time":4},{"distance":3632,"i_lat":-6.185545,"i_long":106.811091,"is_transit":false,"station_id":"THB","line":1,"station_name":"Tanah Abang","time":8,"transit":false}]]}