{"data":[[{"time":0,"transit":false,"line":2,"station_id":"UP","distance":0,"i_long":106.834175,"station_name":"Univ. Pancasila","i_lat":-6.339291,"is_transit":false},{"station_id":"LNA","is_transit":false,"transit":false,"i_long":106.832616,"station_name":"Lenteng Agung","i_lat":-6.330363,"line":2,"distance":1029,"time":2},{"i_lat":-6.3080680000000005,"i_long":106.838896,"station_name":"Tanjung Barat","time":3,"station_id":"TNT","distance":2671,"line":2,"transit":false,"is_transit":false},{"station_id":"PSM","time":4,"transit":false,"station_name":"Pasar Minggu","i_long":106.843999,"line":2,"is_transit":false,"distance":2820,"i_lat":-6.2842400000000005},{"station_name":"Pasar Minggu Baru","i_lat":-6.263214,"i_long":106.851577,"distance":2380,"time":2,"is_transit":false,"line":2,"station_id":"PSMB","transit":false},{"i_long":106.85449,"station_name":"Duren Kalibata","distance":824,"time":2,"line":2,"is_transit":false,"transit":false,"i_lat":-6.255332,"station_id":"DRN"},{"is_transit":false,"transit":false,"distance":1546,"time":3,"station_id":"CW","station_name":"Cawang","i_lat":-6.242512,"i_long":106.856607,"line":2},{"is_transit":false,"i_lat":-6.226659,"transit":false,"i_long":106.857948,"line":2,"station_name":"Tebet","station_id":"TEB","distance":1230,"time":2},{"station_name":"Manggarai","i_long":106.84912,"distance":2610,"station_id":"MRI","transit":true,"i_lat":-6.209883,"time":4,"is_transit":true,"line":2},{"is_transit":false,"station_name":"Sudirman","line":1,"i_long":106.822649,"distance":3186,"station_id":"SUD","transit":false,"i_lat":-6.202263,"time":4},{"line":1,"i_lat":-6.201433,"i_long":106.819881,"station_name":"Sudirman Baru","distance":280,"station_id":"SUDB","is_transit":false,"time":1,"transit":false},{"station_id":"KAT","distance":471,"line":1,"time":1,"station_name":"Karet","is_transit":false,"i_long":106.816351,"transit":false,"i_lat":-6.20132},{"is_transit":false,"station_name":"Tanah Abang","station_id":"THB","time":5,"i_lat":-6.185545,"line":1,"distance":2029,"i_long":106.811091,"transit":false},{"i_long":106.800832,"time":8,"distance":3632,"station_name":"Duri","i_lat":-6.155215,"is_transit":true,"line":1,"station_id":"DU","transit":true},{"time":3,"station_id":"GGL","line":5,"i_long":106.788277,"transit":false,"station_name":"Grogol","distance":1700,"i_lat":-6.162021,"is_transit":false},{"is_transit":false,"time":2,"i_long":106.771379,"transit":false,"distance":2036,"station_id":"PSG","station_name":"Pesing","i_lat":-6.161433,"line":5},{"distance":1614,"line":5,"i_long":106.756522,"transit":false,"station_id":"TKO","station_name":"Taman Kota","is_transit":false,"time":2,"i_lat":-6.1587309999999995},{"station_name":"Bojongindah","is_transit":false,"line":5,"time":2,"distance":2334,"station_id":"BOI","i_lat":-6.159876,"i_long":106.737035,"transit":false},{"i_long":106.723064,"line":5,"station_name":"Rawa Buaya","is_transit":false,"time":4,"transit":false,"station_id":"RW","distance":1152,"i_lat":-6.162758},{"station_name":"Kalideres","transit":false,"i_lat":-6.166068,"i_long":106.701612,"time":3,"is_transit":false,"line":5,"distance":2504,"station_id":"KDS"},{"i_long":106.679458,"station_name":"Poris","i_lat":-6.169933,"distance":2548,"line":5,"is_transit":false,"transit":false,"time":3,"station_id":"PI"},{"line":5,"station_id":"BPR","transit":false,"distance":1834,"i_lat":-6.171811,"i_long":106.665036,"is_transit":false,"time":3,"station_name":"Batuceper"},{"is_transit":false,"line":5,"station_name":"Tanah Tinggi","i_lat":-6.17331,"time":3,"transit":false,"distance":2028,"i_long":106.64657,"station_id":"TTI"}],[{"i_long":106.834175,"line":2,"distance":0,"is_transit":false,"station_name":"Univ. Pancasila","station_id":"UP","i_lat":-6.339291,"time":0,"transit":false},{"transit":false,"time":2,"station_id":"LNA","distance":1029,"i_long":106.832616,"i_lat":-6.330363,"line":2,"station_name":"Lenteng Agung","is_transit":false},{"station_name":"Tanjung Barat","distance":2671,"is_transit":false,"i_lat":-6.3080680000000005,"time":3,"line":2,"station_id":"TNT","i_long":106.838896,"transit":false},{"station_name":"Pasar Minggu","i_long":106.843999,"distance":2820,"is_transit":false,"station_id":"PSM","i_lat":-6.2842400000000005,"line":2,"time":4,"transit":false},{"distance":2380,"i_lat":-6.263214,"time":2,"station_id":"PSMB","station_name":"Pasar Minggu Baru","line":2,"transit":false,"is_transit":false,"i_long":106.851577},{"line":2,"distance":824,"station_name":"Duren Kalibata","station_id":"DRN","i_long":106.85449,"time":2,"is_transit":false,"transit":false,"i_lat":-6.255332},{"transit":false,"time":3,"station_id":"CW","i_lat":-6.242512,"i_long":106.856607,"is_transit":false,"line":2,"station_name":"Cawang","distance":1546},{"i_long":106.857948,"station_id":"TEB","distance":1230,"i_lat":-6.226659,"station_name":"Tebet","is_transit":false,"time":2,"transit":false,"line":2},{"station_name":"Manggarai","i_lat":-6.209883,"is_transit":false,"transit":false,"distance":2610,"i_long":106.84912,"station_id":"MRI","line":2,"time":4},{"i_long":106.840169,"line":2,"station_name":"Cikini","is_transit":false,"station_id":"CKI","time":4,"distance":1590,"transit":false,"i_lat":-6.198556},{"time":3,"distance":1750,"transit":false,"is_transit":false,"i_long":106.832183,"station_id":"GDD","line":2,"station_name":"Gondangdia","i_lat":-6.186295},{"is_transit":false,"transit":false,"station_name":"Juanda","station_id":"JUA","i_long":106.828284,"line":2,"distance":2015,"time":4,"i_lat":-6.166716},{"is_transit":false,"transit":false,"time":2,"i_long":106.827103,"station_id":"SW","line":2,"i_lat":-6.160725,"station_name":"Sawah Besar","distance":1149},{"station_id":"MGB","transit":false,"distance":906,"line":2,"time":2,"is_transit":false,"station_name":"Manggabesar","i_lat":-6.149769,"i_long":106.82482},{"time":2,"station_id":"JAY","i_long":106.820901,"is_transit":false,"transit":false,"line":2,"station_name":"Jayakarta","i_lat":-6.141205,"distance":1080},{"i_long":106.812439,"station_name":"Jakarta Kota","station_id":"JAKK","distance":1264,"is_transit":true,"transit":true,"line":2,"time":4,"i_lat":-6.137569},{"time":3,"station_id":"KPB","transit":true,"distance":1364,"i_lat":-6.132549,"station_name":"Kampung Bandan","is_transit":true,"line":4,"i_long":106.826365},{"is_transit":false,"time":9,"transit":false,"station_id":"AK","i_long":106.79867,"line":1,"distance":4102,"i_lat":-6.144674,"station_name":"Angke"},{"time":4,"line":1,"distance":1230,"is_transit":true,"i_lat":-6.155215,"station_name":"Duri","i_long":106.800832,"transit":true,"station_id":"DU"},{"station_name":"Grogol","transit":false,"line":5,"distance":1700,"time":3,"is_transit":false,"i_long":106.788277,"station_id":"GGL","i_lat":-6.162021},{"line":5,"station_name":"Pesing","transit":false,"i_lat":-6.161433,"time":2,"station_id":"PSG","distance":2036,"i_long":106.771379,"is_transit":false},{"time":2,"is_transit":false,"i_long":106.756522,"station_name":"Taman Kota","transit":false,"line":5,"distance":1614,"station_id":"TKO","i_lat":-6.1587309999999995},{"i_long":106.737035,"i_lat":-6.159876,"time":2,"transit":false,"distance":2334,"station_id":"BOI","line":5,"station_name":"Bojongindah","is_transit":false},{"distance":1152,"is_transit":false,"time":4,"transit":false,"station_id":"RW","station_name":"Rawa Buaya","i_long":106.723064,"i_lat":-6.162758,"line":5},{"transit":false,"i_long":106.701612,"station_name":"Kalideres","station_id":"KDS","i_lat":-6.166068,"line":5,"time":3,"distance":2504,"is_transit":false},{"i_long":106.679458,"line":5,"is_transit":false,"station_name":"Poris","time":3,"station_id":"PI","transit":false,"distance":2548,"i_lat":-6.169933},{"station_name":"Batuceper","distance":1834,"i_long":106.665036,"transit":false,"time":3,"line":5,"station_id":"BPR","is_transit":false,"i_lat":-6.171811},{"is_transit":false,"station_id":"TTI","transit":false,"distance":2028,"station_name":"Tanah Tinggi","line":5,"time":3,"i_lat":-6.17331,"i_long":106.64657}],[{"station_id":"UP","transit":false,"i_lat":-6.339291,"time":0,"distance":0,"station_name":"Univ. Pancasila","is_transit":false,"i_long":106.834175,"line":2},{"time":2,"is_transit":false,"transit":false,"i_long":106.832616,"distance":1029,"station_name":"Lenteng Agung","station_id":"LNA","i_lat":-6.330363,"line":2},{"line":2,"station_id":"TNT","time":3,"is_transit":false,"station_name":"Tanjung Barat","distance":2671,"transit":false,"i_lat":-6.3080680000000005,"i_long":106.838896},{"i_long":106.843999,"distance":2820,"time":4,"station_id":"PSM","i_lat":-6.2842400000000005,"transit":false,"line":2,"station_name":"Pasar Minggu","is_transit":false},{"distance":2380,"i_long":106.851577,"transit":false,"line":2,"station_name":"Pasar Minggu Baru","is_transit":false,"time":2,"station_id":"PSMB","i_lat":-6.263214},{"distance":824,"station_id":"DRN","line":2,"station_name":"Duren Kalibata","transit":false,"time":2,"i_lat":-6.255332,"i_long":106.85449,"is_transit":false},{"transit":false,"is_transit":false,"line":2,"station_name":"Cawang","i_lat":-6.242512,"i_long":106.856607,"time":3,"distance":1546,"station_id":"CW"},{"station_id":"TEB","i_long":106.857948,"time":2,"line":2,"transit":false,"i_lat":-6.226659,"is_transit":false,"distance":1230,"station_name":"Tebet"},{"station_name":"Manggarai","distance":2610,"is_transit":true,"line":2,"time":4,"i_long":106.84912,"transit":true,"station_id":"MRI","i_lat":-6.209883},{"station_name":"Matraman","is_transit":false,"i_lat":-6.212485,"line":1,"time":2,"distance":1275,"transit":false,"station_id":"MTR","i_long":106.858896},{"i_long":106.86807400000001,"station_id":"JNG","is_transit":true,"line":1,"transit":true,"time":8,"station_name":"Jatinegara","distance":1377,"i_lat":-6.215091},{"station_name":"Pondok Jati","transit":false,"i_lat":-6.209188,"station_id":"POK","line":11,"is_transit":false,"i_long":106.861737,"distance":1236,"time":2},{"transit":false,"distance":1829,"time":2,"station_id":"KMT","i_lat":-6.193792,"line":11,"i_long":106.855437,"station_name":"Kramat","is_transit":false},{"distance":973,"i_long":106.850107,"station_id":"GST","time":1,"is_transit":false,"line":11,"i_lat":-6.185975,"transit":false,"station_name":"Gang Sentiong"},{"is_transit":false,"station_id":"PSE","line":11,"distance":1567,"transit":false,"station_name":"Pasar Senen","i_long":106.84368,"i_lat":-6.174784,"time":8},{"transit":false,"i_lat":-6.161728,"station_id":"KMO","distance":1436,"is_transit":false,"station_name":"Kemayoran","i_long":106.839204,"line":11,"time":4},{"is_transit":false,"i_lat":-6.14505,"time":5,"transit":false,"station_name":"Rajawali","i_long":106.836569,"line":11,"station_id":"RJW","distance":1901},{"is_transit":true,"distance":1444,"time":3,"line":4,"i_lat":-6.132549,"i_long":106.826365,"transit":true,"station_name":"Kampung Bandan","station_id":"KPB"},{"station_id":"AK","i_long":106.79867,"i_lat":-6.144674,"line":1,"time":9,"transit":false,"is_transit":false,"station_name":"Angke","distance":4102},{"time":4,"transit":true,"i_long":106.800832,"station_name":"Duri","distance":1230,"line":1,"station_id":"DU","i_lat":-6.155215,"is_transit":true},{"distance":1700,"transit":false,"i_lat":-6.162021,"time":3,"i_long":106.788277,"station_id":"GGL","station_name":"Grogol","line":5,"is_transit":false},{"i_lat":-6.161433,"line":5,"distance":2036,"station_name":"Pesing","i_long":106.771379,"time":2,"station_id":"PSG","transit":false,"is_transit":false},{"line":5,"i_long":106.756522,"distance":1614,"is_transit":false,"transit":false,"i_lat":-6.1587309999999995,"time":2,"station_name":"Taman Kota","station_id":"TKO"},{"distance":2334,"time":2,"station_name":"Bojongindah","station_id":"BOI","i_long":106.737035,"line":5,"transit":false,"i_lat":-6.159876,"is_transit":false},{"distance":1152,"transit":false,"station_name":"Rawa Buaya","is_transit":false,"line":5,"time":4,"station_id":"RW","i_lat":-6.162758,"i_long":106.723064},{"i_lat":-6.166068,"time":3,"station_id":"KDS","station_name":"Kalideres","is_transit":false,"i_long":106.701612,"line":5,"distance":2504,"transit":false},{"station_name":"Poris","is_transit":false,"transit":false,"i_lat":-6.169933,"time":3,"station_id":"PI","line":5,"distance":2548,"i_long":106.679458},{"transit":false,"i_long":106.665036,"station_id":"BPR","time":3,"distance":1834,"i_lat":-6.171811,"station_name":"Batuceper","line":5,"is_transit":false},{"distance":2028,"line":5,"station_id":"TTI","transit":false,"i_long":106.64657,"station_name":"Tanah Tinggi","is_transit":false,"time":3,"i_lat":-6.17331}]]}