{"data":[[{"station_id":"UP","i_long":106.834175,"line":2,"time":0,"distance":0,"i_lat":-6.339291,"station_name":"Univ. Pancasila","transit":false,"is_transit":false},{"station_name":"Lenteng Agung","is_transit":false,"line":2,"time":2,"station_id":"LNA","i_lat":-6.330363,"i_long":106.832616,"distance":1029,"transit":false},{"transit":false,"station_name":"Tanjung Barat","time":3,"is_transit":false,"line":2,"i_lat":-6.3080680000000005,"i_long":106.838896,"distance":2671,"station_id":"TNT"},{"time":4,"distance":2820,"station_id":"PSM","is_transit":false,"transit":false,"line":2,"station_name":"Pasar Minggu","i_long":106.843999,"i_lat":-6.2842400000000005},{"transit":false,"station_id":"PSMB","time":2,"is_transit":false,"line":2,"i_lat":-6.263214,"station_name":"Pasar Minggu Baru","distance":2380,"i_long":106.851577},{"is_transit":false,"time":2,"i_lat":-6.255332,"i_long":106.85449,"station_id":"DRN","line":2,"distance":824,"station_name":"Duren Kalibata","transit":false},{"station_name":"Cawang","i_lat":-6.242512,"line":2,"i_long":106.856607,"distance":1546,"time":3,"station_id":"CW","is_transit":false,"transit":false},{"transit":false,"station_id":"TEB","i_long":106.857948,"distance":1230,"is_transit":false,"i_lat":-6.226659,"line":2,"station_name":"Tebet","time":2},{"is_transit":true,"line":2,"distance":2610,"station_name":"Manggarai","i_long":106.84912,"time":4,"station_id":"MRI","transit":true,"i_lat":-6.209883},{"distance":3186,"transit":false,"line":1,"time":4,"i_long":106.822649,"i_lat":-6.202263,"station_name":"Sudirman","station_id":"SUD","is_transit":false},{"station_id":"SUDB","is_transit":false,"time":1,"i_lat":-6.201433,"transit":false,"i_long":106.819881,"distance":280,"station_name":"Sudirman Baru","line":1},{"transit":false,"i_lat":-6.20132,"time":1,"is_transit":false,"station_id":"KAT","i_long":106.816351,"line":1,"distance":471,"station_name":"Karet"},{"distance":2029,"station_id":"THB","i_long":106.811091,"time":5,"is_transit":false,"line":1,"i_lat":-6.185545,"station_name":"Tanah Abang","transit":false},{"i_lat":-6.155215,"distance":3632,"transit":false,"i_long":106.800832,"station_name":"Duri","is_transit":false,"time":8,"line":1,"station_id":"DU"},{"line":1,"is_transit":false,"distance":1230,"time":4,"station_id":"AK","station_name":"Angke","transit":false,"i_lat":-6.144674,"i_long":106.79867},{"time":9,"distance":4102,"i_long":106.826365,"is_transit":true,"station_id":"KPB","line":4,"station_name":"Kampung Bandan","i_lat":-6.132549,"transit":true},{"is_transit":false,"i_lat":-6.128023,"station_name":"Ancol","i_long":106.84464,"distance":2185,"station_id":"AC","transit":false,"time":4,"line":4},{"time":9,"line":4,"distance":4566,"transit":false,"station_name":"Tanjung Priuk","station_id":"TPK","i_lat":-6.1109480000000005,"i_long":106.880089,"is_transit":false}],[{"is_transit":false,"distance":0,"time":0,"transit":false,"i_lat":-6.339291,"station_name":"Univ. Pancasila","station_id":"UP","i_long":106.834175,"line":2},{"is_transit":false,"station_id":"LNA","time":2,"distance":1029,"station_name":"Lenteng Agung","i_lat":-6.330363,"line":2,"transit":false,"i_long":106.832616},{"transit":false,"time":3,"i_lat":-6.3080680000000005,"i_long":106.838896,"line":2,"distance":2671,"station_id":"TNT","is_transit":false,"station_name":"Tanjung Barat"},{"time":4,"i_lat":-6.2842400000000005,"station_name":"Pasar Minggu","distance":2820,"station_id":"PSM","transit":false,"is_transit":false,"i_long":106.843999,"line":2},{"distance":2380,"station_id":"PSMB","is_transit":false,"transit":false,"station_name":"Pasar Minggu Baru","i_lat":-6.263214,"time":2,"i_long":106.851577,"line":2},{"time":2,"line":2,"distance":824,"is_transit":false,"i_lat":-6.255332,"station_id":"DRN","transit":false,"i_long":106.85449,"station_name":"Duren Kalibata"},{"station_id":"CW","time":3,"i_long":106.856607,"is_transit":false,"i_lat":-6.242512,"line":2,"transit":false,"distance":1546,"station_name":"Cawang"},{"station_id":"TEB","line":2,"is_transit":false,"station_name":"Tebet","time":2,"transit":false,"i_lat":-6.226659,"distance":1230,"i_long":106.857948},{"station_name":"Manggarai","transit":false,"station_id":"MRI","i_lat":-6.209883,"is_transit":false,"line":2,"distance":2610,"i_long":106.84912,"time":4},{"transit":false,"station_name":"Cikini","time":4,"distance":1590,"i_lat":-6.198556,"line":2,"is_transit":false,"i_long":106.840169,"station_id":"CKI"},{"transit":false,"distance":1750,"is_transit":false,"station_name":"Gondangdia","station_id":"GDD","i_lat":-6.186295,"i_long":106.832183,"time":3,"line":2},{"distance":2015,"station_id":"JUA","station_name":"Juanda","line":2,"time":4,"is_transit":false,"transit":false,"i_lat":-6.166716,"i_long":106.828284},{"is_transit":false,"station_id":"SW","station_name":"Sawah Besar","i_long":106.827103,"distance":1149,"time":2,"transit":false,"i_lat":-6.160725,"line":2},{"line":2,"i_lat":-6.149769,"is_transit":false,"transit":false,"station_id":"MGB","distance":906,"time":2,"station_name":"Manggabesar","i_long":106.82482},{"distance":1080,"is_transit":false,"station_name":"Jayakarta","station_id":"JAY","i_long":106.820901,"transit":false,"time":2,"i_lat":-6.141205,"line":2},{"transit":true,"station_id":"JAKK","i_long":106.812439,"line":2,"i_lat":-6.137569,"time":4,"distance":1264,"station_name":"Jakarta Kota","is_transit":true},{"station_name":"Kampung Bandan","i_lat":-6.132549,"distance":1364,"transit":true,"i_long":106.826365,"time":3,"line":4,"is_transit":true,"station_id":"KPB"},{"station_id":"AC","transit":false,"i_lat":-6.128023,"i_long":106.84464,"time":4,"line":4,"station_name":"Ancol","distance":2185,"is_transit":false},{"station_id":"TPK","i_long":106.880089,"station_name":"Tanjung Priuk","time":9,"line":4,"distance":4566,"is_transit":false,"transit":false,"i_lat":-6.1109480000000005}],[{"station_name":"Univ. Pancasila","line":2,"station_id":"UP","i_lat":-6.339291,"transit":false,"distance":0,"i_long":106.834175,"time":0,"is_transit":false},{"transit":false,"i_long":106.832616,"time":2,"station_id":"LNA","distance":1029,"is_transit":false,"line":2,"station_name":"Lenteng Agung","i_lat":-6.330363},{"i_lat":-6.3080680000000005,"station_name":"Tanjung Barat","line":2,"i_long":106.838896,"is_transit":false,"distance":2671,"transit":false,"station_id":"TNT","time":3},{"is_transit":false,"transit":false,"i_long":106.843999,"i_lat":-6.2842400000000005,"time":4,"station_name":"Pasar Minggu","distance":2820,"line":2,"station_id":"PSM"},{"i_long":106.851577,"i_lat":-6.263214,"is_transit":false,"distance":2380,"line":2,"station_name":"Pasar Minggu Baru","transit":false,"time":2,"station_id":"PSMB"},{"i_long":106.85449,"transit":false,"station_id":"DRN","time":2,"station_name":"Duren Kalibata","distance":824,"is_transit":false,"line":2,"i_lat":-6.255332},{"line":2,"time":3,"station_name":"Cawang","station_id":"CW","is_transit":false,"transit":false,"i_lat":-6.242512,"distance":1546,"i_long":106.856607},{"station_id":"TEB","transit":false,"distance":1230,"i_lat":-6.226659,"station_name":"Tebet","time":2,"is_transit":false,"i_long":106.857948,"line":2},{"distance":2610,"time":4,"is_transit":true,"transit":true,"i_long":106.84912,"i_lat":-6.209883,"line":2,"station_name":"Manggarai","station_id":"MRI"},{"transit":false,"is_transit":false,"distance":1275,"i_long":106.858896,"time":2,"line":1,"station_id":"MTR","i_lat":-6.212485,"station_name":"Matraman"},{"station_id":"JNG","station_name":"Jatinegara","is_transit":true,"i_long":106.86807400000001,"line":1,"distance":1377,"time":8,"i_lat":-6.215091,"transit":true},{"i_long":106.861737,"line":11,"distance":1236,"transit":false,"i_lat":-6.209188,"is_transit":false,"station_id":"POK","time":2,"station_name":"Pondok Jati"},{"i_long":106.855437,"time":2,"transit":false,"station_name":"Kramat","is_transit":false,"i_lat":-6.193792,"line":11,"distance":1829,"station_id":"KMT"},{"time":1,"station_name":"Gang Sentiong","is_transit":false,"station_id":"GST","transit":false,"distance":973,"line":11,"i_lat":-6.185975,"i_long":106.850107},{"i_lat":-6.174784,"is_transit":false,"station_name":"Pasar Senen","station_id":"PSE","transit":false,"i_long":106.84368,"time":8,"distance":1567,"line":11},{"is_transit":false,"station_id":"KMO","distance":1436,"station_name":"Kemayoran","transit":false,"time":4,"i_lat":-6.161728,"line":11,"i_long":106.839204},{"time":5,"station_id":"RJW","distance":1901,"transit":false,"i_lat":-6.14505,"i_long":106.836569,"line":11,"station_name":"Rajawali","is_transit":false},{"is_transit":true,"time":3,"distance":1444,"i_lat":-6.132549,"i_long":106.826365,"station_id":"KPB","line":4,"station_name":"Kampung Bandan","transit":true},{"station_name":"Ancol","transit":false,"station_id":"AC","i_lat":-6.128023,"line":4,"i_long":106.84464,"time":4,"is_transit":false,"distance":2185},{"station_id":"TPK","i_long":106.880089,"time":9,"i_lat":-6.1109480000000005,"station_name":"Tanjung Priuk","distance":4566,"is_transit":false,"line":4,"transit":false}]]}