{"data":[[{"station_id":"UP","is_transit":false,"distance":0,"time":0,"transit":false,"i_lat":-6.339291,"station_name":"Univ. Pancasila","i_long":106.834175,"line":2},{"distance":1029,"i_lat":-6.330363,"transit":false,"station_name":"Lenteng Agung","line":2,"station_id":"LNA","i_long":106.832616,"is_transit":false,"time":2},{"time":3,"distance":2671,"station_name":"Tanjung Barat","station_id":"TNT","i_lat":-6.3080680000000005,"line":2,"i_long":106.838896,"is_transit":false,"transit":false},{"station_id":"PSM","station_name":"Pasar Minggu","is_transit":false,"time":4,"distance":2820,"i_long":106.843999,"i_lat":-6.2842400000000005,"transit":false,"line":2},{"line":2,"time":2,"i_lat":-6.263214,"distance":2380,"station_name":"Pasar Minggu Baru","transit":false,"is_transit":false,"station_id":"PSMB","i_long":106.851577},{"is_transit":false,"i_lat":-6.255332,"i_long":106.85449,"time":2,"transit":false,"line":2,"distance":824,"station_id":"DRN","station_name":"Duren Kalibata"},{"station_name":"Cawang","station_id":"CW","time":3,"i_lat":-6.242512,"is_transit":false,"i_long":106.856607,"line":2,"distance":1546,"transit":false},{"transit":false,"is_transit":false,"i_long":106.857948,"line":2,"station_name":"Tebet","time":2,"station_id":"TEB","distance":1230,"i_lat":-6.226659},{"station_name":"Manggarai","is_transit":true,"distance":2610,"station_id":"MRI","line":2,"time":4,"i_lat":-6.209883,"i_long":106.84912,"transit":true},{"transit":false,"station_name":"Sudirman","i_lat":-6.202263,"i_long":106.822649,"distance":3186,"is_transit":false,"station_id":"SUD","line":1,"time":4},{"i_long":106.819881,"transit":false,"time":1,"is_transit":false,"station_name":"Sudirman Baru","i_lat":-6.201433,"distance":280,"line":1,"station_id":"SUDB"},{"is_transit":false,"station_id":"KAT","time":1,"i_lat":-6.20132,"distance":471,"transit":false,"station_name":"Karet","i_long":106.816351,"line":1},{"i_lat":-6.185545,"time":5,"line":1,"i_long":106.811091,"station_name":"Tanah Abang","station_id":"THB","transit":false,"is_transit":false,"distance":2029},{"station_name":"Duri","station_id":"DU","i_lat":-6.155215,"time":8,"distance":3632,"i_long":106.800832,"transit":false,"is_transit":false,"line":1},{"transit":false,"line":1,"time":4,"distance":1230,"station_name":"Angke","i_lat":-6.144674,"i_long":106.79867,"is_transit":false,"station_id":"AK"},{"station_id":"KPB","is_transit":true,"i_lat":-6.132549,"station_name":"Kampung Bandan","line":4,"distance":4102,"i_long":106.826365,"transit":true,"time":9},{"station_id":"AC","station_name":"Ancol","transit":false,"i_long":106.84464,"is_transit":false,"time":4,"distance":2185,"i_lat":-6.128023,"line":4},{"line":4,"i_long":106.880089,"distance":4566,"is_transit":false,"transit":false,"station_id":"TPK","time":9,"station_name":"Tanjung Priuk","i_lat":-6.1109480000000005}],[{"transit":false,"is_transit":false,"i_lat":-6.339291,"station_name":"Univ. Pancasila","distance":0,"station_id":"UP","line":2,"time":0,"i_long":106.834175},{"station_name":"Lenteng Agung","time":2,"line":2,"station_id":"LNA","i_lat":-6.330363,"transit":false,"is_transit":false,"i_long":106.832616,"distance":1029},{"time":3,"distance":2671,"i_long":106.838896,"transit":false,"station_name":"Tanjung Barat","i_lat":-6.3080680000000005,"station_id":"TNT","is_transit":false,"line":2},{"line":2,"transit":false,"station_id":"PSM","is_transit":false,"distance":2820,"i_lat":-6.2842400000000005,"i_long":106.843999,"station_name":"Pasar Minggu","time":4},{"i_long":106.851577,"station_id":"PSMB","station_name":"Pasar Minggu Baru","is_transit":false,"time":2,"transit":false,"distance":2380,"i_lat":-6.263214,"line":2},{"i_long":106.85449,"station_id":"DRN","time":2,"is_transit":false,"station_name":"Duren Kalibata","i_lat":-6.255332,"distance":824,"line":2,"transit":false},{"i_lat":-6.242512,"i_long":106.856607,"line":2,"station_name":"Cawang","time":3,"station_id":"CW","distance":1546,"transit":false,"is_transit":false},{"station_name":"Tebet","line":2,"i_long":106.857948,"i_lat":-6.226659,"station_id":"TEB","transit":false,"time":2,"distance":1230,"is_transit":false},{"distance":2610,"station_id":"MRI","transit":false,"i_long":106.84912,"station_name":"Manggarai","time":4,"line":2,"is_transit":false,"i_lat":-6.209883},{"station_id":"CKI","station_name":"Cikini","distance":1590,"time":4,"i_long":106.840169,"transit":false,"i_lat":-6.198556,"line":2,"is_transit":false},{"time":3,"i_lat":-6.186295,"transit":false,"station_name":"Gondangdia","is_transit":false,"line":2,"i_long":106.832183,"station_id":"GDD","distance":1750},{"station_id":"JUA","distance":2015,"i_long":106.828284,"is_transit":false,"i_lat":-6.166716,"station_name":"Juanda","line":2,"time":4,"transit":false},{"transit":false,"station_name":"Sawah Besar","is_transit":false,"distance":1149,"station_id":"SW","time":2,"i_lat":-6.160725,"line":2,"i_long":106.827103},{"transit":false,"line":2,"station_id":"MGB","is_transit":false,"station_name":"Manggabesar","i_lat":-6.149769,"time":2,"i_long":106.82482,"distance":906},{"is_transit":false,"station_id":"JAY","station_name":"Jayakarta","time":2,"distance":1080,"i_lat":-6.141205,"transit":false,"i_long":106.820901,"line":2},{"i_lat":-6.137569,"station_name":"Jakarta Kota","station_id":"JAKK","is_transit":true,"distance":1264,"i_long":106.812439,"line":2,"time":4,"transit":true},{"i_long":106.826365,"line":4,"transit":true,"i_lat":-6.132549,"distance":1364,"is_transit":true,"station_id":"KPB","station_name":"Kampung Bandan","time":3},{"time":4,"i_long":106.84464,"distance":2185,"station_id":"AC","i_lat":-6.128023,"line":4,"station_name":"Ancol","is_transit":false,"transit":false},{"is_transit":false,"time":9,"i_lat":-6.1109480000000005,"line":4,"station_name":"Tanjung Priuk","i_long":106.880089,"distance":4566,"station_id":"TPK","transit":false}],[{"i_lat":-6.339291,"station_name":"Univ. Pancasila","distance":0,"transit":false,"is_transit":false,"line":2,"i_long":106.834175,"time":0,"station_id":"UP"},{"i_lat":-6.330363,"transit":false,"is_transit":false,"line":2,"i_long":106.832616,"time":2,"station_id":"LNA","distance":1029,"station_name":"Lenteng Agung"},{"transit":false,"station_id":"TNT","distance":2671,"i_lat":-6.3080680000000005,"line":2,"is_transit":false,"time":3,"i_long":106.838896,"station_name":"Tanjung Barat"},{"i_long":106.843999,"station_id":"PSM","is_transit":false,"station_name":"Pasar Minggu","distance":2820,"line":2,"time":4,"i_lat":-6.2842400000000005,"transit":false},{"line":2,"is_transit":false,"time":2,"station_name":"Pasar Minggu Baru","distance":2380,"i_long":106.851577,"i_lat":-6.263214,"station_id":"PSMB","transit":false},{"distance":824,"time":2,"station_name":"Duren Kalibata","station_id":"DRN","i_lat":-6.255332,"transit":false,"i_long":106.85449,"is_transit":false,"line":2},{"distance":1546,"line":2,"time":3,"i_long":106.856607,"is_transit":false,"station_id":"CW","station_name":"Cawang","transit":false,"i_lat":-6.242512},{"distance":1230,"line":2,"time":2,"transit":false,"station_name":"Tebet","is_transit":false,"i_lat":-6.226659,"i_long":106.857948,"station_id":"TEB"},{"transit":true,"distance":2610,"line":2,"i_long":106.84912,"station_name":"Manggarai","time":4,"station_id":"MRI","i_lat":-6.209883,"is_transit":true},{"i_lat":-6.212485,"line":1,"i_long":106.858896,"is_transit":false,"distance":1275,"station_name":"Matraman","station_id":"MTR","transit":false,"time":2},{"distance":1377,"station_name":"Jatinegara","line":1,"station_id":"JNG","i_lat":-6.215091,"i_long":106.86807400000001,"is_transit":true,"transit":true,"time":8},{"time":2,"transit":false,"is_transit":false,"i_long":106.861737,"distance":1236,"station_name":"Pondok Jati","station_id":"POK","i_lat":-6.209188,"line":11},{"line":11,"station_name":"Kramat","time":2,"is_transit":false,"station_id":"KMT","transit":false,"distance":1829,"i_lat":-6.193792,"i_long":106.855437},{"i_lat":-6.185975,"station_id":"GST","time":1,"i_long":106.850107,"distance":973,"is_transit":false,"line":11,"station_name":"Gang Sentiong","transit":false},{"time":8,"station_id":"PSE","distance":1567,"station_name":"Pasar Senen","transit":false,"i_lat":-6.174784,"is_transit":false,"line":11,"i_long":106.84368},{"i_lat":-6.161728,"station_id":"KMO","i_long":106.839204,"is_transit":false,"line":11,"transit":false,"station_name":"Kemayoran","time":4,"distance":1436},{"is_transit":false,"time":5,"line":11,"i_lat":-6.14505,"i_long":106.836569,"station_name":"Rajawali","station_id":"RJW","transit":false,"distance":1901},{"time":3,"station_name":"Kampung Bandan","station_id":"KPB","i_lat":-6.132549,"transit":true,"is_transit":true,"distance":1444,"i_long":106.826365,"line":4},{"station_name":"Ancol","transit":false,"station_id":"AC","time":4,"is_transit":false,"i_long":106.84464,"i_lat":-6.128023,"line":4,"distance":2185},{"distance":4566,"station_id":"TPK","is_transit":false,"i_lat":-6.1109480000000005,"transit":false,"station_name":"Tanjung Priuk","time":9,"line":4,"i_long":106.880089}]]}