{"data":[[{"i_long":106.834175,"time":0,"station_id":"UP","distance":0,"is_transit":false,"line":2,"transit":false,"i_lat":-6.339291,"station_name":"Univ. Pancasila"},{"station_name":"Lenteng Agung","time":2,"i_lat":-6.330363,"is_transit":false,"distance":1029,"i_long":106.832616,"station_id":"LNA","transit":false,"line":2},{"is_transit":false,"time":3,"station_name":"Tanjung Barat","transit":false,"i_lat":-6.3080680000000005,"line":2,"station_id":"TNT","i_long":106.838896,"distance":2671},{"is_transit":false,"i_lat":-6.2842400000000005,"distance":2820,"station_id":"PSM","time":4,"i_long":106.843999,"transit":false,"line":2,"station_name":"Pasar Minggu"},{"line":2,"is_transit":false,"station_id":"PSMB","time":2,"transit":false,"distance":2380,"station_name":"Pasar Minggu Baru","i_lat":-6.263214,"i_long":106.851577},{"station_id":"DRN","is_transit":false,"time":2,"i_long":106.85449,"station_name":"Duren Kalibata","transit":false,"line":2,"i_lat":-6.255332,"distance":824},{"time":3,"transit":false,"distance":1546,"i_long":106.856607,"station_id":"CW","line":2,"is_transit":false,"station_name":"Cawang","i_lat":-6.242512},{"is_transit":false,"transit":false,"i_lat":-6.226659,"time":2,"station_name":"Tebet","i_long":106.857948,"line":2,"station_id":"TEB","distance":1230},{"is_transit":true,"station_id":"MRI","station_name":"Manggarai","transit":true,"distance":2610,"i_lat":-6.209883,"time":4,"line":2,"i_long":106.84912},{"station_name":"Sudirman","line":1,"distance":3186,"station_id":"SUD","time":4,"i_long":106.822649,"transit":false,"i_lat":-6.202263,"is_transit":false},{"transit":false,"i_lat":-6.201433,"station_name":"Sudirman Baru","station_id":"SUDB","is_transit":false,"i_long":106.819881,"line":1,"time":1,"distance":280},{"transit":false,"station_name":"Karet","line":1,"i_lat":-6.20132,"i_long":106.816351,"station_id":"KAT","distance":471,"time":1,"is_transit":false},{"station_id":"THB","i_long":106.811091,"is_transit":false,"time":5,"distance":2029,"transit":false,"station_name":"Tanah Abang","i_lat":-6.185545,"line":1},{"station_name":"Duri","station_id":"DU","distance":3632,"is_transit":true,"i_lat":-6.155215,"transit":true,"i_long":106.800832,"time":8,"line":1},{"station_name":"Grogol","i_lat":-6.162021,"distance":1700,"time":3,"is_transit":false,"i_long":106.788277,"line":5,"transit":false,"station_id":"GRG"},{"station_name":"Pesing","distance":2036,"station_id":"PSG","time":2,"i_long":106.771379,"is_transit":false,"transit":false,"i_lat":-6.161433,"line":5},{"time":2,"i_lat":-6.1587309999999995,"distance":1614,"station_id":"TKO","i_long":106.756522,"line":5,"station_name":"Taman Kota","is_transit":false,"transit":false},{"i_lat":-6.159876,"transit":false,"is_transit":false,"time":2,"station_name":"Bojongindah","line":5,"i_long":106.737035,"distance":2334,"station_id":"BOI"},{"distance":1152,"is_transit":false,"transit":false,"station_id":"RW","time":4,"i_lat":-6.162758,"station_name":"Rawa Buaya","line":5,"i_long":106.723064},{"is_transit":false,"station_name":"Kalideres","i_lat":-6.166068,"line":5,"transit":false,"i_long":106.701612,"station_id":"KDS","distance":2504,"time":3},{"time":3,"distance":2548,"is_transit":false,"transit":false,"i_lat":-6.169933,"line":5,"i_long":106.679458,"station_name":"Poris","station_id":"PI"},{"transit":false,"is_transit":false,"time":3,"station_name":"Batuceper","i_long":106.665036,"station_id":"BPR","line":5,"i_lat":-6.171811,"distance":1834},{"is_transit":false,"time":3,"transit":false,"i_long":106.64657,"distance":2028,"i_lat":-6.17331,"station_name":"Tanah Tinggi","station_id":"TTI","line":5}],[{"is_transit":false,"time":0,"station_name":"Univ. Pancasila","station_id":"UP","line":2,"i_lat":-6.339291,"distance":0,"i_long":106.834175,"transit":false},{"i_long":106.832616,"is_transit":false,"time":2,"transit":false,"distance":1029,"station_name":"Lenteng Agung","line":2,"i_lat":-6.330363,"station_id":"LNA"},{"time":3,"distance":2671,"transit":false,"station_name":"Tanjung Barat","i_lat":-6.3080680000000005,"i_long":106.838896,"station_id":"TNT","is_transit":false,"line":2},{"station_name":"Pasar Minggu","i_lat":-6.2842400000000005,"i_long":106.843999,"time":4,"station_id":"PSM","distance":2820,"is_transit":false,"line":2,"transit":false},{"station_id":"PSMB","i_long":106.851577,"distance":2380,"is_transit":false,"line":2,"time":2,"station_name":"Pasar Minggu Baru","i_lat":-6.263214,"transit":false},{"is_transit":false,"time":2,"station_name":"Duren Kalibata","station_id":"DRN","i_lat":-6.255332,"i_long":106.85449,"distance":824,"transit":false,"line":2},{"station_name":"Cawang","i_long":106.856607,"line":2,"station_id":"CW","i_lat":-6.242512,"transit":false,"time":3,"is_transit":false,"distance":1546},{"transit":false,"i_lat":-6.226659,"station_name":"Tebet","distance":1230,"time":2,"i_long":106.857948,"line":2,"station_id":"TEB","is_transit":false},{"time":4,"distance":2610,"transit":false,"station_name":"Manggarai","i_lat":-6.209883,"station_id":"MRI","i_long":106.84912,"line":2,"is_transit":false},{"line":2,"i_lat":-6.198556,"i_long":106.840169,"distance":1590,"station_id":"CKI","transit":false,"is_transit":false,"time":4,"station_name":"Cikini"},{"i_lat":-6.186295,"time":3,"is_transit":false,"i_long":106.832183,"station_name":"Gondangdia","transit":false,"distance":1750,"station_id":"GDD","line":2},{"i_lat":-6.166716,"station_id":"JUA","distance":2015,"i_long":106.828284,"time":4,"is_transit":false,"transit":false,"station_name":"Juanda","line":2},{"i_lat":-6.160725,"station_id":"SW","transit":false,"is_transit":false,"station_name":"Sawah Besar","i_long":106.827103,"line":2,"distance":1149,"time":2},{"station_name":"Manggabesar","distance":906,"station_id":"MGB","line":2,"time":2,"i_long":106.82482,"i_lat":-6.149769,"transit":false,"is_transit":false},{"i_long":106.820901,"station_name":"Jayakarta","station_id":"JAY","line":2,"distance":1080,"time":2,"transit":false,"is_transit":false,"i_lat":-6.141205},{"line":2,"i_lat":-6.137569,"distance":1264,"is_transit":true,"station_name":"Jakarta Kota","transit":true,"time":4,"station_id":"JAKK","i_long":106.812439},{"i_lat":-6.132549,"line":4,"station_name":"Kampung Bandan","station_id":"KPB","i_long":106.826365,"transit":true,"distance":1364,"time":3,"is_transit":true},{"station_name":"Angke","i_lat":-6.144674,"line":1,"is_transit":false,"station_id":"AK","transit":false,"distance":4102,"i_long":106.79867,"time":9},{"time":4,"is_transit":true,"transit":true,"station_name":"Duri","i_lat":-6.155215,"distance":1230,"station_id":"DU","line":1,"i_long":106.800832},{"is_transit":false,"distance":1700,"i_long":106.788277,"transit":false,"time":3,"station_id":"GRG","line":5,"station_name":"Grogol","i_lat":-6.162021},{"is_transit":false,"distance":2036,"transit":false,"line":5,"i_long":106.771379,"station_name":"Pesing","station_id":"PSG","i_lat":-6.161433,"time":2},{"time":2,"is_transit":false,"station_id":"TKO","i_long":106.756522,"transit":false,"distance":1614,"i_lat":-6.1587309999999995,"line":5,"station_name":"Taman Kota"},{"i_long":106.737035,"i_lat":-6.159876,"station_name":"Bojongindah","time":2,"distance":2334,"line":5,"station_id":"BOI","is_transit":false,"transit":false},{"time":4,"transit":false,"station_id":"RW","distance":1152,"is_transit":false,"i_lat":-6.162758,"line":5,"station_name":"Rawa Buaya","i_long":106.723064},{"i_lat":-6.166068,"is_transit":false,"station_name":"Kalideres","transit":false,"station_id":"KDS","time":3,"distance":2504,"i_long":106.701612,"line":5},{"line":5,"transit":false,"time":3,"i_lat":-6.169933,"is_transit":false,"station_id":"PI","distance":2548,"station_name":"Poris","i_long":106.679458},{"line":5,"transit":false,"station_name":"Batuceper","i_lat":-6.171811,"station_id":"BPR","time":3,"i_long":106.665036,"distance":1834,"is_transit":false},{"line":5,"station_id":"TTI","is_transit":false,"time":3,"distance":2028,"i_lat":-6.17331,"i_long":106.64657,"transit":false,"station_name":"Tanah Tinggi"}],[{"line":2,"is_transit":false,"transit":false,"station_id":"UP","time":0,"distance":0,"station_name":"Univ. Pancasila","i_lat":-6.339291,"i_long":106.834175},{"distance":1029,"i_long":106.832616,"i_lat":-6.330363,"transit":false,"time":2,"line":2,"station_id":"LNA","is_transit":false,"station_name":"Lenteng Agung"},{"transit":false,"distance":2671,"station_name":"Tanjung Barat","is_transit":false,"station_id":"TNT","i_long":106.838896,"time":3,"i_lat":-6.3080680000000005,"line":2},{"i_long":106.843999,"is_transit":false,"time":4,"station_name":"Pasar Minggu","transit":false,"line":2,"station_id":"PSM","distance":2820,"i_lat":-6.2842400000000005},{"is_transit":false,"i_lat":-6.263214,"station_id":"PSMB","transit":false,"time":2,"i_long":106.851577,"station_name":"Pasar Minggu Baru","distance":2380,"line":2},{"i_long":106.85449,"is_transit":false,"transit":false,"i_lat":-6.255332,"time":2,"line":2,"station_name":"Duren Kalibata","distance":824,"station_id":"DRN"},{"station_id":"CW","transit":false,"time":3,"line":2,"is_transit":false,"station_name":"Cawang","i_lat":-6.242512,"i_long":106.856607,"distance":1546},{"station_name":"Tebet","transit":false,"station_id":"TEB","i_long":106.857948,"line":2,"time":2,"distance":1230,"i_lat":-6.226659,"is_transit":false},{"is_transit":true,"distance":2610,"i_long":106.84912,"i_lat":-6.209883,"line":2,"station_name":"Manggarai","time":4,"transit":true,"station_id":"MRI"},{"distance":1275,"i_lat":-6.212485,"transit":false,"station_id":"MTR","line":1,"station_name":"Matraman","is_transit":false,"time":2,"i_long":106.858896},{"i_lat":-6.215091,"station_name":"Jatinegara","transit":true,"time":8,"distance":1377,"i_long":106.86807400000001,"is_transit":true,"station_id":"JNG","line":1},{"line":11,"is_transit":false,"station_id":"POK","i_long":106.861737,"transit":false,"station_name":"Pondok Jati","distance":1236,"i_lat":-6.209188,"time":2},{"i_lat":-6.193792,"i_long":106.855437,"is_transit":false,"station_name":"Kramat","distance":1829,"station_id":"KMT","time":2,"transit":false,"line":11},{"transit":false,"station_name":"Gang Sentiong","station_id":"GST","distance":973,"line":11,"i_long":106.850107,"is_transit":false,"time":1,"i_lat":-6.185975},{"station_name":"Pasar Senen","transit":false,"time":8,"is_transit":false,"distance":1567,"station_id":"PSE","i_lat":-6.174784,"i_long":106.84368,"line":11},{"time":4,"distance":1436,"station_id":"KMO","line":11,"station_name":"Kemayoran","i_long":106.839204,"i_lat":-6.161728,"transit":false,"is_transit":false},{"transit":false,"i_long":106.836569,"station_name":"Rajawali","station_id":"RJW","distance":1901,"i_lat":-6.14505,"line":11,"time":5,"is_transit":false},{"transit":true,"station_name":"Kampung Bandan","time":3,"is_transit":true,"i_lat":-6.132549,"i_long":106.826365,"distance":1444,"line":4,"station_id":"KPB"},{"transit":false,"line":1,"is_transit":false,"distance":4102,"i_long":106.79867,"station_id":"AK","station_name":"Angke","i_lat":-6.144674,"time":9},{"i_lat":-6.155215,"line":1,"is_transit":true,"station_name":"Duri","time":4,"transit":true,"station_id":"DU","i_long":106.800832,"distance":1230},{"i_lat":-6.162021,"time":3,"is_transit":false,"station_name":"Grogol","distance":1700,"transit":false,"i_long":106.788277,"station_id":"GRG","line":5},{"is_transit":false,"distance":2036,"i_lat":-6.161433,"line":5,"transit":false,"time":2,"station_name":"Pesing","station_id":"PSG","i_long":106.771379},{"distance":1614,"i_long":106.756522,"i_lat":-6.1587309999999995,"time":2,"station_name":"Taman Kota","is_transit":false,"line":5,"transit":false,"station_id":"TKO"},{"time":2,"transit":false,"i_long":106.737035,"is_transit":false,"distance":2334,"station_name":"Bojongindah","i_lat":-6.159876,"station_id":"BOI","line":5},{"i_lat":-6.162758,"transit":false,"i_long":106.723064,"is_transit":false,"time":4,"distance":1152,"line":5,"station_name":"Rawa Buaya","station_id":"RW"},{"transit":false,"time":3,"distance":2504,"station_name":"Kalideres","is_transit":false,"i_long":106.701612,"i_lat":-6.166068,"station_id":"KDS","line":5},{"i_long":106.679458,"transit":false,"time":3,"line":5,"distance":2548,"is_transit":false,"station_id":"PI","i_lat":-6.169933,"station_name":"Poris"},{"transit":false,"distance":1834,"i_long":106.665036,"line":5,"is_transit":false,"station_id":"BPR","station_name":"Batuceper","i_lat":-6.171811,"time":3},{"time":3,"station_id":"TTI","station_name":"Tanah Tinggi","i_long":106.64657,"i_lat":-6.17331,"is_transit":false,"transit":false,"line":5,"distance":2028}]]}