{"data":[[{"distance":0,"i_long":106.834175,"time":0,"transit":false,"station_name":"Univ. Pancasila","is_transit":false,"i_lat":-6.339291,"station_id":"UP","line":2},{"i_long":106.832616,"line":2,"station_id":"LNA","time":2,"distance":1029,"is_transit":false,"i_lat":-6.330363,"station_name":"Lenteng Agung","transit":false},{"time":3,"is_transit":false,"i_long":106.838896,"line":2,"station_id":"TNT","distance":2671,"transit":false,"i_lat":-6.3080680000000005,"station_name":"Tanjung Barat"},{"line":2,"station_name":"Pasar Minggu","is_transit":false,"i_long":106.843999,"i_lat":-6.2842400000000005,"time":4,"station_id":"PSM","distance":2820,"transit":false},{"distance":2380,"transit":false,"i_long":106.851577,"line":2,"time":2,"station_id":"PSMB","station_name":"Pasar Minggu Baru","is_transit":false,"i_lat":-6.263214},{"time":2,"line":0,"distance":824,"transit":false,"station_name":"Duren Kalibata","i_lat":-6.255332,"is_transit":false,"station_id":"DRN","i_long":106.85449},{"station_name":"Cawang","i_lat":-6.242512,"station_id":"CW","time":3,"is_transit":false,"transit":false,"distance":1546,"line":0,"i_long":106.856607},{"i_long":106.857948,"station_name":"Tebet","distance":1230,"station_id":"TEB","is_transit":false,"transit":false,"i_lat":-6.226659,"line":2,"time":2},{"transit":true,"distance":2610,"i_lat":-6.209883,"is_transit":true,"time":4,"station_name":"Manggarai","line":0,"station_id":"MRI","i_long":106.84912},{"station_id":"SUD","distance":3186,"station_name":"Sudirman","i_lat":-6.202263,"line":1,"i_long":106.822649,"transit":false,"is_transit":false,"time":4},{"station_id":"SUDB","time":1,"i_lat":-6.201433,"i_long":106.819881,"distance":280,"line":1,"is_transit":false,"transit":false,"station_name":"Sudirman Baru"},{"is_transit":false,"transit":false,"i_long":106.816351,"time":1,"line":1,"distance":471,"i_lat":-6.20132,"station_id":"KAT","station_name":"Karet"},{"time":5,"station_name":"Tanah Abang","transit":false,"i_long":106.811091,"station_id":"THB","line":1,"distance":2029,"i_lat":-6.185545,"is_transit":true}],[{"i_long":106.834175,"station_id":"UP","line":2,"time":0,"i_lat":-6.339291,"transit":false,"is_transit":false,"distance":0,"station_name":"Univ. Pancasila"},{"line":2,"i_long":106.832616,"time":2,"distance":1029,"is_transit":false,"station_name":"Lenteng Agung","transit":false,"station_id":"LNA","i_lat":-6.330363},{"i_lat":-6.3080680000000005,"line":2,"station_name":"Tanjung Barat","transit":false,"i_long":106.838896,"station_id":"TNT","is_transit":false,"time":3,"distance":2671},{"time":4,"is_transit":false,"transit":false,"station_id":"PSM","i_lat":-6.2842400000000005,"line":2,"i_long":106.843999,"distance":2820,"station_name":"Pasar Minggu"},{"distance":2380,"time":2,"station_name":"Pasar Minggu Baru","transit":false,"is_transit":false,"station_id":"PSMB","line":2,"i_lat":-6.263214,"i_long":106.851577},{"station_name":"Duren Kalibata","line":0,"distance":824,"i_long":106.85449,"time":2,"i_lat":-6.255332,"is_transit":false,"transit":false,"station_id":"DRN"},{"transit":false,"i_long":106.856607,"i_lat":-6.242512,"station_name":"Cawang","station_id":"CW","line":0,"distance":1546,"is_transit":false,"time":3},{"station_id":"TEB","i_long":106.857948,"station_name":"Tebet","i_lat":-6.226659,"line":2,"distance":1230,"is_transit":false,"time":2,"transit":false},{"station_name":"Manggarai","station_id":"MRI","i_lat":-6.209883,"transit":true,"distance":2610,"i_long":106.84912,"line":0,"time":4,"is_transit":true},{"time":4,"is_transit":false,"i_lat":-6.198556,"line":0,"transit":false,"distance":1590,"station_id":"CKI","station_name":"Cikini","i_long":106.840169},{"transit":false,"station_id":"GDD","line":2,"station_name":"Gondangdia","i_lat":-6.186295,"i_long":106.832183,"is_transit":false,"distance":1750,"time":3},{"i_long":106.828284,"station_id":"JUA","station_name":"Juanda","is_transit":false,"time":4,"i_lat":-6.166716,"transit":false,"line":2,"distance":2015},{"i_lat":-6.160725,"i_long":106.827103,"time":2,"transit":false,"station_id":"SW","is_transit":false,"station_name":"Sawah Besar","distance":1149,"line":2},{"transit":false,"time":2,"station_id":"MGB","i_lat":-6.149769,"distance":906,"line":2,"station_name":"Manggabesar","i_long":106.82482,"is_transit":false},{"station_id":"JAY","station_name":"Jayakarta","is_transit":false,"i_long":106.820901,"time":2,"transit":false,"i_lat":-6.141205,"line":7,"distance":1080},{"i_lat":-6.137569,"station_name":"Jakarta Kota","is_transit":true,"distance":1264,"line":0,"time":4,"station_id":"JAKK","i_long":106.812439,"transit":true},{"transit":false,"distance":1364,"time":3,"station_name":"Kampung Bandan","is_transit":true,"station_id":"KPB","i_lat":-6.132549,"line":0,"i_long":106.826365},{"i_lat":-6.144674,"i_long":106.79867,"station_id":"AK","station_name":"Angke","distance":4102,"time":9,"transit":false,"line":0,"is_transit":false},{"station_name":"Duri","distance":1230,"time":4,"line":1,"is_transit":true,"transit":true,"i_lat":-6.155215,"station_id":"DU","i_long":106.800832},{"i_lat":-6.185545,"line":1,"i_long":106.811091,"transit":false,"is_transit":true,"station_name":"Tanah Abang","distance":3632,"time":8,"station_id":"THB"}],[{"station_name":"Univ. Pancasila","distance":0,"time":0,"transit":false,"line":2,"i_long":106.834175,"is_transit":false,"station_id":"UP","i_lat":-6.339291},{"transit":false,"is_transit":false,"station_id":"LNA","time":2,"station_name":"Lenteng Agung","line":2,"i_lat":-6.330363,"i_long":106.832616,"distance":1029},{"time":3,"station_name":"Tanjung Barat","distance":2671,"i_long":106.838896,"line":2,"station_id":"TNT","i_lat":-6.3080680000000005,"is_transit":false,"transit":false},{"i_lat":-6.2842400000000005,"line":2,"time":4,"transit":false,"is_transit":false,"i_long":106.843999,"station_id":"PSM","station_name":"Pasar Minggu","distance":2820},{"is_transit":false,"station_id":"PSMB","i_long":106.851577,"line":2,"time":2,"i_lat":-6.263214,"transit":false,"distance":2380,"station_name":"Pasar Minggu Baru"},{"time":2,"i_long":106.85449,"station_name":"Duren Kalibata","distance":824,"station_id":"DRN","line":0,"transit":false,"is_transit":false,"i_lat":-6.255332},{"transit":false,"i_long":106.856607,"line":0,"station_name":"Cawang","time":3,"is_transit":false,"i_lat":-6.242512,"distance":1546,"station_id":"CW"},{"is_transit":false,"time":2,"station_id":"TEB","i_long":106.857948,"i_lat":-6.226659,"transit":false,"station_name":"Tebet","line":2,"distance":1230},{"station_name":"Manggarai","i_long":106.84912,"station_id":"MRI","i_lat":-6.209883,"line":0,"time":4,"is_transit":true,"distance":2610,"transit":true},{"time":2,"station_id":"MTR","is_transit":false,"station_name":"Matraman","line":1,"distance":1275,"transit":false,"i_lat":-6.212485,"i_long":106.858896},{"i_lat":-6.215091,"i_long":106.86807400000001,"station_id":"JNG","transit":true,"distance":1377,"is_transit":true,"station_name":"Jatinegara","line":0,"time":8},{"is_transit":false,"i_lat":-6.209188,"i_long":106.861737,"time":2,"distance":1236,"station_id":"POK","station_name":"Pondok Jati","line":11,"transit":false},{"i_long":106.855437,"station_id":"KMT","line":11,"station_name":"Kramat","time":2,"transit":false,"is_transit":false,"i_lat":-6.193792,"distance":1829},{"time":1,"station_name":"Gang Sentiong","line":11,"distance":973,"i_lat":-6.185975,"is_transit":false,"station_id":"GST","i_long":106.850107,"transit":false},{"time":8,"i_lat":-6.174784,"distance":1567,"line":11,"station_id":"PSE","is_transit":false,"transit":false,"i_long":106.84368,"station_name":"Pasar Senen"},{"station_id":"KMO","distance":1436,"i_lat":-6.161728,"line":11,"transit":false,"is_transit":false,"time":4,"i_long":106.839204,"station_name":"Kemayoran"},{"i_lat":-6.14505,"station_name":"Rajawali","transit":false,"station_id":"RJW","line":11,"distance":1901,"i_long":106.836569,"time":5,"is_transit":false},{"transit":true,"line":0,"station_id":"KPB","i_lat":-6.132549,"is_transit":true,"station_name":"Kampung Bandan","distance":1444,"time":3,"i_long":106.826365},{"time":9,"i_lat":-6.144674,"distance":4102,"transit":false,"station_id":"AK","is_transit":false,"i_long":106.79867,"station_name":"Angke","line":0},{"station_id":"DU","i_long":106.800832,"distance":1230,"transit":true,"is_transit":true,"i_lat":-6.155215,"station_name":"Duri","time":4,"line":1},{"i_lat":-6.185545,"is_transit":true,"station_id":"THB","station_name":"Tanah Abang","i_long":106.811091,"distance":3632,"transit":false,"time":8,"line":1}]]}