{"data":[[{"station_name":"Univ. Pancasila","line":2,"i_lat":-6.339291,"transit":false,"is_transit":false,"i_long":106.834175,"station_id":"UP","distance":0,"time":0},{"is_transit":false,"time":2,"distance":1029,"station_name":"Lenteng Agung","station_id":"LNA","line":2,"transit":false,"i_long":106.832616,"i_lat":-6.330363},{"transit":false,"i_lat":-6.3080680000000005,"station_name":"Tanjung Barat","time":3,"i_long":106.838896,"station_id":"TNT","is_transit":false,"distance":2671,"line":2},{"time":4,"station_id":"PSM","transit":false,"station_name":"Pasar Minggu","i_lat":-6.2842400000000005,"i_long":106.843999,"is_transit":false,"distance":2820,"line":2},{"time":2,"station_id":"PSMB","line":2,"station_name":"Pasar Minggu Baru","is_transit":false,"i_long":106.851577,"i_lat":-6.263214,"transit":false,"distance":2380},{"i_lat":-6.255332,"line":2,"time":2,"station_id":"DRN","is_transit":false,"transit":false,"station_name":"Duren Kalibata","distance":824,"i_long":106.85449},{"line":2,"time":3,"i_lat":-6.242512,"station_name":"Cawang","distance":1546,"is_transit":false,"station_id":"CW","transit":false,"i_long":106.856607},{"station_name":"Tebet","distance":1230,"i_lat":-6.226659,"station_id":"TEB","i_long":106.857948,"line":2,"transit":false,"time":2,"is_transit":false},{"distance":2610,"station_id":"MRI","station_name":"Manggarai","is_transit":true,"line":2,"i_lat":-6.209883,"transit":true,"time":4,"i_long":106.84912},{"transit":false,"i_lat":-6.202263,"i_long":106.822649,"time":4,"station_id":"SUD","station_name":"Sudirman","is_transit":false,"line":1,"distance":3186},{"i_lat":-6.201433,"station_name":"Sudirman Baru","is_transit":false,"line":1,"time":1,"i_long":106.819881,"transit":false,"station_id":"SUDB","distance":280},{"transit":false,"distance":471,"time":1,"station_name":"Karet","line":1,"i_lat":-6.20132,"is_transit":false,"station_id":"KAT","i_long":106.816351},{"line":1,"i_lat":-6.185545,"i_long":106.811091,"time":5,"transit":true,"station_id":"THB","is_transit":true,"station_name":"Tanah Abang","distance":2029},{"time":6,"station_name":"Palmerah","i_long":106.79689,"transit":false,"distance":3191,"i_lat":-6.207404,"line":6,"is_transit":false,"station_id":"PLM"},{"line":6,"distance":3737,"is_transit":false,"i_lat":-6.237242,"station_id":"KBY","transit":false,"time":7,"station_name":"Kebayoran","i_long":106.780334},{"is_transit":false,"transit":false,"station_id":"PDJ","time":8,"i_long":106.74273,"i_lat":-6.276362,"distance":6218,"line":6,"station_name":"Pondokranji"},{"station_name":"Jurangmangu","is_transit":false,"i_long":106.728916,"line":6,"i_lat":-6.288927,"distance":2179,"transit":false,"station_id":"JMU","time":3},{"station_name":"Sudimara","i_long":106.712277,"time":4,"station_id":"SDM","is_transit":false,"transit":false,"distance":1994,"i_lat":-6.296963,"line":6},{"i_long":106.675475,"station_id":"RU","is_transit":false,"transit":false,"station_name":"Rawa Buntu","distance":4566,"line":6,"i_lat":-6.314823,"time":6},{"line":6,"station_name":"Serpong","transit":false,"distance":2413,"time":4,"is_transit":false,"i_lat":-6.319871,"station_id":"SRP","i_long":106.66566},{"line":3,"time":4,"station_id":"CSK","station_name":"Cisauk","distance":1784,"is_transit":false,"transit":false,"i_long":106.640411,"i_lat":-6.32484},{"station_name":"Cicayur","i_lat":-6.329547,"transit":false,"is_transit":false,"time":4,"i_long":106.617853,"line":3,"distance":2519,"station_id":"CC"},{"station_name":"Parung Panjang","is_transit":false,"transit":false,"distance":5968,"line":6,"time":8,"i_long":106.568863,"i_lat":-6.3441410000000005,"station_id":"PRP"},{"station_name":"Cilejit","i_lat":-6.354349,"station_id":"CJT","distance":7025,"is_transit":false,"transit":false,"i_long":106.508482,"line":3,"time":9},{"time":6,"transit":false,"station_id":"DAR","distance":2675,"station_name":"Daru","i_lat":-6.338021,"i_long":106.491338,"line":0,"is_transit":false},{"transit":false,"distance":3902,"line":6,"i_long":106.460812,"time":5,"is_transit":false,"station_name":"Tenjo","station_id":"TEJ","i_lat":-6.327251}],[{"distance":0,"i_lat":-6.339291,"transit":false,"line":2,"station_name":"Univ. Pancasila","i_long":106.834175,"time":0,"is_transit":false,"station_id":"UP"},{"is_transit":false,"i_lat":-6.330363,"time":2,"station_name":"Lenteng Agung","line":2,"transit":false,"i_long":106.832616,"station_id":"LNA","distance":1029},{"i_long":106.838896,"line":2,"time":3,"i_lat":-6.3080680000000005,"transit":false,"distance":2671,"station_id":"TNT","is_transit":false,"station_name":"Tanjung Barat"},{"station_id":"PSM","time":4,"i_long":106.843999,"is_transit":false,"i_lat":-6.2842400000000005,"line":2,"distance":2820,"transit":false,"station_name":"Pasar Minggu"},{"transit":false,"line":2,"distance":2380,"station_name":"Pasar Minggu Baru","time":2,"is_transit":false,"i_lat":-6.263214,"station_id":"PSMB","i_long":106.851577},{"is_transit":false,"i_lat":-6.255332,"time":2,"station_name":"Duren Kalibata","distance":824,"transit":false,"i_long":106.85449,"station_id":"DRN","line":2},{"i_lat":-6.242512,"line":2,"distance":1546,"station_name":"Cawang","station_id":"CW","time":3,"i_long":106.856607,"is_transit":false,"transit":false},{"i_long":106.857948,"line":2,"is_transit":false,"time":2,"transit":false,"station_name":"Tebet","distance":1230,"station_id":"TEB","i_lat":-6.226659},{"station_name":"Manggarai","is_transit":false,"station_id":"MRI","i_long":106.84912,"transit":false,"time":4,"distance":2610,"i_lat":-6.209883,"line":2},{"is_transit":false,"transit":false,"time":4,"i_long":106.840169,"i_lat":-6.198556,"line":2,"station_id":"CKI","distance":1590,"station_name":"Cikini"},{"station_id":"GDD","transit":false,"distance":1750,"i_long":106.832183,"is_transit":false,"i_lat":-6.186295,"station_name":"Gondangdia","time":3,"line":2},{"station_id":"JUA","distance":2015,"station_name":"Juanda","is_transit":false,"line":2,"time":4,"transit":false,"i_lat":-6.166716,"i_long":106.828284},{"distance":1149,"is_transit":false,"station_id":"SW","station_name":"Sawah Besar","i_long":106.827103,"line":2,"time":2,"transit":false,"i_lat":-6.160725},{"time":2,"i_long":106.82482,"station_name":"Manggabesar","is_transit":false,"transit":false,"station_id":"MGB","distance":906,"line":2,"i_lat":-6.149769},{"is_transit":false,"i_long":106.820901,"line":2,"station_id":"JAY","distance":1080,"transit":false,"i_lat":-6.141205,"station_name":"Jayakarta","time":2},{"station_name":"Jakarta Kota","i_long":106.812439,"line":2,"time":4,"is_transit":true,"distance":1264,"i_lat":-6.137569,"station_id":"JAKK","transit":true},{"time":3,"i_lat":-6.132549,"station_name":"Kampung Bandan","line":4,"station_id":"KPB","transit":true,"i_long":106.826365,"distance":1364,"is_transit":true},{"distance":4102,"is_transit":false,"station_name":"Angke","i_long":106.79867,"time":9,"transit":false,"i_lat":-6.144674,"station_id":"AK","line":1},{"i_long":106.800832,"line":1,"distance":1230,"time":4,"station_id":"DU","transit":false,"station_name":"Duri","is_transit":false,"i_lat":-6.155215},{"is_transit":true,"time":8,"line":1,"transit":true,"station_name":"Tanah Abang","distance":3632,"i_long":106.811091,"i_lat":-6.185545,"station_id":"THB"},{"transit":false,"station_name":"Palmerah","time":6,"station_id":"PLM","i_long":106.79689,"is_transit":false,"i_lat":-6.207404,"line":6,"distance":3191},{"transit":false,"distance":3737,"line":6,"station_id":"KBY","station_name":"Kebayoran","i_lat":-6.237242,"i_long":106.780334,"time":7,"is_transit":false},{"station_name":"Pondokranji","transit":false,"time":8,"i_lat":-6.276362,"line":6,"distance":6218,"is_transit":false,"station_id":"PDJ","i_long":106.74273},{"i_long":106.728916,"line":6,"station_id":"JMU","station_name":"Jurangmangu","is_transit":false,"transit":false,"distance":2179,"i_lat":-6.288927,"time":3},{"i_lat":-6.296963,"station_name":"Sudimara","distance":1994,"is_transit":false,"i_long":106.712277,"station_id":"SDM","line":6,"time":4,"transit":false},{"is_transit":false,"station_id":"RU","i_long":106.675475,"i_lat":-6.314823,"station_name":"Rawa Buntu","line":6,"time":6,"transit":false,"distance":4566},{"line":6,"is_transit":false,"time":4,"station_name":"Serpong","transit":false,"i_long":106.66566,"distance":2413,"station_id":"SRP","i_lat":-6.319871},{"line":3,"distance":1784,"transit":false,"time":4,"i_long":106.640411,"station_name":"Cisauk","is_transit":false,"station_id":"CSK","i_lat":-6.32484},{"station_id":"CC","i_lat":-6.329547,"is_transit":false,"i_long":106.617853,"line":3,"transit":false,"time":4,"station_name":"Cicayur","distance":2519},{"is_transit":false,"station_id":"PRP","station_name":"Parung Panjang","i_lat":-6.3441410000000005,"line":6,"time":8,"distance":5968,"transit":false,"i_long":106.568863},{"distance":7025,"line":3,"station_id":"CJT","i_lat":-6.354349,"time":9,"i_long":106.508482,"is_transit":false,"station_name":"Cilejit","transit":false},{"is_transit":false,"time":6,"transit":false,"i_lat":-6.338021,"station_name":"Daru","i_long":106.491338,"line":0,"station_id":"DAR","distance":2675},{"transit":false,"station_id":"TEJ","time":5,"line":6,"i_lat":-6.327251,"distance":3902,"i_long":106.460812,"is_transit":false,"station_name":"Tenjo"}],[{"station_name":"Univ. Pancasila","i_long":106.834175,"time":0,"distance":0,"i_lat":-6.339291,"is_transit":false,"line":2,"station_id":"UP","transit":false},{"station_id":"LNA","distance":1029,"i_long":106.832616,"station_name":"Lenteng Agung","line":2,"time":2,"is_transit":false,"transit":false,"i_lat":-6.330363},{"distance":2671,"i_lat":-6.3080680000000005,"station_id":"TNT","transit":false,"station_name":"Tanjung Barat","i_long":106.838896,"line":2,"is_transit":false,"time":3},{"station_name":"Pasar Minggu","i_long":106.843999,"transit":false,"distance":2820,"is_transit":false,"i_lat":-6.2842400000000005,"time":4,"line":2,"station_id":"PSM"},{"i_lat":-6.263214,"station_name":"Pasar Minggu Baru","distance":2380,"time":2,"is_transit":false,"line":2,"transit":false,"station_id":"PSMB","i_long":106.851577},{"transit":false,"distance":824,"i_long":106.85449,"i_lat":-6.255332,"station_name":"Duren Kalibata","line":2,"time":2,"is_transit":false,"station_id":"DRN"},{"is_transit":false,"station_id":"CW","distance":1546,"transit":false,"time":3,"i_long":106.856607,"line":2,"station_name":"Cawang","i_lat":-6.242512},{"transit":false,"distance":1230,"i_long":106.857948,"line":2,"station_id":"TEB","is_transit":false,"time":2,"station_name":"Tebet","i_lat":-6.226659},{"transit":true,"station_name":"Manggarai","distance":2610,"i_lat":-6.209883,"station_id":"MRI","line":2,"is_transit":true,"time":4,"i_long":106.84912},{"station_id":"MTR","i_lat":-6.212485,"i_long":106.858896,"distance":1275,"time":2,"line":1,"is_transit":false,"transit":false,"station_name":"Matraman"},{"station_id":"JNG","time":8,"is_transit":true,"transit":true,"i_lat":-6.215091,"station_name":"Jatinegara","distance":1377,"line":1,"i_long":106.86807400000001},{"station_id":"POK","line":11,"i_lat":-6.209188,"time":2,"distance":1236,"is_transit":false,"station_name":"Pondok Jati","i_long":106.861737,"transit":false},{"station_name":"Kramat","distance":1829,"i_lat":-6.193792,"transit":false,"time":2,"i_long":106.855437,"is_transit":false,"line":11,"station_id":"KMT"},{"transit":false,"station_id":"GST","station_name":"Gang Sentiong","i_long":106.850107,"time":1,"line":11,"distance":973,"is_transit":false,"i_lat":-6.185975},{"station_name":"Pasar Senen","transit":false,"is_transit":false,"station_id":"PSE","distance":1567,"i_long":106.84368,"i_lat":-6.174784,"line":11,"time":8},{"transit":false,"station_id":"KMO","station_name":"Kemayoran","line":11,"is_transit":false,"distance":1436,"i_lat":-6.161728,"time":4,"i_long":106.839204},{"station_name":"Rajawali","is_transit":false,"station_id":"RJW","i_lat":-6.14505,"time":5,"transit":false,"line":11,"distance":1901,"i_long":106.836569},{"time":3,"is_transit":true,"distance":1444,"transit":true,"i_long":106.826365,"station_id":"KPB","station_name":"Kampung Bandan","i_lat":-6.132549,"line":4},{"transit":false,"station_id":"AK","station_name":"Angke","line":1,"i_lat":-6.144674,"is_transit":false,"distance":4102,"i_long":106.79867,"time":9},{"i_long":106.800832,"i_lat":-6.155215,"line":1,"time":4,"transit":false,"is_transit":false,"station_id":"DU","station_name":"Duri","distance":1230},{"i_lat":-6.185545,"distance":3632,"i_long":106.811091,"station_id":"THB","station_name":"Tanah Abang","is_transit":true,"line":1,"time":8,"transit":true},{"station_id":"PLM","is_transit":false,"line":6,"i_lat":-6.207404,"distance":3191,"i_long":106.79689,"station_name":"Palmerah","time":6,"transit":false},{"transit":false,"distance":3737,"i_long":106.780334,"line":6,"station_id":"KBY","time":7,"station_name":"Kebayoran","i_lat":-6.237242,"is_transit":false},{"time":8,"is_transit":false,"transit":false,"station_id":"PDJ","i_lat":-6.276362,"station_name":"Pondokranji","distance":6218,"i_long":106.74273,"line":6},{"is_transit":false,"station_name":"Jurangmangu","distance":2179,"i_long":106.728916,"station_id":"JMU","time":3,"line":6,"transit":false,"i_lat":-6.288927},{"is_transit":false,"transit":false,"distance":1994,"i_long":106.712277,"station_name":"Sudimara","line":6,"i_lat":-6.296963,"time":4,"station_id":"SDM"},{"station_id":"RU","i_long":106.675475,"is_transit":false,"transit":false,"time":6,"station_name":"Rawa Buntu","line":6,"i_lat":-6.314823,"distance":4566},{"i_lat":-6.319871,"transit":false,"time":4,"distance":2413,"station_id":"SRP","i_long":106.66566,"is_transit":false,"line":6,"station_name":"Serpong"},{"station_name":"Cisauk","station_id":"CSK","i_lat":-6.32484,"time":4,"transit":false,"line":3,"distance":1784,"is_transit":false,"i_long":106.640411},{"distance":2519,"station_name":"Cicayur","i_long":106.617853,"is_transit":false,"transit":false,"station_id":"CC","time":4,"i_lat":-6.329547,"line":3},{"line":6,"i_lat":-6.3441410000000005,"is_transit":false,"station_id":"PRP","time":8,"station_name":"Parung Panjang","i_long":106.568863,"distance":5968,"transit":false},{"transit":false,"i_lat":-6.354349,"time":9,"is_transit":false,"station_name":"Cilejit","i_long":106.508482,"station_id":"CJT","distance":7025,"line":3},{"i_lat":-6.338021,"transit":false,"i_long":106.491338,"time":6,"distance":2675,"station_name":"Daru","line":0,"is_transit":false,"station_id":"DAR"},{"distance":3902,"transit":false,"time":5,"station_name":"Tenjo","station_id":"TEJ","i_lat":-6.327251,"i_long":106.460812,"line":6,"is_transit":false}]]}