{"data":[[{"is_transit":false,"transit":false,"time":0,"station_id":"UP","i_long":106.834175,"distance":0,"line":2,"i_lat":-6.339291,"station_name":"Univ. Pancasila"},{"line":2,"i_long":106.832616,"transit":false,"is_transit":false,"station_name":"Lenteng Agung","station_id":"LNA","time":2,"i_lat":-6.330363,"distance":1029},{"is_transit":false,"distance":2671,"i_lat":-6.3080680000000005,"i_long":106.838896,"line":2,"station_id":"TNT","time":3,"station_name":"Tanjung Barat","transit":false},{"time":4,"distance":2820,"line":2,"station_name":"Pasar Minggu","i_lat":-6.2842400000000005,"transit":false,"station_id":"PSM","i_long":106.843999,"is_transit":false},{"i_long":106.851577,"station_name":"Pasar Minggu Baru","is_transit":false,"distance":2380,"time":2,"i_lat":-6.263214,"transit":false,"line":2,"station_id":"PSMB"},{"station_name":"Duren Kalibata","distance":824,"i_lat":-6.255332,"station_id":"DRN","time":2,"transit":false,"line":2,"i_long":106.85449,"is_transit":false},{"is_transit":false,"transit":false,"station_id":"CW","line":2,"station_name":"Cawang","distance":1546,"i_lat":-6.242512,"time":3,"i_long":106.856607},{"transit":false,"is_transit":false,"station_id":"TEB","station_name":"Tebet","time":2,"distance":1230,"i_long":106.857948,"line":2,"i_lat":-6.226659},{"station_id":"MRI","transit":true,"distance":2610,"i_lat":-6.209883,"station_name":"Manggarai","is_transit":true,"time":4,"i_long":106.84912,"line":2},{"transit":false,"time":4,"is_transit":false,"i_lat":-6.202263,"i_long":106.822649,"station_id":"SUD","station_name":"Sudirman","line":1,"distance":3186},{"i_long":106.819881,"line":1,"station_name":"Sudirman Baru","is_transit":false,"distance":280,"i_lat":-6.201433,"transit":false,"station_id":"SUDB","time":1},{"i_long":106.816351,"station_name":"Karet","is_transit":false,"time":1,"distance":471,"line":1,"station_id":"KAT","i_lat":-6.20132,"transit":false},{"station_name":"Tanah Abang","is_transit":true,"transit":true,"i_long":106.811091,"time":5,"station_id":"THB","i_lat":-6.185545,"line":1,"distance":2029},{"station_id":"PLM","is_transit":false,"station_name":"Palmerah","transit":false,"i_lat":-6.207404,"time":6,"i_long":106.79689,"distance":3191,"line":6},{"transit":false,"station_name":"Kebayoran","time":7,"i_long":106.780334,"station_id":"KBY","distance":3737,"i_lat":-6.237242,"is_transit":false,"line":6},{"time":8,"distance":6218,"line":6,"station_name":"Pondokranji","is_transit":false,"i_lat":-6.276362,"i_long":106.74273,"transit":false,"station_id":"PDJ"},{"i_lat":-6.288927,"time":3,"station_id":"JMU","station_name":"Jurangmangu","transit":false,"distance":2179,"is_transit":false,"i_long":106.728916,"line":6},{"is_transit":false,"i_long":106.712277,"station_id":"SDM","distance":1994,"line":6,"time":4,"transit":false,"station_name":"Sudimara","i_lat":-6.296963},{"i_long":106.675475,"i_lat":-6.314823,"station_id":"RU","station_name":"Rawa Buntu","is_transit":false,"transit":false,"time":6,"distance":4566,"line":6},{"distance":2413,"i_lat":-6.319871,"transit":false,"station_name":"Serpong","time":4,"station_id":"SRP","i_long":106.66566,"line":6,"is_transit":false},{"line":3,"time":4,"is_transit":false,"i_long":106.640411,"station_id":"CSK","transit":false,"station_name":"Cisauk","distance":1784,"i_lat":-6.32484},{"is_transit":false,"i_lat":-6.329547,"station_name":"Cicayur","transit":false,"distance":2519,"station_id":"CC","i_long":106.617853,"time":4,"line":3},{"is_transit":false,"line":6,"station_id":"PRP","transit":false,"time":8,"i_lat":-6.3441410000000005,"i_long":106.568863,"station_name":"Parung Panjang","distance":5968},{"station_id":"CJT","line":3,"station_name":"Cilejit","transit":false,"is_transit":false,"time":9,"i_long":106.508482,"distance":7025,"i_lat":-6.354349},{"distance":2675,"line":0,"i_long":106.491338,"station_id":"DAR","i_lat":-6.338021,"is_transit":false,"time":6,"transit":false,"station_name":"Daru"},{"line":6,"distance":3902,"transit":false,"i_long":106.460812,"i_lat":-6.327251,"station_id":"TEJ","station_name":"Tenjo","time":5,"is_transit":false}],[{"line":2,"i_lat":-6.339291,"i_long":106.834175,"transit":false,"station_id":"UP","time":0,"station_name":"Univ. Pancasila","is_transit":false,"distance":0},{"i_lat":-6.330363,"distance":1029,"time":2,"transit":false,"station_id":"LNA","i_long":106.832616,"line":2,"is_transit":false,"station_name":"Lenteng Agung"},{"i_long":106.838896,"transit":false,"station_name":"Tanjung Barat","distance":2671,"line":2,"time":3,"is_transit":false,"i_lat":-6.3080680000000005,"station_id":"TNT"},{"i_lat":-6.2842400000000005,"line":2,"is_transit":false,"time":4,"station_name":"Pasar Minggu","station_id":"PSM","transit":false,"i_long":106.843999,"distance":2820},{"time":2,"i_lat":-6.263214,"station_name":"Pasar Minggu Baru","station_id":"PSMB","i_long":106.851577,"distance":2380,"is_transit":false,"transit":false,"line":2},{"transit":false,"i_lat":-6.255332,"i_long":106.85449,"station_id":"DRN","station_name":"Duren Kalibata","is_transit":false,"time":2,"distance":824,"line":2},{"station_id":"CW","i_lat":-6.242512,"distance":1546,"is_transit":false,"time":3,"transit":false,"station_name":"Cawang","i_long":106.856607,"line":2},{"transit":false,"distance":1230,"line":2,"station_name":"Tebet","i_long":106.857948,"time":2,"station_id":"TEB","is_transit":false,"i_lat":-6.226659},{"transit":false,"is_transit":false,"line":2,"station_name":"Manggarai","i_lat":-6.209883,"station_id":"MRI","i_long":106.84912,"time":4,"distance":2610},{"is_transit":false,"i_lat":-6.198556,"transit":false,"station_name":"Cikini","station_id":"CKI","i_long":106.840169,"time":4,"distance":1590,"line":2},{"transit":false,"distance":1750,"is_transit":false,"station_id":"GDD","line":2,"time":3,"i_long":106.832183,"station_name":"Gondangdia","i_lat":-6.186295},{"distance":2015,"station_id":"JUA","is_transit":false,"transit":false,"station_name":"Juanda","i_long":106.828284,"line":2,"time":4,"i_lat":-6.166716},{"is_transit":false,"i_long":106.827103,"line":2,"station_id":"SW","transit":false,"time":2,"distance":1149,"station_name":"Sawah Besar","i_lat":-6.160725},{"i_lat":-6.149769,"station_name":"Manggabesar","line":2,"transit":false,"station_id":"MGB","time":2,"distance":906,"is_transit":false,"i_long":106.82482},{"station_name":"Jayakarta","is_transit":false,"i_long":106.820901,"time":2,"line":2,"distance":1080,"i_lat":-6.141205,"transit":false,"station_id":"JAY"},{"station_id":"JAKK","transit":true,"station_name":"Jakarta Kota","i_long":106.812439,"is_transit":true,"line":2,"time":4,"i_lat":-6.137569,"distance":1264},{"i_lat":-6.132549,"i_long":106.826365,"is_transit":true,"transit":true,"station_name":"Kampung Bandan","time":3,"distance":1364,"station_id":"KPB","line":4},{"i_lat":-6.144674,"i_long":106.79867,"station_id":"AK","is_transit":false,"time":9,"line":1,"station_name":"Angke","distance":4102,"transit":false},{"distance":1230,"line":1,"station_id":"DU","time":4,"is_transit":false,"i_long":106.800832,"transit":false,"station_name":"Duri","i_lat":-6.155215},{"station_name":"Tanah Abang","i_lat":-6.185545,"i_long":106.811091,"time":8,"distance":3632,"transit":true,"is_transit":true,"line":1,"station_id":"THB"},{"i_lat":-6.207404,"station_name":"Palmerah","line":6,"transit":false,"i_long":106.79689,"station_id":"PLM","time":6,"is_transit":false,"distance":3191},{"station_id":"KBY","i_lat":-6.237242,"station_name":"Kebayoran","time":7,"is_transit":false,"distance":3737,"i_long":106.780334,"transit":false,"line":6},{"station_name":"Pondokranji","i_long":106.74273,"i_lat":-6.276362,"time":8,"distance":6218,"station_id":"PDJ","transit":false,"is_transit":false,"line":6},{"distance":2179,"line":6,"transit":false,"is_transit":false,"station_name":"Jurangmangu","time":3,"i_long":106.728916,"i_lat":-6.288927,"station_id":"JMU"},{"station_id":"SDM","distance":1994,"time":4,"line":6,"transit":false,"station_name":"Sudimara","i_lat":-6.296963,"is_transit":false,"i_long":106.712277},{"time":6,"is_transit":false,"distance":4566,"station_name":"Rawa Buntu","station_id":"RU","line":6,"i_long":106.675475,"transit":false,"i_lat":-6.314823},{"transit":false,"station_name":"Serpong","time":4,"line":6,"distance":2413,"is_transit":false,"i_lat":-6.319871,"i_long":106.66566,"station_id":"SRP"},{"station_id":"CSK","station_name":"Cisauk","distance":1784,"transit":false,"i_long":106.640411,"line":3,"is_transit":false,"time":4,"i_lat":-6.32484},{"transit":false,"i_lat":-6.329547,"is_transit":false,"line":3,"station_id":"CC","distance":2519,"time":4,"station_name":"Cicayur","i_long":106.617853},{"line":6,"i_long":106.568863,"station_id":"PRP","distance":5968,"time":8,"transit":false,"is_transit":false,"i_lat":-6.3441410000000005,"station_name":"Parung Panjang"},{"time":9,"station_id":"CJT","i_lat":-6.354349,"transit":false,"is_transit":false,"i_long":106.508482,"station_name":"Cilejit","distance":7025,"line":3},{"i_lat":-6.338021,"is_transit":false,"time":6,"distance":2675,"transit":false,"line":0,"station_name":"Daru","i_long":106.491338,"station_id":"DAR"},{"transit":false,"station_id":"TEJ","i_lat":-6.327251,"distance":3902,"i_long":106.460812,"is_transit":false,"station_name":"Tenjo","time":5,"line":6}],[{"station_id":"UP","line":2,"i_lat":-6.339291,"i_long":106.834175,"distance":0,"is_transit":false,"time":0,"transit":false,"station_name":"Univ. Pancasila"},{"station_id":"LNA","line":2,"station_name":"Lenteng Agung","i_lat":-6.330363,"distance":1029,"time":2,"is_transit":false,"transit":false,"i_long":106.832616},{"distance":2671,"time":3,"is_transit":false,"line":2,"i_lat":-6.3080680000000005,"i_long":106.838896,"station_id":"TNT","station_name":"Tanjung Barat","transit":false},{"i_lat":-6.2842400000000005,"station_name":"Pasar Minggu","distance":2820,"transit":false,"station_id":"PSM","i_long":106.843999,"time":4,"line":2,"is_transit":false},{"i_long":106.851577,"is_transit":false,"station_name":"Pasar Minggu Baru","transit":false,"i_lat":-6.263214,"station_id":"PSMB","distance":2380,"line":2,"time":2},{"transit":false,"station_name":"Duren Kalibata","distance":824,"line":2,"station_id":"DRN","is_transit":false,"time":2,"i_lat":-6.255332,"i_long":106.85449},{"i_long":106.856607,"station_id":"CW","line":2,"station_name":"Cawang","distance":1546,"time":3,"i_lat":-6.242512,"transit":false,"is_transit":false},{"distance":1230,"time":2,"i_lat":-6.226659,"i_long":106.857948,"station_name":"Tebet","line":2,"transit":false,"station_id":"TEB","is_transit":false},{"i_lat":-6.209883,"is_transit":true,"distance":2610,"time":4,"i_long":106.84912,"line":2,"station_name":"Manggarai","transit":true,"station_id":"MRI"},{"distance":1275,"i_lat":-6.212485,"i_long":106.858896,"station_name":"Matraman","line":1,"is_transit":false,"transit":false,"time":2,"station_id":"MTR"},{"station_id":"JNG","time":8,"i_long":106.86807400000001,"is_transit":true,"transit":true,"distance":1377,"line":1,"i_lat":-6.215091,"station_name":"Jatinegara"},{"station_name":"Pondok Jati","transit":false,"i_lat":-6.209188,"is_transit":false,"distance":1236,"station_id":"POK","i_long":106.861737,"time":2,"line":11},{"station_name":"Kramat","is_transit":false,"line":11,"station_id":"KMT","transit":false,"time":2,"distance":1829,"i_long":106.855437,"i_lat":-6.193792},{"time":1,"i_long":106.850107,"transit":false,"station_name":"Gang Sentiong","station_id":"GST","i_lat":-6.185975,"is_transit":false,"distance":973,"line":11},{"i_lat":-6.174784,"transit":false,"is_transit":false,"time":8,"i_long":106.84368,"distance":1567,"line":11,"station_id":"PSE","station_name":"Pasar Senen"},{"i_long":106.839204,"station_id":"KMO","distance":1436,"time":4,"line":11,"station_name":"Kemayoran","is_transit":false,"transit":false,"i_lat":-6.161728},{"station_id":"RJW","i_lat":-6.14505,"i_long":106.836569,"is_transit":false,"line":11,"time":5,"transit":false,"distance":1901,"station_name":"Rajawali"},{"i_lat":-6.132549,"station_name":"Kampung Bandan","transit":true,"distance":1444,"is_transit":true,"line":4,"station_id":"KPB","time":3,"i_long":106.826365},{"is_transit":false,"line":1,"i_lat":-6.144674,"transit":false,"station_name":"Angke","station_id":"AK","time":9,"i_long":106.79867,"distance":4102},{"transit":false,"time":4,"is_transit":false,"distance":1230,"i_lat":-6.155215,"line":1,"station_name":"Duri","station_id":"DU","i_long":106.800832},{"station_name":"Tanah Abang","time":8,"station_id":"THB","is_transit":true,"i_long":106.811091,"line":1,"distance":3632,"i_lat":-6.185545,"transit":true},{"transit":false,"is_transit":false,"i_lat":-6.207404,"i_long":106.79689,"distance":3191,"line":6,"station_name":"Palmerah","station_id":"PLM","time":6},{"station_name":"Kebayoran","time":7,"transit":false,"is_transit":false,"i_lat":-6.237242,"station_id":"KBY","distance":3737,"i_long":106.780334,"line":6},{"is_transit":false,"distance":6218,"station_id":"PDJ","i_long":106.74273,"i_lat":-6.276362,"line":6,"station_name":"Pondokranji","time":8,"transit":false},{"transit":false,"i_long":106.728916,"i_lat":-6.288927,"station_name":"Jurangmangu","is_transit":false,"time":3,"station_id":"JMU","line":6,"distance":2179},{"station_name":"Sudimara","line":6,"time":4,"is_transit":false,"i_long":106.712277,"distance":1994,"station_id":"SDM","i_lat":-6.296963,"transit":false},{"i_lat":-6.314823,"i_long":106.675475,"time":6,"line":6,"distance":4566,"transit":false,"station_name":"Rawa Buntu","station_id":"RU","is_transit":false},{"i_lat":-6.319871,"station_id":"SRP","is_transit":false,"line":6,"i_long":106.66566,"transit":false,"time":4,"distance":2413,"station_name":"Serpong"},{"i_lat":-6.32484,"distance":1784,"i_long":106.640411,"station_id":"CSK","station_name":"Cisauk","time":4,"is_transit":false,"transit":false,"line":3},{"transit":false,"i_long":106.617853,"is_transit":false,"distance":2519,"line":3,"time":4,"i_lat":-6.329547,"station_name":"Cicayur","station_id":"CC"},{"is_transit":false,"i_lat":-6.3441410000000005,"transit":false,"station_id":"PRP","time":8,"station_name":"Parung Panjang","line":6,"i_long":106.568863,"distance":5968},{"station_name":"Cilejit","time":9,"line":3,"i_lat":-6.354349,"transit":false,"station_id":"CJT","is_transit":false,"distance":7025,"i_long":106.508482},{"transit":false,"station_name":"Daru","i_lat":-6.338021,"time":6,"line":0,"is_transit":false,"i_long":106.491338,"station_id":"DAR","distance":2675},{"i_long":106.460812,"station_name":"Tenjo","time":5,"is_transit":false,"transit":false,"station_id":"TEJ","i_lat":-6.327251,"distance":3902,"line":6}]]}