{"data":[[{"line":2,"distance":0,"i_lat":-6.339291,"i_long":106.834175,"station_id":"UP","is_transit":false,"station_name":"Univ. Pancasila","transit":false,"time":0},{"i_long":106.832616,"i_lat":-6.330363,"station_id":"LNA","transit":false,"is_transit":false,"line":2,"distance":1029,"station_name":"Lenteng Agung","time":2},{"line":2,"transit":false,"i_lat":-6.3080680000000005,"is_transit":false,"distance":2671,"i_long":106.838896,"time":3,"station_id":"TNT","station_name":"Tanjung Barat"},{"is_transit":false,"transit":false,"i_lat":-6.2842400000000005,"station_id":"PSM","line":2,"time":4,"distance":2820,"station_name":"Pasar Minggu","i_long":106.843999},{"i_long":106.851577,"station_id":"PSMB","line":2,"distance":2380,"time":2,"station_name":"Pasar Minggu Baru","is_transit":false,"transit":false,"i_lat":-6.263214},{"time":2,"station_name":"Duren Kalibata","line":0,"i_lat":-6.255332,"is_transit":false,"transit":false,"station_id":"DRN","i_long":106.85449,"distance":824},{"transit":false,"i_long":106.856607,"line":0,"time":3,"distance":1546,"is_transit":false,"station_id":"CW","station_name":"Cawang","i_lat":-6.242512},{"time":2,"station_name":"Tebet","distance":1230,"station_id":"TEB","i_lat":-6.226659,"line":2,"is_transit":false,"transit":false,"i_long":106.857948},{"station_name":"Manggarai","station_id":"MRI","i_long":106.84912,"time":4,"i_lat":-6.209883,"distance":2610,"is_transit":true,"transit":true,"line":0},{"transit":false,"station_id":"SUD","i_long":106.822649,"line":1,"station_name":"Sudirman","i_lat":-6.202263,"distance":3186,"is_transit":false,"time":4},{"station_name":"Sudirman Baru","i_lat":-6.201433,"time":1,"transit":false,"line":1,"station_id":"SUDB","is_transit":false,"i_long":106.819881,"distance":280},{"i_lat":-6.20132,"line":1,"i_long":106.816351,"is_transit":false,"time":1,"transit":false,"station_id":"KAT","station_name":"Karet","distance":471},{"time":5,"transit":false,"i_long":106.811091,"is_transit":true,"station_name":"Tanah Abang","distance":2029,"station_id":"THB","i_lat":-6.185545,"line":1},{"station_name":"Duri","distance":3632,"station_id":"DU","i_long":106.800832,"is_transit":true,"transit":true,"time":8,"i_lat":-6.155215,"line":1},{"station_id":"AK","transit":false,"is_transit":false,"station_name":"Angke","line":0,"i_long":106.79867,"time":4,"distance":1230,"i_lat":-6.144674},{"time":9,"transit":false,"station_name":"Kampung Bandan","distance":4102,"i_lat":-6.132549,"i_long":106.826365,"is_transit":true,"line":0,"station_id":"KPB"},{"station_id":"AC","line":0,"station_name":"Ancol","distance":2185,"is_transit":false,"i_lat":-6.128023,"time":4,"transit":false,"i_long":106.84464},{"station_id":"TPK","is_transit":false,"distance":4566,"time":9,"transit":false,"line":4,"i_lat":-6.1109480000000005,"station_name":"Tanjung Priuk","i_long":106.880089}],[{"i_lat":-6.339291,"line":2,"transit":false,"station_name":"Univ. Pancasila","distance":0,"time":0,"station_id":"UP","is_transit":false,"i_long":106.834175},{"distance":1029,"i_long":106.832616,"is_transit":false,"i_lat":-6.330363,"station_id":"LNA","station_name":"Lenteng Agung","transit":false,"time":2,"line":2},{"i_long":106.838896,"station_id":"TNT","line":2,"transit":false,"is_transit":false,"station_name":"Tanjung Barat","distance":2671,"i_lat":-6.3080680000000005,"time":3},{"i_lat":-6.2842400000000005,"line":2,"distance":2820,"is_transit":false,"time":4,"station_name":"Pasar Minggu","station_id":"PSM","transit":false,"i_long":106.843999},{"i_lat":-6.263214,"station_name":"Pasar Minggu Baru","distance":2380,"station_id":"PSMB","i_long":106.851577,"transit":false,"line":2,"is_transit":false,"time":2},{"time":2,"station_id":"DRN","is_transit":false,"line":0,"distance":824,"station_name":"Duren Kalibata","i_long":106.85449,"i_lat":-6.255332,"transit":false},{"time":3,"station_id":"CW","i_long":106.856607,"distance":1546,"transit":false,"is_transit":false,"line":0,"station_name":"Cawang","i_lat":-6.242512},{"i_long":106.857948,"line":2,"station_id":"TEB","time":2,"station_name":"Tebet","distance":1230,"is_transit":false,"transit":false,"i_lat":-6.226659},{"i_long":106.84912,"distance":2610,"time":4,"station_name":"Manggarai","transit":true,"station_id":"MRI","i_lat":-6.209883,"line":0,"is_transit":true},{"transit":false,"station_name":"Cikini","distance":1590,"time":4,"i_long":106.840169,"is_transit":false,"station_id":"CKI","i_lat":-6.198556,"line":0},{"distance":1750,"is_transit":false,"transit":false,"station_id":"GDD","station_name":"Gondangdia","i_long":106.832183,"line":2,"i_lat":-6.186295,"time":3},{"is_transit":false,"transit":false,"station_name":"Juanda","time":4,"distance":2015,"station_id":"JUA","i_lat":-6.166716,"i_long":106.828284,"line":2},{"station_id":"SW","i_lat":-6.160725,"station_name":"Sawah Besar","i_long":106.827103,"line":2,"transit":false,"distance":1149,"time":2,"is_transit":false},{"distance":906,"is_transit":false,"station_id":"MGB","i_lat":-6.149769,"i_long":106.82482,"time":2,"transit":false,"line":2,"station_name":"Manggabesar"},{"station_id":"JAY","is_transit":false,"station_name":"Jayakarta","transit":false,"distance":1080,"time":2,"i_lat":-6.141205,"line":7,"i_long":106.820901},{"is_transit":true,"distance":1264,"time":4,"i_long":106.812439,"i_lat":-6.137569,"station_name":"Jakarta Kota","transit":true,"line":0,"station_id":"JAKK"},{"line":0,"i_long":106.826365,"is_transit":true,"distance":1364,"time":3,"transit":false,"station_id":"KPB","i_lat":-6.132549,"station_name":"Kampung Bandan"},{"station_name":"Ancol","i_long":106.84464,"station_id":"AC","i_lat":-6.128023,"line":0,"time":4,"is_transit":false,"distance":2185,"transit":false},{"time":9,"station_id":"TPK","is_transit":false,"station_name":"Tanjung Priuk","line":4,"distance":4566,"transit":false,"i_lat":-6.1109480000000005,"i_long":106.880089}],[{"i_lat":-6.339291,"i_long":106.834175,"station_id":"UP","transit":false,"distance":0,"is_transit":false,"station_name":"Univ. Pancasila","line":2,"time":0},{"is_transit":false,"i_lat":-6.330363,"i_long":106.832616,"time":2,"distance":1029,"station_id":"LNA","station_name":"Lenteng Agung","line":2,"transit":false},{"i_long":106.838896,"station_id":"TNT","line":2,"station_name":"Tanjung Barat","time":3,"transit":false,"is_transit":false,"i_lat":-6.3080680000000005,"distance":2671},{"time":4,"station_name":"Pasar Minggu","line":2,"distance":2820,"i_lat":-6.2842400000000005,"is_transit":false,"station_id":"PSM","i_long":106.843999,"transit":false},{"time":2,"i_lat":-6.263214,"distance":2380,"line":2,"station_id":"PSMB","is_transit":false,"transit":false,"i_long":106.851577,"station_name":"Pasar Minggu Baru"},{"station_id":"DRN","distance":824,"i_lat":-6.255332,"line":0,"transit":false,"is_transit":false,"time":2,"i_long":106.85449,"station_name":"Duren Kalibata"},{"i_lat":-6.242512,"station_name":"Cawang","transit":false,"station_id":"CW","line":0,"distance":1546,"i_long":106.856607,"time":3,"is_transit":false},{"i_long":106.857948,"line":2,"distance":1230,"is_transit":false,"station_id":"TEB","station_name":"Tebet","time":2,"transit":false,"i_lat":-6.226659},{"transit":true,"time":4,"i_long":106.84912,"is_transit":true,"station_id":"MRI","line":0,"distance":2610,"station_name":"Manggarai","i_lat":-6.209883},{"station_name":"Matraman","time":2,"transit":false,"i_lat":-6.212485,"line":1,"distance":1275,"station_id":"MTR","is_transit":false,"i_long":106.858896},{"i_long":106.86807400000001,"station_name":"Jatinegara","is_transit":true,"transit":true,"station_id":"JNG","i_lat":-6.215091,"line":0,"distance":1377,"time":8},{"station_id":"POK","time":2,"station_name":"Pondok Jati","transit":false,"i_long":106.861737,"line":11,"distance":1236,"i_lat":-6.209188,"is_transit":false},{"station_name":"Kramat","distance":1829,"transit":false,"line":11,"time":2,"i_lat":-6.193792,"is_transit":false,"station_id":"KMT","i_long":106.855437},{"station_id":"GST","i_lat":-6.185975,"is_transit":false,"line":11,"i_long":106.850107,"station_name":"Gang Sentiong","transit":false,"distance":973,"time":1},{"station_id":"PSE","line":11,"station_name":"Pasar Senen","is_transit":false,"i_lat":-6.174784,"i_long":106.84368,"time":8,"distance":1567,"transit":false},{"time":4,"station_id":"KMO","station_name":"Kemayoran","i_long":106.839204,"distance":1436,"is_transit":false,"transit":false,"i_lat":-6.161728,"line":11},{"i_long":106.836569,"station_id":"RJW","line":11,"station_name":"Rajawali","time":5,"transit":false,"is_transit":false,"distance":1901,"i_lat":-6.14505},{"i_lat":-6.132549,"time":3,"station_name":"Kampung Bandan","i_long":106.826365,"distance":1444,"station_id":"KPB","is_transit":true,"transit":true,"line":0},{"transit":false,"station_name":"Ancol","station_id":"AC","line":0,"distance":2185,"time":4,"i_lat":-6.128023,"is_transit":false,"i_long":106.84464},{"line":4,"station_id":"TPK","time":9,"is_transit":false,"i_lat":-6.1109480000000005,"distance":4566,"station_name":"Tanjung Priuk","transit":false,"i_long":106.880089}]]}