{"data":[[{"i_long":106.834175,"line":2,"time":0,"is_transit":false,"station_name":"Univ. Pancasila","distance":0,"transit":false,"station_id":"UP","i_lat":-6.339291},{"station_id":"LNA","i_lat":-6.330363,"i_long":106.832616,"is_transit":false,"line":2,"time":2,"distance":1029,"transit":false,"station_name":"Lenteng Agung"},{"station_name":"Tanjung Barat","time":3,"station_id":"TNT","distance":2671,"is_transit":false,"i_lat":-6.3080680000000005,"transit":false,"line":2,"i_long":106.838896},{"station_id":"PSM","line":2,"distance":2820,"transit":false,"is_transit":false,"i_long":106.843999,"station_name":"Pasar Minggu","i_lat":-6.2842400000000005,"time":4},{"line":2,"time":2,"distance":2380,"transit":false,"is_transit":false,"i_lat":-6.263214,"i_long":106.851577,"station_name":"Pasar Minggu Baru","station_id":"PSMB"},{"station_name":"Duren Kalibata","is_transit":false,"time":2,"line":0,"distance":824,"transit":false,"station_id":"DRN","i_lat":-6.255332,"i_long":106.85449},{"is_transit":false,"station_name":"Cawang","i_long":106.856607,"time":3,"distance":1546,"transit":false,"station_id":"CW","line":0,"i_lat":-6.242512},{"line":2,"time":2,"i_lat":-6.226659,"station_name":"Tebet","distance":1230,"is_transit":false,"i_long":106.857948,"station_id":"TEB","transit":false},{"i_long":106.84912,"is_transit":true,"distance":2610,"time":4,"station_id":"MRI","i_lat":-6.209883,"line":0,"transit":true,"station_name":"Manggarai"},{"station_name":"Sudirman","is_transit":false,"station_id":"SUD","i_long":106.822649,"time":4,"distance":3186,"transit":false,"i_lat":-6.202263,"line":1},{"time":1,"transit":false,"distance":280,"i_long":106.819881,"is_transit":false,"station_id":"SUDB","station_name":"Sudirman Baru","line":1,"i_lat":-6.201433},{"station_name":"Karet","transit":false,"i_long":106.816351,"distance":471,"time":1,"i_lat":-6.20132,"line":1,"is_transit":false,"station_id":"KAT"},{"is_transit":true,"time":5,"transit":false,"station_id":"THB","i_lat":-6.185545,"distance":2029,"i_long":106.811091,"line":1,"station_name":"Tanah Abang"},{"station_id":"DU","distance":3632,"is_transit":true,"station_name":"Duri","i_long":106.800832,"line":1,"i_lat":-6.155215,"transit":true,"time":8},{"distance":1700,"time":3,"i_lat":-6.162021,"station_name":"Grogol","line":5,"is_transit":false,"transit":false,"i_long":106.788277,"station_id":"GGL"},{"distance":2036,"transit":false,"station_name":"Pesing","is_transit":false,"station_id":"PSG","i_lat":-6.161433,"time":2,"i_long":106.771379,"line":5},{"i_long":106.756522,"time":2,"is_transit":false,"line":5,"distance":1614,"transit":false,"station_id":"TKO","station_name":"Taman Kota","i_lat":-6.1587309999999995},{"line":0,"station_name":"Bojongindah","time":2,"i_long":106.737035,"transit":false,"station_id":"BOI","is_transit":false,"distance":2334,"i_lat":-6.159876},{"station_id":"RW","i_lat":-6.162758,"i_long":106.723064,"station_name":"Rawa Buaya","distance":1152,"time":4,"is_transit":false,"line":5,"transit":false},{"time":3,"station_name":"Kalideres","transit":false,"is_transit":false,"i_lat":-6.166068,"distance":2504,"station_id":"KDS","line":5,"i_long":106.701612},{"is_transit":false,"transit":false,"station_id":"PI","station_name":"Poris","time":3,"distance":2548,"i_long":106.679458,"i_lat":-6.169933,"line":5},{"transit":false,"is_transit":false,"time":3,"station_id":"BPR","i_lat":-6.171811,"distance":1834,"station_name":"Batuceper","line":0,"i_long":106.665036},{"station_id":"TTI","time":3,"i_lat":-6.17331,"i_long":106.64657,"line":5,"is_transit":false,"station_name":"Tanah Tinggi","transit":false,"distance":2028}],[{"i_long":106.834175,"transit":false,"line":2,"is_transit":false,"distance":0,"time":0,"station_name":"Univ. Pancasila","station_id":"UP","i_lat":-6.339291},{"station_id":"LNA","station_name":"Lenteng Agung","transit":false,"distance":1029,"is_transit":false,"i_long":106.832616,"i_lat":-6.330363,"time":2,"line":2},{"is_transit":false,"station_name":"Tanjung Barat","distance":2671,"station_id":"TNT","i_long":106.838896,"transit":false,"time":3,"i_lat":-6.3080680000000005,"line":2},{"distance":2820,"station_name":"Pasar Minggu","transit":false,"i_long":106.843999,"line":2,"is_transit":false,"time":4,"station_id":"PSM","i_lat":-6.2842400000000005},{"time":2,"is_transit":false,"station_id":"PSMB","distance":2380,"station_name":"Pasar Minggu Baru","i_long":106.851577,"line":2,"i_lat":-6.263214,"transit":false},{"i_long":106.85449,"station_name":"Duren Kalibata","distance":824,"line":0,"is_transit":false,"transit":false,"station_id":"DRN","i_lat":-6.255332,"time":2},{"i_long":106.856607,"line":0,"time":3,"station_name":"Cawang","station_id":"CW","distance":1546,"i_lat":-6.242512,"is_transit":false,"transit":false},{"i_long":106.857948,"i_lat":-6.226659,"station_name":"Tebet","station_id":"TEB","is_transit":false,"time":2,"transit":false,"line":2,"distance":1230},{"is_transit":true,"transit":true,"i_long":106.84912,"station_id":"MRI","i_lat":-6.209883,"line":0,"time":4,"station_name":"Manggarai","distance":2610},{"i_long":106.840169,"time":4,"line":0,"i_lat":-6.198556,"transit":false,"is_transit":false,"station_name":"Cikini","distance":1590,"station_id":"CKI"},{"station_id":"GDD","transit":false,"line":2,"is_transit":false,"distance":1750,"i_long":106.832183,"station_name":"Gondangdia","i_lat":-6.186295,"time":3},{"i_long":106.828284,"time":4,"distance":2015,"i_lat":-6.166716,"is_transit":false,"station_id":"JUA","station_name":"Juanda","transit":false,"line":2},{"station_id":"SW","distance":1149,"is_transit":false,"i_long":106.827103,"line":2,"station_name":"Sawah Besar","time":2,"transit":false,"i_lat":-6.160725},{"i_long":106.82482,"is_transit":false,"distance":906,"station_name":"Manggabesar","line":2,"time":2,"station_id":"MGB","transit":false,"i_lat":-6.149769},{"station_id":"JAY","distance":1080,"station_name":"Jayakarta","line":7,"i_lat":-6.141205,"is_transit":false,"transit":false,"time":2,"i_long":106.820901},{"is_transit":true,"time":4,"distance":1264,"station_id":"JAKK","transit":true,"i_lat":-6.137569,"i_long":106.812439,"station_name":"Jakarta Kota","line":0},{"distance":1364,"i_lat":-6.132549,"is_transit":true,"i_long":106.826365,"station_name":"Kampung Bandan","time":3,"transit":false,"station_id":"KPB","line":0},{"i_long":106.79867,"time":9,"line":0,"is_transit":false,"station_id":"AK","distance":4102,"i_lat":-6.144674,"transit":false,"station_name":"Angke"},{"station_name":"Duri","distance":1230,"station_id":"DU","time":4,"i_lat":-6.155215,"is_transit":true,"i_long":106.800832,"line":1,"transit":true},{"i_long":106.788277,"station_id":"GGL","station_name":"Grogol","time":3,"i_lat":-6.162021,"distance":1700,"transit":false,"line":5,"is_transit":false},{"station_id":"PSG","i_long":106.771379,"distance":2036,"line":5,"transit":false,"i_lat":-6.161433,"is_transit":false,"station_name":"Pesing","time":2},{"station_name":"Taman Kota","time":2,"i_lat":-6.1587309999999995,"station_id":"TKO","distance":1614,"i_long":106.756522,"line":5,"is_transit":false,"transit":false},{"i_lat":-6.159876,"line":0,"station_id":"BOI","distance":2334,"station_name":"Bojongindah","is_transit":false,"i_long":106.737035,"time":2,"transit":false},{"transit":false,"station_name":"Rawa Buaya","time":4,"station_id":"RW","i_long":106.723064,"line":5,"is_transit":false,"i_lat":-6.162758,"distance":1152},{"i_long":106.701612,"station_name":"Kalideres","station_id":"KDS","distance":2504,"is_transit":false,"transit":false,"i_lat":-6.166068,"line":5,"time":3},{"station_name":"Poris","is_transit":false,"station_id":"PI","transit":false,"i_lat":-6.169933,"i_long":106.679458,"distance":2548,"time":3,"line":5},{"distance":1834,"is_transit":false,"station_name":"Batuceper","station_id":"BPR","transit":false,"line":0,"time":3,"i_long":106.665036,"i_lat":-6.171811},{"distance":2028,"transit":false,"i_lat":-6.17331,"is_transit":false,"line":5,"station_name":"Tanah Tinggi","station_id":"TTI","time":3,"i_long":106.64657}],[{"station_name":"Univ. Pancasila","is_transit":false,"i_lat":-6.339291,"distance":0,"line":2,"station_id":"UP","transit":false,"i_long":106.834175,"time":0},{"time":2,"distance":1029,"i_lat":-6.330363,"station_id":"LNA","station_name":"Lenteng Agung","is_transit":false,"transit":false,"i_long":106.832616,"line":2},{"station_name":"Tanjung Barat","distance":2671,"is_transit":false,"line":2,"i_lat":-6.3080680000000005,"transit":false,"station_id":"TNT","time":3,"i_long":106.838896},{"i_long":106.843999,"transit":false,"i_lat":-6.2842400000000005,"is_transit":false,"line":2,"station_name":"Pasar Minggu","station_id":"PSM","distance":2820,"time":4},{"i_lat":-6.263214,"distance":2380,"line":2,"time":2,"is_transit":false,"station_id":"PSMB","station_name":"Pasar Minggu Baru","transit":false,"i_long":106.851577},{"time":2,"i_lat":-6.255332,"transit":false,"i_long":106.85449,"station_name":"Duren Kalibata","distance":824,"line":0,"is_transit":false,"station_id":"DRN"},{"station_name":"Cawang","distance":1546,"is_transit":false,"line":0,"i_lat":-6.242512,"time":3,"transit":false,"i_long":106.856607,"station_id":"CW"},{"is_transit":false,"transit":false,"time":2,"station_id":"TEB","i_long":106.857948,"line":2,"i_lat":-6.226659,"distance":1230,"station_name":"Tebet"},{"transit":true,"station_id":"MRI","i_lat":-6.209883,"line":0,"is_transit":true,"station_name":"Manggarai","distance":2610,"time":4,"i_long":106.84912},{"transit":false,"station_id":"MTR","time":2,"i_long":106.858896,"distance":1275,"station_name":"Matraman","i_lat":-6.212485,"line":1,"is_transit":false},{"distance":1377,"is_transit":true,"i_lat":-6.215091,"i_long":106.86807400000001,"line":0,"station_id":"JNG","station_name":"Jatinegara","time":8,"transit":true},{"station_id":"POK","station_name":"Pondok Jati","is_transit":false,"i_lat":-6.209188,"distance":1236,"transit":false,"time":2,"i_long":106.861737,"line":11},{"i_lat":-6.193792,"is_transit":false,"transit":false,"line":11,"station_name":"Kramat","time":2,"station_id":"KMT","i_long":106.855437,"distance":1829},{"transit":false,"station_id":"GST","i_long":106.850107,"line":11,"is_transit":false,"station_name":"Gang Sentiong","i_lat":-6.185975,"distance":973,"time":1},{"station_name":"Pasar Senen","station_id":"PSE","i_long":106.84368,"distance":1567,"is_transit":false,"transit":false,"line":11,"time":8,"i_lat":-6.174784},{"i_long":106.839204,"station_name":"Kemayoran","transit":false,"i_lat":-6.161728,"line":11,"station_id":"KMO","is_transit":false,"distance":1436,"time":4},{"i_long":106.836569,"line":11,"time":5,"is_transit":false,"distance":1901,"station_name":"Rajawali","i_lat":-6.14505,"transit":false,"station_id":"RJW"},{"station_id":"KPB","transit":true,"line":0,"station_name":"Kampung Bandan","i_long":106.826365,"is_transit":true,"distance":1444,"i_lat":-6.132549,"time":3},{"is_transit":false,"time":9,"station_id":"AK","i_lat":-6.144674,"i_long":106.79867,"transit":false,"line":0,"distance":4102,"station_name":"Angke"},{"station_id":"DU","i_long":106.800832,"is_transit":true,"station_name":"Duri","time":4,"i_lat":-6.155215,"transit":true,"distance":1230,"line":1},{"time":3,"distance":1700,"i_long":106.788277,"is_transit":false,"station_name":"Grogol","i_lat":-6.162021,"station_id":"GGL","transit":false,"line":5},{"is_transit":false,"line":5,"station_name":"Pesing","distance":2036,"station_id":"PSG","transit":false,"time":2,"i_long":106.771379,"i_lat":-6.161433},{"station_id":"TKO","station_name":"Taman Kota","i_lat":-6.1587309999999995,"distance":1614,"time":2,"is_transit":false,"transit":false,"i_long":106.756522,"line":5},{"i_long":106.737035,"i_lat":-6.159876,"is_transit":false,"transit":false,"station_name":"Bojongindah","time":2,"station_id":"BOI","distance":2334,"line":0},{"is_transit":false,"time":4,"transit":false,"i_lat":-6.162758,"i_long":106.723064,"distance":1152,"station_id":"RW","line":5,"station_name":"Rawa Buaya"},{"time":3,"line":5,"i_long":106.701612,"is_transit":false,"station_name":"Kalideres","distance":2504,"station_id":"KDS","transit":false,"i_lat":-6.166068},{"station_id":"PI","station_name":"Poris","i_lat":-6.169933,"line":5,"time":3,"is_transit":false,"transit":false,"distance":2548,"i_long":106.679458},{"distance":1834,"station_name":"Batuceper","is_transit":false,"transit":false,"i_long":106.665036,"station_id":"BPR","line":0,"time":3,"i_lat":-6.171811},{"station_id":"TTI","is_transit":false,"line":5,"transit":false,"i_long":106.64657,"i_lat":-6.17331,"time":3,"station_name":"Tanah Tinggi","distance":2028}]]}