{"data":[[{"station_name":"Univ. Pancasila","time":0,"transit":false,"i_lat":-6.339291,"i_long":106.834175,"line":2,"distance":0,"station_id":"UP","is_transit":false},{"i_long":106.832616,"time":2,"is_transit":false,"line":2,"distance":1029,"transit":false,"i_lat":-6.330363,"station_name":"Lenteng Agung","station_id":"LNA"},{"time":3,"station_id":"TNT","i_long":106.838896,"distance":2671,"transit":false,"line":2,"station_name":"Tanjung Barat","is_transit":false,"i_lat":-6.3080680000000005},{"distance":2820,"i_long":106.843999,"station_name":"Pasar Minggu","is_transit":false,"time":4,"transit":false,"station_id":"PSM","i_lat":-6.2842400000000005,"line":2},{"station_name":"Pasar Minggu Baru","i_long":106.851577,"distance":2380,"station_id":"PSMB","i_lat":-6.263214,"line":2,"is_transit":false,"time":2,"transit":false},{"is_transit":false,"time":2,"i_lat":-6.255332,"distance":824,"transit":false,"station_id":"DRN","i_long":106.85449,"station_name":"Duren Kalibata","line":2},{"i_lat":-6.242512,"station_id":"CW","time":3,"station_name":"Cawang","transit":false,"is_transit":false,"i_long":106.856607,"distance":1546,"line":2},{"time":2,"station_name":"Tebet","transit":false,"i_long":106.857948,"distance":1230,"is_transit":false,"i_lat":-6.226659,"line":2,"station_id":"TEB"},{"line":2,"is_transit":true,"station_id":"MRI","transit":true,"i_long":106.84912,"station_name":"Manggarai","time":4,"i_lat":-6.209883,"distance":2610},{"station_id":"MTR","i_lat":-6.212485,"i_long":106.858896,"line":1,"distance":1275,"is_transit":false,"station_name":"Matraman","transit":false,"time":2},{"transit":false,"station_name":"Jatinegara","i_long":106.86807400000001,"station_id":"JNG","time":8,"distance":1377,"line":1,"i_lat":-6.215091,"is_transit":false},{"time":3,"i_long":106.899548,"distance":3395,"station_name":"Klender","is_transit":false,"transit":false,"line":1,"station_id":"KLD","i_lat":-6.2135},{"station_id":"BUA","i_lat":-6.215568,"time":2,"transit":false,"i_long":106.922662,"line":1,"distance":3100,"is_transit":false,"station_name":"Buaran"},{"time":1,"i_long":106.939679,"i_lat":-6.217455,"station_id":"KLDB","line":1,"station_name":"Klenderbaru","is_transit":false,"distance":1305,"transit":false},{"distance":1385,"station_name":"Cakung","line":1,"is_transit":false,"i_long":106.951283,"station_id":"CUK","transit":false,"i_lat":-6.219053,"time":8},{"station_id":"KRI","distance":3097,"is_transit":false,"i_lat":-6.224515,"station_name":"Kranji","time":3,"transit":false,"line":1,"i_long":106.977657},{"i_long":106.997013,"time":4,"is_transit":false,"station_id":"BKS","line":1,"distance":2520,"station_name":"Bekasi","transit":false,"i_lat":-6.236616},{"distance":2368,"i_lat":-6.248029,"station_name":"Bekasi Timur","time":2,"is_transit":false,"transit":false,"line":1,"station_id":"BKST","i_long":107.016735},{"is_transit":false,"transit":false,"line":1,"time":7,"station_id":"TB","i_long":107.055722,"distance":4460,"station_name":"Tambun","i_lat":-6.258864},{"station_name":"Cibitung","transit":false,"i_long":107.083084,"i_lat":-6.261877,"time":3,"line":1,"is_transit":false,"distance":3420,"station_id":"CIT"},{"i_lat":-6.262938,"time":2,"is_transit":false,"station_id":"TLM","distance":2800,"transit":false,"station_name":"Metland Telaga Murni","i_long":107.093313,"line":1}],[{"transit":false,"i_lat":-6.339291,"station_name":"Univ. Pancasila","i_long":106.834175,"line":2,"station_id":"UP","time":0,"distance":0,"is_transit":false},{"time":2,"station_id":"LNA","transit":false,"i_long":106.832616,"line":2,"station_name":"Lenteng Agung","is_transit":false,"i_lat":-6.330363,"distance":1029},{"is_transit":false,"i_lat":-6.3080680000000005,"transit":false,"station_id":"TNT","distance":2671,"station_name":"Tanjung Barat","i_long":106.838896,"line":2,"time":3},{"is_transit":false,"distance":2820,"i_lat":-6.2842400000000005,"station_name":"Pasar Minggu","line":2,"time":4,"transit":false,"station_id":"PSM","i_long":106.843999},{"distance":2380,"transit":false,"time":2,"is_transit":false,"i_lat":-6.263214,"station_name":"Pasar Minggu Baru","station_id":"PSMB","i_long":106.851577,"line":2},{"is_transit":false,"station_id":"DRN","station_name":"Duren Kalibata","transit":false,"distance":824,"line":2,"time":2,"i_lat":-6.255332,"i_long":106.85449},{"station_name":"Cawang","line":2,"station_id":"CW","i_lat":-6.242512,"i_long":106.856607,"time":3,"distance":1546,"is_transit":false,"transit":false},{"station_id":"TEB","line":2,"station_name":"Tebet","time":2,"distance":1230,"transit":false,"i_lat":-6.226659,"i_long":106.857948,"is_transit":false},{"transit":true,"distance":2610,"station_id":"MRI","i_lat":-6.209883,"time":4,"line":2,"station_name":"Manggarai","i_long":106.84912,"is_transit":true},{"i_long":106.822649,"line":1,"distance":3186,"i_lat":-6.202263,"station_name":"Sudirman","time":4,"station_id":"SUD","is_transit":false,"transit":false},{"i_lat":-6.201433,"distance":280,"station_name":"Sudirman Baru","station_id":"SUDB","time":1,"transit":false,"i_long":106.819881,"is_transit":false,"line":1},{"time":1,"distance":471,"station_id":"KAT","i_lat":-6.20132,"i_long":106.816351,"is_transit":false,"station_name":"Karet","line":1,"transit":false},{"line":1,"i_long":106.811091,"is_transit":false,"transit":false,"distance":2029,"time":5,"station_name":"Tanah Abang","station_id":"THB","i_lat":-6.185545},{"line":1,"station_name":"Duri","i_lat":-6.155215,"is_transit":false,"transit":false,"i_long":106.800832,"time":8,"distance":3632,"station_id":"DU"},{"line":1,"distance":1230,"is_transit":false,"station_id":"AK","station_name":"Angke","time":4,"i_long":106.79867,"i_lat":-6.144674,"transit":false},{"line":4,"station_id":"KPB","distance":4102,"station_name":"Kampung Bandan","time":9,"is_transit":true,"transit":true,"i_lat":-6.132549,"i_long":106.826365},{"line":11,"i_long":106.836569,"time":3,"distance":1444,"is_transit":false,"transit":false,"station_name":"Rajawali","station_id":"RJW","i_lat":-6.14505},{"time":5,"station_name":"Kemayoran","is_transit":false,"i_lat":-6.161728,"station_id":"KMO","distance":1901,"i_long":106.839204,"line":11,"transit":false},{"distance":1436,"i_lat":-6.174784,"time":4,"i_long":106.84368,"line":11,"station_name":"Pasar Senen","is_transit":false,"transit":false,"station_id":"PSE"},{"transit":false,"time":8,"station_id":"GST","i_lat":-6.185975,"station_name":"Gang Sentiong","distance":1567,"i_long":106.850107,"line":11,"is_transit":false},{"i_long":106.855437,"transit":false,"station_name":"Kramat","time":1,"distance":973,"line":11,"is_transit":false,"i_lat":-6.193792,"station_id":"KMT"},{"station_name":"Pondok Jati","i_lat":-6.209188,"station_id":"POK","time":2,"i_long":106.861737,"line":11,"is_transit":false,"distance":1829,"transit":false},{"station_id":"JNG","transit":true,"i_long":106.86807400000001,"station_name":"Jatinegara","i_lat":-6.215091,"distance":1236,"is_transit":true,"line":1,"time":9},{"station_name":"Klender","station_id":"KLD","i_long":106.899548,"time":3,"distance":3395,"line":1,"is_transit":false,"transit":false,"i_lat":-6.2135},{"station_id":"BUA","line":1,"i_long":106.922662,"i_lat":-6.215568,"is_transit":false,"distance":3100,"station_name":"Buaran","time":2,"transit":false},{"station_name":"Klenderbaru","i_lat":-6.217455,"station_id":"KLDB","i_long":106.939679,"line":1,"distance":1305,"transit":false,"is_transit":false,"time":1},{"i_lat":-6.219053,"station_id":"CUK","line":1,"is_transit":false,"transit":false,"i_long":106.951283,"station_name":"Cakung","distance":1385,"time":8},{"distance":3097,"i_long":106.977657,"time":3,"transit":false,"i_lat":-6.224515,"line":1,"station_id":"KRI","station_name":"Kranji","is_transit":false},{"i_lat":-6.236616,"is_transit":false,"distance":2520,"line":1,"i_long":106.997013,"transit":false,"station_id":"BKS","station_name":"Bekasi","time":4},{"i_long":107.016735,"time":2,"transit":false,"is_transit":false,"distance":2368,"i_lat":-6.248029,"station_name":"Bekasi Timur","line":1,"station_id":"BKST"},{"line":1,"is_transit":false,"time":7,"i_long":107.055722,"transit":false,"station_name":"Tambun","i_lat":-6.258864,"distance":4460,"station_id":"TB"},{"i_lat":-6.261877,"station_id":"CIT","time":3,"station_name":"Cibitung","distance":3420,"i_long":107.083084,"is_transit":false,"transit":false,"line":1},{"time":2,"station_id":"TLM","station_name":"Metland Telaga Murni","distance":2800,"line":1,"is_transit":false,"transit":false,"i_lat":-6.262938,"i_long":107.093313}],[{"i_long":106.834175,"i_lat":-6.339291,"line":2,"is_transit":false,"station_id":"UP","transit":false,"distance":0,"station_name":"Univ. Pancasila","time":0},{"transit":false,"station_name":"Lenteng Agung","line":2,"i_lat":-6.330363,"station_id":"LNA","i_long":106.832616,"time":2,"is_transit":false,"distance":1029},{"station_id":"TNT","station_name":"Tanjung Barat","i_lat":-6.3080680000000005,"is_transit":false,"transit":false,"distance":2671,"time":3,"line":2,"i_long":106.838896},{"i_long":106.843999,"transit":false,"distance":2820,"station_id":"PSM","time":4,"line":2,"station_name":"Pasar Minggu","i_lat":-6.2842400000000005,"is_transit":false},{"time":2,"station_id":"PSMB","station_name":"Pasar Minggu Baru","line":2,"i_long":106.851577,"transit":false,"distance":2380,"is_transit":false,"i_lat":-6.263214},{"distance":824,"station_name":"Duren Kalibata","station_id":"DRN","line":2,"time":2,"transit":false,"i_lat":-6.255332,"is_transit":false,"i_long":106.85449},{"i_lat":-6.242512,"station_name":"Cawang","is_transit":false,"distance":1546,"i_long":106.856607,"time":3,"transit":false,"station_id":"CW","line":2},{"is_transit":false,"i_long":106.857948,"line":2,"distance":1230,"time":2,"transit":false,"i_lat":-6.226659,"station_id":"TEB","station_name":"Tebet"},{"i_long":106.84912,"line":2,"transit":false,"i_lat":-6.209883,"station_id":"MRI","time":4,"station_name":"Manggarai","distance":2610,"is_transit":false},{"station_name":"Cikini","line":2,"transit":false,"distance":1590,"time":4,"station_id":"CKI","is_transit":false,"i_lat":-6.198556,"i_long":106.840169},{"station_id":"GDD","is_transit":false,"i_long":106.832183,"time":3,"transit":false,"line":2,"station_name":"Gondangdia","distance":1750,"i_lat":-6.186295},{"time":4,"i_lat":-6.166716,"transit":false,"i_long":106.828284,"line":2,"station_id":"JUA","is_transit":false,"station_name":"Juanda","distance":2015},{"transit":false,"line":2,"distance":1149,"i_lat":-6.160725,"i_long":106.827103,"station_name":"Sawah Besar","time":2,"is_transit":false,"station_id":"SW"},{"time":2,"transit":false,"station_name":"Manggabesar","is_transit":false,"i_long":106.82482,"station_id":"MGB","line":2,"distance":906,"i_lat":-6.149769},{"station_id":"JAY","transit":false,"is_transit":false,"distance":1080,"i_long":106.820901,"i_lat":-6.141205,"time":2,"station_name":"Jayakarta","line":2},{"station_id":"JAKK","time":4,"station_name":"Jakarta Kota","is_transit":true,"i_long":106.812439,"line":2,"i_lat":-6.137569,"transit":true,"distance":1264},{"i_long":106.826365,"is_transit":true,"transit":true,"time":3,"station_id":"KPB","line":4,"station_name":"Kampung Bandan","distance":1364,"i_lat":-6.132549},{"i_lat":-6.14505,"is_transit":false,"transit":false,"station_id":"RJW","i_long":106.836569,"line":11,"time":3,"station_name":"Rajawali","distance":1444},{"transit":false,"time":5,"i_long":106.839204,"i_lat":-6.161728,"station_id":"KMO","distance":1901,"station_name":"Kemayoran","is_transit":false,"line":11},{"is_transit":false,"station_id":"PSE","i_lat":-6.174784,"line":11,"distance":1436,"station_name":"Pasar Senen","time":4,"transit":false,"i_long":106.84368},{"distance":1567,"station_id":"GST","i_long":106.850107,"time":8,"line":11,"station_name":"Gang Sentiong","is_transit":false,"i_lat":-6.185975,"transit":false},{"station_name":"Kramat","is_transit":false,"i_lat":-6.193792,"i_long":106.855437,"station_id":"KMT","line":11,"time":1,"distance":973,"transit":false},{"transit":false,"distance":1829,"i_long":106.861737,"i_lat":-6.209188,"station_name":"Pondok Jati","is_transit":false,"line":11,"time":2,"station_id":"POK"},{"line":1,"time":9,"station_id":"JNG","is_transit":true,"i_long":106.86807400000001,"station_name":"Jatinegara","i_lat":-6.215091,"transit":true,"distance":1236},{"station_id":"KLD","time":3,"transit":false,"i_lat":-6.2135,"distance":3395,"line":1,"station_name":"Klender","is_transit":false,"i_long":106.899548},{"is_transit":false,"distance":3100,"i_lat":-6.215568,"time":2,"station_id":"BUA","i_long":106.922662,"transit":false,"station_name":"Buaran","line":1},{"distance":1305,"line":1,"transit":false,"station_name":"Klenderbaru","time":1,"is_transit":false,"i_long":106.939679,"station_id":"KLDB","i_lat":-6.217455},{"station_name":"Cakung","distance":1385,"i_lat":-6.219053,"i_long":106.951283,"line":1,"station_id":"CUK","time":8,"transit":false,"is_transit":false},{"transit":false,"station_id":"KRI","i_long":106.977657,"is_transit":false,"i_lat":-6.224515,"distance":3097,"time":3,"station_name":"Kranji","line":1},{"is_transit":false,"distance":2520,"time":4,"station_id":"BKS","i_long":106.997013,"line":1,"station_name":"Bekasi","i_lat":-6.236616,"transit":false},{"i_lat":-6.248029,"transit":false,"i_long":107.016735,"time":2,"station_id":"BKST","distance":2368,"line":1,"station_name":"Bekasi Timur","is_transit":false},{"station_id":"TB","i_lat":-6.258864,"time":7,"station_name":"Tambun","distance":4460,"i_long":107.055722,"line":1,"is_transit":false,"transit":false},{"i_lat":-6.261877,"line":1,"i_long":107.083084,"transit":false,"is_transit":false,"time":3,"station_id":"CIT","distance":3420,"station_name":"Cibitung"},{"line":1,"i_long":107.093313,"distance":2800,"transit":false,"i_lat":-6.262938,"time":2,"station_id":"TLM","station_name":"Metland Telaga Murni","is_transit":false}]]}