{"data":[[{"is_transit":false,"i_long":106.834175,"line":2,"transit":false,"station_id":"UP","distance":0,"i_lat":-6.339291,"station_name":"Univ. Pancasila","time":0},{"line":2,"station_id":"LNA","time":2,"i_lat":-6.330363,"is_transit":false,"distance":1029,"station_name":"Lenteng Agung","i_long":106.832616,"transit":false},{"is_transit":false,"transit":false,"distance":2671,"time":3,"i_lat":-6.3080680000000005,"i_long":106.838896,"line":2,"station_id":"TNT","station_name":"Tanjung Barat"},{"station_name":"Pasar Minggu","distance":2820,"line":2,"i_lat":-6.2842400000000005,"time":4,"i_long":106.843999,"is_transit":false,"transit":false,"station_id":"PSM"},{"i_lat":-6.263214,"i_long":106.851577,"time":2,"station_name":"Pasar Minggu Baru","line":2,"distance":2380,"transit":false,"is_transit":false,"station_id":"PSMB"},{"i_long":106.85449,"time":2,"line":0,"is_transit":false,"i_lat":-6.255332,"distance":824,"station_name":"Duren Kalibata","station_id":"DRN","transit":false},{"i_lat":-6.242512,"station_name":"Cawang","is_transit":false,"distance":1546,"transit":false,"station_id":"CW","time":3,"i_long":106.856607,"line":0},{"i_lat":-6.226659,"distance":1230,"i_long":106.857948,"station_name":"Tebet","line":2,"time":2,"is_transit":false,"station_id":"TEB","transit":false},{"i_long":106.84912,"station_id":"MRI","i_lat":-6.209883,"is_transit":true,"transit":true,"station_name":"Manggarai","time":4,"distance":2610,"line":0},{"is_transit":false,"i_long":106.822649,"line":1,"transit":false,"time":4,"station_id":"SUD","station_name":"Sudirman","distance":3186,"i_lat":-6.202263},{"time":1,"transit":false,"i_lat":-6.201433,"is_transit":false,"station_id":"SUDB","i_long":106.819881,"distance":280,"line":1,"station_name":"Sudirman Baru"},{"distance":471,"transit":false,"station_id":"KAT","i_lat":-6.20132,"i_long":106.816351,"time":1,"line":1,"station_name":"Karet","is_transit":false},{"station_name":"Tanah Abang","time":5,"station_id":"THB","i_long":106.811091,"transit":false,"distance":2029,"i_lat":-6.185545,"is_transit":true,"line":1},{"i_lat":-6.155215,"time":8,"i_long":106.800832,"distance":3632,"station_name":"Duri","transit":true,"station_id":"DU","is_transit":true,"line":1},{"transit":false,"i_lat":-6.162021,"distance":1700,"station_name":"Grogol","is_transit":false,"line":5,"station_id":"GGL","i_long":106.788277,"time":3},{"i_long":106.771379,"distance":2036,"station_name":"Pesing","time":2,"transit":false,"i_lat":-6.161433,"line":5,"is_transit":false,"station_id":"PSG"},{"station_name":"Taman Kota","i_lat":-6.1587309999999995,"distance":1614,"is_transit":false,"time":2,"transit":false,"i_long":106.756522,"line":5,"station_id":"TKO"}],[{"station_id":"UP","i_lat":-6.339291,"distance":0,"time":0,"i_long":106.834175,"is_transit":false,"line":2,"station_name":"Univ. Pancasila","transit":false},{"is_transit":false,"i_long":106.832616,"line":2,"station_name":"Lenteng Agung","distance":1029,"station_id":"LNA","i_lat":-6.330363,"transit":false,"time":2},{"is_transit":false,"time":3,"line":2,"transit":false,"station_name":"Tanjung Barat","i_lat":-6.3080680000000005,"i_long":106.838896,"distance":2671,"station_id":"TNT"},{"station_id":"PSM","is_transit":false,"i_long":106.843999,"transit":false,"i_lat":-6.2842400000000005,"station_name":"Pasar Minggu","distance":2820,"line":2,"time":4},{"station_id":"PSMB","distance":2380,"station_name":"Pasar Minggu Baru","transit":false,"i_lat":-6.263214,"i_long":106.851577,"is_transit":false,"line":2,"time":2},{"time":2,"station_name":"Duren Kalibata","station_id":"DRN","is_transit":false,"line":0,"i_long":106.85449,"i_lat":-6.255332,"distance":824,"transit":false},{"transit":false,"i_lat":-6.242512,"line":0,"time":3,"station_name":"Cawang","i_long":106.856607,"station_id":"CW","distance":1546,"is_transit":false},{"transit":false,"i_long":106.857948,"line":2,"station_name":"Tebet","time":2,"station_id":"TEB","i_lat":-6.226659,"is_transit":false,"distance":1230},{"i_long":106.84912,"i_lat":-6.209883,"station_name":"Manggarai","line":0,"transit":true,"is_transit":true,"time":4,"distance":2610,"station_id":"MRI"},{"time":4,"i_long":106.840169,"station_id":"CKI","transit":false,"i_lat":-6.198556,"line":0,"station_name":"Cikini","is_transit":false,"distance":1590},{"station_name":"Gondangdia","time":3,"distance":1750,"i_lat":-6.186295,"station_id":"GDD","line":2,"is_transit":false,"transit":false,"i_long":106.832183},{"i_lat":-6.166716,"transit":false,"time":4,"station_id":"JUA","station_name":"Juanda","line":2,"i_long":106.828284,"distance":2015,"is_transit":false},{"i_lat":-6.160725,"time":2,"transit":false,"line":2,"i_long":106.827103,"station_name":"Sawah Besar","distance":1149,"is_transit":false,"station_id":"SW"},{"station_name":"Manggabesar","i_lat":-6.149769,"line":2,"is_transit":false,"distance":906,"transit":false,"time":2,"station_id":"MGB","i_long":106.82482},{"i_lat":-6.141205,"station_id":"JAY","is_transit":false,"line":7,"station_name":"Jayakarta","distance":1080,"time":2,"transit":false,"i_long":106.820901},{"station_id":"JAKK","transit":true,"distance":1264,"station_name":"Jakarta Kota","i_long":106.812439,"is_transit":true,"time":4,"i_lat":-6.137569,"line":0},{"station_id":"KPB","distance":1364,"i_long":106.826365,"is_transit":true,"station_name":"Kampung Bandan","time":3,"transit":false,"line":0,"i_lat":-6.132549},{"i_lat":-6.144674,"i_long":106.79867,"distance":4102,"station_name":"Angke","line":0,"transit":false,"is_transit":false,"station_id":"AK","time":9},{"line":1,"distance":1230,"time":4,"i_lat":-6.155215,"is_transit":true,"transit":true,"i_long":106.800832,"station_id":"DU","station_name":"Duri"},{"i_lat":-6.162021,"line":5,"distance":1700,"time":3,"i_long":106.788277,"station_id":"GGL","transit":false,"station_name":"Grogol","is_transit":false},{"i_lat":-6.161433,"transit":false,"station_name":"Pesing","distance":2036,"line":5,"time":2,"station_id":"PSG","is_transit":false,"i_long":106.771379},{"line":5,"station_name":"Taman Kota","distance":1614,"time":2,"is_transit":false,"i_long":106.756522,"i_lat":-6.1587309999999995,"transit":false,"station_id":"TKO"}],[{"distance":0,"i_lat":-6.339291,"i_long":106.834175,"transit":false,"station_name":"Univ. Pancasila","station_id":"UP","is_transit":false,"time":0,"line":2},{"transit":false,"line":2,"station_name":"Lenteng Agung","station_id":"LNA","is_transit":false,"time":2,"distance":1029,"i_long":106.832616,"i_lat":-6.330363},{"distance":2671,"i_long":106.838896,"is_transit":false,"line":2,"transit":false,"i_lat":-6.3080680000000005,"station_id":"TNT","station_name":"Tanjung Barat","time":3},{"station_id":"PSM","station_name":"Pasar Minggu","is_transit":false,"time":4,"transit":false,"distance":2820,"i_lat":-6.2842400000000005,"line":2,"i_long":106.843999},{"station_id":"PSMB","i_lat":-6.263214,"i_long":106.851577,"is_transit":false,"time":2,"transit":false,"line":2,"distance":2380,"station_name":"Pasar Minggu Baru"},{"distance":824,"transit":false,"i_lat":-6.255332,"time":2,"line":0,"station_name":"Duren Kalibata","station_id":"DRN","is_transit":false,"i_long":106.85449},{"is_transit":false,"line":0,"station_id":"CW","station_name":"Cawang","distance":1546,"time":3,"transit":false,"i_lat":-6.242512,"i_long":106.856607},{"time":2,"i_long":106.857948,"line":2,"station_id":"TEB","i_lat":-6.226659,"transit":false,"distance":1230,"station_name":"Tebet","is_transit":false},{"i_long":106.84912,"i_lat":-6.209883,"time":4,"station_id":"MRI","line":0,"station_name":"Manggarai","transit":true,"is_transit":true,"distance":2610},{"is_transit":false,"transit":false,"station_name":"Matraman","distance":1275,"i_long":106.858896,"station_id":"MTR","i_lat":-6.212485,"time":2,"line":1},{"transit":true,"is_transit":true,"station_name":"Jatinegara","distance":1377,"station_id":"JNG","i_lat":-6.215091,"time":8,"line":0,"i_long":106.86807400000001},{"distance":1236,"line":11,"station_id":"POK","i_long":106.861737,"i_lat":-6.209188,"station_name":"Pondok Jati","time":2,"transit":false,"is_transit":false},{"i_lat":-6.193792,"line":11,"i_long":106.855437,"station_id":"KMT","station_name":"Kramat","distance":1829,"is_transit":false,"time":2,"transit":false},{"distance":973,"time":1,"station_id":"GST","i_long":106.850107,"is_transit":false,"transit":false,"i_lat":-6.185975,"station_name":"Gang Sentiong","line":11},{"station_id":"PSE","i_long":106.84368,"i_lat":-6.174784,"station_name":"Pasar Senen","is_transit":false,"time":8,"line":11,"distance":1567,"transit":false},{"line":11,"transit":false,"distance":1436,"time":4,"i_lat":-6.161728,"station_name":"Kemayoran","is_transit":false,"station_id":"KMO","i_long":106.839204},{"i_lat":-6.14505,"station_name":"Rajawali","time":5,"i_long":106.836569,"line":11,"station_id":"RJW","distance":1901,"is_transit":false,"transit":false},{"i_lat":-6.132549,"is_transit":true,"time":3,"transit":true,"station_id":"KPB","station_name":"Kampung Bandan","i_long":106.826365,"distance":1444,"line":0},{"i_lat":-6.144674,"line":0,"transit":false,"time":9,"station_id":"AK","station_name":"Angke","i_long":106.79867,"distance":4102,"is_transit":false},{"station_name":"Duri","station_id":"DU","i_lat":-6.155215,"is_transit":true,"i_long":106.800832,"distance":1230,"transit":true,"line":1,"time":4},{"i_lat":-6.162021,"station_id":"GGL","i_long":106.788277,"station_name":"Grogol","time":3,"distance":1700,"transit":false,"line":5,"is_transit":false},{"time":2,"i_long":106.771379,"transit":false,"station_id":"PSG","line":5,"station_name":"Pesing","is_transit":false,"i_lat":-6.161433,"distance":2036},{"time":2,"line":5,"i_lat":-6.1587309999999995,"transit":false,"i_long":106.756522,"distance":1614,"is_transit":false,"station_id":"TKO","station_name":"Taman Kota"}]]}