{"data":[[{"i_long":106.834175,"i_lat":-6.339291,"station_id":"UP","line":2,"is_transit":false,"time":0,"transit":false,"station_name":"Univ. Pancasila","distance":0},{"station_id":"LNA","time":2,"line":2,"is_transit":false,"i_lat":-6.330363,"distance":1029,"transit":false,"station_name":"Lenteng Agung","i_long":106.832616},{"is_transit":false,"station_id":"TNT","transit":false,"time":3,"i_lat":-6.3080680000000005,"i_long":106.838896,"station_name":"Tanjung Barat","distance":2671,"line":2},{"is_transit":false,"i_long":106.843999,"distance":2820,"i_lat":-6.2842400000000005,"station_id":"PSM","station_name":"Pasar Minggu","time":4,"transit":false,"line":2},{"is_transit":false,"line":2,"station_id":"PSMB","transit":false,"i_lat":-6.263214,"i_long":106.851577,"station_name":"Pasar Minggu Baru","distance":2380,"time":2},{"time":2,"is_transit":false,"distance":824,"i_lat":-6.255332,"transit":false,"i_long":106.85449,"line":2,"station_name":"Duren Kalibata","station_id":"DRN"},{"i_long":106.856607,"line":2,"station_name":"Cawang","distance":1546,"time":3,"is_transit":false,"station_id":"CW","i_lat":-6.242512,"transit":false},{"time":2,"station_name":"Tebet","distance":1230,"i_lat":-6.226659,"transit":false,"is_transit":false,"line":2,"i_long":106.857948,"station_id":"TEB"},{"station_id":"MRI","transit":true,"distance":2610,"i_long":106.84912,"is_transit":true,"i_lat":-6.209883,"station_name":"Manggarai","time":4,"line":2},{"line":1,"transit":false,"station_id":"SUD","station_name":"Sudirman","is_transit":false,"distance":3186,"i_lat":-6.202263,"i_long":106.822649,"time":4},{"is_transit":false,"station_name":"Sudirman Baru","station_id":"SUDB","transit":false,"distance":280,"line":1,"time":1,"i_long":106.819881,"i_lat":-6.201433},{"station_id":"KAT","is_transit":false,"time":1,"distance":471,"station_name":"Karet","i_lat":-6.20132,"transit":false,"i_long":106.816351,"line":1},{"line":1,"is_transit":false,"transit":false,"station_id":"THB","i_long":106.811091,"distance":2029,"time":5,"i_lat":-6.185545,"station_name":"Tanah Abang"},{"i_long":106.800832,"station_name":"Duri","station_id":"DU","is_transit":true,"distance":3632,"transit":true,"i_lat":-6.155215,"time":8,"line":1},{"i_lat":-6.162021,"station_id":"GGL","station_name":"Grogol","is_transit":false,"time":3,"i_long":106.788277,"transit":false,"line":5,"distance":1700},{"time":2,"i_long":106.771379,"line":5,"station_id":"PSG","transit":false,"distance":2036,"station_name":"Pesing","is_transit":false,"i_lat":-6.161433},{"station_name":"Taman Kota","i_lat":-6.1587309999999995,"i_long":106.756522,"station_id":"TKO","distance":1614,"line":5,"transit":false,"time":2,"is_transit":false},{"distance":2334,"line":5,"transit":false,"i_lat":-6.159876,"i_long":106.737035,"is_transit":false,"station_id":"BOI","station_name":"Bojongindah","time":2},{"i_lat":-6.162758,"transit":false,"station_name":"Rawa Buaya","distance":1152,"i_long":106.723064,"station_id":"RW","line":5,"time":4,"is_transit":false},{"distance":2504,"i_long":106.701612,"transit":false,"station_name":"Kalideres","station_id":"KDS","i_lat":-6.166068,"time":3,"is_transit":false,"line":5},{"is_transit":false,"i_lat":-6.169933,"distance":2548,"i_long":106.679458,"line":5,"time":3,"transit":false,"station_name":"Poris","station_id":"PI"},{"is_transit":false,"transit":false,"line":5,"station_id":"BPR","station_name":"Batuceper","time":3,"i_lat":-6.171811,"i_long":106.665036,"distance":1834},{"i_lat":-6.17331,"is_transit":false,"transit":false,"station_id":"TTI","time":3,"i_long":106.64657,"station_name":"Tanah Tinggi","line":5,"distance":2028}],[{"line":2,"i_long":106.834175,"station_name":"Univ. Pancasila","station_id":"UP","is_transit":false,"i_lat":-6.339291,"transit":false,"time":0,"distance":0},{"i_lat":-6.330363,"station_name":"Lenteng Agung","station_id":"LNA","time":2,"is_transit":false,"distance":1029,"i_long":106.832616,"transit":false,"line":2},{"station_id":"TNT","time":3,"station_name":"Tanjung Barat","distance":2671,"i_long":106.838896,"is_transit":false,"line":2,"transit":false,"i_lat":-6.3080680000000005},{"i_lat":-6.2842400000000005,"station_name":"Pasar Minggu","station_id":"PSM","time":4,"transit":false,"i_long":106.843999,"line":2,"is_transit":false,"distance":2820},{"station_name":"Pasar Minggu Baru","station_id":"PSMB","i_long":106.851577,"distance":2380,"line":2,"i_lat":-6.263214,"time":2,"is_transit":false,"transit":false},{"i_long":106.85449,"transit":false,"distance":824,"station_id":"DRN","station_name":"Duren Kalibata","line":2,"is_transit":false,"time":2,"i_lat":-6.255332},{"station_name":"Cawang","is_transit":false,"distance":1546,"station_id":"CW","i_long":106.856607,"line":2,"i_lat":-6.242512,"transit":false,"time":3},{"station_name":"Tebet","is_transit":false,"i_long":106.857948,"station_id":"TEB","i_lat":-6.226659,"line":2,"transit":false,"time":2,"distance":1230},{"is_transit":false,"station_id":"MRI","line":2,"station_name":"Manggarai","transit":false,"time":4,"i_lat":-6.209883,"distance":2610,"i_long":106.84912},{"station_name":"Cikini","i_lat":-6.198556,"station_id":"CKI","transit":false,"time":4,"line":2,"is_transit":false,"distance":1590,"i_long":106.840169},{"transit":false,"i_long":106.832183,"station_name":"Gondangdia","time":3,"line":2,"station_id":"GDD","distance":1750,"is_transit":false,"i_lat":-6.186295},{"time":4,"station_name":"Juanda","distance":2015,"line":2,"is_transit":false,"transit":false,"station_id":"JUA","i_lat":-6.166716,"i_long":106.828284},{"transit":false,"station_id":"SW","station_name":"Sawah Besar","distance":1149,"i_lat":-6.160725,"i_long":106.827103,"line":2,"is_transit":false,"time":2},{"is_transit":false,"time":2,"station_name":"Manggabesar","transit":false,"i_long":106.82482,"distance":906,"line":2,"i_lat":-6.149769,"station_id":"MGB"},{"time":2,"i_lat":-6.141205,"station_id":"JAY","i_long":106.820901,"station_name":"Jayakarta","distance":1080,"line":2,"transit":false,"is_transit":false},{"time":4,"distance":1264,"line":2,"transit":true,"station_id":"JAKK","i_lat":-6.137569,"is_transit":true,"station_name":"Jakarta Kota","i_long":106.812439},{"transit":true,"station_name":"Kampung Bandan","time":3,"i_lat":-6.132549,"i_long":106.826365,"is_transit":true,"distance":1364,"station_id":"KPB","line":4},{"station_name":"Angke","line":1,"distance":4102,"i_lat":-6.144674,"transit":false,"time":9,"i_long":106.79867,"is_transit":false,"station_id":"AK"},{"transit":true,"line":1,"time":4,"distance":1230,"i_lat":-6.155215,"station_name":"Duri","i_long":106.800832,"station_id":"DU","is_transit":true},{"distance":1700,"time":3,"i_long":106.788277,"line":5,"is_transit":false,"transit":false,"i_lat":-6.162021,"station_id":"GGL","station_name":"Grogol"},{"line":5,"station_id":"PSG","station_name":"Pesing","i_lat":-6.161433,"is_transit":false,"i_long":106.771379,"transit":false,"distance":2036,"time":2},{"line":5,"station_id":"TKO","time":2,"transit":false,"distance":1614,"is_transit":false,"station_name":"Taman Kota","i_long":106.756522,"i_lat":-6.1587309999999995},{"time":2,"i_long":106.737035,"i_lat":-6.159876,"transit":false,"station_id":"BOI","line":5,"distance":2334,"station_name":"Bojongindah","is_transit":false},{"transit":false,"station_id":"RW","i_lat":-6.162758,"line":5,"distance":1152,"i_long":106.723064,"is_transit":false,"time":4,"station_name":"Rawa Buaya"},{"station_name":"Kalideres","i_lat":-6.166068,"is_transit":false,"distance":2504,"line":5,"time":3,"i_long":106.701612,"transit":false,"station_id":"KDS"},{"is_transit":false,"line":5,"transit":false,"station_name":"Poris","i_lat":-6.169933,"station_id":"PI","time":3,"distance":2548,"i_long":106.679458},{"station_id":"BPR","i_lat":-6.171811,"is_transit":false,"distance":1834,"station_name":"Batuceper","time":3,"line":5,"i_long":106.665036,"transit":false},{"time":3,"i_lat":-6.17331,"line":5,"is_transit":false,"station_name":"Tanah Tinggi","transit":false,"i_long":106.64657,"distance":2028,"station_id":"TTI"}],[{"line":2,"station_name":"Univ. Pancasila","i_lat":-6.339291,"time":0,"station_id":"UP","distance":0,"transit":false,"is_transit":false,"i_long":106.834175},{"i_lat":-6.330363,"distance":1029,"station_id":"LNA","line":2,"i_long":106.832616,"station_name":"Lenteng Agung","is_transit":false,"transit":false,"time":2},{"distance":2671,"time":3,"i_lat":-6.3080680000000005,"line":2,"is_transit":false,"station_id":"TNT","station_name":"Tanjung Barat","i_long":106.838896,"transit":false},{"is_transit":false,"station_id":"PSM","distance":2820,"i_lat":-6.2842400000000005,"station_name":"Pasar Minggu","i_long":106.843999,"transit":false,"time":4,"line":2},{"station_name":"Pasar Minggu Baru","time":2,"distance":2380,"is_transit":false,"i_long":106.851577,"i_lat":-6.263214,"line":2,"transit":false,"station_id":"PSMB"},{"time":2,"transit":false,"is_transit":false,"station_name":"Duren Kalibata","line":2,"i_long":106.85449,"distance":824,"station_id":"DRN","i_lat":-6.255332},{"i_lat":-6.242512,"station_name":"Cawang","is_transit":false,"line":2,"station_id":"CW","distance":1546,"time":3,"i_long":106.856607,"transit":false},{"time":2,"line":2,"transit":false,"station_id":"TEB","i_lat":-6.226659,"station_name":"Tebet","is_transit":false,"distance":1230,"i_long":106.857948},{"transit":true,"station_name":"Manggarai","i_long":106.84912,"time":4,"station_id":"MRI","distance":2610,"line":2,"i_lat":-6.209883,"is_transit":true},{"i_lat":-6.212485,"time":2,"distance":1275,"i_long":106.858896,"is_transit":false,"line":1,"station_name":"Matraman","station_id":"MTR","transit":false},{"transit":true,"station_name":"Jatinegara","station_id":"JNG","time":8,"distance":1377,"line":1,"i_lat":-6.215091,"is_transit":true,"i_long":106.86807400000001},{"is_transit":false,"i_lat":-6.209188,"time":2,"transit":false,"i_long":106.861737,"station_id":"POK","line":11,"distance":1236,"station_name":"Pondok Jati"},{"i_long":106.855437,"station_id":"KMT","line":11,"is_transit":false,"distance":1829,"transit":false,"station_name":"Kramat","time":2,"i_lat":-6.193792},{"station_id":"GST","line":11,"station_name":"Gang Sentiong","transit":false,"is_transit":false,"i_lat":-6.185975,"time":1,"distance":973,"i_long":106.850107},{"i_lat":-6.174784,"transit":false,"i_long":106.84368,"line":11,"time":8,"station_name":"Pasar Senen","station_id":"PSE","is_transit":false,"distance":1567},{"line":11,"distance":1436,"transit":false,"station_name":"Kemayoran","i_lat":-6.161728,"time":4,"station_id":"KMO","i_long":106.839204,"is_transit":false},{"time":5,"line":11,"station_name":"Rajawali","transit":false,"i_lat":-6.14505,"station_id":"RJW","is_transit":false,"i_long":106.836569,"distance":1901},{"distance":1444,"i_long":106.826365,"station_name":"Kampung Bandan","i_lat":-6.132549,"is_transit":true,"time":3,"transit":true,"station_id":"KPB","line":4},{"is_transit":false,"line":1,"time":9,"station_id":"AK","transit":false,"i_lat":-6.144674,"distance":4102,"i_long":106.79867,"station_name":"Angke"},{"time":4,"distance":1230,"is_transit":true,"station_id":"DU","station_name":"Duri","line":1,"i_long":106.800832,"i_lat":-6.155215,"transit":true},{"time":3,"distance":1700,"i_long":106.788277,"is_transit":false,"transit":false,"i_lat":-6.162021,"line":5,"station_name":"Grogol","station_id":"GGL"},{"transit":false,"station_name":"Pesing","time":2,"i_long":106.771379,"station_id":"PSG","i_lat":-6.161433,"line":5,"is_transit":false,"distance":2036},{"station_name":"Taman Kota","station_id":"TKO","transit":false,"distance":1614,"line":5,"is_transit":false,"i_lat":-6.1587309999999995,"time":2,"i_long":106.756522},{"i_long":106.737035,"transit":false,"distance":2334,"is_transit":false,"i_lat":-6.159876,"time":2,"line":5,"station_name":"Bojongindah","station_id":"BOI"},{"station_name":"Rawa Buaya","transit":false,"time":4,"station_id":"RW","i_long":106.723064,"is_transit":false,"i_lat":-6.162758,"distance":1152,"line":5},{"station_name":"Kalideres","is_transit":false,"i_lat":-6.166068,"time":3,"i_long":106.701612,"line":5,"transit":false,"station_id":"KDS","distance":2504},{"i_long":106.679458,"transit":false,"station_name":"Poris","line":5,"time":3,"distance":2548,"is_transit":false,"station_id":"PI","i_lat":-6.169933},{"transit":false,"i_long":106.665036,"distance":1834,"station_name":"Batuceper","station_id":"BPR","time":3,"is_transit":false,"line":5,"i_lat":-6.171811},{"is_transit":false,"line":5,"distance":2028,"i_lat":-6.17331,"station_name":"Tanah Tinggi","i_long":106.64657,"station_id":"TTI","transit":false,"time":3}]]}