{"data":[[{"time":0,"station_name":"Univ. Pancasila","distance":0,"transit":false,"i_long":106.834175,"is_transit":false,"station_id":"UP","line":2,"i_lat":-6.339291},{"station_name":"Lenteng Agung","distance":1029,"is_transit":false,"time":2,"i_lat":-6.330363,"station_id":"LNA","transit":false,"i_long":106.832616,"line":2},{"transit":false,"i_lat":-6.3080680000000005,"time":3,"i_long":106.838896,"line":2,"distance":2671,"is_transit":false,"station_name":"Tanjung Barat","station_id":"TNT"},{"time":4,"i_long":106.843999,"distance":2820,"station_name":"Pasar Minggu","transit":false,"line":2,"i_lat":-6.2842400000000005,"is_transit":false,"station_id":"PSM"},{"is_transit":false,"transit":false,"distance":2380,"i_lat":-6.263214,"line":2,"station_id":"PSMB","time":2,"i_long":106.851577,"station_name":"Pasar Minggu Baru"},{"distance":824,"i_long":106.85449,"line":0,"time":2,"is_transit":false,"transit":false,"station_name":"Duren Kalibata","i_lat":-6.255332,"station_id":"DRN"},{"is_transit":false,"station_id":"CW","distance":1546,"transit":false,"i_long":106.856607,"station_name":"Cawang","i_lat":-6.242512,"line":0,"time":3},{"station_name":"Tebet","i_long":106.857948,"time":2,"distance":1230,"transit":false,"is_transit":false,"i_lat":-6.226659,"line":2,"station_id":"TEB"},{"station_id":"MRI","station_name":"Manggarai","distance":2610,"i_long":106.84912,"i_lat":-6.209883,"line":0,"time":4,"transit":true,"is_transit":true},{"i_lat":-6.212485,"is_transit":false,"station_id":"MTR","distance":1275,"i_long":106.858896,"time":2,"line":1,"station_name":"Matraman","transit":false},{"line":0,"time":8,"transit":false,"i_lat":-6.215091,"station_name":"Jatinegara","i_long":106.86807400000001,"station_id":"JNG","distance":1377,"is_transit":true},{"transit":false,"i_lat":-6.2135,"line":1,"station_name":"Klender","is_transit":false,"i_long":106.899548,"time":3,"station_id":"KLD","distance":3395},{"distance":3100,"transit":false,"i_lat":-6.215568,"station_name":"Buaran","station_id":"BUA","is_transit":false,"time":2,"i_long":106.922662,"line":0},{"station_name":"Klenderbaru","time":1,"is_transit":false,"distance":1305,"transit":false,"line":1,"station_id":"KLDB","i_lat":-6.217455,"i_long":106.939679},{"i_lat":-6.219053,"station_name":"Cakung","time":8,"transit":false,"is_transit":false,"i_long":106.951283,"station_id":"CUK","line":0,"distance":1385},{"i_lat":-6.224515,"station_name":"Kranji","time":3,"is_transit":false,"distance":3097,"i_long":106.977657,"line":1,"transit":false,"station_id":"KRI"},{"station_name":"Bekasi","station_id":"BKS","line":0,"i_lat":-6.236616,"distance":2520,"is_transit":false,"transit":false,"time":4,"i_long":106.997013},{"distance":2368,"i_lat":-6.248029,"time":2,"is_transit":false,"line":0,"station_id":"BKST","station_name":"Bekasi Timur","i_long":107.016735,"transit":false},{"distance":4460,"is_transit":false,"transit":false,"station_name":"Tambun","time":7,"i_lat":-6.258864,"station_id":"TB","i_long":107.055722,"line":1},{"i_long":107.083084,"distance":3420,"line":0,"station_name":"Cibitung","station_id":"CIT","i_lat":-6.261877,"time":3,"transit":false,"is_transit":false},{"distance":2800,"i_lat":-6.262938,"transit":false,"i_long":107.093313,"time":2,"is_transit":false,"line":1,"station_name":"Metland Telaga Murni","station_id":"TLM"}],[{"time":0,"station_id":"UP","distance":0,"transit":false,"is_transit":false,"i_long":106.834175,"line":2,"i_lat":-6.339291,"station_name":"Univ. Pancasila"},{"transit":false,"time":2,"distance":1029,"line":2,"station_id":"LNA","i_long":106.832616,"i_lat":-6.330363,"station_name":"Lenteng Agung","is_transit":false},{"time":3,"station_id":"TNT","station_name":"Tanjung Barat","transit":false,"line":2,"i_lat":-6.3080680000000005,"is_transit":false,"distance":2671,"i_long":106.838896},{"is_transit":false,"time":4,"distance":2820,"station_name":"Pasar Minggu","i_lat":-6.2842400000000005,"i_long":106.843999,"line":2,"station_id":"PSM","transit":false},{"i_lat":-6.263214,"is_transit":false,"station_name":"Pasar Minggu Baru","station_id":"PSMB","distance":2380,"transit":false,"time":2,"i_long":106.851577,"line":2},{"is_transit":false,"station_name":"Duren Kalibata","time":2,"distance":824,"line":0,"transit":false,"i_lat":-6.255332,"station_id":"DRN","i_long":106.85449},{"distance":1546,"is_transit":false,"time":3,"station_name":"Cawang","i_lat":-6.242512,"i_long":106.856607,"transit":false,"line":0,"station_id":"CW"},{"transit":false,"time":2,"station_id":"TEB","is_transit":false,"i_long":106.857948,"distance":1230,"i_lat":-6.226659,"line":2,"station_name":"Tebet"},{"is_transit":true,"line":0,"station_id":"MRI","i_long":106.84912,"station_name":"Manggarai","time":4,"distance":2610,"transit":true,"i_lat":-6.209883},{"distance":3186,"station_id":"SUD","is_transit":false,"time":4,"transit":false,"i_lat":-6.202263,"station_name":"Sudirman","i_long":106.822649,"line":1},{"station_name":"Sudirman Baru","transit":false,"line":1,"is_transit":false,"time":1,"distance":280,"i_lat":-6.201433,"i_long":106.819881,"station_id":"SUDB"},{"transit":false,"i_long":106.816351,"distance":471,"time":1,"i_lat":-6.20132,"is_transit":false,"line":1,"station_name":"Karet","station_id":"KAT"},{"station_name":"Tanah Abang","i_lat":-6.185545,"i_long":106.811091,"is_transit":true,"transit":false,"line":1,"time":5,"station_id":"THB","distance":2029},{"time":8,"i_lat":-6.155215,"line":1,"transit":true,"i_long":106.800832,"is_transit":true,"distance":3632,"station_id":"DU","station_name":"Duri"},{"line":0,"station_name":"Angke","transit":false,"i_long":106.79867,"station_id":"AK","is_transit":false,"time":4,"distance":1230,"i_lat":-6.144674},{"time":9,"is_transit":true,"station_name":"Kampung Bandan","transit":true,"i_lat":-6.132549,"station_id":"KPB","distance":4102,"i_long":106.826365,"line":0},{"station_name":"Rajawali","is_transit":false,"i_lat":-6.14505,"i_long":106.836569,"time":3,"transit":false,"distance":1444,"line":11,"station_id":"RJW"},{"transit":false,"time":5,"line":11,"station_name":"Kemayoran","i_lat":-6.161728,"i_long":106.839204,"is_transit":false,"station_id":"KMO","distance":1901},{"station_id":"PSE","is_transit":false,"transit":false,"line":11,"time":4,"station_name":"Pasar Senen","distance":1436,"i_lat":-6.174784,"i_long":106.84368},{"is_transit":false,"i_lat":-6.185975,"i_long":106.850107,"time":8,"transit":false,"distance":1567,"station_id":"GST","station_name":"Gang Sentiong","line":11},{"distance":973,"station_name":"Kramat","line":11,"transit":false,"i_lat":-6.193792,"station_id":"KMT","time":1,"i_long":106.855437,"is_transit":false},{"line":11,"transit":false,"i_lat":-6.209188,"distance":1829,"station_name":"Pondok Jati","station_id":"POK","is_transit":false,"time":2,"i_long":106.861737},{"station_name":"Jatinegara","i_long":106.86807400000001,"station_id":"JNG","transit":true,"is_transit":true,"i_lat":-6.215091,"line":0,"time":9,"distance":1236},{"time":3,"is_transit":false,"station_id":"KLD","transit":false,"i_long":106.899548,"station_name":"Klender","distance":3395,"line":1,"i_lat":-6.2135},{"i_long":106.922662,"station_id":"BUA","line":0,"time":2,"transit":false,"i_lat":-6.215568,"distance":3100,"station_name":"Buaran","is_transit":false},{"i_lat":-6.217455,"i_long":106.939679,"transit":false,"is_transit":false,"time":1,"station_id":"KLDB","distance":1305,"station_name":"Klenderbaru","line":1},{"line":0,"station_name":"Cakung","distance":1385,"i_long":106.951283,"i_lat":-6.219053,"is_transit":false,"station_id":"CUK","time":8,"transit":false},{"station_id":"KRI","station_name":"Kranji","distance":3097,"is_transit":false,"i_lat":-6.224515,"line":1,"time":3,"i_long":106.977657,"transit":false},{"transit":false,"i_long":106.997013,"time":4,"i_lat":-6.236616,"station_name":"Bekasi","station_id":"BKS","line":0,"is_transit":false,"distance":2520},{"time":2,"line":0,"transit":false,"station_name":"Bekasi Timur","distance":2368,"station_id":"BKST","is_transit":false,"i_lat":-6.248029,"i_long":107.016735},{"distance":4460,"station_id":"TB","i_lat":-6.258864,"station_name":"Tambun","time":7,"i_long":107.055722,"line":1,"is_transit":false,"transit":false},{"time":3,"line":0,"i_long":107.083084,"station_id":"CIT","station_name":"Cibitung","is_transit":false,"transit":false,"i_lat":-6.261877,"distance":3420},{"line":1,"distance":2800,"station_name":"Metland Telaga Murni","is_transit":false,"time":2,"i_lat":-6.262938,"transit":false,"i_long":107.093313,"station_id":"TLM"}],[{"station_id":"UP","time":0,"transit":false,"station_name":"Univ. Pancasila","i_lat":-6.339291,"i_long":106.834175,"line":2,"is_transit":false,"distance":0},{"i_lat":-6.330363,"time":2,"is_transit":false,"i_long":106.832616,"station_id":"LNA","transit":false,"station_name":"Lenteng Agung","distance":1029,"line":2},{"station_id":"TNT","station_name":"Tanjung Barat","time":3,"i_lat":-6.3080680000000005,"distance":2671,"is_transit":false,"transit":false,"i_long":106.838896,"line":2},{"is_transit":false,"distance":2820,"station_id":"PSM","station_name":"Pasar Minggu","i_lat":-6.2842400000000005,"time":4,"transit":false,"i_long":106.843999,"line":2},{"distance":2380,"station_id":"PSMB","is_transit":false,"i_lat":-6.263214,"transit":false,"i_long":106.851577,"line":2,"station_name":"Pasar Minggu Baru","time":2},{"station_id":"DRN","station_name":"Duren Kalibata","time":2,"is_transit":false,"transit":false,"line":0,"i_lat":-6.255332,"distance":824,"i_long":106.85449},{"time":3,"transit":false,"is_transit":false,"distance":1546,"i_long":106.856607,"i_lat":-6.242512,"line":0,"station_name":"Cawang","station_id":"CW"},{"station_id":"TEB","distance":1230,"i_lat":-6.226659,"station_name":"Tebet","line":2,"transit":false,"is_transit":false,"i_long":106.857948,"time":2},{"station_id":"MRI","i_long":106.84912,"station_name":"Manggarai","line":0,"is_transit":true,"time":4,"i_lat":-6.209883,"transit":true,"distance":2610},{"is_transit":false,"distance":1590,"transit":false,"line":0,"i_long":106.840169,"station_id":"CKI","i_lat":-6.198556,"station_name":"Cikini","time":4},{"transit":false,"i_lat":-6.186295,"distance":1750,"is_transit":false,"station_name":"Gondangdia","line":2,"i_long":106.832183,"station_id":"GDD","time":3},{"line":2,"distance":2015,"i_long":106.828284,"station_name":"Juanda","time":4,"is_transit":false,"station_id":"JUA","transit":false,"i_lat":-6.166716},{"i_long":106.827103,"transit":false,"i_lat":-6.160725,"is_transit":false,"station_name":"Sawah Besar","time":2,"distance":1149,"station_id":"SW","line":2},{"station_name":"Manggabesar","transit":false,"line":2,"station_id":"MGB","is_transit":false,"i_long":106.82482,"distance":906,"time":2,"i_lat":-6.149769},{"station_name":"Jayakarta","time":2,"i_long":106.820901,"is_transit":false,"transit":false,"station_id":"JAY","line":7,"distance":1080,"i_lat":-6.141205},{"time":4,"is_transit":true,"i_lat":-6.137569,"distance":1264,"transit":true,"i_long":106.812439,"line":0,"station_name":"Jakarta Kota","station_id":"JAKK"},{"transit":true,"station_name":"Kampung Bandan","is_transit":true,"i_long":106.826365,"station_id":"KPB","line":0,"time":3,"distance":1364,"i_lat":-6.132549},{"transit":false,"station_name":"Rajawali","station_id":"RJW","distance":1444,"time":3,"i_long":106.836569,"i_lat":-6.14505,"is_transit":false,"line":11},{"station_id":"KMO","i_lat":-6.161728,"i_long":106.839204,"line":11,"distance":1901,"time":5,"is_transit":false,"transit":false,"station_name":"Kemayoran"},{"transit":false,"station_id":"PSE","is_transit":false,"time":4,"i_long":106.84368,"line":11,"distance":1436,"i_lat":-6.174784,"station_name":"Pasar Senen"},{"line":11,"station_id":"GST","station_name":"Gang Sentiong","is_transit":false,"distance":1567,"transit":false,"i_long":106.850107,"i_lat":-6.185975,"time":8},{"time":1,"station_id":"KMT","is_transit":false,"i_long":106.855437,"i_lat":-6.193792,"transit":false,"line":11,"station_name":"Kramat","distance":973},{"transit":false,"time":2,"is_transit":false,"station_name":"Pondok Jati","i_lat":-6.209188,"station_id":"POK","i_long":106.861737,"line":11,"distance":1829},{"station_name":"Jatinegara","line":0,"distance":1236,"transit":true,"station_id":"JNG","is_transit":true,"i_lat":-6.215091,"time":9,"i_long":106.86807400000001},{"time":3,"station_name":"Klender","is_transit":false,"distance":3395,"i_lat":-6.2135,"station_id":"KLD","line":1,"i_long":106.899548,"transit":false},{"i_lat":-6.215568,"station_id":"BUA","station_name":"Buaran","transit":false,"is_transit":false,"line":0,"time":2,"distance":3100,"i_long":106.922662},{"i_long":106.939679,"line":1,"station_name":"Klenderbaru","is_transit":false,"distance":1305,"station_id":"KLDB","time":1,"i_lat":-6.217455,"transit":false},{"station_id":"CUK","time":8,"distance":1385,"line":0,"transit":false,"i_long":106.951283,"is_transit":false,"i_lat":-6.219053,"station_name":"Cakung"},{"is_transit":false,"transit":false,"distance":3097,"i_lat":-6.224515,"i_long":106.977657,"line":1,"station_id":"KRI","time":3,"station_name":"Kranji"},{"line":0,"transit":false,"time":4,"distance":2520,"i_long":106.997013,"station_name":"Bekasi","is_transit":false,"i_lat":-6.236616,"station_id":"BKS"},{"distance":2368,"transit":false,"is_transit":false,"i_lat":-6.248029,"line":0,"station_id":"BKST","i_long":107.016735,"station_name":"Bekasi Timur","time":2},{"station_id":"TB","distance":4460,"transit":false,"is_transit":false,"station_name":"Tambun","line":1,"i_long":107.055722,"i_lat":-6.258864,"time":7},{"station_name":"Cibitung","time":3,"transit":false,"i_lat":-6.261877,"distance":3420,"station_id":"CIT","line":0,"i_long":107.083084,"is_transit":false},{"line":1,"station_id":"TLM","is_transit":false,"distance":2800,"i_lat":-6.262938,"time":2,"station_name":"Metland Telaga Murni","i_long":107.093313,"transit":false}]]}