{"data":[[{"station_name":"Univ. Pancasila","station_id":"UP","time":0,"is_transit":false,"distance":0,"i_lat":-6.339291,"i_long":106.834175,"transit":false,"line":2},{"station_id":"LNA","station_name":"Lenteng Agung","is_transit":false,"line":2,"distance":1029,"time":2,"transit":false,"i_lat":-6.330363,"i_long":106.832616},{"is_transit":false,"transit":false,"distance":2671,"station_id":"TNT","station_name":"Tanjung Barat","i_lat":-6.3080680000000005,"time":3,"i_long":106.838896,"line":2},{"transit":false,"distance":2820,"station_id":"PSM","is_transit":false,"station_name":"Pasar Minggu","i_lat":-6.2842400000000005,"i_long":106.843999,"time":4,"line":2},{"time":2,"is_transit":false,"i_lat":-6.263214,"i_long":106.851577,"transit":false,"line":2,"distance":2380,"station_id":"PSMB","station_name":"Pasar Minggu Baru"},{"distance":824,"transit":false,"i_long":106.85449,"line":2,"i_lat":-6.255332,"is_transit":false,"station_name":"Duren Kalibata","station_id":"DRN","time":2},{"time":3,"station_id":"CW","is_transit":false,"i_lat":-6.242512,"distance":1546,"station_name":"Cawang","i_long":106.856607,"line":2,"transit":false},{"station_name":"Tebet","is_transit":false,"time":2,"transit":false,"i_long":106.857948,"station_id":"TEB","i_lat":-6.226659,"distance":1230,"line":2},{"distance":2610,"station_id":"MRI","line":2,"is_transit":true,"i_long":106.84912,"time":4,"i_lat":-6.209883,"transit":true,"station_name":"Manggarai"},{"transit":false,"distance":1275,"station_id":"MTR","line":1,"is_transit":false,"station_name":"Matraman","i_long":106.858896,"i_lat":-6.212485,"time":2},{"distance":1377,"i_lat":-6.215091,"i_long":106.86807400000001,"time":8,"station_id":"JNG","is_transit":false,"transit":false,"station_name":"Jatinegara","line":1},{"station_id":"KLD","transit":false,"i_long":106.899548,"station_name":"Klender","line":1,"time":3,"i_lat":-6.2135,"distance":3395,"is_transit":false},{"is_transit":false,"i_lat":-6.215568,"time":2,"i_long":106.922662,"distance":3100,"station_id":"BUA","line":1,"station_name":"Buaran","transit":false},{"time":1,"i_long":106.939679,"line":1,"i_lat":-6.217455,"station_id":"KLDB","transit":false,"distance":1305,"is_transit":false,"station_name":"Klenderbaru"},{"is_transit":false,"line":1,"station_name":"Cakung","i_lat":-6.219053,"i_long":106.951283,"transit":false,"station_id":"CUK","time":8,"distance":1385},{"is_transit":false,"line":1,"station_id":"KRI","i_long":106.977657,"distance":3097,"station_name":"Kranji","time":3,"i_lat":-6.224515,"transit":false},{"distance":2520,"time":4,"i_long":106.997013,"station_id":"BKS","transit":false,"is_transit":false,"station_name":"Bekasi","line":1,"i_lat":-6.236616},{"station_id":"BKST","distance":2368,"is_transit":false,"station_name":"Bekasi Timur","time":2,"transit":false,"i_long":107.016735,"i_lat":-6.248029,"line":1},{"station_name":"Tambun","station_id":"TB","is_transit":false,"transit":false,"i_long":107.055722,"line":1,"i_lat":-6.258864,"time":7,"distance":4460},{"is_transit":false,"station_id":"CIT","station_name":"Cibitung","i_lat":-6.261877,"transit":false,"time":3,"line":1,"i_long":107.083084,"distance":3420},{"distance":2800,"i_lat":-6.262938,"line":1,"station_name":"Metland Telaga Murni","time":2,"station_id":"TLM","i_long":107.093313,"transit":false,"is_transit":false}],[{"i_lat":-6.339291,"time":0,"is_transit":false,"i_long":106.834175,"line":2,"station_id":"UP","distance":0,"station_name":"Univ. Pancasila","transit":false},{"is_transit":false,"time":2,"transit":false,"i_long":106.832616,"i_lat":-6.330363,"distance":1029,"station_name":"Lenteng Agung","line":2,"station_id":"LNA"},{"station_name":"Tanjung Barat","time":3,"transit":false,"is_transit":false,"i_lat":-6.3080680000000005,"i_long":106.838896,"line":2,"distance":2671,"station_id":"TNT"},{"line":2,"station_name":"Pasar Minggu","i_long":106.843999,"distance":2820,"transit":false,"station_id":"PSM","time":4,"i_lat":-6.2842400000000005,"is_transit":false},{"transit":false,"is_transit":false,"i_lat":-6.263214,"time":2,"station_name":"Pasar Minggu Baru","line":2,"i_long":106.851577,"distance":2380,"station_id":"PSMB"},{"station_id":"DRN","transit":false,"distance":824,"station_name":"Duren Kalibata","i_long":106.85449,"line":2,"is_transit":false,"i_lat":-6.255332,"time":2},{"i_lat":-6.242512,"station_id":"CW","transit":false,"i_long":106.856607,"distance":1546,"is_transit":false,"station_name":"Cawang","line":2,"time":3},{"transit":false,"line":2,"station_name":"Tebet","is_transit":false,"i_lat":-6.226659,"station_id":"TEB","i_long":106.857948,"distance":1230,"time":2},{"distance":2610,"time":4,"line":2,"transit":true,"is_transit":true,"station_id":"MRI","station_name":"Manggarai","i_lat":-6.209883,"i_long":106.84912},{"station_id":"SUD","line":1,"i_lat":-6.202263,"transit":false,"time":4,"station_name":"Sudirman","i_long":106.822649,"distance":3186,"is_transit":false},{"transit":false,"i_lat":-6.201433,"station_name":"Sudirman Baru","distance":280,"line":1,"time":1,"is_transit":false,"i_long":106.819881,"station_id":"SUDB"},{"station_name":"Karet","i_long":106.816351,"i_lat":-6.20132,"is_transit":false,"line":1,"transit":false,"distance":471,"time":1,"station_id":"KAT"},{"i_lat":-6.185545,"i_long":106.811091,"time":5,"distance":2029,"station_id":"THB","station_name":"Tanah Abang","transit":false,"is_transit":false,"line":1},{"i_lat":-6.155215,"i_long":106.800832,"station_name":"Duri","line":1,"station_id":"DU","distance":3632,"is_transit":false,"time":8,"transit":false},{"is_transit":false,"station_name":"Angke","station_id":"AK","i_lat":-6.144674,"transit":false,"time":4,"i_long":106.79867,"line":1,"distance":1230},{"time":9,"line":4,"station_name":"Kampung Bandan","distance":4102,"station_id":"KPB","i_long":106.826365,"is_transit":true,"i_lat":-6.132549,"transit":true},{"time":3,"station_id":"RJW","i_lat":-6.14505,"station_name":"Rajawali","i_long":106.836569,"is_transit":false,"line":11,"transit":false,"distance":1444},{"is_transit":false,"station_name":"Kemayoran","time":5,"transit":false,"line":11,"distance":1901,"i_lat":-6.161728,"station_id":"KMO","i_long":106.839204},{"i_lat":-6.174784,"station_id":"PSE","line":11,"is_transit":false,"time":4,"station_name":"Pasar Senen","distance":1436,"transit":false,"i_long":106.84368},{"station_id":"GST","is_transit":false,"i_long":106.850107,"transit":false,"i_lat":-6.185975,"distance":1567,"station_name":"Gang Sentiong","line":11,"time":8},{"time":1,"i_lat":-6.193792,"distance":973,"station_name":"Kramat","i_long":106.855437,"line":11,"transit":false,"station_id":"KMT","is_transit":false},{"i_lat":-6.209188,"i_long":106.861737,"station_id":"POK","line":11,"transit":false,"distance":1829,"station_name":"Pondok Jati","is_transit":false,"time":2},{"time":9,"transit":true,"station_name":"Jatinegara","i_long":106.86807400000001,"line":1,"distance":1236,"i_lat":-6.215091,"is_transit":true,"station_id":"JNG"},{"time":3,"station_name":"Klender","line":1,"i_long":106.899548,"station_id":"KLD","is_transit":false,"transit":false,"i_lat":-6.2135,"distance":3395},{"is_transit":false,"i_long":106.922662,"distance":3100,"i_lat":-6.215568,"transit":false,"line":1,"station_name":"Buaran","time":2,"station_id":"BUA"},{"distance":1305,"time":1,"i_lat":-6.217455,"station_name":"Klenderbaru","transit":false,"line":1,"is_transit":false,"station_id":"KLDB","i_long":106.939679},{"line":1,"station_name":"Cakung","i_lat":-6.219053,"is_transit":false,"time":8,"i_long":106.951283,"distance":1385,"station_id":"CUK","transit":false},{"time":3,"i_lat":-6.224515,"transit":false,"is_transit":false,"distance":3097,"station_name":"Kranji","i_long":106.977657,"line":1,"station_id":"KRI"},{"distance":2520,"station_name":"Bekasi","i_long":106.997013,"station_id":"BKS","is_transit":false,"time":4,"line":1,"transit":false,"i_lat":-6.236616},{"line":1,"station_id":"BKST","distance":2368,"station_name":"Bekasi Timur","transit":false,"is_transit":false,"time":2,"i_lat":-6.248029,"i_long":107.016735},{"transit":false,"station_name":"Tambun","distance":4460,"i_long":107.055722,"time":7,"line":1,"is_transit":false,"i_lat":-6.258864,"station_id":"TB"},{"distance":3420,"i_lat":-6.261877,"station_name":"Cibitung","i_long":107.083084,"is_transit":false,"station_id":"CIT","time":3,"transit":false,"line":1},{"line":1,"station_id":"TLM","transit":false,"station_name":"Metland Telaga Murni","i_long":107.093313,"is_transit":false,"distance":2800,"i_lat":-6.262938,"time":2}],[{"station_name":"Univ. Pancasila","i_long":106.834175,"time":0,"distance":0,"station_id":"UP","transit":false,"is_transit":false,"line":2,"i_lat":-6.339291},{"is_transit":false,"time":2,"station_name":"Lenteng Agung","i_lat":-6.330363,"line":2,"distance":1029,"station_id":"LNA","transit":false,"i_long":106.832616},{"station_name":"Tanjung Barat","i_long":106.838896,"i_lat":-6.3080680000000005,"line":2,"distance":2671,"station_id":"TNT","transit":false,"is_transit":false,"time":3},{"distance":2820,"line":2,"is_transit":false,"station_name":"Pasar Minggu","station_id":"PSM","i_lat":-6.2842400000000005,"time":4,"transit":false,"i_long":106.843999},{"time":2,"transit":false,"i_long":106.851577,"station_name":"Pasar Minggu Baru","distance":2380,"i_lat":-6.263214,"station_id":"PSMB","is_transit":false,"line":2},{"i_long":106.85449,"station_name":"Duren Kalibata","line":2,"time":2,"station_id":"DRN","transit":false,"i_lat":-6.255332,"is_transit":false,"distance":824},{"line":2,"station_id":"CW","i_long":106.856607,"time":3,"i_lat":-6.242512,"distance":1546,"transit":false,"station_name":"Cawang","is_transit":false},{"i_long":106.857948,"time":2,"station_name":"Tebet","distance":1230,"transit":false,"is_transit":false,"i_lat":-6.226659,"station_id":"TEB","line":2},{"station_name":"Manggarai","distance":2610,"time":4,"transit":false,"line":2,"station_id":"MRI","i_long":106.84912,"is_transit":false,"i_lat":-6.209883},{"station_name":"Cikini","is_transit":false,"time":4,"station_id":"CKI","transit":false,"i_lat":-6.198556,"i_long":106.840169,"line":2,"distance":1590},{"line":2,"distance":1750,"is_transit":false,"station_name":"Gondangdia","station_id":"GDD","i_lat":-6.186295,"i_long":106.832183,"transit":false,"time":3},{"transit":false,"distance":2015,"i_long":106.828284,"time":4,"station_name":"Juanda","is_transit":false,"i_lat":-6.166716,"station_id":"JUA","line":2},{"i_long":106.827103,"time":2,"is_transit":false,"line":2,"transit":false,"i_lat":-6.160725,"station_name":"Sawah Besar","distance":1149,"station_id":"SW"},{"station_name":"Manggabesar","line":2,"transit":false,"is_transit":false,"time":2,"i_long":106.82482,"i_lat":-6.149769,"distance":906,"station_id":"MGB"},{"station_id":"JAY","i_long":106.820901,"time":2,"distance":1080,"station_name":"Jayakarta","is_transit":false,"i_lat":-6.141205,"line":2,"transit":false},{"station_name":"Jakarta Kota","is_transit":true,"station_id":"JAKK","distance":1264,"i_lat":-6.137569,"line":2,"transit":true,"time":4,"i_long":106.812439},{"time":3,"transit":true,"is_transit":true,"distance":1364,"station_name":"Kampung Bandan","i_lat":-6.132549,"station_id":"KPB","line":4,"i_long":106.826365},{"line":11,"is_transit":false,"time":3,"transit":false,"i_lat":-6.14505,"i_long":106.836569,"station_name":"Rajawali","station_id":"RJW","distance":1444},{"distance":1901,"station_id":"KMO","is_transit":false,"station_name":"Kemayoran","i_lat":-6.161728,"transit":false,"time":5,"i_long":106.839204,"line":11},{"station_name":"Pasar Senen","i_long":106.84368,"transit":false,"is_transit":false,"line":11,"distance":1436,"time":4,"station_id":"PSE","i_lat":-6.174784},{"line":11,"distance":1567,"time":8,"transit":false,"i_lat":-6.185975,"i_long":106.850107,"station_name":"Gang Sentiong","is_transit":false,"station_id":"GST"},{"line":11,"is_transit":false,"station_id":"KMT","transit":false,"i_lat":-6.193792,"time":1,"distance":973,"station_name":"Kramat","i_long":106.855437},{"i_lat":-6.209188,"time":2,"distance":1829,"station_name":"Pondok Jati","i_long":106.861737,"is_transit":false,"line":11,"station_id":"POK","transit":false},{"station_id":"JNG","time":9,"distance":1236,"i_long":106.86807400000001,"i_lat":-6.215091,"is_transit":true,"line":1,"transit":true,"station_name":"Jatinegara"},{"transit":false,"is_transit":false,"i_lat":-6.2135,"i_long":106.899548,"station_id":"KLD","distance":3395,"time":3,"station_name":"Klender","line":1},{"i_long":106.922662,"transit":false,"i_lat":-6.215568,"is_transit":false,"line":1,"station_id":"BUA","station_name":"Buaran","time":2,"distance":3100},{"transit":false,"station_id":"KLDB","station_name":"Klenderbaru","i_lat":-6.217455,"i_long":106.939679,"line":1,"is_transit":false,"time":1,"distance":1305},{"is_transit":false,"i_long":106.951283,"station_id":"CUK","i_lat":-6.219053,"station_name":"Cakung","line":1,"time":8,"distance":1385,"transit":false},{"is_transit":false,"time":3,"distance":3097,"transit":false,"i_lat":-6.224515,"i_long":106.977657,"station_id":"KRI","station_name":"Kranji","line":1},{"time":4,"station_name":"Bekasi","transit":false,"is_transit":false,"i_lat":-6.236616,"line":1,"i_long":106.997013,"distance":2520,"station_id":"BKS"},{"is_transit":false,"time":2,"i_long":107.016735,"distance":2368,"station_id":"BKST","station_name":"Bekasi Timur","transit":false,"i_lat":-6.248029,"line":1},{"distance":4460,"station_id":"TB","transit":false,"i_long":107.055722,"i_lat":-6.258864,"time":7,"line":1,"station_name":"Tambun","is_transit":false},{"is_transit":false,"i_long":107.083084,"line":1,"distance":3420,"time":3,"station_id":"CIT","transit":false,"i_lat":-6.261877,"station_name":"Cibitung"},{"time":2,"distance":2800,"transit":false,"station_id":"TLM","i_long":107.093313,"line":1,"is_transit":false,"station_name":"Metland Telaga Murni","i_lat":-6.262938}]]}