{"data":[[{"is_transit":false,"i_lat":-6.339291,"distance":0,"station_id":"UP","line":2,"transit":false,"time":0,"i_long":106.834175,"station_name":"Univ. Pancasila"},{"station_id":"LNA","is_transit":false,"i_lat":-6.330363,"line":2,"i_long":106.832616,"time":2,"transit":false,"distance":1029,"station_name":"Lenteng Agung"},{"i_lat":-6.3080680000000005,"line":2,"station_name":"Tanjung Barat","is_transit":false,"time":3,"transit":false,"i_long":106.838896,"station_id":"TNT","distance":2671},{"i_lat":-6.2842400000000005,"line":2,"i_long":106.843999,"is_transit":false,"time":4,"distance":2820,"station_name":"Pasar Minggu","transit":false,"station_id":"PSM"},{"is_transit":false,"transit":false,"station_id":"PSMB","station_name":"Pasar Minggu Baru","i_lat":-6.263214,"i_long":106.851577,"distance":2380,"time":2,"line":2},{"distance":824,"time":2,"i_long":106.85449,"station_id":"DRN","is_transit":false,"transit":false,"i_lat":-6.255332,"line":0,"station_name":"Duren Kalibata"},{"i_long":106.856607,"time":3,"station_id":"CW","i_lat":-6.242512,"line":0,"is_transit":false,"station_name":"Cawang","distance":1546,"transit":false},{"i_long":106.857948,"distance":1230,"i_lat":-6.226659,"line":2,"time":2,"station_id":"TEB","is_transit":false,"station_name":"Tebet","transit":false}]]}