{"data":[[{"station_id":"UP","is_transit":false,"transit":false,"i_lat":-6.339291,"time":0,"i_long":106.834175,"distance":0,"station_name":"Univ. Pancasila","line":2},{"is_transit":false,"i_long":106.832616,"distance":1029,"station_id":"LNA","i_lat":-6.330363,"transit":false,"time":2,"line":2,"station_name":"Lenteng Agung"},{"station_id":"TNT","i_long":106.838896,"distance":2671,"station_name":"Tanjung Barat","time":3,"is_transit":false,"i_lat":-6.3080680000000005,"transit":false,"line":2},{"transit":false,"line":2,"distance":2820,"i_long":106.843999,"station_id":"PSM","time":4,"station_name":"Pasar Minggu","is_transit":false,"i_lat":-6.2842400000000005},{"time":2,"i_lat":-6.263214,"station_name":"Pasar Minggu Baru","distance":2380,"station_id":"PSMB","is_transit":false,"transit":false,"i_long":106.851577,"line":2},{"i_long":106.85449,"station_name":"Duren Kalibata","line":2,"station_id":"DRN","i_lat":-6.255332,"time":2,"is_transit":false,"transit":false,"distance":824},{"station_name":"Cawang","line":2,"time":3,"station_id":"CW","is_transit":false,"distance":1546,"transit":false,"i_lat":-6.242512,"i_long":106.856607},{"i_long":106.857948,"distance":1230,"i_lat":-6.226659,"time":2,"is_transit":false,"station_name":"Tebet","station_id":"TEB","line":2,"transit":false},{"station_name":"Manggarai","distance":2610,"station_id":"MRI","is_transit":true,"transit":true,"line":2,"i_lat":-6.209883,"i_long":106.84912,"time":4},{"time":4,"station_id":"SUD","is_transit":false,"i_lat":-6.202263,"distance":3186,"i_long":106.822649,"line":1,"station_name":"Sudirman","transit":false},{"distance":280,"i_lat":-6.201433,"station_id":"SUDB","i_long":106.819881,"line":1,"transit":false,"time":1,"is_transit":false,"station_name":"Sudirman Baru"},{"transit":false,"distance":471,"is_transit":false,"i_lat":-6.20132,"station_id":"KAT","i_long":106.816351,"line":1,"time":1,"station_name":"Karet"},{"time":5,"distance":2029,"i_long":106.811091,"station_id":"THB","is_transit":false,"transit":false,"i_lat":-6.185545,"line":1,"station_name":"Tanah Abang"},{"distance":3632,"time":8,"i_lat":-6.155215,"station_id":"DU","i_long":106.800832,"station_name":"Duri","transit":true,"is_transit":true,"line":1},{"is_transit":false,"transit":false,"station_id":"GGL","i_lat":-6.162021,"station_name":"Grogol","line":5,"distance":1700,"time":3,"i_long":106.788277},{"station_id":"PSG","i_lat":-6.161433,"i_long":106.771379,"station_name":"Pesing","distance":2036,"line":5,"transit":false,"is_transit":false,"time":2},{"transit":false,"time":2,"i_long":106.756522,"is_transit":false,"i_lat":-6.1587309999999995,"distance":1614,"line":5,"station_id":"TKO","station_name":"Taman Kota"}],[{"line":2,"distance":0,"transit":false,"i_lat":-6.339291,"i_long":106.834175,"station_id":"UP","time":0,"station_name":"Univ. Pancasila","is_transit":false},{"distance":1029,"is_transit":false,"station_id":"LNA","i_long":106.832616,"line":2,"transit":false,"i_lat":-6.330363,"station_name":"Lenteng Agung","time":2},{"station_name":"Tanjung Barat","transit":false,"station_id":"TNT","distance":2671,"i_lat":-6.3080680000000005,"line":2,"time":3,"is_transit":false,"i_long":106.838896},{"i_long":106.843999,"line":2,"transit":false,"time":4,"distance":2820,"station_name":"Pasar Minggu","station_id":"PSM","i_lat":-6.2842400000000005,"is_transit":false},{"station_id":"PSMB","i_lat":-6.263214,"i_long":106.851577,"station_name":"Pasar Minggu Baru","line":2,"distance":2380,"is_transit":false,"transit":false,"time":2},{"line":2,"time":2,"station_id":"DRN","i_long":106.85449,"is_transit":false,"station_name":"Duren Kalibata","distance":824,"i_lat":-6.255332,"transit":false},{"i_lat":-6.242512,"station_id":"CW","i_long":106.856607,"station_name":"Cawang","time":3,"transit":false,"is_transit":false,"distance":1546,"line":2},{"distance":1230,"line":2,"is_transit":false,"station_name":"Tebet","time":2,"station_id":"TEB","transit":false,"i_long":106.857948,"i_lat":-6.226659},{"station_id":"MRI","distance":2610,"station_name":"Manggarai","i_long":106.84912,"transit":false,"time":4,"is_transit":false,"i_lat":-6.209883,"line":2},{"is_transit":false,"i_lat":-6.198556,"i_long":106.840169,"station_id":"CKI","line":2,"station_name":"Cikini","time":4,"transit":false,"distance":1590},{"line":2,"transit":false,"distance":1750,"is_transit":false,"station_id":"GDD","time":3,"station_name":"Gondangdia","i_lat":-6.186295,"i_long":106.832183},{"station_name":"Juanda","i_lat":-6.166716,"time":4,"distance":2015,"i_long":106.828284,"transit":false,"is_transit":false,"station_id":"JUA","line":2},{"station_name":"Sawah Besar","i_long":106.827103,"transit":false,"time":2,"is_transit":false,"station_id":"SW","i_lat":-6.160725,"line":2,"distance":1149},{"distance":906,"line":2,"is_transit":false,"i_lat":-6.149769,"time":2,"station_id":"MGB","i_long":106.82482,"transit":false,"station_name":"Manggabesar"},{"time":2,"station_id":"JAY","line":2,"is_transit":false,"transit":false,"station_name":"Jayakarta","i_lat":-6.141205,"i_long":106.820901,"distance":1080},{"i_long":106.812439,"station_name":"Jakarta Kota","time":4,"i_lat":-6.137569,"transit":true,"is_transit":true,"station_id":"JAKK","distance":1264,"line":2},{"distance":1364,"transit":true,"station_id":"KPB","i_lat":-6.132549,"i_long":106.826365,"time":3,"line":4,"station_name":"Kampung Bandan","is_transit":true},{"time":9,"i_long":106.79867,"station_name":"Angke","is_transit":false,"i_lat":-6.144674,"transit":false,"station_id":"AK","line":1,"distance":4102},{"station_id":"DU","i_lat":-6.155215,"transit":true,"is_transit":true,"distance":1230,"station_name":"Duri","time":4,"line":1,"i_long":106.800832},{"station_name":"Grogol","time":3,"station_id":"GGL","distance":1700,"i_long":106.788277,"i_lat":-6.162021,"is_transit":false,"transit":false,"line":5},{"i_long":106.771379,"distance":2036,"transit":false,"i_lat":-6.161433,"station_id":"PSG","is_transit":false,"line":5,"station_name":"Pesing","time":2},{"time":2,"transit":false,"i_lat":-6.1587309999999995,"is_transit":false,"station_name":"Taman Kota","line":5,"station_id":"TKO","distance":1614,"i_long":106.756522}],[{"line":2,"is_transit":false,"i_long":106.834175,"station_name":"Univ. Pancasila","station_id":"UP","time":0,"transit":false,"distance":0,"i_lat":-6.339291},{"line":2,"station_id":"LNA","station_name":"Lenteng Agung","is_transit":false,"distance":1029,"transit":false,"time":2,"i_lat":-6.330363,"i_long":106.832616},{"i_long":106.838896,"i_lat":-6.3080680000000005,"line":2,"transit":false,"station_name":"Tanjung Barat","is_transit":false,"time":3,"distance":2671,"station_id":"TNT"},{"line":2,"distance":2820,"time":4,"transit":false,"station_name":"Pasar Minggu","is_transit":false,"station_id":"PSM","i_lat":-6.2842400000000005,"i_long":106.843999},{"is_transit":false,"station_id":"PSMB","i_lat":-6.263214,"time":2,"line":2,"station_name":"Pasar Minggu Baru","transit":false,"i_long":106.851577,"distance":2380},{"distance":824,"transit":false,"i_long":106.85449,"station_name":"Duren Kalibata","station_id":"DRN","is_transit":false,"time":2,"i_lat":-6.255332,"line":2},{"is_transit":false,"time":3,"distance":1546,"i_long":106.856607,"line":2,"transit":false,"station_id":"CW","i_lat":-6.242512,"station_name":"Cawang"},{"distance":1230,"transit":false,"is_transit":false,"station_name":"Tebet","station_id":"TEB","time":2,"i_long":106.857948,"line":2,"i_lat":-6.226659},{"transit":true,"i_long":106.84912,"distance":2610,"time":4,"i_lat":-6.209883,"line":2,"is_transit":true,"station_id":"MRI","station_name":"Manggarai"},{"is_transit":false,"i_lat":-6.212485,"station_name":"Matraman","station_id":"MTR","time":2,"line":1,"i_long":106.858896,"transit":false,"distance":1275},{"station_id":"JNG","station_name":"Jatinegara","i_lat":-6.215091,"i_long":106.86807400000001,"distance":1377,"transit":true,"line":1,"time":8,"is_transit":true},{"transit":false,"station_id":"POK","i_long":106.861737,"distance":1236,"time":2,"station_name":"Pondok Jati","i_lat":-6.209188,"line":11,"is_transit":false},{"is_transit":false,"time":2,"line":11,"station_name":"Kramat","station_id":"KMT","distance":1829,"i_lat":-6.193792,"i_long":106.855437,"transit":false},{"station_name":"Gang Sentiong","i_lat":-6.185975,"line":11,"time":1,"distance":973,"i_long":106.850107,"transit":false,"is_transit":false,"station_id":"GST"},{"station_id":"PSE","time":8,"i_lat":-6.174784,"transit":false,"i_long":106.84368,"line":11,"station_name":"Pasar Senen","is_transit":false,"distance":1567},{"transit":false,"station_id":"KMO","is_transit":false,"station_name":"Kemayoran","time":4,"line":11,"i_long":106.839204,"i_lat":-6.161728,"distance":1436},{"i_long":106.836569,"station_name":"Rajawali","time":5,"distance":1901,"station_id":"RJW","i_lat":-6.14505,"line":11,"transit":false,"is_transit":false},{"distance":1444,"time":3,"transit":true,"station_id":"KPB","i_lat":-6.132549,"is_transit":true,"i_long":106.826365,"line":4,"station_name":"Kampung Bandan"},{"station_id":"AK","is_transit":false,"line":1,"station_name":"Angke","i_lat":-6.144674,"time":9,"distance":4102,"transit":false,"i_long":106.79867},{"distance":1230,"line":1,"station_id":"DU","i_lat":-6.155215,"transit":true,"station_name":"Duri","time":4,"is_transit":true,"i_long":106.800832},{"transit":false,"station_id":"GGL","distance":1700,"i_long":106.788277,"i_lat":-6.162021,"is_transit":false,"line":5,"time":3,"station_name":"Grogol"},{"time":2,"is_transit":false,"station_name":"Pesing","distance":2036,"station_id":"PSG","transit":false,"i_lat":-6.161433,"i_long":106.771379,"line":5},{"i_lat":-6.1587309999999995,"i_long":106.756522,"time":2,"distance":1614,"station_id":"TKO","station_name":"Taman Kota","line":5,"transit":false,"is_transit":false}]]}