{"data":[[{"station_name":"Univ. Pancasila","station_id":"UP","transit":false,"distance":0,"line":2,"i_lat":-6.339291,"is_transit":false,"i_long":106.834175,"time":0},{"distance":1029,"transit":false,"i_lat":-6.330363,"i_long":106.832616,"station_id":"LNA","is_transit":false,"line":2,"time":2,"station_name":"Lenteng Agung"},{"distance":2671,"transit":false,"station_name":"Tanjung Barat","station_id":"TNT","time":3,"line":2,"i_lat":-6.3080680000000005,"is_transit":false,"i_long":106.838896},{"is_transit":false,"transit":false,"i_long":106.843999,"distance":2820,"i_lat":-6.2842400000000005,"station_name":"Pasar Minggu","time":4,"line":2,"station_id":"PSM"},{"station_id":"PSMB","distance":2380,"i_lat":-6.263214,"station_name":"Pasar Minggu Baru","time":2,"transit":false,"is_transit":false,"line":2,"i_long":106.851577},{"time":2,"is_transit":false,"i_long":106.85449,"i_lat":-6.255332,"line":2,"station_id":"DRN","station_name":"Duren Kalibata","transit":false,"distance":824},{"station_id":"CW","station_name":"Cawang","i_long":106.856607,"distance":1546,"is_transit":false,"line":2,"i_lat":-6.242512,"time":3,"transit":false},{"i_lat":-6.226659,"station_name":"Tebet","station_id":"TEB","line":2,"transit":false,"i_long":106.857948,"is_transit":false,"time":2,"distance":1230},{"station_id":"MRI","i_lat":-6.209883,"transit":true,"station_name":"Manggarai","time":4,"line":2,"i_long":106.84912,"distance":2610,"is_transit":true},{"time":4,"transit":false,"station_id":"SUD","i_long":106.822649,"line":1,"distance":3186,"i_lat":-6.202263,"station_name":"Sudirman","is_transit":false},{"i_long":106.819881,"distance":280,"transit":false,"i_lat":-6.201433,"time":1,"line":1,"station_name":"Sudirman Baru","station_id":"SUDB","is_transit":false},{"station_name":"Karet","is_transit":false,"transit":false,"i_long":106.816351,"station_id":"KAT","i_lat":-6.20132,"time":1,"distance":471,"line":1},{"distance":2029,"station_id":"THB","i_long":106.811091,"time":5,"is_transit":false,"line":1,"i_lat":-6.185545,"station_name":"Tanah Abang","transit":false}],[{"i_long":106.834175,"i_lat":-6.339291,"time":0,"line":2,"station_name":"Univ. Pancasila","transit":false,"distance":0,"station_id":"UP","is_transit":false},{"line":2,"transit":false,"i_lat":-6.330363,"station_name":"Lenteng Agung","station_id":"LNA","is_transit":false,"time":2,"distance":1029,"i_long":106.832616},{"is_transit":false,"distance":2671,"time":3,"station_name":"Tanjung Barat","transit":false,"i_lat":-6.3080680000000005,"station_id":"TNT","line":2,"i_long":106.838896},{"station_id":"PSM","i_long":106.843999,"i_lat":-6.2842400000000005,"line":2,"distance":2820,"time":4,"station_name":"Pasar Minggu","is_transit":false,"transit":false},{"station_name":"Pasar Minggu Baru","i_long":106.851577,"line":2,"transit":false,"i_lat":-6.263214,"time":2,"is_transit":false,"distance":2380,"station_id":"PSMB"},{"transit":false,"station_name":"Duren Kalibata","distance":824,"is_transit":false,"station_id":"DRN","line":2,"time":2,"i_long":106.85449,"i_lat":-6.255332},{"is_transit":false,"distance":1546,"i_lat":-6.242512,"transit":false,"line":2,"station_name":"Cawang","i_long":106.856607,"time":3,"station_id":"CW"},{"line":2,"transit":false,"i_long":106.857948,"distance":1230,"is_transit":false,"station_name":"Tebet","time":2,"station_id":"TEB","i_lat":-6.226659},{"time":4,"distance":2610,"station_name":"Manggarai","transit":false,"i_lat":-6.209883,"line":2,"station_id":"MRI","is_transit":false,"i_long":106.84912},{"station_name":"Cikini","distance":1590,"transit":false,"station_id":"CKI","i_long":106.840169,"i_lat":-6.198556,"time":4,"is_transit":false,"line":2},{"transit":false,"i_lat":-6.186295,"i_long":106.832183,"is_transit":false,"time":3,"line":2,"station_id":"GDD","distance":1750,"station_name":"Gondangdia"},{"distance":2015,"transit":false,"is_transit":false,"i_long":106.828284,"line":2,"time":4,"station_name":"Juanda","i_lat":-6.166716,"station_id":"JUA"},{"transit":false,"station_id":"SW","is_transit":false,"i_long":106.827103,"distance":1149,"i_lat":-6.160725,"station_name":"Sawah Besar","time":2,"line":2},{"distance":906,"is_transit":false,"time":2,"station_name":"Manggabesar","transit":false,"i_long":106.82482,"i_lat":-6.149769,"station_id":"MGB","line":2},{"station_id":"JAY","station_name":"Jayakarta","transit":false,"is_transit":false,"i_lat":-6.141205,"distance":1080,"time":2,"line":2,"i_long":106.820901},{"station_id":"JAKK","distance":1264,"is_transit":true,"i_lat":-6.137569,"i_long":106.812439,"transit":true,"station_name":"Jakarta Kota","line":2,"time":4},{"is_transit":true,"i_lat":-6.132549,"line":4,"time":3,"station_id":"KPB","station_name":"Kampung Bandan","transit":true,"i_long":106.826365,"distance":1364},{"station_id":"AK","i_lat":-6.144674,"station_name":"Angke","time":9,"distance":4102,"transit":false,"line":1,"is_transit":false,"i_long":106.79867},{"i_lat":-6.155215,"transit":false,"is_transit":false,"station_name":"Duri","time":4,"i_long":106.800832,"line":1,"distance":1230,"station_id":"DU"},{"i_long":106.811091,"transit":false,"distance":3632,"station_id":"THB","line":1,"is_transit":false,"time":8,"i_lat":-6.185545,"station_name":"Tanah Abang"}],[{"is_transit":false,"i_lat":-6.339291,"distance":0,"time":0,"transit":false,"station_name":"Univ. Pancasila","line":2,"station_id":"UP","i_long":106.834175},{"transit":false,"is_transit":false,"i_long":106.832616,"time":2,"i_lat":-6.330363,"station_name":"Lenteng Agung","distance":1029,"station_id":"LNA","line":2},{"transit":false,"distance":2671,"station_id":"TNT","i_lat":-6.3080680000000005,"is_transit":false,"line":2,"station_name":"Tanjung Barat","time":3,"i_long":106.838896},{"station_id":"PSM","i_long":106.843999,"line":2,"is_transit":false,"time":4,"i_lat":-6.2842400000000005,"distance":2820,"transit":false,"station_name":"Pasar Minggu"},{"station_name":"Pasar Minggu Baru","station_id":"PSMB","i_long":106.851577,"transit":false,"line":2,"i_lat":-6.263214,"time":2,"distance":2380,"is_transit":false},{"station_id":"DRN","i_lat":-6.255332,"line":2,"transit":false,"i_long":106.85449,"time":2,"distance":824,"is_transit":false,"station_name":"Duren Kalibata"},{"line":2,"distance":1546,"is_transit":false,"station_id":"CW","station_name":"Cawang","i_lat":-6.242512,"transit":false,"time":3,"i_long":106.856607},{"distance":1230,"station_name":"Tebet","is_transit":false,"line":2,"station_id":"TEB","i_long":106.857948,"i_lat":-6.226659,"time":2,"transit":false},{"i_long":106.84912,"station_name":"Manggarai","is_transit":true,"distance":2610,"transit":true,"station_id":"MRI","i_lat":-6.209883,"time":4,"line":2},{"i_long":106.858896,"time":2,"transit":false,"i_lat":-6.212485,"distance":1275,"is_transit":false,"station_id":"MTR","station_name":"Matraman","line":1},{"time":8,"station_id":"JNG","i_long":106.86807400000001,"is_transit":true,"transit":true,"distance":1377,"station_name":"Jatinegara","i_lat":-6.215091,"line":1},{"station_id":"POK","transit":false,"i_long":106.861737,"distance":1236,"station_name":"Pondok Jati","line":11,"is_transit":false,"i_lat":-6.209188,"time":2},{"line":11,"time":2,"transit":false,"station_id":"KMT","i_lat":-6.193792,"distance":1829,"i_long":106.855437,"station_name":"Kramat","is_transit":false},{"is_transit":false,"distance":973,"line":11,"station_id":"GST","time":1,"transit":false,"station_name":"Gang Sentiong","i_lat":-6.185975,"i_long":106.850107},{"is_transit":false,"i_lat":-6.174784,"time":8,"transit":false,"station_name":"Pasar Senen","distance":1567,"line":11,"station_id":"PSE","i_long":106.84368},{"time":4,"transit":false,"distance":1436,"station_name":"Kemayoran","i_long":106.839204,"line":11,"is_transit":false,"station_id":"KMO","i_lat":-6.161728},{"time":5,"i_lat":-6.14505,"is_transit":false,"station_name":"Rajawali","station_id":"RJW","i_long":106.836569,"transit":false,"line":11,"distance":1901},{"line":4,"distance":1444,"time":3,"station_id":"KPB","i_lat":-6.132549,"transit":true,"is_transit":true,"i_long":106.826365,"station_name":"Kampung Bandan"},{"station_id":"AK","distance":4102,"is_transit":false,"time":9,"transit":false,"station_name":"Angke","line":1,"i_long":106.79867,"i_lat":-6.144674},{"line":1,"station_name":"Duri","transit":false,"station_id":"DU","distance":1230,"time":4,"is_transit":false,"i_long":106.800832,"i_lat":-6.155215},{"line":1,"i_lat":-6.185545,"station_id":"THB","is_transit":false,"distance":3632,"i_long":106.811091,"time":8,"transit":false,"station_name":"Tanah Abang"}]]}