{"data":[[{"i_lat":-6.339291,"i_long":106.834175,"line":2,"station_id":"UP","is_transit":false,"time":0,"transit":false,"distance":0,"station_name":"Univ. Pancasila"},{"line":2,"is_transit":false,"station_id":"LNA","time":2,"i_long":106.832616,"transit":false,"station_name":"Lenteng Agung","distance":1029,"i_lat":-6.330363},{"distance":2671,"i_lat":-6.3080680000000005,"transit":false,"station_name":"Tanjung Barat","station_id":"TNT","time":3,"i_long":106.838896,"line":2,"is_transit":false},{"time":4,"distance":2820,"station_name":"Pasar Minggu","line":2,"transit":false,"is_transit":false,"i_lat":-6.2842400000000005,"station_id":"PSM","i_long":106.843999},{"i_long":106.851577,"station_id":"PSMB","distance":2380,"line":2,"is_transit":false,"time":2,"transit":false,"station_name":"Pasar Minggu Baru","i_lat":-6.263214},{"station_id":"DRN","station_name":"Duren Kalibata","is_transit":false,"distance":824,"line":2,"time":2,"i_lat":-6.255332,"i_long":106.85449,"transit":false},{"station_name":"Cawang","distance":1546,"line":2,"transit":false,"i_lat":-6.242512,"time":3,"station_id":"CW","i_long":106.856607,"is_transit":false},{"distance":1230,"i_long":106.857948,"station_name":"Tebet","line":2,"i_lat":-6.226659,"is_transit":false,"time":2,"transit":false,"station_id":"TEB"}]]}