{"data":[[{"station_name":"Univ. Pancasila","is_transit":false,"i_lat":-6.339291,"line":2,"distance":0,"station_id":"UP","time":0,"transit":false,"i_long":106.834175},{"time":2,"transit":false,"station_name":"Lenteng Agung","line":2,"station_id":"LNA","is_transit":false,"distance":1029,"i_lat":-6.330363,"i_long":106.832616},{"time":3,"i_lat":-6.3080680000000005,"station_id":"TNT","distance":2671,"station_name":"Tanjung Barat","transit":false,"is_transit":false,"line":2,"i_long":106.838896},{"is_transit":false,"transit":false,"i_long":106.843999,"distance":2820,"station_name":"Pasar Minggu","time":4,"line":2,"station_id":"PSM","i_lat":-6.2842400000000005},{"distance":2380,"station_name":"Pasar Minggu Baru","i_long":106.851577,"line":2,"is_transit":false,"transit":false,"i_lat":-6.263214,"station_id":"PSMB","time":2},{"station_name":"Duren Kalibata","i_lat":-6.255332,"distance":824,"i_long":106.85449,"time":2,"is_transit":false,"station_id":"DRN","line":2,"transit":false},{"is_transit":false,"transit":false,"time":3,"station_name":"Cawang","i_lat":-6.242512,"line":2,"distance":1546,"i_long":106.856607,"station_id":"CW"},{"i_lat":-6.226659,"station_name":"Tebet","is_transit":false,"time":2,"line":2,"station_id":"TEB","transit":false,"distance":1230,"i_long":106.857948},{"i_long":106.84912,"distance":2610,"station_name":"Manggarai","station_id":"MRI","is_transit":true,"transit":true,"i_lat":-6.209883,"line":2,"time":4},{"station_name":"Sudirman","time":4,"distance":3186,"line":1,"transit":false,"station_id":"SUD","i_lat":-6.202263,"i_long":106.822649,"is_transit":false},{"station_id":"SUDB","station_name":"Sudirman Baru","i_long":106.819881,"time":1,"distance":280,"i_lat":-6.201433,"is_transit":false,"line":1,"transit":false},{"station_id":"KAT","i_lat":-6.20132,"distance":471,"transit":false,"station_name":"Karet","i_long":106.816351,"time":1,"is_transit":false,"line":1},{"i_lat":-6.185545,"transit":true,"i_long":106.811091,"distance":2029,"time":5,"station_id":"THB","station_name":"Tanah Abang","is_transit":true,"line":1},{"time":6,"i_lat":-6.207404,"station_name":"Palmerah","distance":3191,"station_id":"PLM","transit":false,"line":6,"is_transit":false,"i_long":106.79689},{"distance":3737,"station_name":"Kebayoran","is_transit":false,"line":6,"station_id":"KBY","time":7,"transit":false,"i_lat":-6.237242,"i_long":106.780334},{"distance":6218,"is_transit":false,"time":8,"i_long":106.74273,"transit":false,"i_lat":-6.276362,"station_name":"Pondokranji","line":6,"station_id":"PDJ"},{"transit":false,"i_lat":-6.288927,"line":6,"time":3,"station_id":"JMU","is_transit":false,"i_long":106.728916,"distance":2179,"station_name":"Jurangmangu"},{"time":4,"transit":false,"is_transit":false,"distance":1994,"i_lat":-6.296963,"station_name":"Sudimara","i_long":106.712277,"station_id":"SDM","line":6},{"i_lat":-6.314823,"time":6,"is_transit":false,"i_long":106.675475,"distance":4566,"station_id":"RU","line":6,"station_name":"Rawa Buntu","transit":false},{"time":4,"i_lat":-6.319871,"i_long":106.66566,"station_id":"SRP","line":6,"is_transit":false,"distance":2413,"transit":false,"station_name":"Serpong"},{"is_transit":false,"time":4,"transit":false,"i_lat":-6.32484,"station_name":"Cisauk","distance":1784,"station_id":"CSK","i_long":106.640411,"line":3},{"i_long":106.617853,"time":4,"station_id":"CC","distance":2519,"station_name":"Cicayur","line":3,"transit":false,"i_lat":-6.329547,"is_transit":false},{"i_lat":-6.3441410000000005,"time":8,"distance":5968,"transit":false,"station_id":"PRP","is_transit":false,"station_name":"Parung Panjang","line":6,"i_long":106.568863},{"i_long":106.508482,"transit":false,"i_lat":-6.354349,"distance":7025,"line":3,"time":9,"is_transit":false,"station_name":"Cilejit","station_id":"CJT"},{"time":6,"i_lat":-6.338021,"transit":false,"distance":2675,"is_transit":false,"station_name":"Daru","station_id":"DAR","i_long":106.491338,"line":0},{"distance":3902,"transit":false,"station_name":"Tenjo","station_id":"TEJ","i_lat":-6.327251,"line":6,"time":5,"is_transit":false,"i_long":106.460812}],[{"transit":false,"station_id":"UP","is_transit":false,"i_lat":-6.339291,"i_long":106.834175,"line":2,"time":0,"distance":0,"station_name":"Univ. Pancasila"},{"line":2,"distance":1029,"i_long":106.832616,"transit":false,"station_id":"LNA","time":2,"station_name":"Lenteng Agung","i_lat":-6.330363,"is_transit":false},{"line":2,"distance":2671,"is_transit":false,"transit":false,"time":3,"i_lat":-6.3080680000000005,"i_long":106.838896,"station_name":"Tanjung Barat","station_id":"TNT"},{"time":4,"station_id":"PSM","i_long":106.843999,"i_lat":-6.2842400000000005,"distance":2820,"is_transit":false,"transit":false,"station_name":"Pasar Minggu","line":2},{"transit":false,"station_name":"Pasar Minggu Baru","line":2,"time":2,"is_transit":false,"station_id":"PSMB","i_lat":-6.263214,"distance":2380,"i_long":106.851577},{"station_id":"DRN","i_long":106.85449,"line":2,"i_lat":-6.255332,"is_transit":false,"transit":false,"station_name":"Duren Kalibata","time":2,"distance":824},{"time":3,"distance":1546,"station_name":"Cawang","is_transit":false,"station_id":"CW","line":2,"transit":false,"i_lat":-6.242512,"i_long":106.856607},{"distance":1230,"transit":false,"line":2,"station_name":"Tebet","time":2,"is_transit":false,"i_lat":-6.226659,"i_long":106.857948,"station_id":"TEB"},{"time":4,"line":2,"i_lat":-6.209883,"station_id":"MRI","i_long":106.84912,"distance":2610,"station_name":"Manggarai","is_transit":false,"transit":false},{"i_lat":-6.198556,"is_transit":false,"station_id":"CKI","line":2,"transit":false,"i_long":106.840169,"distance":1590,"time":4,"station_name":"Cikini"},{"transit":false,"line":2,"i_lat":-6.186295,"distance":1750,"is_transit":false,"i_long":106.832183,"time":3,"station_name":"Gondangdia","station_id":"GDD"},{"i_long":106.828284,"distance":2015,"i_lat":-6.166716,"station_id":"JUA","is_transit":false,"transit":false,"time":4,"station_name":"Juanda","line":2},{"line":2,"i_lat":-6.160725,"i_long":106.827103,"time":2,"is_transit":false,"transit":false,"distance":1149,"station_name":"Sawah Besar","station_id":"SW"},{"transit":false,"is_transit":false,"time":2,"station_name":"Manggabesar","i_long":106.82482,"distance":906,"line":2,"i_lat":-6.149769,"station_id":"MGB"},{"transit":false,"station_name":"Jayakarta","i_long":106.820901,"distance":1080,"time":2,"is_transit":false,"station_id":"JAY","line":2,"i_lat":-6.141205},{"is_transit":true,"line":2,"time":4,"station_name":"Jakarta Kota","transit":true,"station_id":"JAKK","distance":1264,"i_long":106.812439,"i_lat":-6.137569},{"transit":true,"i_long":106.826365,"i_lat":-6.132549,"time":3,"station_id":"KPB","station_name":"Kampung Bandan","line":4,"distance":1364,"is_transit":true},{"station_id":"AK","transit":false,"station_name":"Angke","line":1,"i_lat":-6.144674,"distance":4102,"is_transit":false,"time":9,"i_long":106.79867},{"station_name":"Duri","time":4,"transit":false,"is_transit":false,"station_id":"DU","i_long":106.800832,"i_lat":-6.155215,"line":1,"distance":1230},{"line":1,"i_lat":-6.185545,"transit":true,"time":8,"station_name":"Tanah Abang","distance":3632,"is_transit":true,"station_id":"THB","i_long":106.811091},{"time":6,"transit":false,"is_transit":false,"i_lat":-6.207404,"station_name":"Palmerah","line":6,"distance":3191,"i_long":106.79689,"station_id":"PLM"},{"station_name":"Kebayoran","distance":3737,"station_id":"KBY","transit":false,"i_lat":-6.237242,"is_transit":false,"time":7,"i_long":106.780334,"line":6},{"time":8,"transit":false,"is_transit":false,"station_id":"PDJ","i_lat":-6.276362,"i_long":106.74273,"station_name":"Pondokranji","distance":6218,"line":6},{"i_lat":-6.288927,"i_long":106.728916,"station_name":"Jurangmangu","distance":2179,"is_transit":false,"station_id":"JMU","time":3,"transit":false,"line":6},{"station_name":"Sudimara","distance":1994,"i_lat":-6.296963,"is_transit":false,"station_id":"SDM","time":4,"transit":false,"i_long":106.712277,"line":6},{"line":6,"station_id":"RU","i_long":106.675475,"is_transit":false,"time":6,"transit":false,"i_lat":-6.314823,"distance":4566,"station_name":"Rawa Buntu"},{"distance":2413,"is_transit":false,"i_long":106.66566,"station_id":"SRP","transit":false,"time":4,"station_name":"Serpong","line":6,"i_lat":-6.319871},{"station_id":"CSK","time":4,"is_transit":false,"i_long":106.640411,"transit":false,"line":3,"station_name":"Cisauk","i_lat":-6.32484,"distance":1784},{"distance":2519,"line":3,"time":4,"transit":false,"is_transit":false,"i_long":106.617853,"station_id":"CC","i_lat":-6.329547,"station_name":"Cicayur"},{"transit":false,"i_lat":-6.3441410000000005,"i_long":106.568863,"line":6,"station_id":"PRP","time":8,"is_transit":false,"station_name":"Parung Panjang","distance":5968},{"is_transit":false,"distance":7025,"i_lat":-6.354349,"station_name":"Cilejit","line":3,"time":9,"transit":false,"station_id":"CJT","i_long":106.508482},{"line":0,"is_transit":false,"i_lat":-6.338021,"i_long":106.491338,"transit":false,"station_name":"Daru","distance":2675,"station_id":"DAR","time":6},{"i_lat":-6.327251,"line":6,"distance":3902,"station_id":"TEJ","time":5,"transit":false,"i_long":106.460812,"is_transit":false,"station_name":"Tenjo"}],[{"is_transit":false,"transit":false,"i_long":106.834175,"station_id":"UP","line":2,"time":0,"distance":0,"station_name":"Univ. Pancasila","i_lat":-6.339291},{"time":2,"transit":false,"station_name":"Lenteng Agung","is_transit":false,"i_lat":-6.330363,"i_long":106.832616,"station_id":"LNA","distance":1029,"line":2},{"i_long":106.838896,"is_transit":false,"transit":false,"station_id":"TNT","i_lat":-6.3080680000000005,"distance":2671,"time":3,"line":2,"station_name":"Tanjung Barat"},{"distance":2820,"transit":false,"line":2,"is_transit":false,"station_id":"PSM","i_long":106.843999,"time":4,"station_name":"Pasar Minggu","i_lat":-6.2842400000000005},{"station_id":"PSMB","station_name":"Pasar Minggu Baru","is_transit":false,"i_long":106.851577,"time":2,"distance":2380,"line":2,"transit":false,"i_lat":-6.263214},{"i_lat":-6.255332,"transit":false,"distance":824,"i_long":106.85449,"is_transit":false,"station_id":"DRN","station_name":"Duren Kalibata","time":2,"line":2},{"distance":1546,"station_id":"CW","i_lat":-6.242512,"station_name":"Cawang","transit":false,"i_long":106.856607,"time":3,"is_transit":false,"line":2},{"station_id":"TEB","station_name":"Tebet","is_transit":false,"line":2,"i_long":106.857948,"distance":1230,"i_lat":-6.226659,"time":2,"transit":false},{"i_long":106.84912,"distance":2610,"is_transit":true,"i_lat":-6.209883,"time":4,"station_name":"Manggarai","line":2,"station_id":"MRI","transit":true},{"transit":false,"i_lat":-6.212485,"station_id":"MTR","i_long":106.858896,"line":1,"distance":1275,"time":2,"station_name":"Matraman","is_transit":false},{"transit":true,"distance":1377,"station_name":"Jatinegara","i_long":106.86807400000001,"is_transit":true,"i_lat":-6.215091,"time":8,"station_id":"JNG","line":1},{"distance":1236,"is_transit":false,"time":2,"station_name":"Pondok Jati","i_long":106.861737,"station_id":"POK","transit":false,"line":11,"i_lat":-6.209188},{"station_id":"KMT","i_long":106.855437,"line":11,"i_lat":-6.193792,"distance":1829,"transit":false,"time":2,"station_name":"Kramat","is_transit":false},{"time":1,"station_id":"GST","station_name":"Gang Sentiong","i_lat":-6.185975,"i_long":106.850107,"distance":973,"line":11,"transit":false,"is_transit":false},{"i_lat":-6.174784,"station_name":"Pasar Senen","i_long":106.84368,"line":11,"transit":false,"station_id":"PSE","time":8,"distance":1567,"is_transit":false},{"line":11,"i_lat":-6.161728,"station_id":"KMO","transit":false,"is_transit":false,"distance":1436,"i_long":106.839204,"station_name":"Kemayoran","time":4},{"station_name":"Rajawali","transit":false,"station_id":"RJW","i_lat":-6.14505,"line":11,"i_long":106.836569,"distance":1901,"time":5,"is_transit":false},{"station_name":"Kampung Bandan","transit":true,"i_long":106.826365,"line":4,"station_id":"KPB","is_transit":true,"time":3,"i_lat":-6.132549,"distance":1444},{"distance":4102,"line":1,"station_id":"AK","time":9,"is_transit":false,"transit":false,"i_long":106.79867,"station_name":"Angke","i_lat":-6.144674},{"time":4,"transit":false,"station_name":"Duri","i_lat":-6.155215,"station_id":"DU","i_long":106.800832,"distance":1230,"is_transit":false,"line":1},{"station_name":"Tanah Abang","distance":3632,"station_id":"THB","i_lat":-6.185545,"i_long":106.811091,"is_transit":true,"transit":true,"line":1,"time":8},{"transit":false,"i_long":106.79689,"line":6,"is_transit":false,"time":6,"i_lat":-6.207404,"station_id":"PLM","station_name":"Palmerah","distance":3191},{"distance":3737,"transit":false,"i_lat":-6.237242,"line":6,"time":7,"is_transit":false,"station_id":"KBY","i_long":106.780334,"station_name":"Kebayoran"},{"station_name":"Pondokranji","station_id":"PDJ","time":8,"i_lat":-6.276362,"transit":false,"i_long":106.74273,"is_transit":false,"line":6,"distance":6218},{"is_transit":false,"station_name":"Jurangmangu","i_lat":-6.288927,"line":6,"i_long":106.728916,"time":3,"distance":2179,"transit":false,"station_id":"JMU"},{"station_name":"Sudimara","i_lat":-6.296963,"distance":1994,"transit":false,"is_transit":false,"station_id":"SDM","time":4,"i_long":106.712277,"line":6},{"i_lat":-6.314823,"i_long":106.675475,"station_id":"RU","line":6,"is_transit":false,"station_name":"Rawa Buntu","transit":false,"time":6,"distance":4566},{"i_lat":-6.319871,"transit":false,"is_transit":false,"station_id":"SRP","i_long":106.66566,"line":6,"distance":2413,"time":4,"station_name":"Serpong"},{"line":3,"station_name":"Cisauk","station_id":"CSK","transit":false,"i_long":106.640411,"i_lat":-6.32484,"time":4,"distance":1784,"is_transit":false},{"line":3,"station_name":"Cicayur","transit":false,"i_lat":-6.329547,"i_long":106.617853,"time":4,"station_id":"CC","distance":2519,"is_transit":false},{"is_transit":false,"line":6,"station_name":"Parung Panjang","i_lat":-6.3441410000000005,"transit":false,"distance":5968,"i_long":106.568863,"time":8,"station_id":"PRP"},{"station_name":"Cilejit","station_id":"CJT","transit":false,"i_lat":-6.354349,"i_long":106.508482,"line":3,"distance":7025,"is_transit":false,"time":9},{"distance":2675,"is_transit":false,"time":6,"station_name":"Daru","station_id":"DAR","i_lat":-6.338021,"i_long":106.491338,"line":0,"transit":false},{"station_name":"Tenjo","i_long":106.460812,"distance":3902,"station_id":"TEJ","is_transit":false,"line":6,"transit":false,"i_lat":-6.327251,"time":5}]]}