{"data":[[{"distance":0,"i_lat":-6.339291,"i_long":106.834175,"time":0,"line":2,"is_transit":false,"station_id":"UP","station_name":"Univ. Pancasila","transit":false},{"i_long":106.832616,"transit":false,"time":2,"line":2,"station_id":"LNA","station_name":"Lenteng Agung","is_transit":false,"distance":1029,"i_lat":-6.330363},{"station_name":"Tanjung Barat","i_long":106.838896,"time":3,"line":2,"station_id":"TNT","is_transit":false,"i_lat":-6.3080680000000005,"transit":false,"distance":2671},{"transit":false,"station_id":"PSM","time":4,"is_transit":false,"distance":2820,"i_lat":-6.2842400000000005,"i_long":106.843999,"line":2,"station_name":"Pasar Minggu"},{"is_transit":false,"i_long":106.851577,"i_lat":-6.263214,"station_name":"Pasar Minggu Baru","line":2,"distance":2380,"station_id":"PSMB","transit":false,"time":2},{"line":2,"station_name":"Duren Kalibata","i_long":106.85449,"is_transit":false,"time":2,"transit":false,"station_id":"DRN","distance":824,"i_lat":-6.255332},{"distance":1546,"line":2,"is_transit":false,"station_name":"Cawang","station_id":"CW","i_lat":-6.242512,"time":3,"transit":false,"i_long":106.856607},{"distance":1230,"transit":false,"station_name":"Tebet","time":2,"line":2,"i_lat":-6.226659,"station_id":"TEB","i_long":106.857948,"is_transit":false},{"line":2,"is_transit":true,"time":4,"i_lat":-6.209883,"station_name":"Manggarai","station_id":"MRI","transit":true,"distance":2610,"i_long":106.84912},{"station_id":"MTR","distance":1275,"transit":false,"station_name":"Matraman","is_transit":false,"i_lat":-6.212485,"i_long":106.858896,"time":2,"line":1},{"is_transit":false,"transit":false,"station_id":"JNG","time":8,"distance":1377,"station_name":"Jatinegara","i_lat":-6.215091,"i_long":106.86807400000001,"line":1},{"distance":3395,"station_name":"Klender","line":1,"i_long":106.899548,"time":3,"is_transit":false,"i_lat":-6.2135,"transit":false,"station_id":"KLD"},{"i_lat":-6.215568,"station_id":"BUA","i_long":106.922662,"time":2,"distance":3100,"is_transit":false,"transit":false,"station_name":"Buaran","line":1},{"line":1,"station_name":"Klenderbaru","time":1,"distance":1305,"i_lat":-6.217455,"is_transit":false,"transit":false,"station_id":"KLDB","i_long":106.939679},{"time":8,"transit":false,"i_long":106.951283,"i_lat":-6.219053,"line":1,"is_transit":false,"distance":1385,"station_name":"Cakung","station_id":"CUK"},{"is_transit":false,"i_lat":-6.224515,"time":3,"line":1,"station_name":"Kranji","station_id":"KRI","distance":3097,"i_long":106.977657,"transit":false},{"time":4,"transit":false,"i_lat":-6.236616,"line":1,"is_transit":false,"distance":2520,"i_long":106.997013,"station_id":"BKS","station_name":"Bekasi"},{"station_id":"BKST","is_transit":false,"distance":2368,"i_lat":-6.248029,"station_name":"Bekasi Timur","i_long":107.016735,"line":1,"transit":false,"time":2},{"i_long":107.055722,"distance":4460,"station_name":"Tambun","is_transit":false,"station_id":"TB","i_lat":-6.258864,"transit":false,"time":7,"line":1},{"is_transit":false,"line":1,"i_lat":-6.261877,"time":3,"station_name":"Cibitung","distance":3420,"transit":false,"i_long":107.083084,"station_id":"CIT"},{"station_id":"TLM","time":2,"transit":false,"i_lat":-6.262938,"i_long":107.093313,"is_transit":false,"line":1,"station_name":"Metland Telaga Murni","distance":2800}],[{"transit":false,"is_transit":false,"line":2,"station_id":"UP","time":0,"i_lat":-6.339291,"station_name":"Univ. Pancasila","i_long":106.834175,"distance":0},{"distance":1029,"i_lat":-6.330363,"is_transit":false,"station_name":"Lenteng Agung","line":2,"transit":false,"station_id":"LNA","time":2,"i_long":106.832616},{"transit":false,"line":2,"distance":2671,"i_lat":-6.3080680000000005,"station_id":"TNT","time":3,"i_long":106.838896,"is_transit":false,"station_name":"Tanjung Barat"},{"distance":2820,"station_id":"PSM","station_name":"Pasar Minggu","time":4,"i_lat":-6.2842400000000005,"is_transit":false,"transit":false,"line":2,"i_long":106.843999},{"i_lat":-6.263214,"is_transit":false,"i_long":106.851577,"line":2,"station_name":"Pasar Minggu Baru","station_id":"PSMB","distance":2380,"transit":false,"time":2},{"line":2,"station_id":"DRN","is_transit":false,"distance":824,"i_long":106.85449,"i_lat":-6.255332,"time":2,"transit":false,"station_name":"Duren Kalibata"},{"station_name":"Cawang","i_long":106.856607,"station_id":"CW","distance":1546,"is_transit":false,"line":2,"time":3,"transit":false,"i_lat":-6.242512},{"transit":false,"station_id":"TEB","i_long":106.857948,"time":2,"line":2,"i_lat":-6.226659,"distance":1230,"is_transit":false,"station_name":"Tebet"},{"transit":true,"time":4,"i_long":106.84912,"is_transit":true,"line":2,"station_id":"MRI","distance":2610,"i_lat":-6.209883,"station_name":"Manggarai"},{"station_id":"SUD","is_transit":false,"distance":3186,"i_lat":-6.202263,"station_name":"Sudirman","line":1,"time":4,"i_long":106.822649,"transit":false},{"time":1,"line":1,"i_long":106.819881,"station_id":"SUDB","transit":false,"station_name":"Sudirman Baru","i_lat":-6.201433,"is_transit":false,"distance":280},{"i_lat":-6.20132,"time":1,"station_id":"KAT","distance":471,"line":1,"is_transit":false,"transit":false,"station_name":"Karet","i_long":106.816351},{"i_lat":-6.185545,"i_long":106.811091,"distance":2029,"is_transit":false,"line":1,"transit":false,"time":5,"station_name":"Tanah Abang","station_id":"THB"},{"distance":3632,"is_transit":false,"station_id":"DU","i_lat":-6.155215,"transit":false,"i_long":106.800832,"line":1,"station_name":"Duri","time":8},{"station_name":"Angke","i_long":106.79867,"i_lat":-6.144674,"line":1,"transit":false,"station_id":"AK","distance":1230,"is_transit":false,"time":4},{"station_id":"KPB","station_name":"Kampung Bandan","i_lat":-6.132549,"i_long":106.826365,"line":4,"distance":4102,"time":9,"transit":true,"is_transit":true},{"station_id":"RJW","distance":1444,"line":11,"station_name":"Rajawali","is_transit":false,"transit":false,"i_lat":-6.14505,"time":3,"i_long":106.836569},{"station_name":"Kemayoran","transit":false,"is_transit":false,"distance":1901,"time":5,"line":11,"i_lat":-6.161728,"i_long":106.839204,"station_id":"KMO"},{"is_transit":false,"distance":1436,"transit":false,"station_name":"Pasar Senen","time":4,"station_id":"PSE","i_long":106.84368,"i_lat":-6.174784,"line":11},{"is_transit":false,"i_lat":-6.185975,"i_long":106.850107,"station_id":"GST","station_name":"Gang Sentiong","time":8,"distance":1567,"line":11,"transit":false},{"is_transit":false,"station_name":"Kramat","time":1,"distance":973,"transit":false,"i_long":106.855437,"line":11,"i_lat":-6.193792,"station_id":"KMT"},{"line":11,"station_id":"POK","station_name":"Pondok Jati","transit":false,"time":2,"is_transit":false,"distance":1829,"i_lat":-6.209188,"i_long":106.861737},{"transit":true,"station_name":"Jatinegara","station_id":"JNG","is_transit":true,"i_lat":-6.215091,"distance":1236,"line":1,"time":9,"i_long":106.86807400000001},{"transit":false,"station_id":"KLD","is_transit":false,"line":1,"station_name":"Klender","time":3,"distance":3395,"i_long":106.899548,"i_lat":-6.2135},{"time":2,"transit":false,"is_transit":false,"i_long":106.922662,"i_lat":-6.215568,"distance":3100,"station_name":"Buaran","line":1,"station_id":"BUA"},{"station_name":"Klenderbaru","station_id":"KLDB","i_long":106.939679,"distance":1305,"transit":false,"i_lat":-6.217455,"time":1,"is_transit":false,"line":1},{"i_lat":-6.219053,"station_name":"Cakung","transit":false,"distance":1385,"line":1,"i_long":106.951283,"time":8,"station_id":"CUK","is_transit":false},{"time":3,"transit":false,"station_name":"Kranji","distance":3097,"i_lat":-6.224515,"station_id":"KRI","i_long":106.977657,"line":1,"is_transit":false},{"i_long":106.997013,"station_id":"BKS","distance":2520,"station_name":"Bekasi","i_lat":-6.236616,"transit":false,"time":4,"is_transit":false,"line":1},{"distance":2368,"i_lat":-6.248029,"station_id":"BKST","time":2,"is_transit":false,"transit":false,"line":1,"i_long":107.016735,"station_name":"Bekasi Timur"},{"line":1,"station_name":"Tambun","i_lat":-6.258864,"i_long":107.055722,"time":7,"is_transit":false,"distance":4460,"transit":false,"station_id":"TB"},{"distance":3420,"transit":false,"i_long":107.083084,"line":1,"i_lat":-6.261877,"time":3,"station_name":"Cibitung","station_id":"CIT","is_transit":false},{"i_lat":-6.262938,"station_name":"Metland Telaga Murni","i_long":107.093313,"transit":false,"is_transit":false,"time":2,"line":1,"distance":2800,"station_id":"TLM"}],[{"line":2,"station_id":"UP","i_long":106.834175,"transit":false,"is_transit":false,"i_lat":-6.339291,"distance":0,"station_name":"Univ. Pancasila","time":0},{"is_transit":false,"i_long":106.832616,"i_lat":-6.330363,"station_name":"Lenteng Agung","distance":1029,"time":2,"station_id":"LNA","transit":false,"line":2},{"station_name":"Tanjung Barat","station_id":"TNT","is_transit":false,"distance":2671,"transit":false,"i_long":106.838896,"time":3,"i_lat":-6.3080680000000005,"line":2},{"line":2,"transit":false,"time":4,"distance":2820,"is_transit":false,"i_long":106.843999,"station_id":"PSM","i_lat":-6.2842400000000005,"station_name":"Pasar Minggu"},{"i_long":106.851577,"line":2,"time":2,"station_id":"PSMB","distance":2380,"station_name":"Pasar Minggu Baru","transit":false,"is_transit":false,"i_lat":-6.263214},{"station_id":"DRN","i_lat":-6.255332,"station_name":"Duren Kalibata","time":2,"line":2,"is_transit":false,"distance":824,"transit":false,"i_long":106.85449},{"i_long":106.856607,"i_lat":-6.242512,"station_name":"Cawang","line":2,"distance":1546,"transit":false,"time":3,"is_transit":false,"station_id":"CW"},{"i_lat":-6.226659,"time":2,"i_long":106.857948,"line":2,"is_transit":false,"station_id":"TEB","distance":1230,"transit":false,"station_name":"Tebet"},{"time":4,"line":2,"transit":false,"is_transit":false,"i_long":106.84912,"i_lat":-6.209883,"station_name":"Manggarai","distance":2610,"station_id":"MRI"},{"station_name":"Cikini","is_transit":false,"station_id":"CKI","distance":1590,"transit":false,"i_lat":-6.198556,"line":2,"i_long":106.840169,"time":4},{"i_long":106.832183,"distance":1750,"line":2,"is_transit":false,"station_id":"GDD","station_name":"Gondangdia","time":3,"i_lat":-6.186295,"transit":false},{"i_long":106.828284,"i_lat":-6.166716,"is_transit":false,"distance":2015,"time":4,"station_id":"JUA","line":2,"transit":false,"station_name":"Juanda"},{"station_id":"SW","i_lat":-6.160725,"i_long":106.827103,"transit":false,"line":2,"station_name":"Sawah Besar","is_transit":false,"time":2,"distance":1149},{"i_long":106.82482,"i_lat":-6.149769,"time":2,"is_transit":false,"distance":906,"line":2,"transit":false,"station_id":"MGB","station_name":"Manggabesar"},{"time":2,"station_id":"JAY","distance":1080,"station_name":"Jayakarta","transit":false,"is_transit":false,"i_lat":-6.141205,"i_long":106.820901,"line":2},{"i_lat":-6.137569,"station_name":"Jakarta Kota","station_id":"JAKK","is_transit":true,"time":4,"line":2,"i_long":106.812439,"transit":true,"distance":1264},{"time":3,"transit":true,"is_transit":true,"i_lat":-6.132549,"i_long":106.826365,"station_id":"KPB","distance":1364,"line":4,"station_name":"Kampung Bandan"},{"station_id":"RJW","is_transit":false,"i_long":106.836569,"time":3,"distance":1444,"station_name":"Rajawali","transit":false,"i_lat":-6.14505,"line":11},{"line":11,"i_lat":-6.161728,"distance":1901,"transit":false,"time":5,"station_name":"Kemayoran","station_id":"KMO","is_transit":false,"i_long":106.839204},{"i_lat":-6.174784,"transit":false,"i_long":106.84368,"line":11,"distance":1436,"station_name":"Pasar Senen","station_id":"PSE","is_transit":false,"time":4},{"i_lat":-6.185975,"line":11,"station_id":"GST","i_long":106.850107,"time":8,"station_name":"Gang Sentiong","distance":1567,"transit":false,"is_transit":false},{"is_transit":false,"station_name":"Kramat","time":1,"i_lat":-6.193792,"transit":false,"distance":973,"station_id":"KMT","i_long":106.855437,"line":11},{"time":2,"i_long":106.861737,"station_id":"POK","distance":1829,"is_transit":false,"transit":false,"i_lat":-6.209188,"station_name":"Pondok Jati","line":11},{"i_lat":-6.215091,"transit":true,"is_transit":true,"distance":1236,"line":1,"station_id":"JNG","i_long":106.86807400000001,"time":9,"station_name":"Jatinegara"},{"line":1,"is_transit":false,"station_name":"Klender","transit":false,"distance":3395,"i_lat":-6.2135,"i_long":106.899548,"station_id":"KLD","time":3},{"transit":false,"station_name":"Buaran","is_transit":false,"distance":3100,"i_lat":-6.215568,"i_long":106.922662,"station_id":"BUA","line":1,"time":2},{"i_long":106.939679,"distance":1305,"time":1,"station_name":"Klenderbaru","is_transit":false,"line":1,"station_id":"KLDB","i_lat":-6.217455,"transit":false},{"station_id":"CUK","station_name":"Cakung","i_lat":-6.219053,"is_transit":false,"time":8,"distance":1385,"line":1,"i_long":106.951283,"transit":false},{"line":1,"transit":false,"station_id":"KRI","is_transit":false,"i_lat":-6.224515,"i_long":106.977657,"station_name":"Kranji","time":3,"distance":3097},{"distance":2520,"time":4,"i_long":106.997013,"station_id":"BKS","transit":false,"station_name":"Bekasi","i_lat":-6.236616,"is_transit":false,"line":1},{"station_id":"BKST","i_long":107.016735,"line":1,"station_name":"Bekasi Timur","i_lat":-6.248029,"time":2,"transit":false,"is_transit":false,"distance":2368},{"transit":false,"is_transit":false,"i_long":107.055722,"i_lat":-6.258864,"station_name":"Tambun","time":7,"station_id":"TB","distance":4460,"line":1},{"time":3,"transit":false,"distance":3420,"station_id":"CIT","i_lat":-6.261877,"station_name":"Cibitung","i_long":107.083084,"line":1,"is_transit":false},{"line":1,"transit":false,"station_name":"Metland Telaga Murni","time":2,"i_long":107.093313,"is_transit":false,"station_id":"TLM","distance":2800,"i_lat":-6.262938}]]}