{"data":[[{"transit":false,"station_name":"Univ. Pancasila","distance":0,"station_id":"UP","time":0,"i_lat":-6.339291,"is_transit":false,"line":2,"i_long":106.834175},{"i_lat":-6.330363,"transit":false,"time":2,"distance":1029,"i_long":106.832616,"station_id":"LNA","line":2,"station_name":"Lenteng Agung","is_transit":false},{"transit":false,"time":3,"is_transit":false,"station_name":"Tanjung Barat","distance":2671,"station_id":"TNT","i_lat":-6.3080680000000005,"i_long":106.838896,"line":2},{"station_name":"Pasar Minggu","station_id":"PSM","distance":2820,"is_transit":false,"time":4,"transit":false,"i_lat":-6.2842400000000005,"i_long":106.843999,"line":2},{"distance":2380,"i_lat":-6.263214,"i_long":106.851577,"transit":false,"station_name":"Pasar Minggu Baru","time":2,"line":2,"station_id":"PSMB","is_transit":false},{"station_id":"DRN","i_long":106.85449,"line":0,"transit":false,"station_name":"Duren Kalibata","is_transit":false,"time":2,"i_lat":-6.255332,"distance":824},{"transit":false,"time":3,"line":0,"station_name":"Cawang","i_lat":-6.242512,"distance":1546,"is_transit":false,"station_id":"CW","i_long":106.856607},{"i_long":106.857948,"line":2,"time":2,"station_name":"Tebet","transit":false,"i_lat":-6.226659,"station_id":"TEB","is_transit":false,"distance":1230},{"line":0,"station_id":"MRI","time":4,"station_name":"Manggarai","is_transit":true,"i_lat":-6.209883,"i_long":106.84912,"distance":2610,"transit":true},{"i_long":106.822649,"distance":3186,"is_transit":false,"station_id":"SUD","time":4,"line":1,"station_name":"Sudirman","i_lat":-6.202263,"transit":false},{"time":1,"is_transit":false,"i_lat":-6.201433,"line":1,"station_name":"Sudirman Baru","transit":false,"distance":280,"i_long":106.819881,"station_id":"SUDB"},{"i_long":106.816351,"line":1,"transit":false,"station_id":"KAT","distance":471,"time":1,"i_lat":-6.20132,"station_name":"Karet","is_transit":false},{"distance":2029,"is_transit":true,"station_id":"THB","i_long":106.811091,"time":5,"i_lat":-6.185545,"line":1,"transit":true,"station_name":"Tanah Abang"},{"line":6,"is_transit":false,"station_id":"PLM","distance":3191,"station_name":"Palmerah","transit":false,"time":6,"i_lat":-6.207404,"i_long":106.79689},{"line":6,"station_id":"KBY","transit":false,"station_name":"Kebayoran","i_long":106.780334,"i_lat":-6.237242,"distance":3737,"is_transit":false,"time":7},{"station_name":"Pondokranji","transit":false,"distance":6218,"time":8,"i_lat":-6.276362,"station_id":"PDJ","line":6,"i_long":106.74273,"is_transit":false},{"distance":2179,"time":3,"transit":false,"station_id":"JMU","i_lat":-6.288927,"i_long":106.728916,"is_transit":false,"line":6,"station_name":"Jurangmangu"},{"station_id":"SDM","station_name":"Sudimara","transit":false,"i_long":106.712277,"line":6,"is_transit":false,"distance":1994,"time":4,"i_lat":-6.296963},{"i_lat":-6.314823,"is_transit":false,"time":6,"transit":false,"i_long":106.675475,"distance":4566,"line":6,"station_id":"RU","station_name":"Rawa Buntu"},{"time":4,"is_transit":false,"line":6,"i_long":106.66566,"transit":false,"station_name":"Serpong","distance":2413,"i_lat":-6.319871,"station_id":"SRP"},{"distance":1784,"i_long":106.640411,"is_transit":false,"transit":false,"i_lat":-6.32484,"time":4,"station_id":"CSK","line":0,"station_name":"Cisauk"},{"distance":2519,"transit":false,"line":0,"station_id":"CC","i_lat":-6.329547,"i_long":106.617853,"station_name":"Cicayur","time":4,"is_transit":false},{"line":6,"distance":5968,"transit":false,"is_transit":false,"station_name":"Parung Panjang","time":8,"i_long":106.568863,"station_id":"PRP","i_lat":-6.3441410000000005},{"time":9,"station_id":"CJT","is_transit":false,"line":0,"i_lat":-6.354349,"transit":false,"distance":7025,"i_long":106.508482,"station_name":"Cilejit"},{"station_name":"Daru","distance":2675,"transit":false,"is_transit":false,"station_id":"DAR","line":0,"time":6,"i_long":106.491338,"i_lat":-6.338021},{"transit":false,"station_id":"TEJ","i_lat":-6.327251,"i_long":106.460812,"line":6,"time":5,"distance":3902,"is_transit":false,"station_name":"Tenjo"}],[{"station_name":"Univ. Pancasila","line":2,"time":0,"transit":false,"station_id":"UP","i_long":106.834175,"i_lat":-6.339291,"distance":0,"is_transit":false},{"time":2,"is_transit":false,"distance":1029,"station_name":"Lenteng Agung","i_long":106.832616,"line":2,"i_lat":-6.330363,"station_id":"LNA","transit":false},{"i_long":106.838896,"line":2,"station_id":"TNT","station_name":"Tanjung Barat","distance":2671,"transit":false,"i_lat":-6.3080680000000005,"time":3,"is_transit":false},{"line":2,"station_id":"PSM","time":4,"transit":false,"is_transit":false,"station_name":"Pasar Minggu","i_long":106.843999,"i_lat":-6.2842400000000005,"distance":2820},{"i_long":106.851577,"line":2,"transit":false,"i_lat":-6.263214,"is_transit":false,"distance":2380,"station_id":"PSMB","time":2,"station_name":"Pasar Minggu Baru"},{"time":2,"transit":false,"i_lat":-6.255332,"station_id":"DRN","i_long":106.85449,"line":0,"station_name":"Duren Kalibata","distance":824,"is_transit":false},{"line":0,"distance":1546,"i_lat":-6.242512,"transit":false,"i_long":106.856607,"station_name":"Cawang","is_transit":false,"time":3,"station_id":"CW"},{"i_lat":-6.226659,"station_id":"TEB","station_name":"Tebet","time":2,"transit":false,"is_transit":false,"i_long":106.857948,"line":2,"distance":1230},{"distance":2610,"line":0,"is_transit":true,"transit":true,"station_id":"MRI","i_lat":-6.209883,"i_long":106.84912,"station_name":"Manggarai","time":4},{"line":0,"i_lat":-6.198556,"i_long":106.840169,"transit":false,"station_name":"Cikini","is_transit":false,"time":4,"distance":1590,"station_id":"CKI"},{"is_transit":false,"station_id":"GDD","i_lat":-6.186295,"line":2,"i_long":106.832183,"time":3,"station_name":"Gondangdia","transit":false,"distance":1750},{"transit":false,"i_lat":-6.166716,"i_long":106.828284,"is_transit":false,"distance":2015,"line":2,"station_id":"JUA","station_name":"Juanda","time":4},{"is_transit":false,"transit":false,"i_lat":-6.160725,"i_long":106.827103,"time":2,"line":2,"distance":1149,"station_id":"SW","station_name":"Sawah Besar"},{"is_transit":false,"line":2,"i_long":106.82482,"i_lat":-6.149769,"transit":false,"time":2,"distance":906,"station_id":"MGB","station_name":"Manggabesar"},{"station_name":"Jayakarta","is_transit":false,"station_id":"JAY","time":2,"distance":1080,"i_long":106.820901,"i_lat":-6.141205,"line":7,"transit":false},{"distance":1264,"line":0,"station_id":"JAKK","time":4,"i_lat":-6.137569,"i_long":106.812439,"is_transit":true,"transit":true,"station_name":"Jakarta Kota"},{"time":3,"line":0,"i_lat":-6.132549,"station_name":"Kampung Bandan","distance":1364,"is_transit":true,"transit":false,"station_id":"KPB","i_long":106.826365},{"i_long":106.79867,"distance":4102,"line":0,"is_transit":false,"time":9,"transit":false,"station_id":"AK","station_name":"Angke","i_lat":-6.144674},{"is_transit":true,"time":4,"transit":true,"distance":1230,"station_id":"DU","i_lat":-6.155215,"station_name":"Duri","line":1,"i_long":106.800832},{"time":8,"distance":3632,"i_lat":-6.185545,"i_long":106.811091,"line":1,"transit":true,"is_transit":true,"station_id":"THB","station_name":"Tanah Abang"},{"time":6,"i_lat":-6.207404,"transit":false,"distance":3191,"station_name":"Palmerah","station_id":"PLM","is_transit":false,"line":6,"i_long":106.79689},{"distance":3737,"i_long":106.780334,"i_lat":-6.237242,"line":6,"station_id":"KBY","transit":false,"station_name":"Kebayoran","time":7,"is_transit":false},{"line":6,"i_long":106.74273,"i_lat":-6.276362,"transit":false,"station_id":"PDJ","is_transit":false,"distance":6218,"station_name":"Pondokranji","time":8},{"station_name":"Jurangmangu","is_transit":false,"i_long":106.728916,"time":3,"i_lat":-6.288927,"distance":2179,"line":6,"transit":false,"station_id":"JMU"},{"station_id":"SDM","time":4,"i_lat":-6.296963,"distance":1994,"i_long":106.712277,"is_transit":false,"station_name":"Sudimara","transit":false,"line":6},{"is_transit":false,"i_lat":-6.314823,"i_long":106.675475,"station_id":"RU","distance":4566,"time":6,"line":6,"transit":false,"station_name":"Rawa Buntu"},{"station_name":"Serpong","time":4,"i_lat":-6.319871,"i_long":106.66566,"is_transit":false,"transit":false,"line":6,"distance":2413,"station_id":"SRP"},{"time":4,"station_name":"Cisauk","line":0,"transit":false,"distance":1784,"station_id":"CSK","is_transit":false,"i_lat":-6.32484,"i_long":106.640411},{"transit":false,"distance":2519,"is_transit":false,"i_lat":-6.329547,"i_long":106.617853,"station_name":"Cicayur","line":0,"time":4,"station_id":"CC"},{"time":8,"distance":5968,"station_id":"PRP","line":6,"i_lat":-6.3441410000000005,"station_name":"Parung Panjang","i_long":106.568863,"transit":false,"is_transit":false},{"is_transit":false,"distance":7025,"station_name":"Cilejit","station_id":"CJT","i_lat":-6.354349,"time":9,"line":0,"transit":false,"i_long":106.508482},{"is_transit":false,"i_long":106.491338,"station_name":"Daru","time":6,"station_id":"DAR","line":0,"distance":2675,"transit":false,"i_lat":-6.338021},{"i_lat":-6.327251,"distance":3902,"is_transit":false,"i_long":106.460812,"station_name":"Tenjo","time":5,"transit":false,"line":6,"station_id":"TEJ"}],[{"is_transit":false,"time":0,"distance":0,"transit":false,"line":2,"station_id":"UP","i_long":106.834175,"station_name":"Univ. Pancasila","i_lat":-6.339291},{"station_name":"Lenteng Agung","transit":false,"time":2,"i_long":106.832616,"line":2,"station_id":"LNA","distance":1029,"is_transit":false,"i_lat":-6.330363},{"is_transit":false,"transit":false,"station_id":"TNT","station_name":"Tanjung Barat","i_long":106.838896,"distance":2671,"i_lat":-6.3080680000000005,"time":3,"line":2},{"line":2,"is_transit":false,"time":4,"station_name":"Pasar Minggu","i_long":106.843999,"distance":2820,"transit":false,"station_id":"PSM","i_lat":-6.2842400000000005},{"i_lat":-6.263214,"station_name":"Pasar Minggu Baru","distance":2380,"i_long":106.851577,"transit":false,"line":2,"time":2,"is_transit":false,"station_id":"PSMB"},{"distance":824,"transit":false,"i_long":106.85449,"i_lat":-6.255332,"station_name":"Duren Kalibata","line":0,"is_transit":false,"time":2,"station_id":"DRN"},{"transit":false,"i_lat":-6.242512,"i_long":106.856607,"time":3,"station_name":"Cawang","is_transit":false,"line":0,"station_id":"CW","distance":1546},{"i_lat":-6.226659,"line":2,"time":2,"is_transit":false,"transit":false,"station_name":"Tebet","distance":1230,"station_id":"TEB","i_long":106.857948},{"distance":2610,"i_long":106.84912,"time":4,"i_lat":-6.209883,"transit":true,"station_id":"MRI","station_name":"Manggarai","is_transit":true,"line":0},{"is_transit":false,"station_name":"Matraman","time":2,"transit":false,"station_id":"MTR","i_long":106.858896,"line":1,"i_lat":-6.212485,"distance":1275},{"distance":1377,"station_id":"JNG","is_transit":true,"time":8,"station_name":"Jatinegara","line":0,"i_long":106.86807400000001,"i_lat":-6.215091,"transit":true},{"station_name":"Pondok Jati","is_transit":false,"time":2,"transit":false,"station_id":"POK","i_lat":-6.209188,"i_long":106.861737,"distance":1236,"line":11},{"station_name":"Kramat","distance":1829,"i_long":106.855437,"time":2,"i_lat":-6.193792,"line":11,"is_transit":false,"station_id":"KMT","transit":false},{"station_id":"GST","i_lat":-6.185975,"is_transit":false,"station_name":"Gang Sentiong","time":1,"i_long":106.850107,"line":11,"transit":false,"distance":973},{"i_long":106.84368,"distance":1567,"is_transit":false,"time":8,"transit":false,"i_lat":-6.174784,"line":11,"station_name":"Pasar Senen","station_id":"PSE"},{"i_long":106.839204,"line":11,"distance":1436,"i_lat":-6.161728,"time":4,"transit":false,"is_transit":false,"station_name":"Kemayoran","station_id":"KMO"},{"i_long":106.836569,"station_name":"Rajawali","i_lat":-6.14505,"time":5,"line":11,"distance":1901,"station_id":"RJW","is_transit":false,"transit":false},{"is_transit":true,"station_id":"KPB","time":3,"i_lat":-6.132549,"i_long":106.826365,"line":0,"station_name":"Kampung Bandan","transit":true,"distance":1444},{"line":0,"i_lat":-6.144674,"transit":false,"is_transit":false,"station_id":"AK","station_name":"Angke","i_long":106.79867,"distance":4102,"time":9},{"i_long":106.800832,"is_transit":true,"line":1,"station_name":"Duri","transit":true,"distance":1230,"station_id":"DU","time":4,"i_lat":-6.155215},{"transit":true,"line":1,"station_id":"THB","station_name":"Tanah Abang","distance":3632,"is_transit":true,"i_long":106.811091,"time":8,"i_lat":-6.185545},{"i_lat":-6.207404,"i_long":106.79689,"distance":3191,"is_transit":false,"station_id":"PLM","line":6,"transit":false,"time":6,"station_name":"Palmerah"},{"is_transit":false,"i_lat":-6.237242,"line":6,"station_name":"Kebayoran","time":7,"transit":false,"distance":3737,"i_long":106.780334,"station_id":"KBY"},{"i_lat":-6.276362,"distance":6218,"time":8,"transit":false,"line":6,"i_long":106.74273,"station_id":"PDJ","station_name":"Pondokranji","is_transit":false},{"transit":false,"time":3,"i_lat":-6.288927,"i_long":106.728916,"line":6,"is_transit":false,"distance":2179,"station_name":"Jurangmangu","station_id":"JMU"},{"time":4,"station_id":"SDM","transit":false,"i_long":106.712277,"is_transit":false,"i_lat":-6.296963,"line":6,"distance":1994,"station_name":"Sudimara"},{"transit":false,"i_long":106.675475,"i_lat":-6.314823,"distance":4566,"station_id":"RU","station_name":"Rawa Buntu","is_transit":false,"time":6,"line":6},{"time":4,"transit":false,"station_name":"Serpong","distance":2413,"station_id":"SRP","line":6,"i_lat":-6.319871,"i_long":106.66566,"is_transit":false},{"is_transit":false,"time":4,"station_name":"Cisauk","distance":1784,"i_lat":-6.32484,"station_id":"CSK","transit":false,"i_long":106.640411,"line":0},{"station_id":"CC","transit":false,"station_name":"Cicayur","distance":2519,"i_lat":-6.329547,"is_transit":false,"time":4,"i_long":106.617853,"line":0},{"line":6,"station_id":"PRP","station_name":"Parung Panjang","is_transit":false,"i_lat":-6.3441410000000005,"distance":5968,"transit":false,"i_long":106.568863,"time":8},{"station_id":"CJT","distance":7025,"i_lat":-6.354349,"i_long":106.508482,"is_transit":false,"line":0,"station_name":"Cilejit","transit":false,"time":9},{"i_lat":-6.338021,"transit":false,"line":0,"distance":2675,"time":6,"is_transit":false,"station_id":"DAR","i_long":106.491338,"station_name":"Daru"},{"line":6,"transit":false,"distance":3902,"is_transit":false,"station_name":"Tenjo","time":5,"i_lat":-6.327251,"station_id":"TEJ","i_long":106.460812}]]}