{"data":[[{"is_transit":false,"transit":false,"i_lat":-7.861626,"station_name":"Wojo","time":0,"i_long":110.040449,"station_id":"WJ","line":7,"distance":0},{"is_transit":false,"transit":false,"time":15,"distance":13652,"i_lat":-7.859237,"station_name":"Wates","line":7,"i_long":110.158003,"station_id":"WT"},{"transit":false,"i_long":110.220122,"distance":10145,"station_name":"Sentolo","is_transit":false,"i_lat":-7.832939,"time":25,"line":0,"station_id":"STL"},{"i_lat":-7.797702,"line":7,"transit":false,"is_transit":false,"distance":9041,"time":8,"i_long":110.279205,"station_name":"Rewulu","station_id":"RWL"},{"line":7,"i_long":110.32542,"is_transit":false,"station_id":"PTN","i_lat":-7.790605,"station_name":"Patukan","transit":false,"distance":4579,"time":4},{"transit":false,"station_id":"YK","line":7,"station_name":"Yogyakarta","distance":4241,"time":5,"is_transit":false,"i_lat":-7.788961,"i_long":110.36345},{"station_id":"LPN","line":7,"i_lat":-7.790018,"i_long":110.375434,"station_name":"Lempuyangan","time":6,"distance":1307,"transit":false,"is_transit":false},{"station_name":"Maguwo","is_transit":false,"station_id":"MGW","distance":6799,"line":7,"transit":false,"i_lat":-7.784476,"i_long":110.436791,"time":7},{"transit":false,"is_transit":false,"i_lat":-7.756284,"time":8,"line":0,"distance":7905,"i_long":110.500451,"station_id":"BBN","station_name":"Brambanan"}]]}