{"data":[[{"i_lat":-7.861626,"time":0,"transit":false,"i_long":110.040449,"station_name":"Wojo","distance":0,"station_id":"WJ","is_transit":false,"line":7},{"station_name":"Wates","time":15,"i_lat":-7.859237,"station_id":"WT","i_long":110.158003,"line":7,"is_transit":false,"transit":false,"distance":13652},{"distance":10145,"is_transit":false,"station_id":"STL","time":25,"i_long":110.220122,"line":7,"i_lat":-7.832939,"transit":false,"station_name":"Sentolo"},{"time":8,"i_lat":-7.797702,"distance":9041,"transit":false,"is_transit":false,"station_name":"Rewulu","line":7,"i_long":110.279205,"station_id":"RWL"},{"time":4,"station_id":"PTN","i_long":110.32542,"line":7,"is_transit":false,"distance":4579,"station_name":"Patukan","transit":false,"i_lat":-7.790605},{"station_name":"Yogyakarta","distance":4241,"is_transit":false,"station_id":"YK","i_lat":-7.788961,"line":7,"i_long":110.36345,"time":5,"transit":false},{"time":6,"is_transit":false,"station_name":"Lempuyangan","transit":false,"distance":1307,"i_long":110.375434,"line":7,"station_id":"LPN","i_lat":-7.790018},{"i_lat":-7.784476,"line":7,"transit":false,"station_id":"MGW","station_name":"Maguwo","is_transit":false,"distance":6799,"time":7,"i_long":110.436791},{"time":8,"line":0,"distance":7905,"i_lat":-7.756284,"station_name":"Brambanan","station_id":"BBN","transit":false,"is_transit":false,"i_long":110.500451}]]}