{"data":[[{"transit":false,"i_lat":-7.861626,"i_long":110.040449,"line":7,"distance":0,"station_name":"Wojo","is_transit":false,"time":0,"station_id":"WJ"},{"time":15,"station_name":"Wates","i_lat":-7.859237,"is_transit":false,"i_long":110.158003,"station_id":"WT","transit":false,"line":7,"distance":13652},{"time":25,"i_lat":-7.832939,"i_long":110.220122,"station_name":"Sentolo","line":0,"is_transit":false,"station_id":"STL","distance":10145,"transit":false},{"station_id":"RWL","transit":false,"i_lat":-7.797702,"distance":9041,"line":7,"time":8,"i_long":110.279205,"station_name":"Rewulu","is_transit":false},{"is_transit":false,"i_long":110.32542,"line":7,"transit":false,"station_name":"Patukan","i_lat":-7.790605,"station_id":"PTN","distance":4579,"time":4},{"station_id":"YK","transit":false,"i_long":110.36345,"i_lat":-7.788961,"distance":4241,"time":5,"station_name":"Yogyakarta","is_transit":false,"line":7},{"distance":1307,"station_id":"LPN","transit":false,"time":6,"i_long":110.375434,"line":7,"i_lat":-7.790018,"station_name":"Lempuyangan","is_transit":false},{"is_transit":false,"i_lat":-7.784476,"i_long":110.436791,"distance":6799,"transit":false,"station_name":"Maguwo","time":7,"line":7,"station_id":"MGW"},{"station_id":"BBN","i_lat":-7.756284,"is_transit":false,"transit":false,"distance":7905,"i_long":110.500451,"line":0,"time":8,"station_name":"Brambanan"}]]}