{"data":[[{"transit":false,"time":0,"distance":0,"station_name":"Wojo","line":7,"station_id":"WJ","is_transit":false,"i_lat":-7.861626,"i_long":110.040449},{"line":7,"transit":false,"i_lat":-7.859237,"is_transit":false,"station_name":"Wates","time":15,"i_long":110.158003,"station_id":"WT","distance":13652},{"transit":false,"i_long":110.220122,"distance":10145,"i_lat":-7.832939,"station_id":"STL","is_transit":false,"time":25,"station_name":"Sentolo","line":0},{"is_transit":false,"station_name":"Rewulu","transit":false,"distance":9041,"i_long":110.279205,"time":8,"line":7,"station_id":"RWL","i_lat":-7.797702},{"station_id":"PTN","is_transit":false,"transit":false,"time":4,"distance":4579,"i_long":110.32542,"station_name":"Patukan","line":7,"i_lat":-7.790605},{"station_name":"Yogyakarta","time":5,"is_transit":false,"line":7,"transit":false,"distance":4241,"station_id":"YK","i_long":110.36345,"i_lat":-7.788961},{"is_transit":false,"station_id":"LPN","time":6,"i_lat":-7.790018,"i_long":110.375434,"line":7,"transit":false,"distance":1307,"station_name":"Lempuyangan"},{"station_id":"MGW","i_long":110.436791,"distance":6799,"transit":false,"is_transit":false,"station_name":"Maguwo","i_lat":-7.784476,"line":7,"time":7},{"time":8,"is_transit":false,"station_name":"Brambanan","transit":false,"i_long":110.500451,"i_lat":-7.756284,"distance":7905,"station_id":"BBN","line":0}]]}