{"data":[[{"i_lat":-7.861626,"station_id":"WJ","transit":false,"station_name":"Wojo","time":0,"i_long":110.040449,"line":7,"is_transit":false,"distance":0},{"i_lat":-7.859237,"station_id":"WT","station_name":"Wates","is_transit":false,"time":15,"line":7,"transit":false,"i_long":110.158003,"distance":13652},{"transit":false,"station_name":"Sentolo","is_transit":false,"i_lat":-7.832939,"line":0,"station_id":"STL","i_long":110.220122,"distance":10145,"time":25},{"i_long":110.279205,"i_lat":-7.797702,"is_transit":false,"distance":9041,"line":7,"time":8,"station_name":"Rewulu","transit":false,"station_id":"RWL"},{"i_long":110.32542,"transit":false,"i_lat":-7.790605,"time":4,"distance":4579,"station_name":"Patukan","is_transit":false,"line":7,"station_id":"PTN"},{"time":5,"station_name":"Yogyakarta","transit":false,"station_id":"YK","i_lat":-7.788961,"distance":4241,"i_long":110.36345,"is_transit":false,"line":7},{"station_name":"Lempuyangan","transit":false,"time":6,"distance":1307,"i_lat":-7.790018,"i_long":110.375434,"line":7,"is_transit":false,"station_id":"LPN"},{"i_long":110.436791,"transit":false,"station_id":"MGW","line":7,"station_name":"Maguwo","i_lat":-7.784476,"time":7,"distance":6799,"is_transit":false},{"is_transit":false,"time":8,"transit":false,"station_id":"BBN","distance":7905,"i_lat":-7.756284,"station_name":"Brambanan","i_long":110.500451,"line":0},{"time":7,"distance":5850,"i_lat":-7.74111,"station_name":"Srowot","line":7,"transit":false,"i_long":110.548972,"station_id":"SWT","is_transit":false},{"station_name":"Klaten","line":7,"distance":6738,"time":8,"transit":false,"station_id":"KT","is_transit":false,"i_lat":-7.712087,"i_long":110.602981},{"distance":9279,"transit":false,"station_id":"CE","time":9,"is_transit":false,"station_name":"Ceper","i_lat":-7.668597,"line":7,"i_long":110.674861}]]}