{"data":[[{"station_name":"Wojo","time":0,"i_lat":-7.861626,"line":7,"i_long":110.040449,"transit":false,"station_id":"WJ","distance":0,"is_transit":false},{"i_long":110.158003,"station_name":"Wates","is_transit":false,"line":7,"transit":false,"station_id":"WT","i_lat":-7.859237,"time":15,"distance":13652},{"line":0,"station_id":"STL","time":25,"distance":10145,"i_long":110.220122,"station_name":"Sentolo","transit":false,"is_transit":false,"i_lat":-7.832939},{"distance":9041,"time":8,"station_id":"RWL","station_name":"Rewulu","is_transit":false,"i_lat":-7.797702,"i_long":110.279205,"line":7,"transit":false},{"transit":false,"i_lat":-7.790605,"distance":4579,"station_id":"PTN","i_long":110.32542,"line":7,"station_name":"Patukan","is_transit":false,"time":4},{"i_long":110.36345,"i_lat":-7.788961,"time":5,"transit":false,"line":7,"distance":4241,"station_id":"YK","is_transit":false,"station_name":"Yogyakarta"},{"time":6,"distance":1307,"is_transit":false,"transit":false,"i_lat":-7.790018,"line":7,"station_id":"LPN","station_name":"Lempuyangan","i_long":110.375434},{"station_id":"MGW","station_name":"Maguwo","transit":false,"is_transit":false,"i_long":110.436791,"line":7,"i_lat":-7.784476,"time":7,"distance":6799},{"is_transit":false,"i_lat":-7.756284,"line":0,"time":8,"transit":false,"i_long":110.500451,"distance":7905,"station_id":"BBN","station_name":"Brambanan"},{"is_transit":false,"i_long":110.548972,"i_lat":-7.74111,"line":7,"time":7,"station_id":"SWT","distance":5850,"transit":false,"station_name":"Srowot"},{"station_name":"Klaten","time":8,"station_id":"KT","transit":false,"distance":6738,"is_transit":false,"i_lat":-7.712087,"i_long":110.602981,"line":7},{"distance":9279,"transit":false,"i_lat":-7.668597,"line":7,"is_transit":false,"station_name":"Ceper","i_long":110.674861,"time":9,"station_id":"CE"}]]}