{"data":[[{"station_name":"Wojo","transit":false,"i_lat":-7.861626,"line":7,"i_long":110.040449,"time":0,"station_id":"WJ","distance":0,"is_transit":false},{"distance":13652,"i_lat":-7.859237,"i_long":110.158003,"line":7,"station_id":"WT","station_name":"Wates","is_transit":false,"transit":false,"time":15},{"is_transit":false,"line":7,"station_name":"Sentolo","distance":10145,"station_id":"STL","transit":false,"i_lat":-7.832939,"time":25,"i_long":110.220122},{"station_name":"Rewulu","line":7,"station_id":"RWL","time":8,"distance":9041,"i_lat":-7.797702,"transit":false,"i_long":110.279205,"is_transit":false},{"station_name":"Patukan","time":4,"i_long":110.32542,"line":7,"transit":false,"distance":4579,"station_id":"PTN","i_lat":-7.790605,"is_transit":false},{"is_transit":false,"i_lat":-7.788961,"line":7,"station_id":"YK","time":5,"transit":false,"station_name":"Yogyakarta","distance":4241,"i_long":110.36345},{"station_name":"Lempuyangan","i_long":110.375434,"is_transit":false,"station_id":"LPN","distance":1307,"transit":false,"i_lat":-7.790018,"time":6,"line":7},{"i_lat":-7.784476,"time":7,"transit":false,"station_id":"MGW","is_transit":false,"station_name":"Maguwo","line":7,"distance":6799,"i_long":110.436791},{"station_id":"BBN","distance":7905,"i_lat":-7.756284,"station_name":"Brambanan","time":8,"is_transit":false,"i_long":110.500451,"line":0,"transit":false},{"transit":false,"is_transit":false,"time":7,"i_long":110.548972,"station_name":"Srowot","i_lat":-7.74111,"station_id":"SWT","distance":5850,"line":7},{"distance":6738,"station_id":"KT","time":8,"line":7,"station_name":"Klaten","i_lat":-7.712087,"i_long":110.602981,"is_transit":false,"transit":false},{"is_transit":false,"line":0,"time":9,"i_lat":-7.668597,"distance":9279,"station_id":"CE","station_name":"Ceper","transit":false,"i_long":110.674861}]]}