{"data":[[{"i_lat":-7.861626,"station_id":"WJ","transit":false,"distance":0,"i_long":110.040449,"station_name":"Wojo","line":7,"time":0,"is_transit":false},{"line":7,"distance":13652,"station_name":"Wates","time":15,"is_transit":false,"i_long":110.158003,"station_id":"WT","i_lat":-7.859237,"transit":false},{"time":25,"station_id":"STL","line":0,"distance":10145,"station_name":"Sentolo","is_transit":false,"transit":false,"i_lat":-7.832939,"i_long":110.220122},{"is_transit":false,"station_name":"Rewulu","line":7,"station_id":"RWL","transit":false,"i_lat":-7.797702,"distance":9041,"time":8,"i_long":110.279205},{"time":4,"distance":4579,"i_lat":-7.790605,"is_transit":false,"station_id":"PTN","transit":false,"i_long":110.32542,"line":7,"station_name":"Patukan"},{"station_id":"YK","transit":false,"station_name":"Yogyakarta","line":7,"time":5,"i_lat":-7.788961,"i_long":110.36345,"distance":4241,"is_transit":false},{"station_id":"LPN","distance":1307,"time":6,"station_name":"Lempuyangan","i_lat":-7.790018,"i_long":110.375434,"line":7,"transit":false,"is_transit":false},{"line":7,"is_transit":false,"distance":6799,"transit":false,"station_id":"MGW","station_name":"Maguwo","time":7,"i_lat":-7.784476,"i_long":110.436791},{"station_name":"Brambanan","distance":7905,"transit":false,"i_lat":-7.756284,"line":0,"i_long":110.500451,"is_transit":false,"time":8,"station_id":"BBN"},{"transit":false,"i_lat":-7.74111,"distance":5850,"station_name":"Srowot","is_transit":false,"line":7,"time":7,"i_long":110.548972,"station_id":"SWT"},{"is_transit":false,"time":8,"station_name":"Klaten","station_id":"KT","i_lat":-7.712087,"i_long":110.602981,"distance":6738,"line":7,"transit":false},{"transit":false,"distance":9279,"station_name":"Ceper","station_id":"CE","is_transit":false,"line":7,"time":9,"i_long":110.674861,"i_lat":-7.668597}]]}