{"data":[[{"time":0,"station_id":"WJ","station_name":"Wojo","transit":false,"i_lat":-7.861626,"distance":0,"i_long":110.040449,"line":7,"is_transit":false},{"i_long":110.158003,"i_lat":-7.859237,"station_name":"Wates","line":7,"station_id":"WT","time":15,"distance":13652,"transit":false,"is_transit":false},{"i_long":110.220122,"station_id":"STL","is_transit":false,"line":0,"distance":10145,"transit":false,"time":25,"station_name":"Sentolo","i_lat":-7.832939},{"station_id":"RWL","i_lat":-7.797702,"i_long":110.279205,"distance":9041,"station_name":"Rewulu","transit":false,"is_transit":false,"time":8,"line":7},{"transit":false,"distance":4579,"time":4,"is_transit":false,"station_id":"PTN","i_lat":-7.790605,"line":7,"i_long":110.32542,"station_name":"Patukan"},{"i_long":110.36345,"transit":false,"station_name":"Yogyakarta","is_transit":false,"station_id":"YK","distance":4241,"time":5,"line":7,"i_lat":-7.788961},{"i_long":110.375434,"time":6,"line":7,"is_transit":false,"station_id":"LPN","distance":1307,"i_lat":-7.790018,"station_name":"Lempuyangan","transit":false},{"i_long":110.436791,"time":7,"station_id":"MGW","is_transit":false,"station_name":"Maguwo","line":7,"distance":6799,"transit":false,"i_lat":-7.784476},{"line":0,"i_lat":-7.756284,"is_transit":false,"station_name":"Brambanan","station_id":"BBN","time":8,"distance":7905,"i_long":110.500451,"transit":false},{"station_id":"SWT","distance":5850,"i_lat":-7.74111,"time":7,"i_long":110.548972,"station_name":"Srowot","is_transit":false,"line":7,"transit":false},{"station_id":"KT","line":7,"transit":false,"time":8,"is_transit":false,"distance":6738,"i_long":110.602981,"i_lat":-7.712087,"station_name":"Klaten"}]]}