{"data":[[{"is_transit":false,"distance":0,"station_id":"WJ","transit":false,"i_lat":-7.861626,"time":0,"i_long":110.040449,"line":7,"station_name":"Wojo"},{"station_id":"WT","distance":13652,"transit":false,"station_name":"Wates","i_lat":-7.859237,"line":7,"i_long":110.158003,"time":15,"is_transit":false},{"station_id":"STL","station_name":"Sentolo","is_transit":false,"transit":false,"line":0,"time":25,"distance":10145,"i_lat":-7.832939,"i_long":110.220122},{"i_lat":-7.797702,"distance":9041,"station_name":"Rewulu","i_long":110.279205,"is_transit":false,"transit":false,"line":7,"station_id":"RWL","time":8},{"station_id":"PTN","distance":4579,"time":4,"transit":false,"i_long":110.32542,"line":7,"is_transit":false,"station_name":"Patukan","i_lat":-7.790605},{"i_long":110.36345,"is_transit":false,"distance":4241,"i_lat":-7.788961,"time":5,"line":7,"station_name":"Yogyakarta","transit":false,"station_id":"YK"},{"time":6,"i_long":110.375434,"station_name":"Lempuyangan","station_id":"LPN","distance":1307,"transit":false,"i_lat":-7.790018,"line":7,"is_transit":false},{"is_transit":false,"transit":false,"station_id":"MGW","distance":6799,"line":7,"i_lat":-7.784476,"station_name":"Maguwo","i_long":110.436791,"time":7},{"station_id":"BBN","i_lat":-7.756284,"distance":7905,"i_long":110.500451,"station_name":"Brambanan","transit":false,"is_transit":false,"time":8,"line":0},{"is_transit":false,"i_long":110.548972,"time":7,"station_id":"SWT","transit":false,"i_lat":-7.74111,"station_name":"Srowot","line":7,"distance":5850},{"distance":6738,"i_lat":-7.712087,"transit":false,"station_name":"Klaten","i_long":110.602981,"station_id":"KT","time":8,"is_transit":false,"line":7}]]}