{"data":[[{"i_lat":-7.861626,"transit":false,"station_name":"Wojo","time":0,"i_long":110.040449,"line":7,"is_transit":false,"station_id":"WJ","distance":0},{"station_id":"WT","distance":13652,"transit":false,"line":7,"station_name":"Wates","is_transit":false,"time":15,"i_lat":-7.859237,"i_long":110.158003},{"i_long":110.220122,"transit":false,"i_lat":-7.832939,"distance":10145,"station_name":"Sentolo","is_transit":false,"station_id":"STL","time":25,"line":7},{"station_id":"RWL","distance":9041,"station_name":"Rewulu","transit":false,"is_transit":false,"time":8,"i_lat":-7.797702,"line":7,"i_long":110.279205},{"i_long":110.32542,"line":7,"is_transit":false,"time":4,"i_lat":-7.790605,"distance":4579,"transit":false,"station_name":"Patukan","station_id":"PTN"},{"time":5,"distance":4241,"i_long":110.36345,"line":7,"i_lat":-7.788961,"station_name":"Yogyakarta","transit":false,"is_transit":false,"station_id":"YK"},{"station_id":"LPN","transit":false,"station_name":"Lempuyangan","is_transit":false,"i_lat":-7.790018,"i_long":110.375434,"distance":1307,"time":6,"line":7},{"distance":6799,"time":7,"transit":false,"is_transit":false,"station_id":"MGW","i_lat":-7.784476,"station_name":"Maguwo","i_long":110.436791,"line":7},{"station_id":"BBN","time":8,"transit":false,"is_transit":false,"i_lat":-7.756284,"distance":7905,"i_long":110.500451,"line":0,"station_name":"Brambanan"},{"i_lat":-7.74111,"station_id":"SWT","distance":5850,"i_long":110.548972,"is_transit":false,"station_name":"Srowot","transit":false,"line":7,"time":7},{"transit":false,"is_transit":false,"time":8,"line":7,"distance":6738,"i_long":110.602981,"station_id":"KT","station_name":"Klaten","i_lat":-7.712087}]]}