{"data":[[{"station_id":"WJ","time":0,"transit":false,"distance":0,"i_lat":-7.861626,"station_name":"Wojo","line":7,"is_transit":false,"i_long":110.040449},{"is_transit":false,"station_id":"WT","station_name":"Wates","transit":false,"i_long":110.158003,"time":15,"line":7,"i_lat":-7.859237,"distance":13652},{"distance":10145,"transit":false,"line":0,"station_id":"STL","time":25,"is_transit":false,"station_name":"Sentolo","i_lat":-7.832939,"i_long":110.220122},{"line":7,"i_long":110.279205,"distance":9041,"station_name":"Rewulu","transit":false,"i_lat":-7.797702,"is_transit":false,"station_id":"RWL","time":8},{"station_id":"PTN","is_transit":false,"transit":false,"i_lat":-7.790605,"i_long":110.32542,"station_name":"Patukan","time":4,"distance":4579,"line":7},{"is_transit":false,"line":7,"distance":4241,"transit":false,"i_long":110.36345,"time":5,"i_lat":-7.788961,"station_name":"Yogyakarta","station_id":"YK"},{"transit":false,"time":6,"i_lat":-7.790018,"i_long":110.375434,"line":7,"station_name":"Lempuyangan","is_transit":false,"distance":1307,"station_id":"LPN"},{"line":7,"is_transit":false,"time":7,"distance":6799,"station_name":"Maguwo","transit":false,"i_lat":-7.784476,"i_long":110.436791,"station_id":"MGW"},{"time":8,"line":0,"transit":false,"i_long":110.500451,"is_transit":false,"i_lat":-7.756284,"station_name":"Brambanan","station_id":"BBN","distance":7905},{"station_name":"Srowot","i_long":110.548972,"distance":5850,"station_id":"SWT","transit":false,"line":7,"is_transit":false,"i_lat":-7.74111,"time":7},{"time":8,"line":7,"i_long":110.602981,"station_name":"Klaten","distance":6738,"is_transit":false,"i_lat":-7.712087,"station_id":"KT","transit":false}]]}