{"data":[[{"station_id":"WJ","time":0,"is_transit":false,"i_lat":-7.861626,"transit":false,"distance":0,"station_name":"Wojo","i_long":110.040449,"line":7},{"i_long":110.158003,"line":7,"distance":13652,"station_id":"WT","station_name":"Wates","transit":false,"is_transit":false,"time":15,"i_lat":-7.859237},{"station_name":"Sentolo","is_transit":false,"line":0,"time":25,"distance":10145,"i_lat":-7.832939,"i_long":110.220122,"station_id":"STL","transit":false},{"distance":9041,"is_transit":false,"time":8,"transit":false,"station_id":"RWL","station_name":"Rewulu","i_long":110.279205,"i_lat":-7.797702,"line":7},{"time":4,"line":7,"is_transit":false,"station_name":"Patukan","transit":false,"distance":4579,"station_id":"PTN","i_long":110.32542,"i_lat":-7.790605},{"i_lat":-7.788961,"station_name":"Yogyakarta","time":5,"transit":false,"i_long":110.36345,"line":7,"distance":4241,"station_id":"YK","is_transit":false},{"transit":false,"line":7,"station_id":"LPN","distance":1307,"i_lat":-7.790018,"i_long":110.375434,"time":6,"is_transit":false,"station_name":"Lempuyangan"},{"i_long":110.436791,"station_name":"Maguwo","time":7,"station_id":"MGW","distance":6799,"is_transit":false,"transit":false,"i_lat":-7.784476,"line":7}]]}