{"data":[[{"time":0,"line":7,"station_id":"WJ","station_name":"Wojo","i_lat":-7.861626,"i_long":110.040449,"is_transit":false,"distance":0,"transit":false},{"i_lat":-7.859237,"line":7,"station_id":"WT","station_name":"Wates","is_transit":false,"time":15,"transit":false,"i_long":110.158003,"distance":13652},{"time":25,"line":0,"is_transit":false,"station_id":"STL","station_name":"Sentolo","transit":false,"distance":10145,"i_lat":-7.832939,"i_long":110.220122},{"is_transit":false,"distance":9041,"transit":false,"station_name":"Rewulu","line":7,"i_lat":-7.797702,"i_long":110.279205,"time":8,"station_id":"RWL"},{"station_id":"PTN","transit":false,"station_name":"Patukan","line":7,"time":4,"distance":4579,"i_lat":-7.790605,"i_long":110.32542,"is_transit":false},{"i_long":110.36345,"station_id":"YK","station_name":"Yogyakarta","is_transit":false,"transit":false,"time":5,"i_lat":-7.788961,"line":7,"distance":4241},{"time":6,"transit":false,"i_lat":-7.790018,"distance":1307,"station_id":"LPN","is_transit":false,"line":7,"station_name":"Lempuyangan","i_long":110.375434},{"distance":6799,"time":7,"line":7,"transit":false,"i_long":110.436791,"is_transit":false,"station_id":"MGW","station_name":"Maguwo","i_lat":-7.784476}]]}