{"data":[[{"distance":0,"station_id":"WJ","time":0,"i_long":110.040449,"station_name":"Wojo","is_transit":false,"transit":false,"i_lat":-7.861626,"line":7},{"distance":13652,"station_id":"WT","time":15,"is_transit":false,"i_lat":-7.859237,"line":7,"transit":false,"i_long":110.158003,"station_name":"Wates"},{"distance":10145,"station_id":"STL","time":25,"line":7,"station_name":"Sentolo","i_lat":-7.832939,"i_long":110.220122,"is_transit":false,"transit":false},{"is_transit":false,"line":7,"time":8,"i_lat":-7.797702,"distance":9041,"station_id":"RWL","station_name":"Rewulu","transit":false,"i_long":110.279205},{"is_transit":false,"i_lat":-7.790605,"line":7,"distance":4579,"station_id":"PTN","station_name":"Patukan","time":4,"transit":false,"i_long":110.32542},{"is_transit":false,"station_id":"YK","i_lat":-7.788961,"station_name":"Yogyakarta","transit":false,"time":5,"distance":4241,"i_long":110.36345,"line":7},{"station_id":"LPN","station_name":"Lempuyangan","transit":false,"i_lat":-7.790018,"is_transit":false,"time":6,"distance":1307,"i_long":110.375434,"line":7},{"station_name":"Maguwo","line":7,"is_transit":false,"station_id":"MGW","time":7,"transit":false,"distance":6799,"i_lat":-7.784476,"i_long":110.436791}]]}