{"data":[[{"station_name":"Wojo","i_long":110.040449,"distance":0,"time":0,"station_id":"WJ","transit":false,"line":7,"i_lat":-7.861626,"is_transit":false},{"station_id":"WT","transit":false,"i_lat":-7.859237,"time":15,"line":7,"distance":13652,"station_name":"Wates","i_long":110.158003,"is_transit":false},{"i_long":110.220122,"distance":10145,"is_transit":false,"transit":false,"i_lat":-7.832939,"station_id":"STL","station_name":"Sentolo","time":25,"line":7},{"i_lat":-7.797702,"i_long":110.279205,"station_id":"RWL","transit":false,"distance":9041,"station_name":"Rewulu","is_transit":false,"time":8,"line":7},{"station_id":"PTN","station_name":"Patukan","line":7,"i_long":110.32542,"distance":4579,"transit":false,"is_transit":false,"time":4,"i_lat":-7.790605},{"transit":false,"i_lat":-7.788961,"line":7,"distance":4241,"time":5,"station_name":"Yogyakarta","i_long":110.36345,"is_transit":false,"station_id":"YK"},{"station_name":"Lempuyangan","is_transit":false,"transit":false,"line":7,"time":6,"station_id":"LPN","i_lat":-7.790018,"distance":1307,"i_long":110.375434},{"line":7,"time":7,"is_transit":false,"station_id":"MGW","station_name":"Maguwo","distance":6799,"transit":false,"i_lat":-7.784476,"i_long":110.436791},{"station_name":"Brambanan","transit":false,"time":8,"i_long":110.500451,"is_transit":false,"distance":7905,"station_id":"BBN","i_lat":-7.756284,"line":0},{"i_long":110.548972,"distance":5850,"station_id":"SWT","line":7,"transit":false,"is_transit":false,"time":7,"i_lat":-7.74111,"station_name":"Srowot"}]]}