{"data":[[{"station_id":"WJ","is_transit":false,"transit":false,"i_lat":-7.861626,"distance":0,"station_name":"Wojo","time":0,"i_long":110.040449,"line":7},{"i_long":110.158003,"line":7,"station_id":"WT","transit":false,"distance":13652,"is_transit":false,"station_name":"Wates","time":15,"i_lat":-7.859237},{"station_id":"STL","line":0,"is_transit":false,"transit":false,"station_name":"Sentolo","i_lat":-7.832939,"i_long":110.220122,"time":25,"distance":10145},{"transit":false,"station_id":"RWL","i_lat":-7.797702,"i_long":110.279205,"distance":9041,"station_name":"Rewulu","time":8,"line":7,"is_transit":false},{"station_id":"PTN","transit":false,"time":4,"i_long":110.32542,"distance":4579,"station_name":"Patukan","i_lat":-7.790605,"is_transit":false,"line":7},{"time":5,"i_long":110.36345,"line":7,"transit":false,"i_lat":-7.788961,"station_id":"YK","distance":4241,"is_transit":false,"station_name":"Yogyakarta"},{"line":7,"is_transit":false,"distance":1307,"transit":false,"time":6,"i_lat":-7.790018,"i_long":110.375434,"station_id":"LPN","station_name":"Lempuyangan"},{"station_id":"MGW","line":7,"station_name":"Maguwo","i_long":110.436791,"is_transit":false,"transit":false,"time":7,"distance":6799,"i_lat":-7.784476},{"line":0,"i_lat":-7.756284,"transit":false,"station_name":"Brambanan","time":8,"distance":7905,"is_transit":false,"station_id":"BBN","i_long":110.500451},{"station_id":"SWT","station_name":"Srowot","transit":false,"i_lat":-7.74111,"is_transit":false,"i_long":110.548972,"line":7,"distance":5850,"time":7}]]}