{"data":[[{"is_transit":false,"i_lat":-7.861626,"time":0,"distance":0,"station_name":"Wojo","line":7,"transit":false,"station_id":"WJ","i_long":110.040449},{"distance":13652,"is_transit":false,"i_long":110.158003,"line":7,"station_id":"WT","transit":false,"time":15,"station_name":"Wates","i_lat":-7.859237},{"transit":false,"time":25,"station_id":"STL","is_transit":false,"distance":10145,"line":0,"i_long":110.220122,"i_lat":-7.832939,"station_name":"Sentolo"},{"time":8,"station_name":"Rewulu","transit":false,"is_transit":false,"i_long":110.279205,"line":7,"distance":9041,"i_lat":-7.797702,"station_id":"RWL"},{"is_transit":false,"i_lat":-7.790605,"line":7,"station_name":"Patukan","distance":4579,"transit":false,"station_id":"PTN","time":4,"i_long":110.32542},{"station_id":"YK","time":5,"distance":4241,"i_long":110.36345,"transit":false,"is_transit":false,"station_name":"Yogyakarta","i_lat":-7.788961,"line":7},{"transit":false,"station_name":"Lempuyangan","station_id":"LPN","time":6,"i_lat":-7.790018,"distance":1307,"i_long":110.375434,"is_transit":false,"line":7},{"i_long":110.436791,"transit":false,"is_transit":false,"distance":6799,"time":7,"i_lat":-7.784476,"line":7,"station_name":"Maguwo","station_id":"MGW"},{"station_name":"Brambanan","transit":false,"station_id":"BBN","distance":7905,"is_transit":false,"i_long":110.500451,"time":8,"i_lat":-7.756284,"line":0},{"transit":false,"station_id":"SWT","i_lat":-7.74111,"line":7,"is_transit":false,"i_long":110.548972,"distance":5850,"station_name":"Srowot","time":7}]]}