{"data":[[{"line":7,"transit":false,"station_name":"Wojo","i_lat":-7.861626,"distance":0,"station_id":"WJ","is_transit":false,"i_long":110.040449,"time":0},{"time":15,"station_name":"Wates","distance":13652,"i_lat":-7.859237,"is_transit":false,"transit":false,"line":7,"i_long":110.158003,"station_id":"WT"},{"transit":false,"distance":10145,"station_name":"Sentolo","is_transit":false,"i_lat":-7.832939,"station_id":"STL","i_long":110.220122,"line":0,"time":25},{"station_id":"RWL","transit":false,"distance":9041,"time":8,"i_lat":-7.797702,"i_long":110.279205,"line":7,"station_name":"Rewulu","is_transit":false},{"time":4,"is_transit":false,"distance":4579,"i_lat":-7.790605,"transit":false,"line":7,"station_id":"PTN","station_name":"Patukan","i_long":110.32542},{"station_name":"Yogyakarta","i_lat":-7.788961,"i_long":110.36345,"station_id":"YK","distance":4241,"time":5,"line":7,"transit":false,"is_transit":false},{"i_long":110.375434,"i_lat":-7.790018,"line":7,"is_transit":false,"station_name":"Lempuyangan","distance":1307,"transit":false,"time":6,"station_id":"LPN"},{"i_long":110.436791,"distance":6799,"is_transit":false,"time":7,"i_lat":-7.784476,"line":7,"station_id":"MGW","transit":false,"station_name":"Maguwo"},{"distance":7905,"line":0,"transit":false,"i_lat":-7.756284,"is_transit":false,"i_long":110.500451,"station_name":"Brambanan","station_id":"BBN","time":8},{"station_id":"SWT","is_transit":false,"transit":false,"station_name":"Srowot","time":7,"distance":5850,"i_long":110.548972,"line":7,"i_lat":-7.74111}]]}