{"data":[[{"time":0,"transit":false,"line":7,"distance":0,"station_id":"WT","i_lat":-7.859237,"is_transit":false,"station_name":"Wates","i_long":110.158003},{"station_name":"Sentolo","distance":10145,"i_lat":-7.832939,"line":0,"time":25,"station_id":"STL","i_long":110.220122,"is_transit":false,"transit":false},{"time":8,"is_transit":false,"transit":false,"i_lat":-7.797702,"station_id":"RWL","i_long":110.279205,"line":7,"distance":9041,"station_name":"Rewulu"},{"i_long":110.32542,"line":7,"station_id":"PTN","distance":4579,"is_transit":false,"time":4,"transit":false,"station_name":"Patukan","i_lat":-7.790605},{"i_lat":-7.788961,"is_transit":false,"time":5,"i_long":110.36345,"line":7,"station_id":"YK","transit":false,"distance":4241,"station_name":"Yogyakarta"},{"time":6,"i_long":110.375434,"transit":false,"line":7,"is_transit":false,"station_id":"LPN","i_lat":-7.790018,"station_name":"Lempuyangan","distance":1307},{"i_lat":-7.784476,"station_name":"Maguwo","line":7,"station_id":"MGW","distance":6799,"is_transit":false,"time":7,"transit":false,"i_long":110.436791},{"transit":false,"station_name":"Brambanan","i_lat":-7.756284,"distance":7905,"time":8,"is_transit":false,"i_long":110.500451,"line":0,"station_id":"BBN"},{"distance":5850,"i_long":110.548972,"is_transit":false,"station_id":"SWT","transit":false,"station_name":"Srowot","i_lat":-7.74111,"time":7,"line":7},{"transit":false,"distance":6738,"i_long":110.602981,"station_id":"KT","line":7,"time":8,"is_transit":false,"i_lat":-7.712087,"station_name":"Klaten"},{"time":9,"line":7,"station_id":"CE","i_long":110.674861,"transit":false,"is_transit":false,"distance":9279,"i_lat":-7.668597,"station_name":"Ceper"}]]}