{"data":[[{"transit":false,"station_id":"WT","i_long":110.158003,"i_lat":-7.859237,"time":0,"is_transit":false,"station_name":"Wates","distance":0,"line":7},{"is_transit":false,"line":7,"transit":false,"i_lat":-7.832939,"station_name":"Sentolo","distance":10145,"i_long":110.220122,"station_id":"STL","time":25},{"i_long":110.279205,"line":7,"station_id":"RWL","time":8,"station_name":"Rewulu","i_lat":-7.797702,"is_transit":false,"transit":false,"distance":9041},{"station_name":"Patukan","line":7,"is_transit":false,"station_id":"PTN","transit":false,"time":4,"i_lat":-7.790605,"i_long":110.32542,"distance":4579},{"station_name":"Yogyakarta","station_id":"YK","is_transit":false,"distance":4241,"i_lat":-7.788961,"time":5,"transit":false,"i_long":110.36345,"line":7},{"distance":1307,"is_transit":false,"transit":false,"time":6,"station_name":"Lempuyangan","i_lat":-7.790018,"line":7,"i_long":110.375434,"station_id":"LPN"},{"distance":6799,"transit":false,"line":7,"station_id":"MGW","station_name":"Maguwo","time":7,"is_transit":false,"i_lat":-7.784476,"i_long":110.436791},{"transit":false,"i_lat":-7.756284,"is_transit":false,"station_name":"Brambanan","distance":7905,"line":0,"station_id":"BBN","i_long":110.500451,"time":8},{"i_lat":-7.74111,"time":7,"distance":5850,"is_transit":false,"station_id":"SWT","station_name":"Srowot","i_long":110.548972,"line":7,"transit":false},{"station_name":"Klaten","distance":6738,"is_transit":false,"transit":false,"time":8,"line":7,"i_long":110.602981,"i_lat":-7.712087,"station_id":"KT"},{"is_transit":false,"station_id":"CE","station_name":"Ceper","i_lat":-7.668597,"i_long":110.674861,"transit":false,"time":9,"line":0,"distance":9279}]]}