{"data":[[{"station_id":"WT","is_transit":false,"transit":false,"time":0,"line":7,"i_lat":-7.859237,"distance":0,"i_long":110.158003,"station_name":"Wates"},{"distance":10145,"i_lat":-7.832939,"station_name":"Sentolo","line":0,"is_transit":false,"time":25,"i_long":110.220122,"station_id":"STL","transit":false},{"transit":false,"station_name":"Rewulu","time":8,"i_long":110.279205,"line":7,"distance":9041,"is_transit":false,"i_lat":-7.797702,"station_id":"RWL"},{"i_lat":-7.790605,"station_id":"PTN","i_long":110.32542,"line":7,"is_transit":false,"time":4,"transit":false,"station_name":"Patukan","distance":4579},{"i_long":110.36345,"i_lat":-7.788961,"distance":4241,"transit":false,"station_name":"Yogyakarta","line":7,"station_id":"YK","is_transit":false,"time":5},{"distance":1307,"i_lat":-7.790018,"line":7,"station_id":"LPN","transit":false,"is_transit":false,"i_long":110.375434,"station_name":"Lempuyangan","time":6},{"time":7,"transit":false,"i_long":110.436791,"is_transit":false,"i_lat":-7.784476,"line":7,"station_id":"MGW","station_name":"Maguwo","distance":6799},{"is_transit":false,"i_lat":-7.756284,"i_long":110.500451,"station_id":"BBN","line":0,"station_name":"Brambanan","time":8,"transit":false,"distance":7905},{"station_name":"Srowot","time":7,"transit":false,"station_id":"SWT","line":7,"is_transit":false,"distance":5850,"i_lat":-7.74111,"i_long":110.548972},{"station_name":"Klaten","distance":6738,"time":8,"station_id":"KT","is_transit":false,"i_long":110.602981,"line":7,"i_lat":-7.712087,"transit":false},{"station_name":"Ceper","transit":false,"i_lat":-7.668597,"i_long":110.674861,"is_transit":false,"distance":9279,"line":7,"time":9,"station_id":"CE"}]]}