{"data":[[{"transit":false,"i_lat":-7.859237,"station_id":"WT","is_transit":false,"time":0,"station_name":"Wates","distance":0,"i_long":110.158003,"line":7},{"time":25,"transit":false,"station_name":"Sentolo","is_transit":false,"line":0,"station_id":"STL","distance":10145,"i_lat":-7.832939,"i_long":110.220122},{"i_lat":-7.797702,"i_long":110.279205,"time":8,"is_transit":false,"station_name":"Rewulu","distance":9041,"line":7,"transit":false,"station_id":"RWL"},{"time":4,"station_name":"Patukan","distance":4579,"is_transit":false,"transit":false,"station_id":"PTN","i_lat":-7.790605,"i_long":110.32542,"line":7},{"station_name":"Yogyakarta","distance":4241,"station_id":"YK","i_long":110.36345,"line":7,"time":5,"transit":false,"i_lat":-7.788961,"is_transit":false},{"station_name":"Lempuyangan","transit":false,"station_id":"LPN","i_lat":-7.790018,"distance":1307,"is_transit":false,"line":7,"i_long":110.375434,"time":6},{"is_transit":false,"line":7,"station_id":"MGW","station_name":"Maguwo","distance":6799,"i_long":110.436791,"i_lat":-7.784476,"time":7,"transit":false},{"time":8,"i_lat":-7.756284,"distance":7905,"i_long":110.500451,"line":0,"is_transit":false,"station_name":"Brambanan","transit":false,"station_id":"BBN"},{"i_long":110.548972,"station_id":"SWT","distance":5850,"time":7,"line":7,"is_transit":false,"i_lat":-7.74111,"transit":false,"station_name":"Srowot"},{"time":8,"i_long":110.602981,"is_transit":false,"transit":false,"line":7,"station_id":"KT","i_lat":-7.712087,"station_name":"Klaten","distance":6738},{"i_lat":-7.668597,"i_long":110.674861,"distance":9279,"station_name":"Ceper","is_transit":false,"transit":false,"time":9,"line":7,"station_id":"CE"}]]}