{"data":[[{"i_long":110.158003,"line":7,"station_name":"Wates","transit":false,"time":0,"is_transit":false,"station_id":"WT","i_lat":-7.859237,"distance":0},{"station_name":"Sentolo","station_id":"STL","is_transit":false,"time":25,"i_long":110.220122,"line":7,"transit":false,"distance":10145,"i_lat":-7.832939},{"distance":9041,"time":8,"i_lat":-7.797702,"station_name":"Rewulu","station_id":"RWL","i_long":110.279205,"is_transit":false,"transit":false,"line":7},{"time":4,"line":7,"station_id":"PTN","distance":4579,"transit":false,"i_long":110.32542,"is_transit":false,"station_name":"Patukan","i_lat":-7.790605},{"station_name":"Yogyakarta","distance":4241,"is_transit":false,"line":7,"i_long":110.36345,"time":5,"station_id":"YK","transit":false,"i_lat":-7.788961},{"station_id":"LPN","is_transit":false,"distance":1307,"i_long":110.375434,"station_name":"Lempuyangan","transit":false,"time":6,"i_lat":-7.790018,"line":7},{"i_long":110.436791,"distance":6799,"is_transit":false,"station_id":"MGW","i_lat":-7.784476,"line":7,"transit":false,"time":7,"station_name":"Maguwo"},{"line":0,"i_lat":-7.756284,"transit":false,"station_id":"BBN","station_name":"Brambanan","distance":7905,"is_transit":false,"time":8,"i_long":110.500451},{"is_transit":false,"station_name":"Srowot","time":7,"i_long":110.548972,"station_id":"SWT","transit":false,"i_lat":-7.74111,"line":7,"distance":5850},{"is_transit":false,"station_name":"Klaten","time":8,"i_long":110.602981,"distance":6738,"station_id":"KT","transit":false,"i_lat":-7.712087,"line":7}]]}