{"data":[[{"station_name":"Wates","station_id":"WT","distance":0,"transit":false,"time":0,"line":7,"is_transit":false,"i_lat":-7.859237,"i_long":110.158003},{"is_transit":false,"transit":false,"time":25,"station_name":"Sentolo","i_lat":-7.832939,"line":0,"distance":10145,"i_long":110.220122,"station_id":"STL"},{"distance":9041,"i_lat":-7.797702,"time":8,"transit":false,"station_id":"RWL","is_transit":false,"line":7,"i_long":110.279205,"station_name":"Rewulu"},{"i_long":110.32542,"distance":4579,"station_id":"PTN","station_name":"Patukan","transit":false,"i_lat":-7.790605,"is_transit":false,"time":4,"line":7},{"station_id":"YK","distance":4241,"time":5,"station_name":"Yogyakarta","i_lat":-7.788961,"i_long":110.36345,"line":7,"transit":false,"is_transit":false},{"time":6,"station_id":"LPN","distance":1307,"transit":false,"station_name":"Lempuyangan","i_lat":-7.790018,"i_long":110.375434,"line":7,"is_transit":false},{"time":7,"distance":6799,"i_long":110.436791,"station_name":"Maguwo","transit":false,"station_id":"MGW","is_transit":false,"i_lat":-7.784476,"line":7},{"i_long":110.500451,"distance":7905,"transit":false,"line":0,"station_name":"Brambanan","is_transit":false,"station_id":"BBN","time":8,"i_lat":-7.756284},{"distance":5850,"station_id":"SWT","transit":false,"time":7,"station_name":"Srowot","i_lat":-7.74111,"i_long":110.548972,"is_transit":false,"line":7},{"distance":6738,"i_lat":-7.712087,"i_long":110.602981,"station_id":"KT","line":7,"transit":false,"is_transit":false,"time":8,"station_name":"Klaten"}]]}