{"data":[[{"time":0,"i_long":110.158003,"line":7,"transit":false,"i_lat":-7.859237,"station_name":"Wates","station_id":"WT","is_transit":false,"distance":0},{"i_lat":-7.832939,"distance":10145,"line":0,"transit":false,"station_name":"Sentolo","i_long":110.220122,"station_id":"STL","time":25,"is_transit":false},{"station_name":"Rewulu","time":8,"i_lat":-7.797702,"i_long":110.279205,"distance":9041,"transit":false,"is_transit":false,"line":7,"station_id":"RWL"},{"distance":4579,"i_lat":-7.790605,"transit":false,"station_id":"PTN","station_name":"Patukan","is_transit":false,"i_long":110.32542,"line":7,"time":4},{"is_transit":false,"station_name":"Yogyakarta","i_long":110.36345,"line":7,"time":5,"distance":4241,"transit":false,"i_lat":-7.788961,"station_id":"YK"},{"i_long":110.375434,"transit":false,"station_id":"LPN","i_lat":-7.790018,"station_name":"Lempuyangan","distance":1307,"is_transit":false,"line":7,"time":6},{"station_name":"Maguwo","transit":false,"distance":6799,"station_id":"MGW","line":7,"time":7,"is_transit":false,"i_lat":-7.784476,"i_long":110.436791},{"station_name":"Brambanan","i_long":110.500451,"transit":false,"time":8,"line":0,"distance":7905,"is_transit":false,"station_id":"BBN","i_lat":-7.756284},{"station_name":"Srowot","transit":false,"line":7,"distance":5850,"station_id":"SWT","is_transit":false,"time":7,"i_lat":-7.74111,"i_long":110.548972},{"transit":false,"station_name":"Klaten","i_long":110.602981,"time":8,"station_id":"KT","is_transit":false,"i_lat":-7.712087,"distance":6738,"line":7}]]}