{"data":[[{"line":7,"time":0,"transit":false,"station_id":"WT","distance":0,"i_lat":-7.859237,"i_long":110.158003,"is_transit":false,"station_name":"Wates"},{"station_name":"Sentolo","distance":10145,"i_lat":-7.832939,"time":25,"line":0,"transit":false,"is_transit":false,"i_long":110.220122,"station_id":"STL"},{"transit":false,"is_transit":false,"distance":9041,"station_id":"RWL","time":8,"i_lat":-7.797702,"station_name":"Rewulu","i_long":110.279205,"line":7},{"station_name":"Patukan","transit":false,"is_transit":false,"station_id":"PTN","time":4,"i_lat":-7.790605,"i_long":110.32542,"distance":4579,"line":7},{"is_transit":false,"i_long":110.36345,"line":7,"station_id":"YK","time":5,"i_lat":-7.788961,"distance":4241,"station_name":"Yogyakarta","transit":false},{"time":6,"station_name":"Lempuyangan","distance":1307,"transit":false,"station_id":"LPN","is_transit":false,"i_long":110.375434,"i_lat":-7.790018,"line":7},{"distance":6799,"station_name":"Maguwo","is_transit":false,"time":7,"transit":false,"i_long":110.436791,"i_lat":-7.784476,"station_id":"MGW","line":7},{"is_transit":false,"distance":7905,"line":0,"time":8,"transit":false,"i_long":110.500451,"station_id":"BBN","i_lat":-7.756284,"station_name":"Brambanan"},{"time":7,"station_name":"Srowot","is_transit":false,"station_id":"SWT","line":7,"i_long":110.548972,"distance":5850,"transit":false,"i_lat":-7.74111},{"is_transit":false,"distance":6738,"station_name":"Klaten","time":8,"transit":false,"i_lat":-7.712087,"line":7,"station_id":"KT","i_long":110.602981}]]}