{"data":[[{"i_lat":-7.859237,"transit":false,"distance":0,"is_transit":false,"i_long":110.158003,"station_id":"WT","line":7,"time":0,"station_name":"Wates"},{"is_transit":false,"distance":10145,"time":25,"station_id":"STL","line":0,"transit":false,"i_lat":-7.832939,"station_name":"Sentolo","i_long":110.220122},{"is_transit":false,"station_id":"RWL","i_long":110.279205,"i_lat":-7.797702,"line":7,"transit":false,"station_name":"Rewulu","distance":9041,"time":8},{"distance":4579,"station_id":"PTN","i_long":110.32542,"station_name":"Patukan","is_transit":false,"time":4,"line":7,"transit":false,"i_lat":-7.790605},{"distance":4241,"station_name":"Yogyakarta","is_transit":false,"time":5,"i_long":110.36345,"line":7,"transit":false,"i_lat":-7.788961,"station_id":"YK"},{"is_transit":false,"transit":false,"i_long":110.375434,"distance":1307,"station_name":"Lempuyangan","time":6,"line":7,"station_id":"LPN","i_lat":-7.790018},{"line":7,"transit":false,"is_transit":false,"i_lat":-7.784476,"time":7,"station_name":"Maguwo","station_id":"MGW","distance":6799,"i_long":110.436791},{"distance":7905,"station_id":"BBN","i_long":110.500451,"line":0,"station_name":"Brambanan","i_lat":-7.756284,"is_transit":false,"time":8,"transit":false},{"is_transit":false,"i_long":110.548972,"line":7,"station_id":"SWT","station_name":"Srowot","i_lat":-7.74111,"time":7,"transit":false,"distance":5850},{"is_transit":false,"station_id":"KT","station_name":"Klaten","line":7,"transit":false,"i_lat":-7.712087,"i_long":110.602981,"time":8,"distance":6738},{"distance":9279,"station_id":"CE","time":9,"i_lat":-7.668597,"line":7,"transit":false,"i_long":110.674861,"is_transit":false,"station_name":"Ceper"},{"is_transit":false,"station_name":"Delanggu","distance":6271,"transit":false,"i_lat":-7.62181,"time":7,"station_id":"DL","i_long":110.706679,"line":7},{"distance":5543,"is_transit":false,"station_id":"GW","station_name":"Gawok","transit":false,"i_lat":-7.589036,"time":6,"i_long":110.744432,"line":7},{"i_lat":-7.561362,"transit":false,"distance":6639,"is_transit":false,"station_name":"Purwosari","i_long":110.796655,"station_id":"PWS","line":7,"time":7},{"is_transit":false,"transit":false,"line":7,"distance":2936,"i_long":110.821471,"time":6,"station_name":"Solo Balapan","i_lat":-7.556783,"station_id":"SLO"},{"transit":false,"distance":2141,"is_transit":false,"time":10,"station_name":"Solo Jebres","station_id":"SK","i_long":110.839459,"i_lat":-7.56197,"line":7}]]}