{"data":[[{"line":7,"i_long":110.158003,"distance":0,"station_id":"WT","i_lat":-7.859237,"time":0,"is_transit":false,"transit":false,"station_name":"Wates"},{"is_transit":false,"time":25,"station_id":"STL","i_lat":-7.832939,"transit":false,"station_name":"Sentolo","distance":10145,"i_long":110.220122,"line":0},{"is_transit":false,"station_name":"Rewulu","distance":9041,"i_lat":-7.797702,"i_long":110.279205,"transit":false,"time":8,"station_id":"RWL","line":7},{"time":4,"line":7,"station_name":"Patukan","i_long":110.32542,"transit":false,"distance":4579,"station_id":"PTN","i_lat":-7.790605,"is_transit":false},{"station_id":"YK","time":5,"line":7,"is_transit":false,"distance":4241,"transit":false,"station_name":"Yogyakarta","i_lat":-7.788961,"i_long":110.36345},{"time":6,"station_name":"Lempuyangan","station_id":"LPN","line":7,"transit":false,"i_long":110.375434,"distance":1307,"is_transit":false,"i_lat":-7.790018},{"i_long":110.436791,"i_lat":-7.784476,"station_id":"MGW","distance":6799,"line":7,"transit":false,"time":7,"station_name":"Maguwo","is_transit":false},{"station_name":"Brambanan","time":8,"distance":7905,"i_long":110.500451,"station_id":"BBN","transit":false,"is_transit":false,"i_lat":-7.756284,"line":0},{"transit":false,"station_name":"Srowot","i_lat":-7.74111,"is_transit":false,"distance":5850,"i_long":110.548972,"line":7,"station_id":"SWT","time":7},{"i_lat":-7.712087,"station_id":"KT","station_name":"Klaten","distance":6738,"is_transit":false,"time":8,"i_long":110.602981,"line":7,"transit":false},{"is_transit":false,"transit":false,"station_id":"CE","distance":9279,"line":7,"station_name":"Ceper","i_long":110.674861,"i_lat":-7.668597,"time":9},{"i_lat":-7.62181,"i_long":110.706679,"transit":false,"line":7,"distance":6271,"station_name":"Delanggu","is_transit":false,"station_id":"DL","time":7},{"i_lat":-7.589036,"transit":false,"i_long":110.744432,"distance":5543,"is_transit":false,"station_name":"Gawok","station_id":"GW","time":6,"line":7},{"transit":false,"distance":6639,"i_long":110.796655,"i_lat":-7.561362,"time":7,"station_name":"Purwosari","is_transit":false,"station_id":"PWS","line":7},{"station_name":"Solo Balapan","time":6,"transit":false,"distance":2936,"i_lat":-7.556783,"i_long":110.821471,"station_id":"SLO","line":7,"is_transit":false},{"transit":false,"distance":2141,"station_name":"Solo Jebres","is_transit":false,"i_long":110.839459,"line":7,"time":10,"i_lat":-7.56197,"station_id":"SK"}]]}