{"data":[[{"time":0,"station_id":"WT","distance":0,"transit":false,"i_lat":-7.859237,"i_long":110.158003,"line":7,"is_transit":false,"station_name":"Wates"},{"i_lat":-7.832939,"station_id":"STL","i_long":110.220122,"line":0,"is_transit":false,"distance":10145,"station_name":"Sentolo","time":25,"transit":false},{"is_transit":false,"line":7,"time":8,"i_long":110.279205,"station_id":"RWL","transit":false,"distance":9041,"i_lat":-7.797702,"station_name":"Rewulu"},{"line":7,"transit":false,"is_transit":false,"time":4,"distance":4579,"station_name":"Patukan","i_lat":-7.790605,"i_long":110.32542,"station_id":"PTN"},{"time":5,"distance":4241,"transit":false,"is_transit":false,"i_long":110.36345,"line":7,"i_lat":-7.788961,"station_name":"Yogyakarta","station_id":"YK"},{"transit":false,"time":6,"distance":1307,"i_lat":-7.790018,"i_long":110.375434,"station_id":"LPN","station_name":"Lempuyangan","is_transit":false,"line":7},{"distance":6799,"i_long":110.436791,"line":7,"station_name":"Maguwo","i_lat":-7.784476,"time":7,"transit":false,"station_id":"MGW","is_transit":false},{"distance":7905,"i_lat":-7.756284,"station_id":"BBN","time":8,"transit":false,"i_long":110.500451,"line":0,"station_name":"Brambanan","is_transit":false},{"transit":false,"distance":5850,"i_lat":-7.74111,"station_name":"Srowot","station_id":"SWT","line":7,"time":7,"is_transit":false,"i_long":110.548972},{"time":8,"i_lat":-7.712087,"transit":false,"i_long":110.602981,"station_name":"Klaten","is_transit":false,"line":7,"station_id":"KT","distance":6738},{"distance":9279,"time":9,"line":7,"station_name":"Ceper","is_transit":false,"transit":false,"i_lat":-7.668597,"station_id":"CE","i_long":110.674861},{"transit":false,"distance":6271,"is_transit":false,"time":7,"i_lat":-7.62181,"i_long":110.706679,"station_name":"Delanggu","line":7,"station_id":"DL"},{"line":7,"station_id":"GW","station_name":"Gawok","is_transit":false,"i_long":110.744432,"transit":false,"distance":5543,"i_lat":-7.589036,"time":6},{"i_long":110.796655,"time":7,"distance":6639,"station_id":"PWS","station_name":"Purwosari","transit":false,"is_transit":false,"i_lat":-7.561362,"line":7},{"transit":false,"station_name":"Solo Balapan","is_transit":false,"i_long":110.821471,"station_id":"SLO","i_lat":-7.556783,"distance":2936,"line":7,"time":6},{"line":7,"i_long":110.839459,"time":10,"transit":false,"is_transit":false,"station_name":"Solo Jebres","station_id":"SK","i_lat":-7.56197,"distance":2141}]]}