{"data":[[{"station_id":"WT","distance":0,"transit":false,"i_long":110.158003,"is_transit":false,"line":7,"station_name":"Wates","time":0,"i_lat":-7.859237},{"line":7,"transit":false,"time":25,"i_lat":-7.832939,"station_name":"Sentolo","distance":10145,"i_long":110.220122,"station_id":"STL","is_transit":false},{"transit":false,"i_long":110.279205,"time":8,"station_name":"Rewulu","distance":9041,"is_transit":false,"i_lat":-7.797702,"station_id":"RWL","line":7},{"station_name":"Patukan","transit":false,"time":4,"i_lat":-7.790605,"is_transit":false,"distance":4579,"line":7,"i_long":110.32542,"station_id":"PTN"},{"is_transit":false,"time":5,"distance":4241,"i_lat":-7.788961,"transit":false,"station_name":"Yogyakarta","line":7,"station_id":"YK","i_long":110.36345},{"is_transit":false,"station_id":"LPN","i_long":110.375434,"distance":1307,"station_name":"Lempuyangan","transit":false,"time":6,"line":7,"i_lat":-7.790018},{"line":7,"i_lat":-7.784476,"i_long":110.436791,"distance":6799,"station_id":"MGW","station_name":"Maguwo","transit":false,"is_transit":false,"time":7},{"transit":false,"i_long":110.500451,"station_name":"Brambanan","distance":7905,"station_id":"BBN","time":8,"is_transit":false,"i_lat":-7.756284,"line":0},{"transit":false,"station_name":"Srowot","i_long":110.548972,"station_id":"SWT","i_lat":-7.74111,"line":7,"distance":5850,"time":7,"is_transit":false},{"i_lat":-7.712087,"is_transit":false,"distance":6738,"transit":false,"i_long":110.602981,"line":7,"station_id":"KT","station_name":"Klaten","time":8},{"transit":false,"line":0,"is_transit":false,"station_id":"CE","distance":9279,"station_name":"Ceper","time":9,"i_lat":-7.668597,"i_long":110.674861},{"is_transit":false,"transit":false,"line":0,"station_name":"Delanggu","time":7,"distance":6271,"station_id":"DL","i_lat":-7.62181,"i_long":110.706679},{"i_lat":-7.589036,"station_id":"GW","station_name":"Gawok","transit":false,"time":6,"i_long":110.744432,"line":7,"is_transit":false,"distance":5543},{"transit":false,"station_name":"Purwosari","i_long":110.796655,"distance":6639,"station_id":"PWS","is_transit":false,"time":7,"i_lat":-7.561362,"line":7},{"i_long":110.821471,"station_id":"SLO","is_transit":false,"time":6,"line":7,"station_name":"Solo Balapan","transit":false,"i_lat":-7.556783,"distance":2936},{"station_name":"Solo Jebres","time":10,"i_long":110.839459,"transit":false,"i_lat":-7.56197,"line":7,"station_id":"SK","distance":2141,"is_transit":false}]]}