{"data":[[{"i_long":110.158003,"distance":0,"transit":false,"time":0,"line":7,"station_id":"WT","i_lat":-7.859237,"station_name":"Wates"},{"i_long":110.220122,"distance":10145,"transit":false,"time":25,"line":0,"station_id":"STL","i_lat":-7.832939,"station_name":"Sentolo"},{"i_long":110.279205,"distance":9041,"transit":false,"time":8,"line":7,"station_id":"RWL","i_lat":-7.797702,"station_name":"Rewulu"},{"i_long":110.32542,"distance":4579,"transit":false,"time":4,"line":7,"station_id":"PTN","i_lat":-7.790605,"station_name":"Patukan"},{"i_long":110.36345,"distance":4241,"transit":false,"time":5,"line":7,"station_id":"YK","i_lat":-7.788961,"station_name":"Yogyakarta"}]]}