{"data":[[{"line":7,"transit":false,"time":0,"i_lat":-7.859237,"station_name":"Wates","distance":0,"i_long":110.158003,"is_transit":false,"station_id":"WT"},{"distance":10145,"station_id":"STL","is_transit":false,"station_name":"Sentolo","transit":false,"line":7,"time":25,"i_lat":-7.832939,"i_long":110.220122},{"i_lat":-7.797702,"is_transit":false,"distance":9041,"transit":false,"time":8,"i_long":110.279205,"station_name":"Rewulu","station_id":"RWL","line":7},{"i_lat":-7.790605,"station_name":"Patukan","time":4,"line":7,"distance":4579,"station_id":"PTN","is_transit":false,"transit":false,"i_long":110.32542},{"line":7,"i_long":110.36345,"distance":4241,"time":5,"is_transit":false,"i_lat":-7.788961,"station_id":"YK","station_name":"Yogyakarta","transit":false}]]}