{"data":[[{"i_lat":-7.859237,"distance":0,"transit":false,"is_transit":false,"station_name":"Wates","station_id":"WT","i_long":110.158003,"line":7,"time":0},{"is_transit":false,"i_long":110.220122,"distance":10145,"transit":false,"station_id":"STL","station_name":"Sentolo","time":25,"i_lat":-7.832939,"line":0},{"i_long":110.279205,"i_lat":-7.797702,"transit":false,"distance":9041,"station_id":"RWL","station_name":"Rewulu","line":7,"time":8,"is_transit":false},{"transit":false,"station_id":"PTN","station_name":"Patukan","distance":4579,"is_transit":false,"line":7,"time":4,"i_long":110.32542,"i_lat":-7.790605},{"time":5,"transit":false,"is_transit":false,"i_long":110.36345,"line":7,"i_lat":-7.788961,"station_name":"Yogyakarta","station_id":"YK","distance":4241}]]}