{"data":[[{"station_id":"WT","transit":false,"i_long":110.158003,"line":7,"time":0,"station_name":"Wates","i_lat":-7.859237,"distance":0,"is_transit":false},{"station_name":"Sentolo","transit":false,"i_lat":-7.832939,"station_id":"STL","line":0,"is_transit":false,"time":25,"distance":10145,"i_long":110.220122},{"distance":9041,"transit":false,"station_name":"Rewulu","time":8,"line":7,"station_id":"RWL","i_lat":-7.797702,"i_long":110.279205,"is_transit":false},{"station_name":"Patukan","distance":4579,"line":7,"is_transit":false,"transit":false,"station_id":"PTN","i_lat":-7.790605,"time":4,"i_long":110.32542},{"is_transit":false,"i_lat":-7.788961,"station_name":"Yogyakarta","station_id":"YK","transit":false,"distance":4241,"time":5,"line":7,"i_long":110.36345}]]}