{"data":[[{"transit":false,"i_lat":-7.859237,"time":0,"station_name":"Wates","i_long":110.158003,"distance":0,"line":7,"station_id":"WT","is_transit":false},{"station_id":"STL","transit":false,"distance":10145,"time":25,"line":0,"station_name":"Sentolo","i_long":110.220122,"is_transit":false,"i_lat":-7.832939},{"line":7,"transit":false,"distance":9041,"is_transit":false,"station_id":"RWL","i_long":110.279205,"station_name":"Rewulu","i_lat":-7.797702,"time":8},{"station_id":"PTN","i_long":110.32542,"distance":4579,"station_name":"Patukan","i_lat":-7.790605,"is_transit":false,"time":4,"line":7,"transit":false},{"station_id":"YK","distance":4241,"is_transit":false,"transit":false,"time":5,"i_lat":-7.788961,"station_name":"Yogyakarta","line":7,"i_long":110.36345}]]}