{"data":[[{"is_transit":false,"transit":false,"i_lat":-7.788961,"station_id":"YK","distance":0,"time":0,"i_long":110.36345,"line":7,"station_name":"Yogyakarta"},{"i_lat":-7.790018,"distance":1307,"station_id":"LPN","i_long":110.375434,"is_transit":false,"time":6,"transit":false,"line":7,"station_name":"Lempuyangan"},{"is_transit":false,"transit":false,"station_name":"Maguwo","station_id":"MGW","i_lat":-7.784476,"time":7,"line":7,"i_long":110.436791,"distance":6799},{"time":8,"distance":7905,"i_lat":-7.756284,"i_long":110.500451,"line":0,"transit":false,"station_name":"Brambanan","station_id":"BBN","is_transit":false},{"transit":false,"is_transit":false,"station_name":"Srowot","station_id":"SWT","i_lat":-7.74111,"time":7,"distance":5850,"line":7,"i_long":110.548972},{"station_id":"KT","is_transit":false,"distance":6738,"i_lat":-7.712087,"line":7,"station_name":"Klaten","i_long":110.602981,"time":8,"transit":false},{"station_name":"Ceper","distance":9279,"i_lat":-7.668597,"line":7,"transit":false,"time":9,"i_long":110.674861,"is_transit":false,"station_id":"CE"}]]}