{"data":[[{"time":0,"distance":0,"station_id":"YK","transit":false,"station_name":"Yogyakarta","i_lat":-7.788961,"i_long":110.36345,"is_transit":false,"line":7},{"line":7,"time":6,"distance":1307,"i_lat":-7.790018,"station_name":"Lempuyangan","is_transit":false,"i_long":110.375434,"transit":false,"station_id":"LPN"},{"i_lat":-7.784476,"i_long":110.436791,"line":7,"time":7,"station_name":"Maguwo","distance":6799,"is_transit":false,"station_id":"MGW","transit":false},{"transit":false,"distance":7905,"is_transit":false,"time":8,"station_id":"BBN","i_lat":-7.756284,"line":0,"station_name":"Brambanan","i_long":110.500451},{"i_lat":-7.74111,"i_long":110.548972,"station_name":"Srowot","distance":5850,"time":7,"station_id":"SWT","is_transit":false,"line":7,"transit":false},{"line":7,"distance":6738,"transit":false,"station_id":"KT","time":8,"is_transit":false,"i_long":110.602981,"i_lat":-7.712087,"station_name":"Klaten"},{"time":9,"is_transit":false,"i_lat":-7.668597,"i_long":110.674861,"station_id":"CE","transit":false,"station_name":"Ceper","line":0,"distance":9279}]]}