{"data":[[{"time":0,"station_id":"YK","distance":0,"i_lat":-7.788961,"station_name":"Yogyakarta","line":7,"transit":false,"is_transit":false,"i_long":110.36345},{"station_id":"LPN","distance":1307,"i_lat":-7.790018,"line":7,"i_long":110.375434,"time":6,"is_transit":false,"transit":false,"station_name":"Lempuyangan"},{"is_transit":false,"distance":6799,"station_id":"MGW","i_lat":-7.784476,"time":7,"i_long":110.436791,"line":7,"station_name":"Maguwo","transit":false},{"transit":false,"time":8,"station_name":"Brambanan","i_lat":-7.756284,"is_transit":false,"i_long":110.500451,"distance":7905,"line":0,"station_id":"BBN"},{"distance":5850,"station_name":"Srowot","i_long":110.548972,"is_transit":false,"station_id":"SWT","time":7,"line":7,"i_lat":-7.74111,"transit":false},{"station_name":"Klaten","station_id":"KT","is_transit":false,"transit":false,"i_lat":-7.712087,"line":7,"distance":6738,"time":8,"i_long":110.602981},{"station_id":"CE","i_long":110.674861,"distance":9279,"line":7,"transit":false,"time":9,"is_transit":false,"station_name":"Ceper","i_lat":-7.668597}]]}