{"data":[[{"i_lat":-7.788961,"is_transit":false,"station_name":"Yogyakarta","transit":false,"distance":0,"i_long":110.36345,"line":7,"time":0,"station_id":"YK"},{"distance":1307,"station_name":"Lempuyangan","line":7,"time":6,"transit":false,"i_long":110.375434,"is_transit":false,"i_lat":-7.790018,"station_id":"LPN"},{"is_transit":false,"station_id":"MGW","station_name":"Maguwo","time":7,"line":7,"i_long":110.436791,"transit":false,"distance":6799,"i_lat":-7.784476},{"time":8,"is_transit":false,"i_lat":-7.756284,"i_long":110.500451,"station_id":"BBN","line":0,"station_name":"Brambanan","transit":false,"distance":7905},{"time":7,"i_long":110.548972,"line":7,"station_name":"Srowot","transit":false,"is_transit":false,"distance":5850,"i_lat":-7.74111,"station_id":"SWT"},{"i_lat":-7.712087,"i_long":110.602981,"station_id":"KT","station_name":"Klaten","is_transit":false,"line":7,"time":8,"transit":false,"distance":6738},{"is_transit":false,"i_lat":-7.668597,"distance":9279,"station_name":"Ceper","line":7,"transit":false,"station_id":"CE","i_long":110.674861,"time":9}]]}