{"data":[[{"time":0,"i_long":110.36345,"line":7,"station_name":"Yogyakarta","distance":0,"transit":false,"is_transit":false,"i_lat":-7.788961,"station_id":"YK"},{"i_lat":-7.790018,"i_long":110.375434,"station_id":"LPN","station_name":"Lempuyangan","is_transit":false,"line":7,"transit":false,"distance":1307,"time":6},{"is_transit":false,"i_lat":-7.784476,"distance":6799,"station_name":"Maguwo","line":7,"transit":false,"station_id":"MGW","i_long":110.436791,"time":7},{"distance":7905,"station_id":"BBN","is_transit":false,"time":8,"station_name":"Brambanan","transit":false,"line":0,"i_lat":-7.756284,"i_long":110.500451},{"i_long":110.548972,"transit":false,"distance":5850,"station_name":"Srowot","i_lat":-7.74111,"is_transit":false,"time":7,"line":7,"station_id":"SWT"},{"line":7,"station_name":"Klaten","transit":false,"i_lat":-7.712087,"station_id":"KT","i_long":110.602981,"time":8,"is_transit":false,"distance":6738},{"station_name":"Ceper","distance":9279,"i_long":110.674861,"station_id":"CE","transit":false,"time":9,"is_transit":false,"i_lat":-7.668597,"line":7},{"i_long":110.706679,"station_id":"DL","i_lat":-7.62181,"transit":false,"distance":6271,"time":7,"station_name":"Delanggu","is_transit":false,"line":7},{"station_name":"Gawok","transit":false,"is_transit":false,"line":7,"time":6,"i_lat":-7.589036,"distance":5543,"i_long":110.744432,"station_id":"GW"}]]}