{"data":[[{"station_name":"Yogyakarta","time":0,"line":7,"station_id":"YK","is_transit":false,"i_lat":-7.788961,"i_long":110.36345,"distance":0,"transit":false},{"transit":false,"line":7,"station_name":"Lempuyangan","distance":1307,"station_id":"LPN","time":6,"is_transit":false,"i_lat":-7.790018,"i_long":110.375434},{"i_long":110.436791,"station_id":"MGW","station_name":"Maguwo","line":7,"time":7,"is_transit":false,"distance":6799,"i_lat":-7.784476,"transit":false},{"i_lat":-7.756284,"time":8,"distance":7905,"transit":false,"i_long":110.500451,"is_transit":false,"line":0,"station_name":"Brambanan","station_id":"BBN"},{"distance":5850,"station_name":"Srowot","is_transit":false,"i_long":110.548972,"line":7,"transit":false,"i_lat":-7.74111,"station_id":"SWT","time":7},{"i_long":110.602981,"line":7,"time":8,"distance":6738,"station_name":"Klaten","i_lat":-7.712087,"transit":false,"station_id":"KT","is_transit":false},{"i_lat":-7.668597,"transit":false,"station_id":"CE","is_transit":false,"distance":9279,"time":9,"i_long":110.674861,"station_name":"Ceper","line":7},{"station_id":"DL","time":7,"is_transit":false,"i_lat":-7.62181,"transit":false,"distance":6271,"station_name":"Delanggu","line":7,"i_long":110.706679},{"i_lat":-7.589036,"distance":5543,"is_transit":false,"time":6,"line":7,"transit":false,"station_name":"Gawok","i_long":110.744432,"station_id":"GW"}]]}