{"data":[[{"i_long":110.36345,"station_id":"YK","station_name":"Yogyakarta","time":0,"distance":0,"line":7,"transit":false,"is_transit":false,"i_lat":-7.788961},{"transit":false,"i_lat":-7.790018,"station_id":"LPN","station_name":"Lempuyangan","distance":1307,"line":7,"is_transit":false,"time":6,"i_long":110.375434},{"distance":6799,"i_lat":-7.784476,"station_id":"MGW","i_long":110.436791,"line":7,"is_transit":false,"transit":false,"station_name":"Maguwo","time":7},{"time":8,"is_transit":false,"station_id":"BBN","station_name":"Brambanan","transit":false,"i_lat":-7.756284,"i_long":110.500451,"distance":7905,"line":0},{"time":7,"i_lat":-7.74111,"is_transit":false,"line":7,"station_name":"Srowot","i_long":110.548972,"station_id":"SWT","distance":5850,"transit":false},{"i_lat":-7.712087,"distance":6738,"is_transit":false,"i_long":110.602981,"time":8,"line":7,"transit":false,"station_id":"KT","station_name":"Klaten"},{"distance":9279,"is_transit":false,"station_id":"CE","i_long":110.674861,"station_name":"Ceper","time":9,"transit":false,"i_lat":-7.668597,"line":7},{"i_lat":-7.62181,"distance":6271,"i_long":110.706679,"station_id":"DL","station_name":"Delanggu","time":7,"transit":false,"is_transit":false,"line":7},{"i_lat":-7.589036,"transit":false,"station_id":"GW","station_name":"Gawok","distance":5543,"i_long":110.744432,"line":7,"is_transit":false,"time":6}]]}