{"data":[[{"line":7,"i_lat":-7.788961,"distance":0,"is_transit":false,"transit":false,"time":0,"station_name":"Yogyakarta","i_long":110.36345,"station_id":"YK"},{"station_name":"Lempuyangan","i_lat":-7.790018,"distance":1307,"is_transit":false,"station_id":"LPN","line":7,"transit":false,"time":6,"i_long":110.375434},{"i_lat":-7.784476,"station_id":"MGW","station_name":"Maguwo","is_transit":false,"transit":false,"line":7,"i_long":110.436791,"time":7,"distance":6799},{"station_id":"BBN","station_name":"Brambanan","i_long":110.500451,"line":0,"distance":7905,"i_lat":-7.756284,"transit":false,"time":8,"is_transit":false},{"is_transit":false,"station_name":"Srowot","time":7,"line":7,"i_long":110.548972,"transit":false,"i_lat":-7.74111,"distance":5850,"station_id":"SWT"},{"station_id":"KT","transit":false,"time":8,"line":7,"i_long":110.602981,"station_name":"Klaten","i_lat":-7.712087,"distance":6738,"is_transit":false},{"time":9,"transit":false,"station_id":"CE","station_name":"Ceper","i_long":110.674861,"distance":9279,"is_transit":false,"i_lat":-7.668597,"line":0},{"line":0,"i_lat":-7.62181,"transit":false,"time":7,"i_long":110.706679,"distance":6271,"is_transit":false,"station_name":"Delanggu","station_id":"DL"},{"station_name":"Gawok","transit":false,"station_id":"GW","i_lat":-7.589036,"distance":5543,"is_transit":false,"line":7,"i_long":110.744432,"time":6}]]}