{"data":[[{"line":7,"time":0,"station_name":"Yogyakarta","transit":false,"i_long":110.36345,"is_transit":false,"i_lat":-7.788961,"distance":0,"station_id":"YK"},{"distance":4241,"line":7,"i_lat":-7.790605,"time":5,"transit":false,"is_transit":false,"station_name":"Patukan","station_id":"PTN","i_long":110.32542},{"is_transit":false,"line":7,"distance":4579,"i_lat":-7.797702,"i_long":110.279205,"time":4,"transit":false,"station_name":"Rewulu","station_id":"RWL"},{"transit":false,"distance":9041,"time":8,"is_transit":false,"i_long":110.220122,"i_lat":-7.832939,"station_id":"STL","station_name":"Sentolo","line":0},{"i_lat":-7.859237,"line":7,"time":25,"distance":10145,"transit":false,"station_name":"Wates","is_transit":false,"i_long":110.158003,"station_id":"WT"},{"transit":false,"is_transit":false,"time":15,"i_lat":-7.861626,"i_long":110.040449,"station_id":"WJ","distance":13652,"station_name":"Wojo","line":7},{"is_transit":false,"transit":false,"line":0,"station_id":"JN","i_long":110.000548,"i_lat":-7.801845,"station_name":"Jenar","distance":8393,"time":10},{"station_id":"KTA","i_long":109.90723,"transit":false,"is_transit":false,"distance":10145,"time":16,"line":0,"station_name":"Kutoarjo","i_lat":-7.725824}]]}