{"data":[[{"distance":0,"time":0,"station_name":"Yogyakarta","station_id":"YK","is_transit":false,"line":7,"transit":false,"i_long":110.36345,"i_lat":-7.788961},{"line":7,"time":6,"transit":false,"station_name":"Lempuyangan","i_long":110.375434,"is_transit":false,"station_id":"LPN","i_lat":-7.790018,"distance":1307},{"station_id":"MGW","i_lat":-7.784476,"time":7,"is_transit":false,"transit":false,"i_long":110.436791,"station_name":"Maguwo","line":7,"distance":6799},{"line":0,"is_transit":false,"station_id":"BBN","station_name":"Brambanan","i_lat":-7.756284,"time":8,"distance":7905,"i_long":110.500451,"transit":false},{"i_lat":-7.74111,"transit":false,"i_long":110.548972,"distance":5850,"station_id":"SWT","time":7,"station_name":"Srowot","line":7,"is_transit":false},{"transit":false,"i_lat":-7.712087,"line":7,"i_long":110.602981,"distance":6738,"is_transit":false,"station_name":"Klaten","station_id":"KT","time":8}]]}