{"data":[[{"station_id":"YK","station_name":"Yogyakarta","is_transit":false,"i_lat":-7.788961,"distance":0,"line":7,"transit":false,"time":0,"i_long":110.36345},{"time":6,"i_lat":-7.790018,"i_long":110.375434,"line":7,"transit":false,"distance":1307,"station_name":"Lempuyangan","station_id":"LPN","is_transit":false},{"station_id":"MGW","is_transit":false,"time":7,"station_name":"Maguwo","i_lat":-7.784476,"line":7,"transit":false,"i_long":110.436791,"distance":6799},{"station_id":"BBN","i_long":110.500451,"i_lat":-7.756284,"station_name":"Brambanan","line":0,"distance":7905,"time":8,"is_transit":false,"transit":false},{"line":7,"station_name":"Srowot","is_transit":false,"transit":false,"station_id":"SWT","i_long":110.548972,"i_lat":-7.74111,"time":7,"distance":5850},{"station_name":"Klaten","is_transit":false,"i_lat":-7.712087,"line":7,"station_id":"KT","i_long":110.602981,"time":8,"distance":6738,"transit":false}]]}