{"data":[[{"line":7,"i_long":110.36345,"i_lat":-7.788961,"station_name":"Yogyakarta","is_transit":false,"station_id":"YK","distance":0,"transit":false,"time":0},{"station_name":"Patukan","i_long":110.32542,"station_id":"PTN","line":7,"i_lat":-7.790605,"transit":false,"time":5,"distance":4241,"is_transit":false},{"i_lat":-7.797702,"is_transit":false,"station_id":"RWL","station_name":"Rewulu","distance":4579,"i_long":110.279205,"transit":false,"time":4,"line":7},{"i_long":110.220122,"station_name":"Sentolo","transit":false,"i_lat":-7.832939,"line":0,"distance":9041,"station_id":"STL","is_transit":false,"time":8},{"station_name":"Wates","transit":false,"i_lat":-7.859237,"line":7,"time":25,"i_long":110.158003,"station_id":"WT","is_transit":false,"distance":10145},{"transit":false,"time":15,"line":7,"i_lat":-7.861626,"i_long":110.040449,"station_name":"Wojo","distance":13652,"is_transit":false,"station_id":"WJ"},{"i_long":110.000548,"time":10,"line":0,"station_name":"Jenar","i_lat":-7.801845,"station_id":"JN","distance":8393,"transit":false,"is_transit":false},{"station_name":"Kutoarjo","line":0,"is_transit":false,"distance":10145,"transit":false,"time":16,"i_lat":-7.725824,"i_long":109.90723,"station_id":"KTA"}]]}