{"data":[[{"station_name":"Yogyakarta","i_lat":-7.788961,"i_long":110.36345,"transit":false,"is_transit":false,"time":0,"line":7,"station_id":"YK","distance":0},{"time":6,"distance":1307,"i_long":110.375434,"line":7,"station_id":"LPN","i_lat":-7.790018,"transit":false,"station_name":"Lempuyangan","is_transit":false},{"transit":false,"i_long":110.436791,"line":7,"is_transit":false,"time":7,"station_name":"Maguwo","station_id":"MGW","i_lat":-7.784476,"distance":6799},{"station_name":"Brambanan","station_id":"BBN","distance":7905,"i_lat":-7.756284,"time":8,"i_long":110.500451,"line":0,"is_transit":false,"transit":false},{"is_transit":false,"station_id":"SWT","distance":5850,"transit":false,"time":7,"line":7,"i_lat":-7.74111,"i_long":110.548972,"station_name":"Srowot"},{"transit":false,"station_name":"Klaten","station_id":"KT","time":8,"distance":6738,"i_lat":-7.712087,"is_transit":false,"i_long":110.602981,"line":7}]]}