{"data":[[{"i_long":110.36345,"time":0,"transit":false,"station_id":"YK","i_lat":-7.788961,"station_name":"Yogyakarta","line":7,"is_transit":false,"distance":0},{"station_name":"Patukan","station_id":"PTN","line":7,"distance":4241,"i_long":110.32542,"transit":false,"is_transit":false,"time":5,"i_lat":-7.790605},{"time":4,"distance":4579,"station_name":"Rewulu","transit":false,"is_transit":false,"i_lat":-7.797702,"station_id":"RWL","i_long":110.279205,"line":7},{"line":0,"i_lat":-7.832939,"station_name":"Sentolo","transit":false,"i_long":110.220122,"time":8,"station_id":"STL","is_transit":false,"distance":9041},{"station_name":"Wates","i_lat":-7.859237,"is_transit":false,"i_long":110.158003,"station_id":"WT","distance":10145,"line":7,"transit":false,"time":25},{"distance":13652,"transit":false,"line":7,"station_name":"Wojo","is_transit":false,"i_lat":-7.861626,"i_long":110.040449,"time":15,"station_id":"WJ"},{"station_name":"Jenar","transit":false,"i_lat":-7.801845,"i_long":110.000548,"station_id":"JN","is_transit":false,"distance":8393,"line":0,"time":10},{"station_id":"KTA","i_long":109.90723,"is_transit":false,"transit":false,"station_name":"Kutoarjo","distance":10145,"i_lat":-7.725824,"line":0,"time":16}]]}