{"data":[[{"time":0,"station_name":"Yogyakarta","line":7,"transit":false,"distance":0,"station_id":"YK","is_transit":false,"i_lat":-7.788961,"i_long":110.36345},{"station_name":"Patukan","transit":false,"time":5,"distance":4241,"line":7,"station_id":"PTN","is_transit":false,"i_lat":-7.790605,"i_long":110.32542},{"station_id":"RWL","station_name":"Rewulu","time":4,"is_transit":false,"transit":false,"i_lat":-7.797702,"i_long":110.279205,"line":7,"distance":4579},{"transit":false,"distance":9041,"station_id":"STL","station_name":"Sentolo","i_lat":-7.832939,"i_long":110.220122,"is_transit":false,"time":8,"line":7},{"time":25,"line":7,"i_lat":-7.859237,"is_transit":false,"i_long":110.158003,"station_name":"Wates","distance":10145,"transit":false,"station_id":"WT"},{"i_lat":-7.861626,"line":7,"transit":false,"station_id":"WJ","distance":13652,"time":15,"i_long":110.040449,"is_transit":false,"station_name":"Wojo"},{"i_long":110.000548,"is_transit":false,"time":10,"i_lat":-7.801845,"distance":8393,"line":7,"station_name":"Jenar","transit":false,"station_id":"JN"},{"is_transit":false,"line":7,"i_lat":-7.725824,"transit":false,"station_name":"Kutoarjo","station_id":"KTA","time":16,"i_long":109.90723,"distance":10145}]]}