{"data":[[{"i_lat":-7.788961,"i_long":110.36345,"line":7,"station_name":"Yogyakarta","distance":0,"transit":false,"time":0,"is_transit":false,"station_id":"YK"},{"transit":false,"i_lat":-7.790018,"station_name":"Lempuyangan","distance":1307,"is_transit":false,"station_id":"LPN","line":7,"i_long":110.375434,"time":6},{"is_transit":false,"distance":6799,"i_long":110.436791,"i_lat":-7.784476,"transit":false,"time":7,"station_name":"Maguwo","line":7,"station_id":"MGW"},{"station_name":"Brambanan","distance":7905,"time":8,"i_lat":-7.756284,"is_transit":false,"station_id":"BBN","transit":false,"i_long":110.500451,"line":0},{"station_id":"SWT","line":7,"i_long":110.548972,"station_name":"Srowot","distance":5850,"is_transit":false,"transit":false,"i_lat":-7.74111,"time":7},{"distance":6738,"station_name":"Klaten","time":8,"is_transit":false,"i_long":110.602981,"station_id":"KT","i_lat":-7.712087,"line":7,"transit":false}]]}