{"data":[[{"time":0,"line":7,"is_transit":false,"i_long":110.36345,"transit":false,"distance":0,"i_lat":-7.788961,"station_name":"Yogyakarta","station_id":"YK"},{"i_long":110.375434,"station_id":"LPN","transit":false,"distance":1307,"is_transit":false,"station_name":"Lempuyangan","time":6,"i_lat":-7.790018,"line":7},{"i_long":110.436791,"station_name":"Maguwo","time":7,"station_id":"MGW","is_transit":false,"i_lat":-7.784476,"line":7,"transit":false,"distance":6799},{"transit":false,"station_id":"BBN","is_transit":false,"station_name":"Brambanan","time":8,"i_lat":-7.756284,"distance":7905,"i_long":110.500451,"line":0},{"time":7,"station_name":"Srowot","station_id":"SWT","i_lat":-7.74111,"i_long":110.548972,"distance":5850,"line":7,"transit":false,"is_transit":false},{"is_transit":false,"line":7,"station_id":"KT","i_lat":-7.712087,"station_name":"Klaten","distance":6738,"time":8,"transit":false,"i_long":110.602981},{"i_long":110.674861,"line":7,"distance":9279,"i_lat":-7.668597,"transit":false,"station_id":"CE","is_transit":false,"time":9,"station_name":"Ceper"},{"time":7,"distance":6271,"line":7,"station_id":"DL","i_long":110.706679,"is_transit":false,"i_lat":-7.62181,"transit":false,"station_name":"Delanggu"},{"is_transit":false,"i_lat":-7.589036,"station_id":"GW","transit":false,"time":6,"station_name":"Gawok","distance":5543,"i_long":110.744432,"line":7},{"time":7,"station_id":"PWS","is_transit":false,"transit":false,"i_lat":-7.561362,"i_long":110.796655,"distance":6639,"station_name":"Purwosari","line":7},{"transit":false,"i_lat":-7.556783,"is_transit":false,"i_long":110.821471,"line":7,"time":6,"distance":2936,"station_name":"Solo Balapan","station_id":"SLO"},{"transit":false,"is_transit":false,"distance":2141,"i_lat":-7.56197,"i_long":110.839459,"line":7,"station_name":"Solo Jebres","time":10,"station_id":"SK"},{"line":0,"time":6,"is_transit":false,"station_id":"PL","distance":415,"transit":false,"i_lat":-7.567939,"station_name":"Palur","i_long":110.875516}]]}