{"data":[[{"distance":0,"station_name":"Yogyakarta","time":0,"i_long":110.36345,"station_id":"YK","transit":false,"is_transit":false,"line":7,"i_lat":-7.788961},{"station_id":"LPN","i_long":110.375434,"station_name":"Lempuyangan","i_lat":-7.790018,"time":6,"is_transit":false,"line":7,"transit":false,"distance":1307},{"station_id":"MGW","i_lat":-7.784476,"is_transit":false,"line":7,"i_long":110.436791,"distance":6799,"station_name":"Maguwo","transit":false,"time":7},{"transit":false,"distance":7905,"time":8,"line":0,"is_transit":false,"station_name":"Brambanan","i_lat":-7.756284,"i_long":110.500451,"station_id":"BBN"},{"is_transit":false,"transit":false,"station_name":"Srowot","station_id":"SWT","time":7,"i_lat":-7.74111,"i_long":110.548972,"line":7,"distance":5850},{"transit":false,"time":8,"i_long":110.602981,"is_transit":false,"station_id":"KT","i_lat":-7.712087,"line":7,"station_name":"Klaten","distance":6738},{"i_lat":-7.668597,"is_transit":false,"distance":9279,"transit":false,"line":0,"station_id":"CE","time":9,"i_long":110.674861,"station_name":"Ceper"},{"i_long":110.706679,"i_lat":-7.62181,"transit":false,"line":0,"is_transit":false,"distance":6271,"station_id":"DL","station_name":"Delanggu","time":7},{"line":7,"i_lat":-7.589036,"transit":false,"time":6,"i_long":110.744432,"is_transit":false,"station_id":"GW","distance":5543,"station_name":"Gawok"},{"is_transit":false,"line":7,"distance":6639,"time":7,"i_lat":-7.561362,"station_name":"Purwosari","transit":false,"i_long":110.796655,"station_id":"PWS"},{"is_transit":false,"transit":false,"i_long":110.821471,"station_id":"SLO","station_name":"Solo Balapan","distance":2936,"i_lat":-7.556783,"line":7,"time":6},{"is_transit":false,"station_id":"SK","i_long":110.839459,"i_lat":-7.56197,"line":7,"distance":2141,"station_name":"Solo Jebres","time":10,"transit":false},{"i_lat":-7.567939,"time":6,"i_long":110.875516,"distance":415,"station_name":"Palur","is_transit":false,"station_id":"PL","transit":false,"line":0}]]}