{"data":[[{"i_long":110.36345,"transit":false,"time":0,"is_transit":false,"distance":0,"i_lat":-7.788961,"line":7,"station_name":"Yogyakarta","station_id":"YK"},{"transit":false,"i_lat":-7.790018,"i_long":110.375434,"line":7,"time":6,"station_id":"LPN","station_name":"Lempuyangan","distance":1307,"is_transit":false},{"station_name":"Maguwo","i_long":110.436791,"transit":false,"distance":6799,"i_lat":-7.784476,"is_transit":false,"station_id":"MGW","time":7,"line":7},{"station_id":"BBN","station_name":"Brambanan","transit":false,"distance":7905,"i_lat":-7.756284,"is_transit":false,"line":0,"i_long":110.500451,"time":8},{"station_name":"Srowot","line":7,"is_transit":false,"station_id":"SWT","time":7,"distance":5850,"transit":false,"i_lat":-7.74111,"i_long":110.548972},{"i_lat":-7.712087,"i_long":110.602981,"line":7,"is_transit":false,"station_name":"Klaten","station_id":"KT","time":8,"distance":6738,"transit":false},{"i_lat":-7.668597,"time":9,"distance":9279,"station_id":"CE","station_name":"Ceper","is_transit":false,"transit":false,"i_long":110.674861,"line":7},{"line":7,"distance":6271,"station_id":"DL","transit":false,"i_lat":-7.62181,"i_long":110.706679,"is_transit":false,"time":7,"station_name":"Delanggu"},{"is_transit":false,"distance":5543,"station_name":"Gawok","i_lat":-7.589036,"line":7,"i_long":110.744432,"time":6,"transit":false,"station_id":"GW"},{"line":7,"i_long":110.796655,"time":7,"station_id":"PWS","distance":6639,"transit":false,"i_lat":-7.561362,"is_transit":false,"station_name":"Purwosari"},{"distance":2936,"station_id":"SLO","transit":false,"line":7,"i_lat":-7.556783,"i_long":110.821471,"station_name":"Solo Balapan","is_transit":false,"time":6},{"distance":2141,"transit":false,"i_lat":-7.56197,"is_transit":false,"time":10,"station_name":"Solo Jebres","i_long":110.839459,"line":7,"station_id":"SK"},{"time":6,"distance":415,"station_id":"PL","transit":false,"station_name":"Palur","line":0,"is_transit":false,"i_lat":-7.567939,"i_long":110.875516}]]}