{"data":[[{"is_transit":false,"time":0,"i_long":110.36345,"station_name":"Yogyakarta","distance":0,"station_id":"YK","line":7,"i_lat":-7.788961,"transit":false},{"distance":1307,"time":6,"i_lat":-7.790018,"station_name":"Lempuyangan","is_transit":false,"station_id":"LPN","i_long":110.375434,"transit":false,"line":7},{"i_long":110.436791,"station_id":"MGW","line":7,"distance":6799,"time":7,"is_transit":false,"i_lat":-7.784476,"transit":false,"station_name":"Maguwo"},{"transit":false,"station_id":"BBN","i_lat":-7.756284,"station_name":"Brambanan","i_long":110.500451,"line":0,"is_transit":false,"distance":7905,"time":8},{"distance":5850,"is_transit":false,"time":7,"station_id":"SWT","transit":false,"i_lat":-7.74111,"station_name":"Srowot","i_long":110.548972,"line":7},{"distance":6738,"station_id":"KT","i_long":110.602981,"i_lat":-7.712087,"transit":false,"is_transit":false,"line":7,"station_name":"Klaten","time":8},{"line":7,"distance":9279,"is_transit":false,"station_id":"CE","station_name":"Ceper","i_lat":-7.668597,"i_long":110.674861,"time":9,"transit":false},{"station_id":"DL","i_long":110.706679,"line":7,"transit":false,"time":7,"i_lat":-7.62181,"station_name":"Delanggu","distance":6271,"is_transit":false},{"distance":5543,"is_transit":false,"time":6,"transit":false,"i_lat":-7.589036,"line":7,"station_name":"Gawok","station_id":"GW","i_long":110.744432},{"time":7,"transit":false,"line":7,"i_lat":-7.561362,"i_long":110.796655,"station_id":"PWS","distance":6639,"station_name":"Purwosari","is_transit":false},{"station_name":"Solo Balapan","is_transit":false,"time":6,"transit":false,"distance":2936,"station_id":"SLO","i_long":110.821471,"i_lat":-7.556783,"line":7},{"line":7,"transit":false,"station_id":"SK","i_long":110.839459,"distance":2141,"station_name":"Solo Jebres","is_transit":false,"time":10,"i_lat":-7.56197},{"i_long":110.875516,"transit":false,"station_id":"PL","i_lat":-7.567939,"line":0,"distance":415,"station_name":"Palur","is_transit":false,"time":6}]]}